{"100":[{"stop_id":"U16608Z1","name":"Kyjov, aut. st.","arrival_time":"22:37:00","departure_time":"22:37:00","lat":49.006785,"lon":17.124327,"is_passed":false},{"stop_id":"U16612Z2","name":"Kyjov, nemocnice","arrival_time":"22:39:00","departure_time":"22:39:00","lat":49.007061,"lon":17.111463,"is_passed":false},{"stop_id":"U16622Z2","name":"Strážovice","arrival_time":"22:46:00","departure_time":"22:46:00","lat":49.0093,"lon":17.047132,"is_passed":false},{"stop_id":"U16635Z2","name":"Stavěšice","arrival_time":"22:50:00","departure_time":"22:50:00","lat":49.002007,"lon":17.02977,"is_passed":false},{"stop_id":"U16529Z2","name":"Nenkovice, škola","arrival_time":"22:53:00","departure_time":"22:53:00","lat":49.004683,"lon":17.01574,"is_passed":false},{"stop_id":"U16528Z2","name":"Nenkovice, obecní úřad","arrival_time":"22:54:00","departure_time":"22:54:00","lat":49.00398,"lon":17.011083,"is_passed":false},{"stop_id":"U16530Z2","name":"Nenkovice, u kašny","arrival_time":"22:55:00","departure_time":"22:55:00","lat":49.001835,"lon":17.008144,"is_passed":false},{"stop_id":"U16534Z2","name":"Želetice","arrival_time":"22:58:00","departure_time":"22:58:00","lat":49.012481,"lon":17.009044,"is_passed":false},{"stop_id":"U16533Z2","name":"Želetice, statek","arrival_time":"22:59:00","departure_time":"22:59:00","lat":49.015307,"lon":17.006765,"is_passed":false},{"stop_id":"U16437Z2","name":"Násedlovice, mlýn","arrival_time":"23:04:00","departure_time":"23:04:00","lat":49.007317,"lon":16.966767,"is_passed":false},{"stop_id":"U16438Z2","name":"Násedlovice, u hřiště","arrival_time":"23:06:00","departure_time":"23:06:00","lat":49.00918,"lon":16.958217,"is_passed":false},{"stop_id":"U16439Z2","name":"Násedlovice","arrival_time":"23:07:00","departure_time":"23:07:00","lat":49.012059,"lon":16.958993,"is_passed":false}],"1000":[{"stop_id":"U31034Z10","name":"Retz","arrival_time":"16:17:00","departure_time":"16:17:00","lat":48.753724,"lon":15.957444,"is_passed":false},{"stop_id":"U31033Z2","name":"Unterretzbach","arrival_time":"16:21:00","departure_time":"16:22:00","lat":48.764701,"lon":16.007784,"is_passed":false},{"stop_id":"U18168Z10","name":"Šatov, železniční stanice","arrival_time":"16:25:00","departure_time":"16:25:00","lat":48.780786,"lon":16.026006,"is_passed":false},{"stop_id":"U28001Z2","name":"Znojmo-Nový Šaldorf","arrival_time":"16:31:00","departure_time":"16:31:00","lat":48.820061,"lon":16.044266,"is_passed":false},{"stop_id":"U18009Z22","name":"Znojmo, autobusové nádraží","arrival_time":"16:36:00","departure_time":"16:36:00","lat":48.852761,"lon":16.059287,"is_passed":false}],"1001":[{"stop_id":"U18009Z23","name":"Znojmo, autobusové nádraží","arrival_time":"16:57:00","departure_time":"16:57:00","lat":48.852761,"lon":16.059287,"is_passed":false},{"stop_id":"U18168Z11","name":"Šatov, železniční stanice","arrival_time":"17:05:00","departure_time":"17:06:00","lat":48.780786,"lon":16.026006,"is_passed":false},{"stop_id":"U31033Z1","name":"Unterretzbach","arrival_time":"17:08:00","departure_time":"17:09:00","lat":48.764701,"lon":16.007784,"is_passed":false},{"stop_id":"U31034Z11","name":"Retz","arrival_time":"17:14:00","departure_time":"17:14:00","lat":48.753724,"lon":15.957444,"is_passed":false}],"1002":[{"stop_id":"U31034Z10","name":"Retz","arrival_time":"18:17:00","departure_time":"18:17:00","lat":48.753724,"lon":15.957444,"is_passed":false},{"stop_id":"U31033Z2","name":"Unterretzbach","arrival_time":"18:21:00","departure_time":"18:22:00","lat":48.764701,"lon":16.007784,"is_passed":false},{"stop_id":"U18168Z10","name":"Šatov, železniční stanice","arrival_time":"18:25:00","departure_time":"18:25:00","lat":48.780786,"lon":16.026006,"is_passed":false},{"stop_id":"U28001Z2","name":"Znojmo-Nový Šaldorf","arrival_time":"18:31:00","departure_time":"18:31:00","lat":48.820061,"lon":16.044266,"is_passed":false},{"stop_id":"U18009Z22","name":"Znojmo, autobusové nádraží","arrival_time":"18:36:00","departure_time":"18:36:00","lat":48.852761,"lon":16.059287,"is_passed":false}],"1003":[{"stop_id":"U18009Z23","name":"Znojmo, autobusové nádraží","arrival_time":"18:57:00","departure_time":"18:57:00","lat":48.852761,"lon":16.059287,"is_passed":false},{"stop_id":"U18168Z11","name":"Šatov, železniční stanice","arrival_time":"19:05:00","departure_time":"19:06:00","lat":48.780786,"lon":16.026006,"is_passed":false},{"stop_id":"U31033Z1","name":"Unterretzbach","arrival_time":"19:08:00","departure_time":"19:09:00","lat":48.764701,"lon":16.007784,"is_passed":false},{"stop_id":"U31034Z11","name":"Retz","arrival_time":"19:14:00","departure_time":"19:14:00","lat":48.753724,"lon":15.957444,"is_passed":false}],"1004":[{"stop_id":"U31034Z10","name":"Retz","arrival_time":"20:17:00","departure_time":"20:17:00","lat":48.753724,"lon":15.957444,"is_passed":false},{"stop_id":"U31033Z2","name":"Unterretzbach","arrival_time":"20:21:00","departure_time":"20:22:00","lat":48.764701,"lon":16.007784,"is_passed":false},{"stop_id":"U18168Z10","name":"Šatov, železniční stanice","arrival_time":"20:25:00","departure_time":"20:25:00","lat":48.780786,"lon":16.026006,"is_passed":false},{"stop_id":"U28001Z2","name":"Znojmo-Nový Šaldorf","arrival_time":"20:31:00","departure_time":"20:31:00","lat":48.820061,"lon":16.044266,"is_passed":false},{"stop_id":"U18009Z22","name":"Znojmo, autobusové nádraží","arrival_time":"20:36:00","departure_time":"20:36:00","lat":48.852761,"lon":16.059287,"is_passed":false}],"1005":[{"stop_id":"U18009Z23","name":"Znojmo, autobusové nádraží","arrival_time":"20:57:00","departure_time":"20:57:00","lat":48.852761,"lon":16.059287,"is_passed":false},{"stop_id":"U18168Z11","name":"Šatov, železniční stanice","arrival_time":"21:05:00","departure_time":"21:06:00","lat":48.780786,"lon":16.026006,"is_passed":false},{"stop_id":"U31033Z1","name":"Unterretzbach","arrival_time":"21:08:00","departure_time":"21:09:00","lat":48.764701,"lon":16.007784,"is_passed":false},{"stop_id":"U31034Z11","name":"Retz","arrival_time":"21:14:00","departure_time":"21:14:00","lat":48.753724,"lon":15.957444,"is_passed":false}],"1006":[{"stop_id":"U18009Z22","name":"Znojmo, autobusové nádraží","arrival_time":"4:52:00","departure_time":"4:52:00","lat":48.852761,"lon":16.059287,"is_passed":false},{"stop_id":"U28002Z10","name":"Znojmo nemocnice","arrival_time":"4:54:00","departure_time":"4:55:00","lat":48.865504,"lon":16.048394,"is_passed":false},{"stop_id":"U18259Z10","name":"Šumná, železniční stanice","arrival_time":"5:10:00","departure_time":"5:11:00","lat":48.923097,"lon":15.874306,"is_passed":false},{"stop_id":"U18339Z10","name":"Grešlové Mýto, železniční stanice","arrival_time":"5:18:00","departure_time":"5:19:00","lat":48.98455,"lon":15.874436,"is_passed":false},{"stop_id":"U28401Z10","name":"Blížkovice","arrival_time":"5:21:00","departure_time":"5:22:00","lat":49.004292,"lon":15.854364,"is_passed":false},{"stop_id":"U28502Z10","name":"Moravské Budějovice","arrival_time":"5:29:00","departure_time":"5:30:00","lat":49.057522,"lon":15.809326,"is_passed":false}],"1007":[{"stop_id":"U18009Z22","name":"Znojmo, autobusové nádraží","arrival_time":"5:36:00","departure_time":"5:36:00","lat":48.852761,"lon":16.059287,"is_passed":false},{"stop_id":"U28002Z10","name":"Znojmo nemocnice","arrival_time":"5:39:00","departure_time":"5:39:00","lat":48.865504,"lon":16.048394,"is_passed":false},{"stop_id":"U28103Z10","name":"Citonice","arrival_time":"5:46:00","departure_time":"5:46:00","lat":48.878906,"lon":15.977467,"is_passed":false},{"stop_id":"U18158Z10","name":"Olbramkostel, železniční stanice","arrival_time":"5:51:00","departure_time":"5:51:00","lat":48.903229,"lon":15.949177,"is_passed":false},{"stop_id":"U18259Z10","name":"Šumná, železniční stanice","arrival_time":"5:58:00","departure_time":"6:00:00","lat":48.923097,"lon":15.874306,"is_passed":false},{"stop_id":"U18339Z10","name":"Grešlové Mýto, železniční stanice","arrival_time":"6:07:00","departure_time":"6:08:00","lat":48.98455,"lon":15.874436,"is_passed":false},{"stop_id":"U28401Z10","name":"Blížkovice","arrival_time":"6:11:00","departure_time":"6:12:00","lat":49.004292,"lon":15.854364,"is_passed":false},{"stop_id":"U28501Z10","name":"Vesce","arrival_time":"6:15:00","departure_time":"6:15:00","lat":49.019071,"lon":15.831277,"is_passed":false},{"stop_id":"U28502Z10","name":"Moravské Budějovice","arrival_time":"6:21:00","departure_time":"6:22:00","lat":49.057522,"lon":15.809326,"is_passed":false}],"1008":[{"stop_id":"U18009Z22","name":"Znojmo, autobusové nádraží","arrival_time":"7:38:00","departure_time":"7:38:00","lat":48.852761,"lon":16.059287,"is_passed":false},{"stop_id":"U28002Z10","name":"Znojmo nemocnice","arrival_time":"7:41:00","departure_time":"7:41:00","lat":48.865504,"lon":16.048394,"is_passed":false},{"stop_id":"U28103Z10","name":"Citonice","arrival_time":"7:47:00","departure_time":"7:47:00","lat":48.878906,"lon":15.977467,"is_passed":false},{"stop_id":"U18158Z10","name":"Olbramkostel, železniční stanice","arrival_time":"7:52:00","departure_time":"7:53:00","lat":48.903229,"lon":15.949177,"is_passed":false},{"stop_id":"U18259Z10","name":"Šumná, železniční stanice","arrival_time":"8:00:00","departure_time":"8:00:00","lat":48.923097,"lon":15.874306,"is_passed":false},{"stop_id":"U18339Z10","name":"Grešlové Mýto, železniční stanice","arrival_time":"8:08:00","departure_time":"8:08:00","lat":48.98455,"lon":15.874436,"is_passed":false},{"stop_id":"U28401Z10","name":"Blížkovice","arrival_time":"8:11:00","departure_time":"8:12:00","lat":49.004292,"lon":15.854364,"is_passed":false},{"stop_id":"U28501Z10","name":"Vesce","arrival_time":"8:15:00","departure_time":"8:15:00","lat":49.019071,"lon":15.831277,"is_passed":false},{"stop_id":"U28502Z10","name":"Moravské Budějovice","arrival_time":"8:21:00","departure_time":"8:22:00","lat":49.057522,"lon":15.809326,"is_passed":false}],"1009":[{"stop_id":"U18009Z22","name":"Znojmo, autobusové nádraží","arrival_time":"9:38:00","departure_time":"9:38:00","lat":48.852761,"lon":16.059287,"is_passed":false},{"stop_id":"U28002Z10","name":"Znojmo nemocnice","arrival_time":"9:41:00","departure_time":"9:41:00","lat":48.865504,"lon":16.048394,"is_passed":false},{"stop_id":"U28103Z10","name":"Citonice","arrival_time":"9:47:00","departure_time":"9:47:00","lat":48.878906,"lon":15.977467,"is_passed":false},{"stop_id":"U18158Z10","name":"Olbramkostel, železniční stanice","arrival_time":"9:52:00","departure_time":"9:53:00","lat":48.903229,"lon":15.949177,"is_passed":false},{"stop_id":"U18259Z10","name":"Šumná, železniční stanice","arrival_time":"10:00:00","departure_time":"10:00:00","lat":48.923097,"lon":15.874306,"is_passed":false},{"stop_id":"U18339Z10","name":"Grešlové Mýto, železniční stanice","arrival_time":"10:08:00","departure_time":"10:08:00","lat":48.98455,"lon":15.874436,"is_passed":false},{"stop_id":"U28401Z10","name":"Blížkovice","arrival_time":"10:11:00","departure_time":"10:12:00","lat":49.004292,"lon":15.854364,"is_passed":false},{"stop_id":"U28501Z10","name":"Vesce","arrival_time":"10:15:00","departure_time":"10:15:00","lat":49.019071,"lon":15.831277,"is_passed":false},{"stop_id":"U28502Z10","name":"Moravské Budějovice","arrival_time":"10:21:00","departure_time":"10:22:00","lat":49.057522,"lon":15.809326,"is_passed":false}],"10000":[{"stop_id":"U13334Z21","name":"Tišnov, železniční stanice","arrival_time":"14:59:00","departure_time":"14:59:00","lat":49.3475,"lon":16.41725,"is_passed":false},{"stop_id":"U13306Z11","name":"Hradčany, železniční stanice","arrival_time":"15:01:00","departure_time":"15:02:00","lat":49.333878,"lon":16.437893,"is_passed":false},{"stop_id":"U13206Z11","name":"Čebín, železniční stanice","arrival_time":"15:04:00","departure_time":"15:05:00","lat":49.319722,"lon":16.465278,"is_passed":false},{"stop_id":"U13143Z11","name":"Kuřim, železniční stanice","arrival_time":"15:10:00","departure_time":"15:11:00","lat":49.301,"lon":16.534523,"is_passed":false},{"stop_id":"U13109Z11","name":"Česká, železniční stanice","arrival_time":"15:13:00","departure_time":"15:14:00","lat":49.284546,"lon":16.566731,"is_passed":false},{"stop_id":"U1557Z11","name":"Řečkovice, nádraží","arrival_time":"15:18:00","departure_time":"15:18:00","lat":49.250794,"lon":16.590446,"is_passed":false},{"stop_id":"U1286Z11","name":"Královo Pole, nádraží","arrival_time":"15:21:00","departure_time":"15:22:00","lat":49.231051,"lon":16.596651,"is_passed":false},{"stop_id":"U1331Z11","name":"Lesná, nádraží","arrival_time":"15:24:00","departure_time":"15:25:00","lat":49.220432,"lon":16.627505,"is_passed":false},{"stop_id":"U1809Z11","name":"Židenice, nádraží","arrival_time":"15:31:00","departure_time":"15:31:00","lat":49.204282,"lon":16.636042,"is_passed":false},{"stop_id":"U1146Z98","name":"Hlavní nádraží","arrival_time":"15:36:00","departure_time":"15:38:00","lat":49.19035,"lon":16.612342,"is_passed":false},{"stop_id":"U15140Z11","name":"Modřice, železniční stanice","arrival_time":"15:44:00","departure_time":"15:45:00","lat":49.133256,"lon":16.606209,"is_passed":false},{"stop_id":"U15135Z11","name":"Popovice, u tratě","arrival_time":"15:47:00","departure_time":"15:48:00","lat":49.103463,"lon":16.605647,"is_passed":false},{"stop_id":"U15181Z11","name":"Rajhrad, železniční stanice","arrival_time":"15:50:00","departure_time":"15:50:00","lat":49.084966,"lon":16.60532,"is_passed":false},{"stop_id":"U25201Z11","name":"Vojkovice nad Svratkou, žel. st.","arrival_time":"15:53:00","departure_time":"15:54:00","lat":49.056208,"lon":16.597445,"is_passed":false},{"stop_id":"U15222Z11","name":"Hrušovany u Brna, žel. st.","arrival_time":"15:56:00","departure_time":"16:01:00","lat":49.034228,"lon":16.591501,"is_passed":false},{"stop_id":"U15241Z22","name":"Židlochovice, železniční stanice","arrival_time":"16:05:00","departure_time":"16:54:00","lat":49.033178,"lon":16.617165,"is_passed":false}],"10001":[{"stop_id":"U15241Z21","name":"Židlochovice, železniční stanice","arrival_time":"16:54:00","departure_time":"16:54:00","lat":49.033113,"lon":16.617218,"is_passed":false},{"stop_id":"U15222Z10","name":"Hrušovany u Brna, žel. st.","arrival_time":"16:57:00","departure_time":"16:59:00","lat":49.034228,"lon":16.591501,"is_passed":false},{"stop_id":"U25201Z10","name":"Vojkovice nad Svratkou, žel. st.","arrival_time":"17:01:00","departure_time":"17:02:00","lat":49.056208,"lon":16.597445,"is_passed":false},{"stop_id":"U15181Z10","name":"Rajhrad, železniční stanice","arrival_time":"17:04:00","departure_time":"17:05:00","lat":49.084966,"lon":16.60532,"is_passed":false},{"stop_id":"U15135Z10","name":"Popovice, u tratě","arrival_time":"17:07:00","departure_time":"17:07:00","lat":49.103463,"lon":16.605647,"is_passed":false},{"stop_id":"U15140Z10","name":"Modřice, železniční stanice","arrival_time":"17:10:00","departure_time":"17:11:00","lat":49.133256,"lon":16.606209,"is_passed":false},{"stop_id":"U1146Z99","name":"Hlavní nádraží","arrival_time":"17:18:00","departure_time":"17:23:00","lat":49.19035,"lon":16.612342,"is_passed":false},{"stop_id":"U1809Z10","name":"Židenice, nádraží","arrival_time":"17:26:00","departure_time":"17:27:00","lat":49.204282,"lon":16.636042,"is_passed":false},{"stop_id":"U1331Z10","name":"Lesná, nádraží","arrival_time":"17:32:00","departure_time":"17:33:00","lat":49.220432,"lon":16.627505,"is_passed":false},{"stop_id":"U1286Z10","name":"Královo Pole, nádraží","arrival_time":"17:36:00","departure_time":"17:37:00","lat":49.231051,"lon":16.596651,"is_passed":false},{"stop_id":"U1557Z10","name":"Řečkovice, nádraží","arrival_time":"17:39:00","departure_time":"17:40:00","lat":49.250794,"lon":16.590446,"is_passed":false},{"stop_id":"U13109Z10","name":"Česká, železniční stanice","arrival_time":"17:43:00","departure_time":"17:44:00","lat":49.284546,"lon":16.566731,"is_passed":false},{"stop_id":"U13143Z10","name":"Kuřim, železniční stanice","arrival_time":"17:47:00","departure_time":"17:48:00","lat":49.301,"lon":16.534523,"is_passed":false},{"stop_id":"U13206Z10","name":"Čebín, železniční stanice","arrival_time":"17:53:00","departure_time":"17:53:00","lat":49.319722,"lon":16.465278,"is_passed":false},{"stop_id":"U13306Z10","name":"Hradčany, železniční stanice","arrival_time":"17:56:00","departure_time":"17:56:00","lat":49.334153,"lon":16.437807,"is_passed":false},{"stop_id":"U13334Z20","name":"Tišnov, železniční stanice","arrival_time":"17:59:00","departure_time":"18:59:00","lat":49.3475,"lon":16.41725,"is_passed":false}],"10002":[{"stop_id":"U13334Z21","name":"Tišnov, železniční stanice","arrival_time":"18:59:00","departure_time":"18:59:00","lat":49.3475,"lon":16.41725,"is_passed":false},{"stop_id":"U13306Z11","name":"Hradčany, železniční stanice","arrival_time":"19:01:00","departure_time":"19:02:00","lat":49.333878,"lon":16.437893,"is_passed":false},{"stop_id":"U13206Z11","name":"Čebín, železniční stanice","arrival_time":"19:04:00","departure_time":"19:05:00","lat":49.319722,"lon":16.465278,"is_passed":false},{"stop_id":"U13143Z11","name":"Kuřim, železniční stanice","arrival_time":"19:10:00","departure_time":"19:11:00","lat":49.301,"lon":16.534523,"is_passed":false},{"stop_id":"U13109Z11","name":"Česká, železniční stanice","arrival_time":"19:13:00","departure_time":"19:14:00","lat":49.284546,"lon":16.566731,"is_passed":false},{"stop_id":"U1557Z11","name":"Řečkovice, nádraží","arrival_time":"19:18:00","departure_time":"19:18:00","lat":49.250794,"lon":16.590446,"is_passed":false},{"stop_id":"U1286Z11","name":"Královo Pole, nádraží","arrival_time":"19:21:00","departure_time":"19:22:00","lat":49.231051,"lon":16.596651,"is_passed":false},{"stop_id":"U1331Z11","name":"Lesná, nádraží","arrival_time":"19:24:00","departure_time":"19:25:00","lat":49.220432,"lon":16.627505,"is_passed":false},{"stop_id":"U1809Z11","name":"Židenice, nádraží","arrival_time":"19:31:00","departure_time":"19:31:00","lat":49.204282,"lon":16.636042,"is_passed":false},{"stop_id":"U1146Z98","name":"Hlavní nádraží","arrival_time":"19:36:00","departure_time":"19:38:00","lat":49.19035,"lon":16.612342,"is_passed":false},{"stop_id":"U15140Z11","name":"Modřice, železniční stanice","arrival_time":"19:44:00","departure_time":"19:45:00","lat":49.133256,"lon":16.606209,"is_passed":false},{"stop_id":"U15135Z11","name":"Popovice, u tratě","arrival_time":"19:48:00","departure_time":"19:48:00","lat":49.103463,"lon":16.605647,"is_passed":false},{"stop_id":"U15181Z11","name":"Rajhrad, železniční stanice","arrival_time":"19:50:00","departure_time":"19:51:00","lat":49.084966,"lon":16.60532,"is_passed":false},{"stop_id":"U25201Z11","name":"Vojkovice nad Svratkou, žel. st.","arrival_time":"19:54:00","departure_time":"19:54:00","lat":49.056208,"lon":16.597445,"is_passed":false},{"stop_id":"U15222Z11","name":"Hrušovany u Brna, žel. st.","arrival_time":"19:57:00","departure_time":"19:58:00","lat":49.034228,"lon":16.591501,"is_passed":false},{"stop_id":"U15241Z22","name":"Židlochovice, železniční stanice","arrival_time":"20:02:00","departure_time":"20:55:00","lat":49.033178,"lon":16.617165,"is_passed":false}],"10003":[{"stop_id":"U15241Z21","name":"Židlochovice, železniční stanice","arrival_time":"20:55:00","departure_time":"20:55:00","lat":49.033113,"lon":16.617218,"is_passed":false},{"stop_id":"U15222Z10","name":"Hrušovany u Brna, žel. st.","arrival_time":"20:58:00","departure_time":"20:59:00","lat":49.034228,"lon":16.591501,"is_passed":false},{"stop_id":"U25201Z10","name":"Vojkovice nad Svratkou, žel. st.","arrival_time":"21:02:00","departure_time":"21:02:00","lat":49.056208,"lon":16.597445,"is_passed":false},{"stop_id":"U15181Z10","name":"Rajhrad, železniční stanice","arrival_time":"21:05:00","departure_time":"21:05:00","lat":49.084966,"lon":16.60532,"is_passed":false},{"stop_id":"U15135Z10","name":"Popovice, u tratě","arrival_time":"21:07:00","departure_time":"21:08:00","lat":49.103463,"lon":16.605647,"is_passed":false},{"stop_id":"U15140Z10","name":"Modřice, železniční stanice","arrival_time":"21:11:00","departure_time":"21:11:00","lat":49.133256,"lon":16.606209,"is_passed":false},{"stop_id":"U1146Z99","name":"Hlavní nádraží","arrival_time":"21:18:00","departure_time":"21:42:00","lat":49.19035,"lon":16.612342,"is_passed":false}],"10004":[{"stop_id":"U1146Z98","name":"Hlavní nádraží","arrival_time":"21:42:00","departure_time":"21:42:00","lat":49.19035,"lon":16.612342,"is_passed":false},{"stop_id":"U15140Z11","name":"Modřice, železniční stanice","arrival_time":"21:48:00","departure_time":"21:49:00","lat":49.133256,"lon":16.606209,"is_passed":false},{"stop_id":"U15135Z11","name":"Popovice, u tratě","arrival_time":"21:51:00","departure_time":"21:52:00","lat":49.103463,"lon":16.605647,"is_passed":false},{"stop_id":"U15181Z11","name":"Rajhrad, železniční stanice","arrival_time":"21:54:00","departure_time":"21:54:00","lat":49.084966,"lon":16.60532,"is_passed":false},{"stop_id":"U25201Z11","name":"Vojkovice nad Svratkou, žel. st.","arrival_time":"21:57:00","departure_time":"21:58:00","lat":49.056208,"lon":16.597445,"is_passed":false},{"stop_id":"U15222Z11","name":"Hrušovany u Brna, žel. st.","arrival_time":"22:00:00","departure_time":"22:01:00","lat":49.034228,"lon":16.591501,"is_passed":false},{"stop_id":"U15241Z22","name":"Židlochovice, železniční stanice","arrival_time":"22:05:00","departure_time":"22:05:00","lat":49.033178,"lon":16.617165,"is_passed":false}],"10005":[{"stop_id":"U15241Z21","name":"Židlochovice, železniční stanice","arrival_time":"5:54:00","departure_time":"5:54:00","lat":49.033113,"lon":16.617218,"is_passed":false},{"stop_id":"U15222Z10","name":"Hrušovany u Brna, žel. st.","arrival_time":"5:57:00","departure_time":"5:59:00","lat":49.034228,"lon":16.591501,"is_passed":false},{"stop_id":"U25201Z10","name":"Vojkovice nad Svratkou, žel. st.","arrival_time":"6:01:00","departure_time":"6:02:00","lat":49.056208,"lon":16.597445,"is_passed":false},{"stop_id":"U15181Z10","name":"Rajhrad, železniční stanice","arrival_time":"6:04:00","departure_time":"6:05:00","lat":49.084966,"lon":16.60532,"is_passed":false},{"stop_id":"U15135Z10","name":"Popovice, u tratě","arrival_time":"6:07:00","departure_time":"6:07:00","lat":49.103463,"lon":16.605647,"is_passed":false},{"stop_id":"U15140Z10","name":"Modřice, železniční stanice","arrival_time":"6:10:00","departure_time":"6:11:00","lat":49.133256,"lon":16.606209,"is_passed":false},{"stop_id":"U1146Z99","name":"Hlavní nádraží","arrival_time":"6:18:00","departure_time":"6:23:00","lat":49.19035,"lon":16.612342,"is_passed":false},{"stop_id":"U1809Z10","name":"Židenice, nádraží","arrival_time":"6:26:00","departure_time":"6:27:00","lat":49.204282,"lon":16.636042,"is_passed":false},{"stop_id":"U1331Z10","name":"Lesná, nádraží","arrival_time":"6:32:00","departure_time":"6:33:00","lat":49.220432,"lon":16.627505,"is_passed":false},{"stop_id":"U1286Z10","name":"Královo Pole, nádraží","arrival_time":"6:36:00","departure_time":"6:37:00","lat":49.231051,"lon":16.596651,"is_passed":false},{"stop_id":"U1557Z10","name":"Řečkovice, nádraží","arrival_time":"6:39:00","departure_time":"6:40:00","lat":49.250794,"lon":16.590446,"is_passed":false},{"stop_id":"U13109Z10","name":"Česká, železniční stanice","arrival_time":"6:43:00","departure_time":"6:44:00","lat":49.284546,"lon":16.566731,"is_passed":false},{"stop_id":"U13143Z10","name":"Kuřim, železniční stanice","arrival_time":"6:47:00","departure_time":"6:48:00","lat":49.301,"lon":16.534523,"is_passed":false},{"stop_id":"U13206Z10","name":"Čebín, železniční stanice","arrival_time":"6:53:00","departure_time":"6:53:00","lat":49.319722,"lon":16.465278,"is_passed":false},{"stop_id":"U13306Z10","name":"Hradčany, železniční stanice","arrival_time":"6:56:00","departure_time":"6:56:00","lat":49.334153,"lon":16.437807,"is_passed":false},{"stop_id":"U13334Z20","name":"Tišnov, železniční stanice","arrival_time":"6:59:00","departure_time":"7:59:00","lat":49.3475,"lon":16.41725,"is_passed":false}],"10006":[{"stop_id":"U13334Z21","name":"Tišnov, železniční stanice","arrival_time":"7:59:00","departure_time":"7:59:00","lat":49.3475,"lon":16.41725,"is_passed":false},{"stop_id":"U13306Z11","name":"Hradčany, železniční stanice","arrival_time":"8:01:00","departure_time":"8:02:00","lat":49.333878,"lon":16.437893,"is_passed":false},{"stop_id":"U13206Z11","name":"Čebín, železniční stanice","arrival_time":"8:04:00","departure_time":"8:05:00","lat":49.319722,"lon":16.465278,"is_passed":false},{"stop_id":"U13143Z11","name":"Kuřim, železniční stanice","arrival_time":"8:10:00","departure_time":"8:11:00","lat":49.301,"lon":16.534523,"is_passed":false},{"stop_id":"U13109Z11","name":"Česká, železniční stanice","arrival_time":"8:13:00","departure_time":"8:14:00","lat":49.284546,"lon":16.566731,"is_passed":false},{"stop_id":"U1557Z11","name":"Řečkovice, nádraží","arrival_time":"8:18:00","departure_time":"8:18:00","lat":49.250794,"lon":16.590446,"is_passed":false},{"stop_id":"U1286Z11","name":"Královo Pole, nádraží","arrival_time":"8:21:00","departure_time":"8:22:00","lat":49.231051,"lon":16.596651,"is_passed":false},{"stop_id":"U1331Z11","name":"Lesná, nádraží","arrival_time":"8:24:00","departure_time":"8:25:00","lat":49.220432,"lon":16.627505,"is_passed":false},{"stop_id":"U1809Z11","name":"Židenice, nádraží","arrival_time":"8:31:00","departure_time":"8:31:00","lat":49.204282,"lon":16.636042,"is_passed":false},{"stop_id":"U1146Z98","name":"Hlavní nádraží","arrival_time":"8:36:00","departure_time":"8:38:00","lat":49.19035,"lon":16.612342,"is_passed":false},{"stop_id":"U15140Z11","name":"Modřice, železniční stanice","arrival_time":"8:44:00","departure_time":"8:45:00","lat":49.133256,"lon":16.606209,"is_passed":false},{"stop_id":"U15135Z11","name":"Popovice, u tratě","arrival_time":"8:47:00","departure_time":"8:48:00","lat":49.103463,"lon":16.605647,"is_passed":false},{"stop_id":"U15181Z11","name":"Rajhrad, železniční stanice","arrival_time":"8:50:00","departure_time":"8:51:00","lat":49.084966,"lon":16.60532,"is_passed":false},{"stop_id":"U25201Z11","name":"Vojkovice nad Svratkou, žel. st.","arrival_time":"8:54:00","departure_time":"8:54:00","lat":49.056208,"lon":16.597445,"is_passed":false},{"stop_id":"U15222Z11","name":"Hrušovany u Brna, žel. st.","arrival_time":"8:57:00","departure_time":"8:58:00","lat":49.034228,"lon":16.591501,"is_passed":false},{"stop_id":"U15241Z22","name":"Židlochovice, železniční stanice","arrival_time":"9:02:00","departure_time":"9:57:00","lat":49.033178,"lon":16.617165,"is_passed":false}],"10007":[{"stop_id":"U15241Z21","name":"Židlochovice, železniční stanice","arrival_time":"9:57:00","departure_time":"9:57:00","lat":49.033113,"lon":16.617218,"is_passed":false},{"stop_id":"U15222Z10","name":"Hrušovany u Brna, žel. st.","arrival_time":"10:00:00","departure_time":"10:01:00","lat":49.034228,"lon":16.591501,"is_passed":false},{"stop_id":"U25201Z10","name":"Vojkovice nad Svratkou, žel. st.","arrival_time":"10:03:00","departure_time":"10:04:00","lat":49.056208,"lon":16.597445,"is_passed":false},{"stop_id":"U15181Z10","name":"Rajhrad, železniční stanice","arrival_time":"10:07:00","departure_time":"10:08:00","lat":49.084966,"lon":16.60532,"is_passed":false},{"stop_id":"U15135Z10","name":"Popovice, u tratě","arrival_time":"10:10:00","departure_time":"10:10:00","lat":49.103463,"lon":16.605647,"is_passed":false},{"stop_id":"U15140Z10","name":"Modřice, železniční stanice","arrival_time":"10:13:00","departure_time":"10:14:00","lat":49.133256,"lon":16.606209,"is_passed":false},{"stop_id":"U1146Z99","name":"Hlavní nádraží","arrival_time":"10:21:00","departure_time":"10:23:00","lat":49.19035,"lon":16.612342,"is_passed":false},{"stop_id":"U1809Z10","name":"Židenice, nádraží","arrival_time":"10:26:00","departure_time":"10:27:00","lat":49.204282,"lon":16.636042,"is_passed":false},{"stop_id":"U1331Z10","name":"Lesná, nádraží","arrival_time":"10:32:00","departure_time":"10:33:00","lat":49.220432,"lon":16.627505,"is_passed":false},{"stop_id":"U1286Z10","name":"Královo Pole, nádraží","arrival_time":"10:36:00","departure_time":"10:37:00","lat":49.231051,"lon":16.596651,"is_passed":false},{"stop_id":"U1557Z10","name":"Řečkovice, nádraží","arrival_time":"10:39:00","departure_time":"10:40:00","lat":49.250794,"lon":16.590446,"is_passed":false},{"stop_id":"U13109Z10","name":"Česká, železniční stanice","arrival_time":"10:43:00","departure_time":"10:44:00","lat":49.284546,"lon":16.566731,"is_passed":false},{"stop_id":"U13143Z10","name":"Kuřim, železniční stanice","arrival_time":"10:47:00","departure_time":"10:48:00","lat":49.301,"lon":16.534523,"is_passed":false},{"stop_id":"U13206Z10","name":"Čebín, železniční stanice","arrival_time":"10:53:00","departure_time":"10:53:00","lat":49.319722,"lon":16.465278,"is_passed":false},{"stop_id":"U13306Z10","name":"Hradčany, železniční stanice","arrival_time":"10:56:00","departure_time":"10:56:00","lat":49.334153,"lon":16.437807,"is_passed":false},{"stop_id":"U13334Z20","name":"Tišnov, železniční stanice","arrival_time":"10:59:00","departure_time":"11:59:00","lat":49.3475,"lon":16.41725,"is_passed":false}],"10008":[{"stop_id":"U13334Z21","name":"Tišnov, železniční stanice","arrival_time":"11:59:00","departure_time":"11:59:00","lat":49.3475,"lon":16.41725,"is_passed":false},{"stop_id":"U13306Z11","name":"Hradčany, železniční stanice","arrival_time":"12:01:00","departure_time":"12:02:00","lat":49.333878,"lon":16.437893,"is_passed":false},{"stop_id":"U13206Z11","name":"Čebín, železniční stanice","arrival_time":"12:04:00","departure_time":"12:05:00","lat":49.319722,"lon":16.465278,"is_passed":false},{"stop_id":"U13143Z11","name":"Kuřim, železniční stanice","arrival_time":"12:10:00","departure_time":"12:11:00","lat":49.301,"lon":16.534523,"is_passed":false},{"stop_id":"U13109Z11","name":"Česká, železniční stanice","arrival_time":"12:13:00","departure_time":"12:14:00","lat":49.284546,"lon":16.566731,"is_passed":false},{"stop_id":"U1557Z11","name":"Řečkovice, nádraží","arrival_time":"12:18:00","departure_time":"12:18:00","lat":49.250794,"lon":16.590446,"is_passed":false},{"stop_id":"U1286Z11","name":"Královo Pole, nádraží","arrival_time":"12:21:00","departure_time":"12:22:00","lat":49.231051,"lon":16.596651,"is_passed":false},{"stop_id":"U1331Z11","name":"Lesná, nádraží","arrival_time":"12:24:00","departure_time":"12:25:00","lat":49.220432,"lon":16.627505,"is_passed":false},{"stop_id":"U1809Z11","name":"Židenice, nádraží","arrival_time":"12:31:00","departure_time":"12:31:00","lat":49.204282,"lon":16.636042,"is_passed":false},{"stop_id":"U1146Z98","name":"Hlavní nádraží","arrival_time":"12:36:00","departure_time":"12:40:00","lat":49.19035,"lon":16.612342,"is_passed":false},{"stop_id":"U15140Z11","name":"Modřice, železniční stanice","arrival_time":"12:46:00","departure_time":"12:47:00","lat":49.133256,"lon":16.606209,"is_passed":false},{"stop_id":"U15135Z11","name":"Popovice, u tratě","arrival_time":"12:49:00","departure_time":"12:50:00","lat":49.103463,"lon":16.605647,"is_passed":false},{"stop_id":"U15181Z11","name":"Rajhrad, železniční stanice","arrival_time":"12:52:00","departure_time":"12:52:00","lat":49.084966,"lon":16.60532,"is_passed":false},{"stop_id":"U25201Z11","name":"Vojkovice nad Svratkou, žel. st.","arrival_time":"12:55:00","departure_time":"12:56:00","lat":49.056208,"lon":16.597445,"is_passed":false},{"stop_id":"U15222Z11","name":"Hrušovany u Brna, žel. st.","arrival_time":"12:58:00","departure_time":"12:59:00","lat":49.034228,"lon":16.591501,"is_passed":false},{"stop_id":"U15241Z22","name":"Židlochovice, železniční stanice","arrival_time":"13:03:00","departure_time":"13:57:00","lat":49.033178,"lon":16.617165,"is_passed":false}],"10009":[{"stop_id":"U15241Z21","name":"Židlochovice, železniční stanice","arrival_time":"13:57:00","departure_time":"13:57:00","lat":49.033113,"lon":16.617218,"is_passed":false},{"stop_id":"U15222Z10","name":"Hrušovany u Brna, žel. st.","arrival_time":"14:00:00","departure_time":"14:01:00","lat":49.034228,"lon":16.591501,"is_passed":false},{"stop_id":"U25201Z10","name":"Vojkovice nad Svratkou, žel. st.","arrival_time":"14:04:00","departure_time":"14:04:00","lat":49.056208,"lon":16.597445,"is_passed":false},{"stop_id":"U15181Z10","name":"Rajhrad, železniční stanice","arrival_time":"14:07:00","departure_time":"14:08:00","lat":49.084966,"lon":16.60532,"is_passed":false},{"stop_id":"U15135Z10","name":"Popovice, u tratě","arrival_time":"14:10:00","departure_time":"14:10:00","lat":49.103463,"lon":16.605647,"is_passed":false},{"stop_id":"U15140Z10","name":"Modřice, železniční stanice","arrival_time":"14:13:00","departure_time":"14:14:00","lat":49.133256,"lon":16.606209,"is_passed":false},{"stop_id":"U1146Z99","name":"Hlavní nádraží","arrival_time":"14:21:00","departure_time":"14:23:00","lat":49.19035,"lon":16.612342,"is_passed":false},{"stop_id":"U1809Z10","name":"Židenice, nádraží","arrival_time":"14:26:00","departure_time":"14:27:00","lat":49.204282,"lon":16.636042,"is_passed":false},{"stop_id":"U1331Z10","name":"Lesná, nádraží","arrival_time":"14:32:00","departure_time":"14:33:00","lat":49.220432,"lon":16.627505,"is_passed":false},{"stop_id":"U1286Z10","name":"Královo Pole, nádraží","arrival_time":"14:36:00","departure_time":"14:37:00","lat":49.231051,"lon":16.596651,"is_passed":false},{"stop_id":"U1557Z10","name":"Řečkovice, nádraží","arrival_time":"14:39:00","departure_time":"14:40:00","lat":49.250794,"lon":16.590446,"is_passed":false},{"stop_id":"U13109Z10","name":"Česká, železniční stanice","arrival_time":"14:43:00","departure_time":"14:44:00","lat":49.284546,"lon":16.566731,"is_passed":false},{"stop_id":"U13143Z10","name":"Kuřim, železniční stanice","arrival_time":"14:47:00","departure_time":"14:48:00","lat":49.301,"lon":16.534523,"is_passed":false},{"stop_id":"U13206Z10","name":"Čebín, železniční stanice","arrival_time":"14:53:00","departure_time":"14:53:00","lat":49.319722,"lon":16.465278,"is_passed":false},{"stop_id":"U13306Z10","name":"Hradčany, železniční stanice","arrival_time":"14:56:00","departure_time":"14:56:00","lat":49.334153,"lon":16.437807,"is_passed":false},{"stop_id":"U13334Z20","name":"Tišnov, železniční stanice","arrival_time":"14:59:00","departure_time":"15:59:00","lat":49.3475,"lon":16.41725,"is_passed":false}],"10010":[{"stop_id":"U13334Z21","name":"Tišnov, železniční stanice","arrival_time":"15:59:00","departure_time":"15:59:00","lat":49.3475,"lon":16.41725,"is_passed":false},{"stop_id":"U13306Z11","name":"Hradčany, železniční stanice","arrival_time":"16:01:00","departure_time":"16:02:00","lat":49.333878,"lon":16.437893,"is_passed":false},{"stop_id":"U13206Z11","name":"Čebín, železniční stanice","arrival_time":"16:04:00","departure_time":"16:05:00","lat":49.319722,"lon":16.465278,"is_passed":false},{"stop_id":"U13143Z11","name":"Kuřim, železniční stanice","arrival_time":"16:10:00","departure_time":"16:11:00","lat":49.301,"lon":16.534523,"is_passed":false},{"stop_id":"U13109Z11","name":"Česká, železniční stanice","arrival_time":"16:13:00","departure_time":"16:14:00","lat":49.284546,"lon":16.566731,"is_passed":false},{"stop_id":"U1557Z11","name":"Řečkovice, nádraží","arrival_time":"16:18:00","departure_time":"16:18:00","lat":49.250794,"lon":16.590446,"is_passed":false},{"stop_id":"U1286Z11","name":"Královo Pole, nádraží","arrival_time":"16:21:00","departure_time":"16:22:00","lat":49.231051,"lon":16.596651,"is_passed":false},{"stop_id":"U1331Z11","name":"Lesná, nádraží","arrival_time":"16:24:00","departure_time":"16:25:00","lat":49.220432,"lon":16.627505,"is_passed":false},{"stop_id":"U1809Z11","name":"Židenice, nádraží","arrival_time":"16:31:00","departure_time":"16:31:00","lat":49.204282,"lon":16.636042,"is_passed":false},{"stop_id":"U1146Z98","name":"Hlavní nádraží","arrival_time":"16:36:00","departure_time":"16:40:00","lat":49.19035,"lon":16.612342,"is_passed":false},{"stop_id":"U15140Z11","name":"Modřice, železniční stanice","arrival_time":"16:46:00","departure_time":"16:47:00","lat":49.133256,"lon":16.606209,"is_passed":false},{"stop_id":"U15135Z11","name":"Popovice, u tratě","arrival_time":"16:49:00","departure_time":"16:50:00","lat":49.103463,"lon":16.605647,"is_passed":false},{"stop_id":"U15181Z11","name":"Rajhrad, železniční stanice","arrival_time":"16:52:00","departure_time":"16:52:00","lat":49.084966,"lon":16.60532,"is_passed":false},{"stop_id":"U25201Z11","name":"Vojkovice nad Svratkou, žel. st.","arrival_time":"16:55:00","departure_time":"16:56:00","lat":49.056208,"lon":16.597445,"is_passed":false},{"stop_id":"U15222Z11","name":"Hrušovany u Brna, žel. st.","arrival_time":"16:58:00","departure_time":"16:59:00","lat":49.034228,"lon":16.591501,"is_passed":false},{"stop_id":"U15241Z22","name":"Židlochovice, železniční stanice","arrival_time":"17:03:00","departure_time":"17:57:00","lat":49.033178,"lon":16.617165,"is_passed":false}],"10011":[{"stop_id":"U15241Z21","name":"Židlochovice, železniční stanice","arrival_time":"17:57:00","departure_time":"17:57:00","lat":49.033113,"lon":16.617218,"is_passed":false},{"stop_id":"U15222Z10","name":"Hrušovany u Brna, žel. st.","arrival_time":"18:00:00","departure_time":"18:01:00","lat":49.034228,"lon":16.591501,"is_passed":false},{"stop_id":"U25201Z10","name":"Vojkovice nad Svratkou, žel. st.","arrival_time":"18:04:00","departure_time":"18:04:00","lat":49.056208,"lon":16.597445,"is_passed":false},{"stop_id":"U15181Z10","name":"Rajhrad, železniční stanice","arrival_time":"18:07:00","departure_time":"18:08:00","lat":49.084966,"lon":16.60532,"is_passed":false},{"stop_id":"U15135Z10","name":"Popovice, u tratě","arrival_time":"18:10:00","departure_time":"18:10:00","lat":49.103463,"lon":16.605647,"is_passed":false},{"stop_id":"U15140Z10","name":"Modřice, železniční stanice","arrival_time":"18:13:00","departure_time":"18:14:00","lat":49.133256,"lon":16.606209,"is_passed":false},{"stop_id":"U1146Z99","name":"Hlavní nádraží","arrival_time":"18:21:00","departure_time":"18:23:00","lat":49.19035,"lon":16.612342,"is_passed":false},{"stop_id":"U1809Z10","name":"Židenice, nádraží","arrival_time":"18:26:00","departure_time":"18:27:00","lat":49.204282,"lon":16.636042,"is_passed":false},{"stop_id":"U1331Z10","name":"Lesná, nádraží","arrival_time":"18:32:00","departure_time":"18:33:00","lat":49.220432,"lon":16.627505,"is_passed":false},{"stop_id":"U1286Z10","name":"Královo Pole, nádraží","arrival_time":"18:36:00","departure_time":"18:37:00","lat":49.231051,"lon":16.596651,"is_passed":false},{"stop_id":"U1557Z10","name":"Řečkovice, nádraží","arrival_time":"18:39:00","departure_time":"18:40:00","lat":49.250794,"lon":16.590446,"is_passed":false},{"stop_id":"U13109Z10","name":"Česká, železniční stanice","arrival_time":"18:43:00","departure_time":"18:44:00","lat":49.284546,"lon":16.566731,"is_passed":false},{"stop_id":"U13143Z10","name":"Kuřim, železniční stanice","arrival_time":"18:47:00","departure_time":"18:48:00","lat":49.301,"lon":16.534523,"is_passed":false},{"stop_id":"U13206Z10","name":"Čebín, železniční stanice","arrival_time":"18:53:00","departure_time":"18:53:00","lat":49.319722,"lon":16.465278,"is_passed":false},{"stop_id":"U13306Z10","name":"Hradčany, železniční stanice","arrival_time":"18:56:00","departure_time":"18:56:00","lat":49.334153,"lon":16.437807,"is_passed":false},{"stop_id":"U13334Z20","name":"Tišnov, železniční stanice","arrival_time":"18:59:00","departure_time":"18:59:00","lat":49.3475,"lon":16.41725,"is_passed":false}],"10012":[{"stop_id":"U13334Z21","name":"Tišnov, železniční stanice","arrival_time":"5:59:00","departure_time":"5:59:00","lat":49.3475,"lon":16.41725,"is_passed":false},{"stop_id":"U13306Z11","name":"Hradčany, železniční stanice","arrival_time":"6:01:00","departure_time":"6:02:00","lat":49.333878,"lon":16.437893,"is_passed":false},{"stop_id":"U13206Z11","name":"Čebín, železniční stanice","arrival_time":"6:04:00","departure_time":"6:05:00","lat":49.319722,"lon":16.465278,"is_passed":false},{"stop_id":"U13143Z11","name":"Kuřim, železniční stanice","arrival_time":"6:10:00","departure_time":"6:11:00","lat":49.301,"lon":16.534523,"is_passed":false},{"stop_id":"U13109Z11","name":"Česká, železniční stanice","arrival_time":"6:13:00","departure_time":"6:14:00","lat":49.284546,"lon":16.566731,"is_passed":false},{"stop_id":"U1557Z11","name":"Řečkovice, nádraží","arrival_time":"6:18:00","departure_time":"6:18:00","lat":49.250794,"lon":16.590446,"is_passed":false},{"stop_id":"U1286Z11","name":"Královo Pole, nádraží","arrival_time":"6:21:00","departure_time":"6:22:00","lat":49.231051,"lon":16.596651,"is_passed":false},{"stop_id":"U1331Z11","name":"Lesná, nádraží","arrival_time":"6:24:00","departure_time":"6:25:00","lat":49.220432,"lon":16.627505,"is_passed":false},{"stop_id":"U1809Z11","name":"Židenice, nádraží","arrival_time":"6:31:00","departure_time":"6:31:00","lat":49.204282,"lon":16.636042,"is_passed":false},{"stop_id":"U1146Z98","name":"Hlavní nádraží","arrival_time":"6:36:00","departure_time":"6:39:00","lat":49.19035,"lon":16.612342,"is_passed":false},{"stop_id":"U15140Z11","name":"Modřice, železniční stanice","arrival_time":"6:45:00","departure_time":"6:46:00","lat":49.133256,"lon":16.606209,"is_passed":false},{"stop_id":"U15135Z11","name":"Popovice, u tratě","arrival_time":"6:48:00","departure_time":"6:49:00","lat":49.103463,"lon":16.605647,"is_passed":false},{"stop_id":"U15181Z11","name":"Rajhrad, železniční stanice","arrival_time":"6:51:00","departure_time":"6:52:00","lat":49.084966,"lon":16.60532,"is_passed":false},{"stop_id":"U25201Z11","name":"Vojkovice nad Svratkou, žel. st.","arrival_time":"6:55:00","departure_time":"6:55:00","lat":49.056208,"lon":16.597445,"is_passed":false},{"stop_id":"U15222Z11","name":"Hrušovany u Brna, žel. st.","arrival_time":"6:58:00","departure_time":"7:00:00","lat":49.034228,"lon":16.591501,"is_passed":false},{"stop_id":"U15241Z22","name":"Židlochovice, železniční stanice","arrival_time":"7:04:00","departure_time":"7:57:00","lat":49.033178,"lon":16.617165,"is_passed":false}],"10013":[{"stop_id":"U15241Z21","name":"Židlochovice, železniční stanice","arrival_time":"7:57:00","departure_time":"7:57:00","lat":49.033113,"lon":16.617218,"is_passed":false},{"stop_id":"U15222Z10","name":"Hrušovany u Brna, žel. st.","arrival_time":"8:00:00","departure_time":"8:01:00","lat":49.034228,"lon":16.591501,"is_passed":false},{"stop_id":"U25201Z10","name":"Vojkovice nad Svratkou, žel. st.","arrival_time":"8:04:00","departure_time":"8:04:00","lat":49.056208,"lon":16.597445,"is_passed":false},{"stop_id":"U15181Z10","name":"Rajhrad, železniční stanice","arrival_time":"8:07:00","departure_time":"8:08:00","lat":49.084966,"lon":16.60532,"is_passed":false},{"stop_id":"U15135Z10","name":"Popovice, u tratě","arrival_time":"8:10:00","departure_time":"8:10:00","lat":49.103463,"lon":16.605647,"is_passed":false},{"stop_id":"U15140Z10","name":"Modřice, železniční stanice","arrival_time":"8:13:00","departure_time":"8:14:00","lat":49.133256,"lon":16.606209,"is_passed":false},{"stop_id":"U1146Z99","name":"Hlavní nádraží","arrival_time":"8:21:00","departure_time":"8:23:00","lat":49.19035,"lon":16.612342,"is_passed":false},{"stop_id":"U1809Z10","name":"Židenice, nádraží","arrival_time":"8:26:00","departure_time":"8:27:00","lat":49.204282,"lon":16.636042,"is_passed":false},{"stop_id":"U1331Z10","name":"Lesná, nádraží","arrival_time":"8:32:00","departure_time":"8:33:00","lat":49.220432,"lon":16.627505,"is_passed":false},{"stop_id":"U1286Z10","name":"Královo Pole, nádraží","arrival_time":"8:36:00","departure_time":"8:37:00","lat":49.231051,"lon":16.596651,"is_passed":false},{"stop_id":"U1557Z10","name":"Řečkovice, nádraží","arrival_time":"8:39:00","departure_time":"8:40:00","lat":49.250794,"lon":16.590446,"is_passed":false},{"stop_id":"U13109Z10","name":"Česká, železniční stanice","arrival_time":"8:43:00","departure_time":"8:44:00","lat":49.284546,"lon":16.566731,"is_passed":false},{"stop_id":"U13143Z10","name":"Kuřim, železniční stanice","arrival_time":"8:47:00","departure_time":"8:48:00","lat":49.301,"lon":16.534523,"is_passed":false},{"stop_id":"U13206Z10","name":"Čebín, železniční stanice","arrival_time":"8:53:00","departure_time":"8:53:00","lat":49.319722,"lon":16.465278,"is_passed":false},{"stop_id":"U13306Z10","name":"Hradčany, železniční stanice","arrival_time":"8:56:00","departure_time":"8:56:00","lat":49.334153,"lon":16.437807,"is_passed":false},{"stop_id":"U13334Z20","name":"Tišnov, železniční stanice","arrival_time":"8:59:00","departure_time":"9:59:00","lat":49.3475,"lon":16.41725,"is_passed":false}],"10014":[{"stop_id":"U13334Z21","name":"Tišnov, železniční stanice","arrival_time":"9:59:00","departure_time":"9:59:00","lat":49.3475,"lon":16.41725,"is_passed":false},{"stop_id":"U13306Z11","name":"Hradčany, železniční stanice","arrival_time":"10:01:00","departure_time":"10:02:00","lat":49.333878,"lon":16.437893,"is_passed":false},{"stop_id":"U13206Z11","name":"Čebín, železniční stanice","arrival_time":"10:04:00","departure_time":"10:05:00","lat":49.319722,"lon":16.465278,"is_passed":false},{"stop_id":"U13143Z11","name":"Kuřim, železniční stanice","arrival_time":"10:10:00","departure_time":"10:11:00","lat":49.301,"lon":16.534523,"is_passed":false},{"stop_id":"U13109Z11","name":"Česká, železniční stanice","arrival_time":"10:13:00","departure_time":"10:14:00","lat":49.284546,"lon":16.566731,"is_passed":false},{"stop_id":"U1557Z11","name":"Řečkovice, nádraží","arrival_time":"10:18:00","departure_time":"10:18:00","lat":49.250794,"lon":16.590446,"is_passed":false},{"stop_id":"U1286Z11","name":"Královo Pole, nádraží","arrival_time":"10:21:00","departure_time":"10:22:00","lat":49.231051,"lon":16.596651,"is_passed":false},{"stop_id":"U1331Z11","name":"Lesná, nádraží","arrival_time":"10:24:00","departure_time":"10:25:00","lat":49.220432,"lon":16.627505,"is_passed":false},{"stop_id":"U1809Z11","name":"Židenice, nádraží","arrival_time":"10:31:00","departure_time":"10:31:00","lat":49.204282,"lon":16.636042,"is_passed":false},{"stop_id":"U1146Z98","name":"Hlavní nádraží","arrival_time":"10:36:00","departure_time":"10:40:00","lat":49.19035,"lon":16.612342,"is_passed":false},{"stop_id":"U15140Z11","name":"Modřice, železniční stanice","arrival_time":"10:46:00","departure_time":"10:47:00","lat":49.133256,"lon":16.606209,"is_passed":false},{"stop_id":"U15135Z11","name":"Popovice, u tratě","arrival_time":"10:49:00","departure_time":"10:50:00","lat":49.103463,"lon":16.605647,"is_passed":false},{"stop_id":"U15181Z11","name":"Rajhrad, železniční stanice","arrival_time":"10:52:00","departure_time":"10:52:00","lat":49.084966,"lon":16.60532,"is_passed":false},{"stop_id":"U25201Z11","name":"Vojkovice nad Svratkou, žel. st.","arrival_time":"10:55:00","departure_time":"10:56:00","lat":49.056208,"lon":16.597445,"is_passed":false},{"stop_id":"U15222Z11","name":"Hrušovany u Brna, žel. st.","arrival_time":"10:58:00","departure_time":"10:59:00","lat":49.034228,"lon":16.591501,"is_passed":false},{"stop_id":"U15241Z22","name":"Židlochovice, železniční stanice","arrival_time":"11:03:00","departure_time":"11:56:00","lat":49.033178,"lon":16.617165,"is_passed":false}],"10015":[{"stop_id":"U15241Z21","name":"Židlochovice, železniční stanice","arrival_time":"11:56:00","departure_time":"11:56:00","lat":49.033113,"lon":16.617218,"is_passed":false},{"stop_id":"U15222Z10","name":"Hrušovany u Brna, žel. st.","arrival_time":"11:59:00","departure_time":"12:01:00","lat":49.034228,"lon":16.591501,"is_passed":false},{"stop_id":"U25201Z10","name":"Vojkovice nad Svratkou, žel. st.","arrival_time":"12:04:00","departure_time":"12:04:00","lat":49.056208,"lon":16.597445,"is_passed":false},{"stop_id":"U15181Z10","name":"Rajhrad, železniční stanice","arrival_time":"12:07:00","departure_time":"12:08:00","lat":49.084966,"lon":16.60532,"is_passed":false},{"stop_id":"U15135Z10","name":"Popovice, u tratě","arrival_time":"12:10:00","departure_time":"12:10:00","lat":49.103463,"lon":16.605647,"is_passed":false},{"stop_id":"U15140Z10","name":"Modřice, železniční stanice","arrival_time":"12:13:00","departure_time":"12:14:00","lat":49.133256,"lon":16.606209,"is_passed":false},{"stop_id":"U1146Z99","name":"Hlavní nádraží","arrival_time":"12:21:00","departure_time":"12:23:00","lat":49.19035,"lon":16.612342,"is_passed":false},{"stop_id":"U1809Z10","name":"Židenice, nádraží","arrival_time":"12:26:00","departure_time":"12:27:00","lat":49.204282,"lon":16.636042,"is_passed":false},{"stop_id":"U1331Z10","name":"Lesná, nádraží","arrival_time":"12:32:00","departure_time":"12:33:00","lat":49.220432,"lon":16.627505,"is_passed":false},{"stop_id":"U1286Z10","name":"Královo Pole, nádraží","arrival_time":"12:36:00","departure_time":"12:37:00","lat":49.231051,"lon":16.596651,"is_passed":false},{"stop_id":"U1557Z10","name":"Řečkovice, nádraží","arrival_time":"12:39:00","departure_time":"12:40:00","lat":49.250794,"lon":16.590446,"is_passed":false},{"stop_id":"U13109Z10","name":"Česká, železniční stanice","arrival_time":"12:43:00","departure_time":"12:44:00","lat":49.284546,"lon":16.566731,"is_passed":false},{"stop_id":"U13143Z10","name":"Kuřim, železniční stanice","arrival_time":"12:47:00","departure_time":"12:48:00","lat":49.301,"lon":16.534523,"is_passed":false},{"stop_id":"U13206Z10","name":"Čebín, železniční stanice","arrival_time":"12:53:00","departure_time":"12:53:00","lat":49.319722,"lon":16.465278,"is_passed":false},{"stop_id":"U13306Z10","name":"Hradčany, železniční stanice","arrival_time":"12:56:00","departure_time":"12:56:00","lat":49.334153,"lon":16.437807,"is_passed":false},{"stop_id":"U13334Z20","name":"Tišnov, železniční stanice","arrival_time":"12:59:00","departure_time":"13:59:00","lat":49.3475,"lon":16.41725,"is_passed":false}],"10016":[{"stop_id":"U13334Z21","name":"Tišnov, železniční stanice","arrival_time":"13:59:00","departure_time":"13:59:00","lat":49.3475,"lon":16.41725,"is_passed":false},{"stop_id":"U13306Z11","name":"Hradčany, železniční stanice","arrival_time":"14:01:00","departure_time":"14:02:00","lat":49.333878,"lon":16.437893,"is_passed":false},{"stop_id":"U13206Z11","name":"Čebín, železniční stanice","arrival_time":"14:04:00","departure_time":"14:05:00","lat":49.319722,"lon":16.465278,"is_passed":false},{"stop_id":"U13143Z11","name":"Kuřim, železniční stanice","arrival_time":"14:10:00","departure_time":"14:11:00","lat":49.301,"lon":16.534523,"is_passed":false},{"stop_id":"U13109Z11","name":"Česká, železniční stanice","arrival_time":"14:13:00","departure_time":"14:14:00","lat":49.284546,"lon":16.566731,"is_passed":false},{"stop_id":"U1557Z11","name":"Řečkovice, nádraží","arrival_time":"14:18:00","departure_time":"14:18:00","lat":49.250794,"lon":16.590446,"is_passed":false},{"stop_id":"U1286Z11","name":"Královo Pole, nádraží","arrival_time":"14:21:00","departure_time":"14:22:00","lat":49.231051,"lon":16.596651,"is_passed":false},{"stop_id":"U1331Z11","name":"Lesná, nádraží","arrival_time":"14:24:00","departure_time":"14:25:00","lat":49.220432,"lon":16.627505,"is_passed":false},{"stop_id":"U1809Z11","name":"Židenice, nádraží","arrival_time":"14:31:00","departure_time":"14:31:00","lat":49.204282,"lon":16.636042,"is_passed":false},{"stop_id":"U1146Z98","name":"Hlavní nádraží","arrival_time":"14:36:00","departure_time":"14:40:00","lat":49.19035,"lon":16.612342,"is_passed":false},{"stop_id":"U15140Z11","name":"Modřice, železniční stanice","arrival_time":"14:46:00","departure_time":"14:47:00","lat":49.133256,"lon":16.606209,"is_passed":false},{"stop_id":"U15135Z11","name":"Popovice, u tratě","arrival_time":"14:49:00","departure_time":"14:50:00","lat":49.103463,"lon":16.605647,"is_passed":false},{"stop_id":"U15181Z11","name":"Rajhrad, železniční stanice","arrival_time":"14:52:00","departure_time":"14:52:00","lat":49.084966,"lon":16.60532,"is_passed":false},{"stop_id":"U25201Z11","name":"Vojkovice nad Svratkou, žel. st.","arrival_time":"14:55:00","departure_time":"14:56:00","lat":49.056208,"lon":16.597445,"is_passed":false},{"stop_id":"U15222Z11","name":"Hrušovany u Brna, žel. st.","arrival_time":"14:58:00","departure_time":"14:59:00","lat":49.034228,"lon":16.591501,"is_passed":false},{"stop_id":"U15241Z22","name":"Židlochovice, železniční stanice","arrival_time":"15:03:00","departure_time":"15:57:00","lat":49.033178,"lon":16.617165,"is_passed":false}],"10017":[{"stop_id":"U15241Z21","name":"Židlochovice, železniční stanice","arrival_time":"15:57:00","departure_time":"15:57:00","lat":49.033113,"lon":16.617218,"is_passed":false},{"stop_id":"U15222Z10","name":"Hrušovany u Brna, žel. st.","arrival_time":"16:00:00","departure_time":"16:01:00","lat":49.034228,"lon":16.591501,"is_passed":false},{"stop_id":"U25201Z10","name":"Vojkovice nad Svratkou, žel. st.","arrival_time":"16:04:00","departure_time":"16:04:00","lat":49.056208,"lon":16.597445,"is_passed":false},{"stop_id":"U15181Z10","name":"Rajhrad, železniční stanice","arrival_time":"16:07:00","departure_time":"16:08:00","lat":49.084966,"lon":16.60532,"is_passed":false},{"stop_id":"U15135Z10","name":"Popovice, u tratě","arrival_time":"16:10:00","departure_time":"16:10:00","lat":49.103463,"lon":16.605647,"is_passed":false},{"stop_id":"U15140Z10","name":"Modřice, železniční stanice","arrival_time":"16:13:00","departure_time":"16:14:00","lat":49.133256,"lon":16.606209,"is_passed":false},{"stop_id":"U1146Z99","name":"Hlavní nádraží","arrival_time":"16:21:00","departure_time":"16:23:00","lat":49.19035,"lon":16.612342,"is_passed":false},{"stop_id":"U1809Z10","name":"Židenice, nádraží","arrival_time":"16:26:00","departure_time":"16:27:00","lat":49.204282,"lon":16.636042,"is_passed":false},{"stop_id":"U1331Z10","name":"Lesná, nádraží","arrival_time":"16:32:00","departure_time":"16:33:00","lat":49.220432,"lon":16.627505,"is_passed":false},{"stop_id":"U1286Z10","name":"Královo Pole, nádraží","arrival_time":"16:36:00","departure_time":"16:37:00","lat":49.231051,"lon":16.596651,"is_passed":false},{"stop_id":"U1557Z10","name":"Řečkovice, nádraží","arrival_time":"16:39:00","departure_time":"16:40:00","lat":49.250794,"lon":16.590446,"is_passed":false},{"stop_id":"U13109Z10","name":"Česká, železniční stanice","arrival_time":"16:43:00","departure_time":"16:44:00","lat":49.284546,"lon":16.566731,"is_passed":false},{"stop_id":"U13143Z10","name":"Kuřim, železniční stanice","arrival_time":"16:47:00","departure_time":"16:48:00","lat":49.301,"lon":16.534523,"is_passed":false},{"stop_id":"U13206Z10","name":"Čebín, železniční stanice","arrival_time":"16:53:00","departure_time":"16:53:00","lat":49.319722,"lon":16.465278,"is_passed":false},{"stop_id":"U13306Z10","name":"Hradčany, železniční stanice","arrival_time":"16:56:00","departure_time":"16:56:00","lat":49.334153,"lon":16.437807,"is_passed":false},{"stop_id":"U13334Z20","name":"Tišnov, železniční stanice","arrival_time":"16:59:00","departure_time":"17:59:00","lat":49.3475,"lon":16.41725,"is_passed":false}],"10018":[{"stop_id":"U13334Z21","name":"Tišnov, železniční stanice","arrival_time":"17:59:00","departure_time":"17:59:00","lat":49.3475,"lon":16.41725,"is_passed":false},{"stop_id":"U13306Z11","name":"Hradčany, železniční stanice","arrival_time":"18:01:00","departure_time":"18:02:00","lat":49.333878,"lon":16.437893,"is_passed":false},{"stop_id":"U13206Z11","name":"Čebín, železniční stanice","arrival_time":"18:04:00","departure_time":"18:05:00","lat":49.319722,"lon":16.465278,"is_passed":false},{"stop_id":"U13143Z11","name":"Kuřim, železniční stanice","arrival_time":"18:10:00","departure_time":"18:11:00","lat":49.301,"lon":16.534523,"is_passed":false},{"stop_id":"U13109Z11","name":"Česká, železniční stanice","arrival_time":"18:13:00","departure_time":"18:14:00","lat":49.284546,"lon":16.566731,"is_passed":false},{"stop_id":"U1557Z11","name":"Řečkovice, nádraží","arrival_time":"18:18:00","departure_time":"18:18:00","lat":49.250794,"lon":16.590446,"is_passed":false},{"stop_id":"U1286Z11","name":"Královo Pole, nádraží","arrival_time":"18:21:00","departure_time":"18:22:00","lat":49.231051,"lon":16.596651,"is_passed":false},{"stop_id":"U1331Z11","name":"Lesná, nádraží","arrival_time":"18:24:00","departure_time":"18:25:00","lat":49.220432,"lon":16.627505,"is_passed":false},{"stop_id":"U1809Z11","name":"Židenice, nádraží","arrival_time":"18:31:00","departure_time":"18:31:00","lat":49.204282,"lon":16.636042,"is_passed":false},{"stop_id":"U1146Z98","name":"Hlavní nádraží","arrival_time":"18:36:00","departure_time":"18:38:00","lat":49.19035,"lon":16.612342,"is_passed":false},{"stop_id":"U15140Z11","name":"Modřice, železniční stanice","arrival_time":"18:45:00","departure_time":"18:45:00","lat":49.133256,"lon":16.606209,"is_passed":false},{"stop_id":"U15135Z11","name":"Popovice, u tratě","arrival_time":"18:48:00","departure_time":"18:48:00","lat":49.103463,"lon":16.605647,"is_passed":false},{"stop_id":"U15181Z11","name":"Rajhrad, železniční stanice","arrival_time":"18:50:00","departure_time":"18:51:00","lat":49.084966,"lon":16.60532,"is_passed":false},{"stop_id":"U25201Z11","name":"Vojkovice nad Svratkou, žel. st.","arrival_time":"18:54:00","departure_time":"18:54:00","lat":49.056208,"lon":16.597445,"is_passed":false},{"stop_id":"U15222Z11","name":"Hrušovany u Brna, žel. st.","arrival_time":"18:57:00","departure_time":"19:01:00","lat":49.034228,"lon":16.591501,"is_passed":false},{"stop_id":"U15241Z22","name":"Židlochovice, železniční stanice","arrival_time":"19:05:00","departure_time":"19:54:00","lat":49.033178,"lon":16.617165,"is_passed":false}],"10019":[{"stop_id":"U15241Z21","name":"Židlochovice, železniční stanice","arrival_time":"19:54:00","departure_time":"19:54:00","lat":49.033113,"lon":16.617218,"is_passed":false},{"stop_id":"U15222Z10","name":"Hrušovany u Brna, žel. st.","arrival_time":"19:57:00","departure_time":"19:58:00","lat":49.034228,"lon":16.591501,"is_passed":false},{"stop_id":"U25201Z10","name":"Vojkovice nad Svratkou, žel. st.","arrival_time":"20:01:00","departure_time":"20:01:00","lat":49.056208,"lon":16.597445,"is_passed":false},{"stop_id":"U15181Z10","name":"Rajhrad, železniční stanice","arrival_time":"20:04:00","departure_time":"20:05:00","lat":49.084966,"lon":16.60532,"is_passed":false},{"stop_id":"U15135Z10","name":"Popovice, u tratě","arrival_time":"20:07:00","departure_time":"20:07:00","lat":49.103463,"lon":16.605647,"is_passed":false},{"stop_id":"U15140Z10","name":"Modřice, železniční stanice","arrival_time":"20:10:00","departure_time":"20:11:00","lat":49.133256,"lon":16.606209,"is_passed":false},{"stop_id":"U1146Z99","name":"Hlavní nádraží","arrival_time":"20:18:00","departure_time":"20:40:00","lat":49.19035,"lon":16.612342,"is_passed":false}],"10020":[{"stop_id":"U1146Z98","name":"Hlavní nádraží","arrival_time":"20:40:00","departure_time":"20:40:00","lat":49.19035,"lon":16.612342,"is_passed":false},{"stop_id":"U15140Z11","name":"Modřice, železniční stanice","arrival_time":"20:46:00","departure_time":"20:47:00","lat":49.133256,"lon":16.606209,"is_passed":false},{"stop_id":"U15135Z11","name":"Popovice, u tratě","arrival_time":"20:49:00","departure_time":"20:50:00","lat":49.103463,"lon":16.605647,"is_passed":false},{"stop_id":"U15181Z11","name":"Rajhrad, železniční stanice","arrival_time":"20:52:00","departure_time":"20:52:00","lat":49.084966,"lon":16.60532,"is_passed":false},{"stop_id":"U25201Z11","name":"Vojkovice nad Svratkou, žel. st.","arrival_time":"20:55:00","departure_time":"20:56:00","lat":49.056208,"lon":16.597445,"is_passed":false},{"stop_id":"U15222Z11","name":"Hrušovany u Brna, žel. st.","arrival_time":"20:58:00","departure_time":"20:59:00","lat":49.034228,"lon":16.591501,"is_passed":false},{"stop_id":"U15241Z22","name":"Židlochovice, železniční stanice","arrival_time":"21:03:00","departure_time":"21:57:00","lat":49.033178,"lon":16.617165,"is_passed":false}],"10021":[{"stop_id":"U15241Z21","name":"Židlochovice, železniční stanice","arrival_time":"21:57:00","departure_time":"21:57:00","lat":49.033113,"lon":16.617218,"is_passed":false},{"stop_id":"U15222Z10","name":"Hrušovany u Brna, žel. st.","arrival_time":"22:00:00","departure_time":"22:01:00","lat":49.034228,"lon":16.591501,"is_passed":false},{"stop_id":"U25201Z10","name":"Vojkovice nad Svratkou, žel. st.","arrival_time":"22:04:00","departure_time":"22:04:00","lat":49.056208,"lon":16.597445,"is_passed":false},{"stop_id":"U15181Z10","name":"Rajhrad, železniční stanice","arrival_time":"22:07:00","departure_time":"22:07:00","lat":49.084966,"lon":16.60532,"is_passed":false},{"stop_id":"U15135Z10","name":"Popovice, u tratě","arrival_time":"22:09:00","departure_time":"22:10:00","lat":49.103463,"lon":16.605647,"is_passed":false},{"stop_id":"U15140Z10","name":"Modřice, železniční stanice","arrival_time":"22:13:00","departure_time":"22:13:00","lat":49.133256,"lon":16.606209,"is_passed":false},{"stop_id":"U1146Z99","name":"Hlavní nádraží","arrival_time":"22:20:00","departure_time":"22:43:00","lat":49.19035,"lon":16.612342,"is_passed":false}],"10022":[{"stop_id":"U1146Z98","name":"Hlavní nádraží","arrival_time":"22:43:00","departure_time":"22:43:00","lat":49.19035,"lon":16.612342,"is_passed":false},{"stop_id":"U15140Z11","name":"Modřice, železniční stanice","arrival_time":"22:49:00","departure_time":"22:50:00","lat":49.133256,"lon":16.606209,"is_passed":false},{"stop_id":"U15135Z11","name":"Popovice, u tratě","arrival_time":"22:52:00","departure_time":"22:53:00","lat":49.103463,"lon":16.605647,"is_passed":false},{"stop_id":"U15181Z11","name":"Rajhrad, železniční stanice","arrival_time":"22:55:00","departure_time":"22:55:00","lat":49.084966,"lon":16.60532,"is_passed":false},{"stop_id":"U25201Z11","name":"Vojkovice nad Svratkou, žel. st.","arrival_time":"22:58:00","departure_time":"22:59:00","lat":49.056208,"lon":16.597445,"is_passed":false},{"stop_id":"U15222Z11","name":"Hrušovany u Brna, žel. st.","arrival_time":"23:01:00","departure_time":"23:02:00","lat":49.034228,"lon":16.591501,"is_passed":false},{"stop_id":"U15241Z22","name":"Židlochovice, železniční stanice","arrival_time":"23:06:00","departure_time":"23:06:00","lat":49.033178,"lon":16.617165,"is_passed":false}],"10023":[{"stop_id":"U15403Z10","name":"Hustopeče, autobusové nádraží","arrival_time":"4:09:00","departure_time":"4:09:00","lat":48.93752,"lon":16.735901,"is_passed":false},{"stop_id":"U15425Z10","name":"Šakvice, železniční stanice","arrival_time":"4:15:00","departure_time":"4:15:00","lat":48.912883,"lon":16.70557,"is_passed":false},{"stop_id":"U25402Z10","name":"Popice","arrival_time":"4:18:00","departure_time":"4:18:00","lat":48.924332,"lon":16.668084,"is_passed":false},{"stop_id":"U25401Z10","name":"Pouzdřany","arrival_time":"4:22:00","departure_time":"4:22:00","lat":48.942025,"lon":16.630527,"is_passed":false},{"stop_id":"U15307Z10","name":"Vranovice, žel.st.","arrival_time":"4:25:00","departure_time":"4:25:00","lat":48.964528,"lon":16.604187,"is_passed":false},{"stop_id":"U15306Z10","name":"Žabčice, žel. st.","arrival_time":"4:29:00","departure_time":"4:29:00","lat":49.010865,"lon":16.594993,"is_passed":false},{"stop_id":"U15222Z10","name":"Hrušovany u Brna, žel. st.","arrival_time":"4:32:00","departure_time":"4:33:00","lat":49.034228,"lon":16.591501,"is_passed":false},{"stop_id":"U15181Z10","name":"Rajhrad, železniční stanice","arrival_time":"4:37:00","departure_time":"4:38:00","lat":49.084966,"lon":16.60532,"is_passed":false},{"stop_id":"U15140Z10","name":"Modřice, železniční stanice","arrival_time":"4:41:00","departure_time":"4:42:00","lat":49.133256,"lon":16.606209,"is_passed":false},{"stop_id":"U11002Z10","name":"Brno-Horní Heršpice","arrival_time":"4:45:00","departure_time":"4:46:00","lat":49.167404,"lon":16.60686,"is_passed":false},{"stop_id":"U1146Z99","name":"Hlavní nádraží","arrival_time":"4:50:00","departure_time":"4:50:00","lat":49.19035,"lon":16.612342,"is_passed":false}],"10024":[{"stop_id":"U1146Z99","name":"Hlavní nádraží","arrival_time":"23:02:00","departure_time":"23:02:00","lat":49.19035,"lon":16.612342,"is_passed":false},{"stop_id":"U1809Z10","name":"Židenice, nádraží","arrival_time":"23:05:00","departure_time":"23:06:00","lat":49.204282,"lon":16.636042,"is_passed":false},{"stop_id":"U1331Z10","name":"Lesná, nádraží","arrival_time":"23:11:00","departure_time":"23:12:00","lat":49.220432,"lon":16.627505,"is_passed":false},{"stop_id":"U1286Z10","name":"Královo Pole, nádraží","arrival_time":"23:15:00","departure_time":"23:16:00","lat":49.231051,"lon":16.596651,"is_passed":false},{"stop_id":"U1557Z10","name":"Řečkovice, nádraží","arrival_time":"23:18:00","departure_time":"23:19:00","lat":49.250794,"lon":16.590446,"is_passed":false},{"stop_id":"U13109Z10","name":"Česká, železniční stanice","arrival_time":"23:22:00","departure_time":"23:23:00","lat":49.284546,"lon":16.566731,"is_passed":false},{"stop_id":"U13143Z10","name":"Kuřim, železniční stanice","arrival_time":"23:26:00","departure_time":"23:27:00","lat":49.301,"lon":16.534523,"is_passed":false},{"stop_id":"U13206Z10","name":"Čebín, železniční stanice","arrival_time":"23:32:00","departure_time":"23:32:00","lat":49.319722,"lon":16.465278,"is_passed":false},{"stop_id":"U13306Z10","name":"Hradčany, železniční stanice","arrival_time":"23:35:00","departure_time":"23:35:00","lat":49.334153,"lon":16.437807,"is_passed":false},{"stop_id":"U13334Z20","name":"Tišnov, železniční stanice","arrival_time":"23:38:00","departure_time":"23:38:00","lat":49.3475,"lon":16.41725,"is_passed":false}],"10025":[{"stop_id":"U15403Z10","name":"Hustopeče, autobusové nádraží","arrival_time":"0:28:00","departure_time":"0:28:00","lat":48.93752,"lon":16.735901,"is_passed":false},{"stop_id":"U15425Z10","name":"Šakvice, železniční stanice","arrival_time":"0:34:00","departure_time":"0:45:00","lat":48.912883,"lon":16.70557,"is_passed":false}],"10026":[{"stop_id":"U15425Z11","name":"Šakvice, železniční stanice","arrival_time":"0:45:00","departure_time":"0:45:00","lat":48.912883,"lon":16.70557,"is_passed":false},{"stop_id":"U15403Z11","name":"Hustopeče, autobusové nádraží","arrival_time":"0:51:00","departure_time":"0:51:00","lat":48.93752,"lon":16.735901,"is_passed":false}],"10027":[{"stop_id":"U13334Z21","name":"Tišnov, železniční stanice","arrival_time":"23:17:00","departure_time":"23:17:00","lat":49.3475,"lon":16.41725,"is_passed":false},{"stop_id":"U13306Z11","name":"Hradčany, železniční stanice","arrival_time":"23:19:00","departure_time":"23:19:00","lat":49.333878,"lon":16.437893,"is_passed":false},{"stop_id":"U13206Z11","name":"Čebín, železniční stanice","arrival_time":"23:22:00","departure_time":"23:22:00","lat":49.319722,"lon":16.465278,"is_passed":false},{"stop_id":"U13143Z11","name":"Kuřim, železniční stanice","arrival_time":"23:28:00","departure_time":"23:29:00","lat":49.301,"lon":16.534523,"is_passed":false},{"stop_id":"U13109Z11","name":"Česká, železniční stanice","arrival_time":"23:32:00","departure_time":"23:32:00","lat":49.284546,"lon":16.566731,"is_passed":false},{"stop_id":"U1557Z11","name":"Řečkovice, nádraží","arrival_time":"23:36:00","departure_time":"23:36:00","lat":49.250794,"lon":16.590446,"is_passed":false},{"stop_id":"U1286Z11","name":"Královo Pole, nádraží","arrival_time":"23:39:00","departure_time":"23:40:00","lat":49.231051,"lon":16.596651,"is_passed":false},{"stop_id":"U1331Z11","name":"Lesná, nádraží","arrival_time":"23:42:00","departure_time":"23:42:00","lat":49.220432,"lon":16.627505,"is_passed":false},{"stop_id":"U1809Z11","name":"Židenice, nádraží","arrival_time":"23:49:00","departure_time":"23:49:00","lat":49.204282,"lon":16.636042,"is_passed":false},{"stop_id":"U1146Z98","name":"Hlavní nádraží","arrival_time":"23:54:00","departure_time":"23:54:00","lat":49.19035,"lon":16.612342,"is_passed":false}],"10028":[{"stop_id":"U1146Z99","name":"Hlavní nádraží","arrival_time":"0:05:00","departure_time":"0:05:00","lat":49.19035,"lon":16.612342,"is_passed":false},{"stop_id":"U1809Z10","name":"Židenice, nádraží","arrival_time":"0:08:00","departure_time":"0:09:00","lat":49.204282,"lon":16.636042,"is_passed":false},{"stop_id":"U1331Z10","name":"Lesná, nádraží","arrival_time":"0:14:00","departure_time":"0:15:00","lat":49.220432,"lon":16.627505,"is_passed":false},{"stop_id":"U1286Z10","name":"Královo Pole, nádraží","arrival_time":"0:18:00","departure_time":"0:19:00","lat":49.231051,"lon":16.596651,"is_passed":false},{"stop_id":"U1557Z10","name":"Řečkovice, nádraží","arrival_time":"0:21:00","departure_time":"0:21:00","lat":49.250794,"lon":16.590446,"is_passed":false},{"stop_id":"U13109Z10","name":"Česká, železniční stanice","arrival_time":"0:25:00","departure_time":"0:25:00","lat":49.284546,"lon":16.566731,"is_passed":false},{"stop_id":"U13143Z10","name":"Kuřim, železniční stanice","arrival_time":"0:28:00","departure_time":"0:29:00","lat":49.301,"lon":16.534523,"is_passed":false},{"stop_id":"U13206Z10","name":"Čebín, železniční stanice","arrival_time":"0:34:00","departure_time":"0:34:00","lat":49.319722,"lon":16.465278,"is_passed":false},{"stop_id":"U13306Z10","name":"Hradčany, železniční stanice","arrival_time":"0:37:00","departure_time":"0:37:00","lat":49.334153,"lon":16.437807,"is_passed":false},{"stop_id":"U13334Z20","name":"Tišnov, železniční stanice","arrival_time":"0:40:00","departure_time":"0:40:00","lat":49.3475,"lon":16.41725,"is_passed":false}],"10029":[{"stop_id":"U15403Z10","name":"Hustopeče, autobusové nádraží","arrival_time":"8:04:00","departure_time":"8:04:00","lat":48.93752,"lon":16.735901,"is_passed":false},{"stop_id":"U15425Z10","name":"Šakvice, železniční stanice","arrival_time":"8:10:00","departure_time":"8:11:00","lat":48.912883,"lon":16.70557,"is_passed":false},{"stop_id":"U25402Z10","name":"Popice","arrival_time":"8:13:00","departure_time":"8:14:00","lat":48.924332,"lon":16.668084,"is_passed":false},{"stop_id":"U25401Z10","name":"Pouzdřany","arrival_time":"8:17:00","departure_time":"8:17:00","lat":48.942025,"lon":16.630527,"is_passed":false},{"stop_id":"U15307Z10","name":"Vranovice, žel.st.","arrival_time":"8:20:00","departure_time":"8:21:00","lat":48.964528,"lon":16.604187,"is_passed":false},{"stop_id":"U15306Z10","name":"Žabčice, žel. st.","arrival_time":"8:24:00","departure_time":"8:25:00","lat":49.010865,"lon":16.594993,"is_passed":false},{"stop_id":"U15222Z10","name":"Hrušovany u Brna, žel. st.","arrival_time":"8:28:00","departure_time":"8:32:00","lat":49.034228,"lon":16.591501,"is_passed":false},{"stop_id":"U15181Z10","name":"Rajhrad, železniční stanice","arrival_time":"8:36:00","departure_time":"8:37:00","lat":49.084966,"lon":16.60532,"is_passed":false},{"stop_id":"U15140Z10","name":"Modřice, železniční stanice","arrival_time":"8:40:00","departure_time":"8:41:00","lat":49.133256,"lon":16.606209,"is_passed":false},{"stop_id":"U1146Z99","name":"Hlavní nádraží","arrival_time":"8:49:00","departure_time":"8:51:00","lat":49.19035,"lon":16.612342,"is_passed":false},{"stop_id":"U1809Z10","name":"Židenice, nádraží","arrival_time":"8:54:00","departure_time":"8:56:00","lat":49.204282,"lon":16.636042,"is_passed":false},{"stop_id":"U1331Z10","name":"Lesná, nádraží","arrival_time":"9:03:00","departure_time":"9:03:00","lat":49.220432,"lon":16.627505,"is_passed":false},{"stop_id":"U1286Z10","name":"Královo Pole, nádraží","arrival_time":"9:06:00","departure_time":"9:07:00","lat":49.231051,"lon":16.596651,"is_passed":false},{"stop_id":"U1557Z10","name":"Řečkovice, nádraží","arrival_time":"9:09:00","departure_time":"9:10:00","lat":49.250794,"lon":16.590446,"is_passed":false},{"stop_id":"U13109Z10","name":"Česká, železniční stanice","arrival_time":"9:13:00","departure_time":"9:14:00","lat":49.284546,"lon":16.566731,"is_passed":false},{"stop_id":"U13143Z10","name":"Kuřim, železniční stanice","arrival_time":"9:17:00","departure_time":"9:18:00","lat":49.301,"lon":16.534523,"is_passed":false},{"stop_id":"U13206Z10","name":"Čebín, železniční stanice","arrival_time":"9:23:00","departure_time":"9:23:00","lat":49.319722,"lon":16.465278,"is_passed":false},{"stop_id":"U13306Z10","name":"Hradčany, železniční stanice","arrival_time":"9:26:00","departure_time":"9:26:00","lat":49.334153,"lon":16.437807,"is_passed":false},{"stop_id":"U13334Z20","name":"Tišnov, železniční stanice","arrival_time":"9:29:00","departure_time":"9:30:00","lat":49.3475,"lon":16.41725,"is_passed":false},{"stop_id":"U13411Z10","name":"Dolní Loučky, železniční stanice","arrival_time":"9:34:00","departure_time":"9:34:00","lat":49.356389,"lon":16.346945,"is_passed":false},{"stop_id":"U13425Z10","name":"Řikonín, železniční stanice","arrival_time":"9:37:00","departure_time":"9:37:00","lat":49.365833,"lon":16.305833,"is_passed":false},{"stop_id":"U13454Z10","name":"Níhov, železniční stanice","arrival_time":"9:41:00","departure_time":"9:41:00","lat":49.336616,"lon":16.270487,"is_passed":false},{"stop_id":"U23501Z1","name":"Vlkov-Osová","arrival_time":"9:46:00","departure_time":"9:46:00","lat":49.326883,"lon":16.202114,"is_passed":false}],"10030":[{"stop_id":"U23501Z2","name":"Vlkov-Osová","arrival_time":"10:11:00","departure_time":"10:11:00","lat":49.326883,"lon":16.202114,"is_passed":false},{"stop_id":"U13454Z11","name":"Níhov, železniční stanice","arrival_time":"10:15:00","departure_time":"10:16:00","lat":49.33637,"lon":16.270573,"is_passed":false},{"stop_id":"U13425Z11","name":"Řikonín, železniční stanice","arrival_time":"10:19:00","departure_time":"10:20:00","lat":49.365833,"lon":16.305833,"is_passed":false},{"stop_id":"U13411Z11","name":"Dolní Loučky, železniční stanice","arrival_time":"10:22:00","departure_time":"10:22:00","lat":49.356389,"lon":16.346945,"is_passed":false},{"stop_id":"U13334Z21","name":"Tišnov, železniční stanice","arrival_time":"10:28:00","departure_time":"10:29:00","lat":49.3475,"lon":16.41725,"is_passed":false},{"stop_id":"U13306Z11","name":"Hradčany, železniční stanice","arrival_time":"10:31:00","departure_time":"10:32:00","lat":49.333878,"lon":16.437893,"is_passed":false},{"stop_id":"U13206Z11","name":"Čebín, železniční stanice","arrival_time":"10:34:00","departure_time":"10:35:00","lat":49.319722,"lon":16.465278,"is_passed":false},{"stop_id":"U13143Z11","name":"Kuřim, železniční stanice","arrival_time":"10:40:00","departure_time":"10:41:00","lat":49.301,"lon":16.534523,"is_passed":false},{"stop_id":"U13109Z11","name":"Česká, železniční stanice","arrival_time":"10:43:00","departure_time":"10:44:00","lat":49.284546,"lon":16.566731,"is_passed":false},{"stop_id":"U1557Z11","name":"Řečkovice, nádraží","arrival_time":"10:48:00","departure_time":"10:48:00","lat":49.250794,"lon":16.590446,"is_passed":false},{"stop_id":"U1286Z11","name":"Královo Pole, nádraží","arrival_time":"10:51:00","departure_time":"10:52:00","lat":49.231051,"lon":16.596651,"is_passed":false},{"stop_id":"U1331Z11","name":"Lesná, nádraží","arrival_time":"10:54:00","departure_time":"10:55:00","lat":49.220432,"lon":16.627505,"is_passed":false},{"stop_id":"U1809Z11","name":"Židenice, nádraží","arrival_time":"11:01:00","departure_time":"11:01:00","lat":49.204282,"lon":16.636042,"is_passed":false},{"stop_id":"U1146Z98","name":"Hlavní nádraží","arrival_time":"11:06:00","departure_time":"11:09:00","lat":49.19035,"lon":16.612342,"is_passed":false},{"stop_id":"U11002Z11","name":"Brno-Horní Heršpice","arrival_time":"11:13:00","departure_time":"11:14:00","lat":49.167404,"lon":16.60686,"is_passed":false},{"stop_id":"U15140Z11","name":"Modřice, železniční stanice","arrival_time":"11:17:00","departure_time":"11:18:00","lat":49.133256,"lon":16.606209,"is_passed":false},{"stop_id":"U15181Z11","name":"Rajhrad, železniční stanice","arrival_time":"11:21:00","departure_time":"11:22:00","lat":49.084966,"lon":16.60532,"is_passed":false},{"stop_id":"U15222Z11","name":"Hrušovany u Brna, žel. st.","arrival_time":"11:26:00","departure_time":"11:30:00","lat":49.034228,"lon":16.591501,"is_passed":false},{"stop_id":"U15306Z11","name":"Žabčice, žel. st.","arrival_time":"11:33:00","departure_time":"11:33:00","lat":49.010857,"lon":16.594833,"is_passed":false},{"stop_id":"U15307Z11","name":"Vranovice, žel.st.","arrival_time":"11:37:00","departure_time":"11:38:00","lat":48.964528,"lon":16.604187,"is_passed":false},{"stop_id":"U25401Z11","name":"Pouzdřany","arrival_time":"11:40:00","departure_time":"11:41:00","lat":48.942025,"lon":16.630527,"is_passed":false},{"stop_id":"U25402Z11","name":"Popice","arrival_time":"11:44:00","departure_time":"11:44:00","lat":48.924332,"lon":16.668084,"is_passed":false},{"stop_id":"U15425Z11","name":"Šakvice, železniční stanice","arrival_time":"11:47:00","departure_time":"11:48:00","lat":48.912883,"lon":16.70557,"is_passed":false},{"stop_id":"U15403Z11","name":"Hustopeče, autobusové nádraží","arrival_time":"11:55:00","departure_time":"11:55:00","lat":48.93752,"lon":16.735901,"is_passed":false}],"10031":[{"stop_id":"U1146Z98","name":"Hlavní nádraží","arrival_time":"0:05:00","departure_time":"0:05:00","lat":49.19035,"lon":16.612342,"is_passed":false},{"stop_id":"U15140Z11","name":"Modřice, železniční stanice","arrival_time":"0:12:00","departure_time":"0:12:00","lat":49.133256,"lon":16.606209,"is_passed":false},{"stop_id":"U15135Z11","name":"Popovice, u tratě","arrival_time":"0:15:00","departure_time":"0:16:00","lat":49.103463,"lon":16.605647,"is_passed":false},{"stop_id":"U15181Z11","name":"Rajhrad, železniční stanice","arrival_time":"0:18:00","departure_time":"0:18:00","lat":49.084966,"lon":16.60532,"is_passed":false},{"stop_id":"U25201Z11","name":"Vojkovice nad Svratkou, žel. st.","arrival_time":"0:21:00","departure_time":"0:22:00","lat":49.056208,"lon":16.597445,"is_passed":false},{"stop_id":"U15222Z11","name":"Hrušovany u Brna, žel. st.","arrival_time":"0:24:00","departure_time":"0:25:00","lat":49.034228,"lon":16.591501,"is_passed":false},{"stop_id":"U15306Z11","name":"Žabčice, žel. st.","arrival_time":"0:27:00","departure_time":"0:27:00","lat":49.010857,"lon":16.594833,"is_passed":false},{"stop_id":"U15307Z11","name":"Vranovice, žel.st.","arrival_time":"0:31:00","departure_time":"0:32:00","lat":48.964528,"lon":16.604187,"is_passed":false},{"stop_id":"U25401Z11","name":"Pouzdřany","arrival_time":"0:34:00","departure_time":"0:35:00","lat":48.942025,"lon":16.630527,"is_passed":false},{"stop_id":"U25402Z11","name":"Popice","arrival_time":"0:38:00","departure_time":"0:38:00","lat":48.924332,"lon":16.668084,"is_passed":false},{"stop_id":"U15425Z11","name":"Šakvice, železniční stanice","arrival_time":"0:41:00","departure_time":"0:42:00","lat":48.912883,"lon":16.70557,"is_passed":false}],"10032":[{"stop_id":"U15425Z11","name":"Šakvice, železniční stanice","arrival_time":"0:42:00","departure_time":"0:42:00","lat":48.912883,"lon":16.70557,"is_passed":false},{"stop_id":"U15537Z11","name":"Zaječí, železniční stanice","arrival_time":"0:46:00","departure_time":"0:46:00","lat":48.889637,"lon":16.781831,"is_passed":false},{"stop_id":"U25501Z11","name":"Rakvice","arrival_time":"0:49:00","departure_time":"0:50:00","lat":48.866893,"lon":16.821444,"is_passed":false},{"stop_id":"U15619Z11","name":"Podivín, železniční stanice","arrival_time":"0:53:00","departure_time":"0:53:00","lat":48.837726,"lon":16.853526,"is_passed":false},{"stop_id":"U15609Z11","name":"Ladná, železniční stanice","arrival_time":"0:56:00","departure_time":"0:56:00","lat":48.813095,"lon":16.880976,"is_passed":false},{"stop_id":"U15729Z11","name":"Břeclav, autobusové nádraží","arrival_time":"1:02:00","departure_time":"1:10:00","lat":48.753851,"lon":16.893169,"is_passed":false}],"10033":[{"stop_id":"U15729Z11","name":"Břeclav, autobusové nádraží","arrival_time":"1:10:00","departure_time":"1:10:00","lat":48.753851,"lon":16.893169,"is_passed":false},{"stop_id":"U29101Z11","name":"Hrušky zastávka","arrival_time":"1:16:00","departure_time":"1:16:00","lat":48.787328,"lon":16.982583,"is_passed":false},{"stop_id":"U19129Z11","name":"Moravská Nová Ves, železniční stanice","arrival_time":"1:19:00","departure_time":"1:20:00","lat":48.799493,"lon":17.021674,"is_passed":false},{"stop_id":"U19119Z11","name":"Lužice, železniční stanice","arrival_time":"1:23:00","departure_time":"1:23:00","lat":48.827619,"lon":17.061961,"is_passed":false},{"stop_id":"U19001Z21","name":"Hodonín, autobusové nádraží","arrival_time":"1:28:00","departure_time":"1:28:00","lat":48.85575,"lon":17.12069,"is_passed":false}],"10034":[{"stop_id":"U15403Z10","name":"Hustopeče, autobusové nádraží","arrival_time":"9:04:00","departure_time":"9:04:00","lat":48.93752,"lon":16.735901,"is_passed":false},{"stop_id":"U15425Z10","name":"Šakvice, železniční stanice","arrival_time":"9:10:00","departure_time":"9:11:00","lat":48.912883,"lon":16.70557,"is_passed":false},{"stop_id":"U25402Z10","name":"Popice","arrival_time":"9:13:00","departure_time":"9:14:00","lat":48.924332,"lon":16.668084,"is_passed":false},{"stop_id":"U25401Z10","name":"Pouzdřany","arrival_time":"9:17:00","departure_time":"9:17:00","lat":48.942025,"lon":16.630527,"is_passed":false},{"stop_id":"U15307Z10","name":"Vranovice, žel.st.","arrival_time":"9:20:00","departure_time":"9:21:00","lat":48.964528,"lon":16.604187,"is_passed":false},{"stop_id":"U15306Z10","name":"Žabčice, žel. st.","arrival_time":"9:24:00","departure_time":"9:25:00","lat":49.010865,"lon":16.594993,"is_passed":false},{"stop_id":"U15222Z10","name":"Hrušovany u Brna, žel. st.","arrival_time":"9:28:00","departure_time":"9:32:00","lat":49.034228,"lon":16.591501,"is_passed":false},{"stop_id":"U15181Z10","name":"Rajhrad, železniční stanice","arrival_time":"9:36:00","departure_time":"9:37:00","lat":49.084966,"lon":16.60532,"is_passed":false},{"stop_id":"U15140Z10","name":"Modřice, železniční stanice","arrival_time":"9:40:00","departure_time":"9:41:00","lat":49.133256,"lon":16.606209,"is_passed":false},{"stop_id":"U1146Z99","name":"Hlavní nádraží","arrival_time":"9:48:00","departure_time":"9:53:00","lat":49.19035,"lon":16.612342,"is_passed":false},{"stop_id":"U1809Z10","name":"Židenice, nádraží","arrival_time":"9:56:00","departure_time":"9:57:00","lat":49.204282,"lon":16.636042,"is_passed":false},{"stop_id":"U1331Z10","name":"Lesná, nádraží","arrival_time":"10:02:00","departure_time":"10:03:00","lat":49.220432,"lon":16.627505,"is_passed":false},{"stop_id":"U1286Z10","name":"Královo Pole, nádraží","arrival_time":"10:06:00","departure_time":"10:07:00","lat":49.231051,"lon":16.596651,"is_passed":false},{"stop_id":"U1557Z10","name":"Řečkovice, nádraží","arrival_time":"10:09:00","departure_time":"10:10:00","lat":49.250794,"lon":16.590446,"is_passed":false},{"stop_id":"U13109Z10","name":"Česká, železniční stanice","arrival_time":"10:13:00","departure_time":"10:14:00","lat":49.284546,"lon":16.566731,"is_passed":false},{"stop_id":"U13143Z10","name":"Kuřim, železniční stanice","arrival_time":"10:17:00","departure_time":"10:18:00","lat":49.301,"lon":16.534523,"is_passed":false},{"stop_id":"U13206Z10","name":"Čebín, železniční stanice","arrival_time":"10:23:00","departure_time":"10:23:00","lat":49.319722,"lon":16.465278,"is_passed":false},{"stop_id":"U13306Z10","name":"Hradčany, železniční stanice","arrival_time":"10:26:00","departure_time":"10:26:00","lat":49.334153,"lon":16.437807,"is_passed":false},{"stop_id":"U13334Z20","name":"Tišnov, železniční stanice","arrival_time":"10:29:00","departure_time":"10:30:00","lat":49.3475,"lon":16.41725,"is_passed":false},{"stop_id":"U13411Z10","name":"Dolní Loučky, železniční stanice","arrival_time":"10:34:00","departure_time":"10:34:00","lat":49.356389,"lon":16.346945,"is_passed":false},{"stop_id":"U13425Z10","name":"Řikonín, železniční stanice","arrival_time":"10:37:00","departure_time":"10:37:00","lat":49.365833,"lon":16.305833,"is_passed":false},{"stop_id":"U13454Z10","name":"Níhov, železniční stanice","arrival_time":"10:41:00","departure_time":"10:41:00","lat":49.336616,"lon":16.270487,"is_passed":false},{"stop_id":"U23501Z1","name":"Vlkov-Osová","arrival_time":"10:46:00","departure_time":"10:46:00","lat":49.326883,"lon":16.202114,"is_passed":false},{"stop_id":"U30305Z1","name":"Osová Bítýška","arrival_time":"10:49:00","departure_time":"10:49:00","lat":49.329893,"lon":16.168305,"is_passed":false},{"stop_id":"U30302Z1","name":"Ořechov","arrival_time":"10:52:00","departure_time":"10:52:00","lat":49.350503,"lon":16.136551,"is_passed":false},{"stop_id":"U30009Z1","name":"Křižanov","arrival_time":"10:58:00","departure_time":"13:00:00","lat":49.384877,"lon":16.080351,"is_passed":false}],"10035":[{"stop_id":"U30009Z2","name":"Křižanov","arrival_time":"13:00:00","departure_time":"13:00:00","lat":49.384694,"lon":16.080389,"is_passed":false},{"stop_id":"U30302Z2","name":"Ořechov","arrival_time":"13:04:00","departure_time":"13:04:00","lat":49.350447,"lon":16.136416,"is_passed":false},{"stop_id":"U30305Z2","name":"Osová Bítýška","arrival_time":"13:08:00","departure_time":"13:08:00","lat":49.329893,"lon":16.168305,"is_passed":false},{"stop_id":"U23501Z2","name":"Vlkov-Osová","arrival_time":"13:10:00","departure_time":"13:11:00","lat":49.326883,"lon":16.202114,"is_passed":false},{"stop_id":"U13454Z11","name":"Níhov, železniční stanice","arrival_time":"13:15:00","departure_time":"13:16:00","lat":49.33637,"lon":16.270573,"is_passed":false},{"stop_id":"U13425Z11","name":"Řikonín, železniční stanice","arrival_time":"13:19:00","departure_time":"13:20:00","lat":49.365833,"lon":16.305833,"is_passed":false},{"stop_id":"U13411Z11","name":"Dolní Loučky, železniční stanice","arrival_time":"13:22:00","departure_time":"13:22:00","lat":49.356389,"lon":16.346945,"is_passed":false},{"stop_id":"U13334Z21","name":"Tišnov, železniční stanice","arrival_time":"13:28:00","departure_time":"13:29:00","lat":49.3475,"lon":16.41725,"is_passed":false},{"stop_id":"U13306Z11","name":"Hradčany, železniční stanice","arrival_time":"13:31:00","departure_time":"13:32:00","lat":49.333878,"lon":16.437893,"is_passed":false},{"stop_id":"U13206Z11","name":"Čebín, železniční stanice","arrival_time":"13:34:00","departure_time":"13:35:00","lat":49.319722,"lon":16.465278,"is_passed":false},{"stop_id":"U13143Z11","name":"Kuřim, železniční stanice","arrival_time":"13:40:00","departure_time":"13:41:00","lat":49.301,"lon":16.534523,"is_passed":false},{"stop_id":"U13109Z11","name":"Česká, železniční stanice","arrival_time":"13:43:00","departure_time":"13:44:00","lat":49.284546,"lon":16.566731,"is_passed":false},{"stop_id":"U1557Z11","name":"Řečkovice, nádraží","arrival_time":"13:48:00","departure_time":"13:48:00","lat":49.250794,"lon":16.590446,"is_passed":false},{"stop_id":"U1286Z11","name":"Královo Pole, nádraží","arrival_time":"13:51:00","departure_time":"13:52:00","lat":49.231051,"lon":16.596651,"is_passed":false},{"stop_id":"U1331Z11","name":"Lesná, nádraží","arrival_time":"13:54:00","departure_time":"13:55:00","lat":49.220432,"lon":16.627505,"is_passed":false},{"stop_id":"U1809Z11","name":"Židenice, nádraží","arrival_time":"14:01:00","departure_time":"14:01:00","lat":49.204282,"lon":16.636042,"is_passed":false},{"stop_id":"U1146Z98","name":"Hlavní nádraží","arrival_time":"14:06:00","departure_time":"14:09:00","lat":49.19035,"lon":16.612342,"is_passed":false},{"stop_id":"U11002Z11","name":"Brno-Horní Heršpice","arrival_time":"14:13:00","departure_time":"14:13:00","lat":49.167404,"lon":16.60686,"is_passed":false},{"stop_id":"U15140Z11","name":"Modřice, železniční stanice","arrival_time":"14:17:00","departure_time":"14:18:00","lat":49.133256,"lon":16.606209,"is_passed":false},{"stop_id":"U15181Z11","name":"Rajhrad, železniční stanice","arrival_time":"14:21:00","departure_time":"14:22:00","lat":49.084966,"lon":16.60532,"is_passed":false},{"stop_id":"U15222Z11","name":"Hrušovany u Brna, žel. st.","arrival_time":"14:26:00","departure_time":"14:30:00","lat":49.034228,"lon":16.591501,"is_passed":false},{"stop_id":"U15306Z11","name":"Žabčice, žel. st.","arrival_time":"14:33:00","departure_time":"14:33:00","lat":49.010857,"lon":16.594833,"is_passed":false},{"stop_id":"U15307Z11","name":"Vranovice, žel.st.","arrival_time":"14:37:00","departure_time":"14:38:00","lat":48.964528,"lon":16.604187,"is_passed":false},{"stop_id":"U25401Z11","name":"Pouzdřany","arrival_time":"14:40:00","departure_time":"14:41:00","lat":48.942025,"lon":16.630527,"is_passed":false},{"stop_id":"U25402Z11","name":"Popice","arrival_time":"14:44:00","departure_time":"14:44:00","lat":48.924332,"lon":16.668084,"is_passed":false},{"stop_id":"U15425Z11","name":"Šakvice, železniční stanice","arrival_time":"14:47:00","departure_time":"14:48:00","lat":48.912883,"lon":16.70557,"is_passed":false},{"stop_id":"U15403Z11","name":"Hustopeče, autobusové nádraží","arrival_time":"14:55:00","departure_time":"14:55:00","lat":48.93752,"lon":16.735901,"is_passed":false}],"10036":[{"stop_id":"U1146Z99","name":"Hlavní nádraží","arrival_time":"8:07:00","departure_time":"8:07:00","lat":49.19035,"lon":16.612342,"is_passed":false},{"stop_id":"U1809Z10","name":"Židenice, nádraží","arrival_time":"8:10:00","departure_time":"8:11:00","lat":49.204282,"lon":16.636042,"is_passed":false},{"stop_id":"U1331Z10","name":"Lesná, nádraží","arrival_time":"8:16:00","departure_time":"8:17:00","lat":49.220432,"lon":16.627505,"is_passed":false},{"stop_id":"U1286Z10","name":"Královo Pole, nádraží","arrival_time":"8:20:00","departure_time":"8:21:00","lat":49.231051,"lon":16.596651,"is_passed":false},{"stop_id":"U13143Z10","name":"Kuřim, železniční stanice","arrival_time":"8:30:00","departure_time":"8:33:00","lat":49.301,"lon":16.534523,"is_passed":false},{"stop_id":"U13334Z20","name":"Tišnov, železniční stanice","arrival_time":"8:43:00","departure_time":"8:45:00","lat":49.3475,"lon":16.41725,"is_passed":false}],"10037":[{"stop_id":"U13334Z20","name":"Tišnov, železniční stanice","arrival_time":"8:45:00","departure_time":"8:45:00","lat":49.3475,"lon":16.41725,"is_passed":false},{"stop_id":"U13506Z10","name":"Doubravník, železniční stanice","arrival_time":"9:00:00","departure_time":"9:01:00","lat":49.426945,"lon":16.352389,"is_passed":false},{"stop_id":"U13520Z1","name":"Nedvědice, železniční stanice","arrival_time":"9:06:00","departure_time":"9:08:00","lat":49.454167,"lon":16.338333,"is_passed":false},{"stop_id":"U13605Z12","name":"Rožná, železniční stanice","arrival_time":"9:20:00","departure_time":"9:20:00","lat":49.472143,"lon":16.245416,"is_passed":false},{"stop_id":"U13701Z12","name":"Bystřice nad Pern., železniční stanice","arrival_time":"9:31:00","departure_time":"9:32:00","lat":49.513611,"lon":16.246667,"is_passed":false},{"stop_id":"U13801Z12","name":"Rozsochy, železniční stanice","arrival_time":"9:39:00","departure_time":"9:39:00","lat":49.537385,"lon":16.195122,"is_passed":false},{"stop_id":"U23801Z2","name":"Rovné-Divišov","arrival_time":"9:42:00","departure_time":"9:43:00","lat":49.547632,"lon":16.172826,"is_passed":false}],"10038":[{"stop_id":"U23801Z1","name":"Rovné-Divišov","arrival_time":"18:14:00","departure_time":"18:14:00","lat":49.547632,"lon":16.172826,"is_passed":false},{"stop_id":"U13801Z11","name":"Rozsochy, železniční stanice","arrival_time":"18:17:00","departure_time":"18:17:00","lat":49.537385,"lon":16.195122,"is_passed":false},{"stop_id":"U13701Z11","name":"Bystřice nad Pern., železniční stanice","arrival_time":"18:25:00","departure_time":"18:26:00","lat":49.513611,"lon":16.246667,"is_passed":false},{"stop_id":"U13605Z11","name":"Rožná, železniční stanice","arrival_time":"18:35:00","departure_time":"18:36:00","lat":49.472143,"lon":16.245416,"is_passed":false},{"stop_id":"U13520Z2","name":"Nedvědice, železniční stanice","arrival_time":"18:48:00","departure_time":"18:49:00","lat":49.454167,"lon":16.338333,"is_passed":false},{"stop_id":"U13506Z11","name":"Doubravník, železniční stanice","arrival_time":"18:54:00","departure_time":"18:55:00","lat":49.426945,"lon":16.352389,"is_passed":false},{"stop_id":"U13334Z21","name":"Tišnov, železniční stanice","arrival_time":"19:11:00","departure_time":"19:12:00","lat":49.3475,"lon":16.41725,"is_passed":false}],"10039":[{"stop_id":"U13334Z21","name":"Tišnov, železniční stanice","arrival_time":"19:12:00","departure_time":"19:12:00","lat":49.3475,"lon":16.41725,"is_passed":false},{"stop_id":"U13143Z11","name":"Kuřim, železniční stanice","arrival_time":"19:22:00","departure_time":"19:23:00","lat":49.301,"lon":16.534523,"is_passed":false},{"stop_id":"U1286Z11","name":"Královo Pole, nádraží","arrival_time":"19:32:00","departure_time":"19:34:00","lat":49.231051,"lon":16.596651,"is_passed":false},{"stop_id":"U1331Z11","name":"Lesná, nádraží","arrival_time":"19:37:00","departure_time":"19:37:00","lat":49.220432,"lon":16.627505,"is_passed":false},{"stop_id":"U1809Z11","name":"Židenice, nádraží","arrival_time":"19:43:00","departure_time":"19:43:00","lat":49.204282,"lon":16.636042,"is_passed":false},{"stop_id":"U1146Z98","name":"Hlavní nádraží","arrival_time":"19:49:00","departure_time":"19:49:00","lat":49.19035,"lon":16.612342,"is_passed":false}],"10040":[{"stop_id":"U13520Z2","name":"Nedvědice, železniční stanice","arrival_time":"5:01:00","departure_time":"5:01:00","lat":49.454167,"lon":16.338333,"is_passed":false},{"stop_id":"U13506Z11","name":"Doubravník, železniční stanice","arrival_time":"5:06:00","departure_time":"5:07:00","lat":49.426945,"lon":16.352389,"is_passed":false},{"stop_id":"U13464Z2","name":"Prudká zastávka","arrival_time":"5:10:00","departure_time":"5:10:00","lat":49.419195,"lon":16.367361,"is_passed":false},{"stop_id":"U13463Z2","name":"Borač, žel. st.","arrival_time":"5:14:00","departure_time":"5:14:00","lat":49.400689,"lon":16.366288,"is_passed":false},{"stop_id":"U13462Z2","name":"Štěpánovice","arrival_time":"5:19:00","departure_time":"5:19:00","lat":49.373054,"lon":16.389952,"is_passed":false},{"stop_id":"U13334Z21","name":"Tišnov, železniční stanice","arrival_time":"5:25:00","departure_time":"5:33:00","lat":49.3475,"lon":16.41725,"is_passed":false}],"10041":[{"stop_id":"U13334Z20","name":"Tišnov, železniční stanice","arrival_time":"5:33:00","departure_time":"5:33:00","lat":49.3475,"lon":16.41725,"is_passed":false},{"stop_id":"U13462Z1","name":"Štěpánovice","arrival_time":"5:37:00","departure_time":"5:37:00","lat":49.373141,"lon":16.389854,"is_passed":false},{"stop_id":"U13463Z1","name":"Borač, žel. st.","arrival_time":"5:42:00","departure_time":"5:43:00","lat":49.400768,"lon":16.366252,"is_passed":false},{"stop_id":"U13464Z1","name":"Prudká zastávka","arrival_time":"5:46:00","departure_time":"5:46:00","lat":49.419195,"lon":16.367361,"is_passed":false},{"stop_id":"U13506Z10","name":"Doubravník, železniční stanice","arrival_time":"5:50:00","departure_time":"5:50:00","lat":49.426945,"lon":16.352389,"is_passed":false},{"stop_id":"U13520Z1","name":"Nedvědice, železniční stanice","arrival_time":"5:56:00","departure_time":"6:01:00","lat":49.454167,"lon":16.338333,"is_passed":false},{"stop_id":"U23601Z2","name":"Věžná","arrival_time":"6:09:00","departure_time":"6:09:00","lat":49.451547,"lon":16.270316,"is_passed":false},{"stop_id":"U13605Z12","name":"Rožná, železniční stanice","arrival_time":"6:13:00","departure_time":"6:14:00","lat":49.472143,"lon":16.245416,"is_passed":false},{"stop_id":"U13701Z12","name":"Bystřice nad Pern., železniční stanice","arrival_time":"6:25:00","departure_time":"6:32:00","lat":49.513611,"lon":16.246667,"is_passed":false}],"10042":[{"stop_id":"U13701Z12","name":"Bystřice nad Pern., železniční stanice","arrival_time":"6:32:00","departure_time":"6:32:00","lat":49.513611,"lon":16.246667,"is_passed":false},{"stop_id":"U13801Z12","name":"Rozsochy, železniční stanice","arrival_time":"6:39:00","departure_time":"6:39:00","lat":49.537385,"lon":16.195122,"is_passed":false},{"stop_id":"U23801Z2","name":"Rovné-Divišov","arrival_time":"6:42:00","departure_time":"6:42:00","lat":49.547632,"lon":16.172826,"is_passed":false}],"10043":[{"stop_id":"U23801Z1","name":"Rovné-Divišov","arrival_time":"9:13:00","departure_time":"9:13:00","lat":49.547632,"lon":16.172826,"is_passed":false},{"stop_id":"U13801Z11","name":"Rozsochy, železniční stanice","arrival_time":"9:16:00","departure_time":"9:16:00","lat":49.537385,"lon":16.195122,"is_passed":false},{"stop_id":"U13701Z11","name":"Bystřice nad Pern., železniční stanice","arrival_time":"9:24:00","departure_time":"9:35:00","lat":49.513611,"lon":16.246667,"is_passed":false},{"stop_id":"U13605Z11","name":"Rožná, železniční stanice","arrival_time":"9:44:00","departure_time":"9:45:00","lat":49.472143,"lon":16.245416,"is_passed":false},{"stop_id":"U23601Z1","name":"Věžná","arrival_time":"9:49:00","departure_time":"9:49:00","lat":49.451547,"lon":16.270316,"is_passed":false},{"stop_id":"U13520Z2","name":"Nedvědice, železniční stanice","arrival_time":"9:58:00","departure_time":"10:01:00","lat":49.454167,"lon":16.338333,"is_passed":false},{"stop_id":"U13506Z11","name":"Doubravník, železniční stanice","arrival_time":"10:06:00","departure_time":"10:07:00","lat":49.426945,"lon":16.352389,"is_passed":false},{"stop_id":"U13464Z2","name":"Prudká zastávka","arrival_time":"10:10:00","departure_time":"10:10:00","lat":49.419195,"lon":16.367361,"is_passed":false},{"stop_id":"U13463Z2","name":"Borač, žel. st.","arrival_time":"10:14:00","departure_time":"10:14:00","lat":49.400689,"lon":16.366288,"is_passed":false},{"stop_id":"U13462Z2","name":"Štěpánovice","arrival_time":"10:19:00","departure_time":"10:19:00","lat":49.373054,"lon":16.389952,"is_passed":false},{"stop_id":"U13334Z21","name":"Tišnov, železniční stanice","arrival_time":"10:25:00","departure_time":"10:33:00","lat":49.3475,"lon":16.41725,"is_passed":false}],"10044":[{"stop_id":"U13334Z20","name":"Tišnov, železniční stanice","arrival_time":"10:33:00","departure_time":"10:33:00","lat":49.3475,"lon":16.41725,"is_passed":false},{"stop_id":"U13462Z1","name":"Štěpánovice","arrival_time":"10:37:00","departure_time":"10:37:00","lat":49.373141,"lon":16.389854,"is_passed":false},{"stop_id":"U13463Z1","name":"Borač, žel. st.","arrival_time":"10:42:00","departure_time":"10:43:00","lat":49.400768,"lon":16.366252,"is_passed":false},{"stop_id":"U13464Z1","name":"Prudká zastávka","arrival_time":"10:46:00","departure_time":"10:46:00","lat":49.419195,"lon":16.367361,"is_passed":false},{"stop_id":"U13506Z10","name":"Doubravník, železniční stanice","arrival_time":"10:50:00","departure_time":"10:50:00","lat":49.426945,"lon":16.352389,"is_passed":false},{"stop_id":"U13520Z1","name":"Nedvědice, železniční stanice","arrival_time":"10:56:00","departure_time":"11:01:00","lat":49.454167,"lon":16.338333,"is_passed":false}],"10045":[{"stop_id":"U13520Z2","name":"Nedvědice, železniční stanice","arrival_time":"11:01:00","departure_time":"11:01:00","lat":49.454167,"lon":16.338333,"is_passed":false},{"stop_id":"U13506Z11","name":"Doubravník, železniční stanice","arrival_time":"11:06:00","departure_time":"11:07:00","lat":49.426945,"lon":16.352389,"is_passed":false},{"stop_id":"U13464Z2","name":"Prudká zastávka","arrival_time":"11:10:00","departure_time":"11:10:00","lat":49.419195,"lon":16.367361,"is_passed":false},{"stop_id":"U13463Z2","name":"Borač, žel. st.","arrival_time":"11:14:00","departure_time":"11:14:00","lat":49.400689,"lon":16.366288,"is_passed":false},{"stop_id":"U13462Z2","name":"Štěpánovice","arrival_time":"11:19:00","departure_time":"11:19:00","lat":49.373054,"lon":16.389952,"is_passed":false},{"stop_id":"U13334Z21","name":"Tišnov, železniční stanice","arrival_time":"11:25:00","departure_time":"11:25:00","lat":49.3475,"lon":16.41725,"is_passed":false}],"10046":[{"stop_id":"U13520Z2","name":"Nedvědice, železniční stanice","arrival_time":"6:01:00","departure_time":"6:01:00","lat":49.454167,"lon":16.338333,"is_passed":false},{"stop_id":"U13506Z11","name":"Doubravník, železniční stanice","arrival_time":"6:06:00","departure_time":"6:07:00","lat":49.426945,"lon":16.352389,"is_passed":false},{"stop_id":"U13464Z2","name":"Prudká zastávka","arrival_time":"6:10:00","departure_time":"6:10:00","lat":49.419195,"lon":16.367361,"is_passed":false},{"stop_id":"U13463Z2","name":"Borač, žel. st.","arrival_time":"6:14:00","departure_time":"6:14:00","lat":49.400689,"lon":16.366288,"is_passed":false},{"stop_id":"U13462Z2","name":"Štěpánovice","arrival_time":"6:19:00","departure_time":"6:19:00","lat":49.373054,"lon":16.389952,"is_passed":false},