[{"stop_id":"U19406Z3","name":"Hroznová Lhota, zdravotní středisko","arrival_time":"5:54:00","departure_time":"5:54:00","lat":48.91029,"lon":17.416257,"is_passed":false},{"stop_id":"U19417Z1","name":"Tasov","arrival_time":"5:57:00","departure_time":"5:57:00","lat":48.907018,"lon":17.430068,"is_passed":false},{"stop_id":"U19411Z2","name":"Lipov, Újezdy","arrival_time":"6:00:00","departure_time":"6:00:00","lat":48.900817,"lon":17.444352,"is_passed":false},{"stop_id":"U19500Z2","name":"Hrubá Vrbka","arrival_time":"6:06:00","departure_time":"6:06:00","lat":48.871302,"lon":17.478068,"is_passed":false},{"stop_id":"U19503Z2","name":"Hrubá Vrbka, školka","arrival_time":"6:08:00","departure_time":"6:08:00","lat":48.866703,"lon":17.477021,"is_passed":false},{"stop_id":"U19507Z2","name":"Kuželov","arrival_time":"6:10:00","departure_time":"6:10:00","lat":48.86132,"lon":17.484668,"is_passed":false},{"stop_id":"U19508Z2","name":"Kuželov, točna","arrival_time":"6:12:00","departure_time":"6:12:00","lat":48.859785,"lon":17.488888,"is_passed":false}]