[{"stop_id":"U15729Z11","name":"Břeclav, autobusové nádraží","arrival_time":"6:02:00","departure_time":"6:02:00","lat":48.753851,"lon":16.893169,"is_passed":false},{"stop_id":"U19129Z11","name":"Moravská Nová Ves, železniční stanice","arrival_time":"6:09:00","departure_time":"6:10:00","lat":48.799493,"lon":17.021674,"is_passed":false},{"stop_id":"U19001Z21","name":"Hodonín, autobusové nádraží","arrival_time":"6:15:00","departure_time":"6:36:00","lat":48.85575,"lon":17.12069,"is_passed":false},{"stop_id":"U19302Z11","name":"Moravský Písek, Kolonie, žel. stanice","arrival_time":"6:46:00","departure_time":"6:47:00","lat":48.977119,"lon":17.314582,"is_passed":false},{"stop_id":"U31028Z11","name":"Staré Město u Uherského Hradiště","arrival_time":"6:54:00","departure_time":"7:01:00","lat":49.076212,"lon":17.422903,"is_passed":false}]