[{"stop_id":"U19001Z20","name":"Hodonín, autobusové nádraží","arrival_time":"5:22:00","departure_time":"5:22:00","lat":48.85575,"lon":17.12069,"is_passed":false},{"stop_id":"U15729Z10","name":"Břeclav, autobusové nádraží","arrival_time":"5:36:00","departure_time":"5:42:00","lat":48.753851,"lon":16.893169,"is_passed":false},{"stop_id":"U15619Z10","name":"Podivín, železniční stanice","arrival_time":"5:48:00","departure_time":"5:49:00","lat":48.837726,"lon":16.853526,"is_passed":false},{"stop_id":"U25501Z10","name":"Rakvice","arrival_time":"5:52:00","departure_time":"5:53:00","lat":48.866893,"lon":16.821444,"is_passed":false},{"stop_id":"U15537Z10","name":"Zaječí, železniční stanice","arrival_time":"5:56:00","departure_time":"5:57:00","lat":48.889637,"lon":16.781831,"is_passed":false},{"stop_id":"U15425Z10","name":"Šakvice, železniční stanice","arrival_time":"6:01:00","departure_time":"6:02:00","lat":48.912883,"lon":16.70557,"is_passed":false},{"stop_id":"U15140Z10","name":"Modřice, železniční stanice","arrival_time":"6:15:00","departure_time":"6:16:00","lat":49.133256,"lon":16.606209,"is_passed":false},{"stop_id":"U1146Z99","name":"Hlavní nádraží","arrival_time":"6:22:00","departure_time":"6:36:00","lat":49.19035,"lon":16.612342,"is_passed":false}]