[{"stop_id":"U19406Z3","name":"Hroznová Lhota, zdravotní středisko","arrival_time":"16:06:00","departure_time":"16:06:00","lat":48.91029,"lon":17.416257,"is_passed":false},{"stop_id":"U19417Z1","name":"Tasov","arrival_time":"16:09:00","departure_time":"16:09:00","lat":48.907018,"lon":17.430068,"is_passed":false},{"stop_id":"U19411Z2","name":"Lipov, Újezdy","arrival_time":"16:12:00","departure_time":"16:12:00","lat":48.900817,"lon":17.444352,"is_passed":false},{"stop_id":"U19500Z2","name":"Hrubá Vrbka","arrival_time":"16:18:00","departure_time":"16:18:00","lat":48.871302,"lon":17.478068,"is_passed":false},{"stop_id":"U19504Z2","name":"Hrubá Vrbka, ZD","arrival_time":"16:19:00","departure_time":"16:19:00","lat":48.868106,"lon":17.473492,"is_passed":false},{"stop_id":"U19510Z2","name":"Malá Vrbka, zastávka","arrival_time":"16:21:00","departure_time":"16:21:00","lat":48.8672,"lon":17.46154,"is_passed":false},{"stop_id":"U19509Z2","name":"Malá Vrbka","arrival_time":"16:22:00","departure_time":"16:22:00","lat":48.869208,"lon":17.459224,"is_passed":false},{"stop_id":"U19503Z2","name":"Hrubá Vrbka, školka","arrival_time":"16:27:00","departure_time":"16:27:00","lat":48.866703,"lon":17.477021,"is_passed":false},{"stop_id":"U19507Z2","name":"Kuželov","arrival_time":"16:29:00","departure_time":"16:29:00","lat":48.86132,"lon":17.484668,"is_passed":false},{"stop_id":"U19508Z2","name":"Kuželov, točna","arrival_time":"16:31:00","departure_time":"16:31:00","lat":48.859785,"lon":17.488888,"is_passed":false}]