[{"stop_id":"U15714Z1","name":"Mikulov, železniční stanice","arrival_time":"12:49:00","departure_time":"12:49:00","lat":48.801587,"lon":16.626658,"is_passed":false},{"stop_id":"U15709Z3","name":"Mikulov, u parku","arrival_time":"12:52:00","departure_time":"12:52:00","lat":48.80268,"lon":16.634167,"is_passed":false},{"stop_id":"U15702Z2","name":"Mikulov, Brněnská","arrival_time":"12:55:00","departure_time":"12:55:00","lat":48.812258,"lon":16.630495,"is_passed":false},{"stop_id":"U15701Z2","name":"Bavory, rozcestí","arrival_time":"12:59:00","departure_time":"12:59:00","lat":48.830925,"lon":16.612887,"is_passed":false},{"stop_id":"U15545Z3","name":"Dolní Dunajovice, rozcestí","arrival_time":"13:01:00","departure_time":"13:01:00","lat":48.852411,"lon":16.609857,"is_passed":false},{"stop_id":"U15435Z2","name":"Pasohlávky, Aqualand Moravia","arrival_time":"13:10:00","departure_time":"13:10:00","lat":48.904837,"lon":16.575621,"is_passed":false},{"stop_id":"U15427Z2","name":"Pasohlávky, rozcestí Ivaň","arrival_time":"13:12:00","departure_time":"13:12:00","lat":48.919619,"lon":16.556467,"is_passed":false},{"stop_id":"U15318Z2","name":"Pohořelice, Nová Ves","arrival_time":"13:16:00","departure_time":"13:16:00","lat":48.937338,"lon":16.528195,"is_passed":false},{"stop_id":"U15325Z1","name":"Pohořelice, Velký Dvůr, rozcestí","arrival_time":"13:21:00","departure_time":"13:21:00","lat":48.96221,"lon":16.519497,"is_passed":false},{"stop_id":"U15368Z1","name":"Pohořelice, průmyslová zóna jih","arrival_time":"13:22:00","departure_time":"13:22:00","lat":48.971925,"lon":16.516942,"is_passed":false},{"stop_id":"U15327Z1","name":"Pohořelice, Městský úřad","arrival_time":"13:23:00","departure_time":"13:23:00","lat":48.977073,"lon":16.515407,"is_passed":false},{"stop_id":"U15317Z7","name":"Pohořelice, náměstí","arrival_time":"13:25:00","departure_time":"13:25:00","lat":48.980878,"lon":16.522413,"is_passed":false},{"stop_id":"U15315Z2","name":"Pohořelice, Brněnská","arrival_time":"13:27:00","departure_time":"13:27:00","lat":48.984956,"lon":16.530513,"is_passed":false},{"stop_id":"U15379Z2","name":"Pohořelice, průmyslová zóna východ","arrival_time":"13:28:00","departure_time":"13:28:00","lat":48.990539,"lon":16.540751,"is_passed":false},{"stop_id":"U15122Z4","name":"Modřice, Brněnská","arrival_time":"13:42:00","departure_time":"13:42:00","lat":49.130132,"lon":16.604936,"is_passed":false},{"stop_id":"U1703Z7","name":"Ústřední hřbitov","arrival_time":"13:48:00","departure_time":"13:48:00","lat":49.170741,"lon":16.597834,"is_passed":false},{"stop_id":"U1622Z1","name":"Strážní","arrival_time":"13:51:00","departure_time":"13:51:00","lat":49.178207,"lon":16.603976,"is_passed":false},{"stop_id":"U1696Z10","name":"ÚAN Zvonařka","arrival_time":"13:55:00","departure_time":"14:55:00","lat":49.185364,"lon":16.616151,"is_passed":false}]