[{"stop_id":"U31034Z10","name":"Retz","arrival_time":"18:17:00","departure_time":"18:17:00","lat":48.753724,"lon":15.957444,"is_passed":false},{"stop_id":"U31033Z2","name":"Unterretzbach","arrival_time":"18:21:00","departure_time":"18:22:00","lat":48.764701,"lon":16.007784,"is_passed":false},{"stop_id":"U18168Z10","name":"Šatov, železniční stanice","arrival_time":"18:25:00","departure_time":"18:25:00","lat":48.780786,"lon":16.026006,"is_passed":false},{"stop_id":"U28001Z2","name":"Znojmo-Nový Šaldorf","arrival_time":"18:31:00","departure_time":"18:31:00","lat":48.820061,"lon":16.044266,"is_passed":false},{"stop_id":"U18009Z22","name":"Znojmo, autobusové nádraží","arrival_time":"18:36:00","departure_time":"18:36:00","lat":48.852761,"lon":16.059287,"is_passed":false}]