[{"stop_id":"U12342Z29","name":"Blansko, aut. st.","arrival_time":"8:01:00","departure_time":"8:01:00","lat":49.352753,"lon":16.646848,"is_passed":false},{"stop_id":"U12231Z11","name":"Adamov, železniční zastávka","arrival_time":"8:07:00","departure_time":"8:07:00","lat":49.300671,"lon":16.650653,"is_passed":false},{"stop_id":"U12230Z11","name":"Adamov, železniční stanice","arrival_time":"8:09:00","departure_time":"8:10:00","lat":49.295341,"lon":16.663538,"is_passed":false},{"stop_id":"U12158Z11","name":"Bílovice nad Svitavou, žel. stanice","arrival_time":"8:17:00","departure_time":"8:18:00","lat":49.242715,"lon":16.673677,"is_passed":false},{"stop_id":"U1809Z11","name":"Židenice, nádraží","arrival_time":"8:23:00","departure_time":"8:23:00","lat":49.204282,"lon":16.636042,"is_passed":false},{"stop_id":"U1146Z98","name":"Hlavní nádraží","arrival_time":"8:30:00","departure_time":"8:30:00","lat":49.19035,"lon":16.612342,"is_passed":false}]