{"109":[{"stop_id":"U1696Z6","name":"ÚAN Zvonařka","arrival_time":"16:12:00","departure_time":"16:12:00","lat":49.185364,"lon":16.616151,"is_passed":false},{"stop_id":"U1677Z3","name":"Tržní","arrival_time":"16:16:00","departure_time":"16:16:00","lat":49.189342,"lon":16.630314,"is_passed":false},{"stop_id":"U16206Z1","name":"Holubice, nadjezd","arrival_time":"16:29:00","departure_time":"16:29:00","lat":49.178081,"lon":16.819173,"is_passed":false},{"stop_id":"U16334Z1","name":"Velešovice, rozc.","arrival_time":"16:31:00","departure_time":"16:31:00","lat":49.166882,"lon":16.842802,"is_passed":false},{"stop_id":"U16328Z3","name":"Slavkov u Brna, aut. st.","arrival_time":"16:37:00","departure_time":"16:37:00","lat":49.149057,"lon":16.876562,"is_passed":false},{"stop_id":"U16332Z1","name":"Slavkov u Brna, rozcestí k žel. st.","arrival_time":"16:40:00","departure_time":"16:40:00","lat":49.143955,"lon":16.878297,"is_passed":false},{"stop_id":"U16337Z1","name":"Nížkovice, rozcestí","arrival_time":"16:43:00","departure_time":"16:43:00","lat":49.11212,"lon":16.895599,"is_passed":false},{"stop_id":"U16336Z1","name":"Heršpice, Bílý Vlk","arrival_time":"16:46:00","departure_time":"16:46:00","lat":49.095813,"lon":16.909428,"is_passed":false},{"stop_id":"U16445Z1","name":"Žarošice, Těšanka","arrival_time":"16:48:00","departure_time":"16:48:00","lat":49.079005,"lon":16.936517,"is_passed":false},{"stop_id":"U16446Z1","name":"Žarošice, Zdravá Voda","arrival_time":"16:50:00","departure_time":"16:50:00","lat":49.065466,"lon":16.945145,"is_passed":false},{"stop_id":"U16444Z1","name":"Žarošice, Silničná, rozcestí Uhřice","arrival_time":"16:53:00","departure_time":"16:53:00","lat":49.051812,"lon":16.953006,"is_passed":false},{"stop_id":"U16448Z1","name":"Žarošice, škola","arrival_time":"16:56:00","departure_time":"16:56:00","lat":49.039337,"lon":16.96142,"is_passed":false},{"stop_id":"U16449Z1","name":"Žarošice","arrival_time":"16:57:00","departure_time":"16:57:00","lat":49.040617,"lon":16.967482,"is_passed":false},{"stop_id":"U16525Z1","name":"Archlebov","arrival_time":"17:02:00","departure_time":"17:02:00","lat":49.043113,"lon":17.00413,"is_passed":false},{"stop_id":"U16527Z1","name":"Dražůvky","arrival_time":"17:06:00","departure_time":"17:06:00","lat":49.031967,"lon":17.020073,"is_passed":false},{"stop_id":"U16533Z1","name":"Želetice, statek","arrival_time":"17:10:00","departure_time":"17:10:00","lat":49.01512,"lon":17.006987,"is_passed":false},{"stop_id":"U16534Z1","name":"Želetice","arrival_time":"17:11:00","departure_time":"17:11:00","lat":49.012693,"lon":17.009444,"is_passed":false},{"stop_id":"U16530Z1","name":"Nenkovice, u kašny","arrival_time":"17:14:00","departure_time":"17:14:00","lat":49.001724,"lon":17.007864,"is_passed":false},{"stop_id":"U16528Z1","name":"Nenkovice, obecní úřad","arrival_time":"17:15:00","departure_time":"17:15:00","lat":49.004197,"lon":17.011395,"is_passed":false},{"stop_id":"U16529Z1","name":"Nenkovice, škola","arrival_time":"17:16:00","departure_time":"17:16:00","lat":49.004607,"lon":17.015563,"is_passed":false},{"stop_id":"U16635Z1","name":"Stavěšice","arrival_time":"17:19:00","departure_time":"17:19:00","lat":49.001868,"lon":17.029877,"is_passed":false},{"stop_id":"U16622Z1","name":"Strážovice","arrival_time":"17:23:00","departure_time":"17:23:00","lat":49.0093,"lon":17.047132,"is_passed":false},{"stop_id":"U16612Z1","name":"Kyjov, nemocnice","arrival_time":"17:30:00","departure_time":"17:30:00","lat":49.006845,"lon":17.11013,"is_passed":false},{"stop_id":"U16608Z16","name":"Kyjov, aut. st.","arrival_time":"17:32:00","departure_time":"17:32:00","lat":49.006873,"lon":17.123912,"is_passed":false}],"1090":[{"stop_id":"U15729Z11","name":"Břeclav, autobusové nádraží","arrival_time":"12:35:00","departure_time":"12:35:00","lat":48.753851,"lon":16.893169,"is_passed":false},{"stop_id":"U29101Z11","name":"Hrušky zastávka","arrival_time":"12:41:00","departure_time":"12:41:00","lat":48.787328,"lon":16.982583,"is_passed":false},{"stop_id":"U19129Z11","name":"Moravská Nová Ves, železniční stanice","arrival_time":"12:44:00","departure_time":"12:45:00","lat":48.799493,"lon":17.021674,"is_passed":false},{"stop_id":"U19119Z11","name":"Lužice, železniční stanice","arrival_time":"12:48:00","departure_time":"12:48:00","lat":48.827619,"lon":17.061961,"is_passed":false},{"stop_id":"U19001Z21","name":"Hodonín, autobusové nádraží","arrival_time":"12:52:00","departure_time":"12:54:00","lat":48.85575,"lon":17.12069,"is_passed":false},{"stop_id":"U29102Z11","name":"Rohatec zastávka","arrival_time":"12:57:00","departure_time":"12:58:00","lat":48.88309,"lon":17.178111,"is_passed":false},{"stop_id":"U29103Z11","name":"Rohatec","arrival_time":"13:00:00","departure_time":"13:01:00","lat":48.892515,"lon":17.197852,"is_passed":false},{"stop_id":"U16905Z11","name":"Bzenec, Přívoz, železniční stanice","arrival_time":"13:06:00","departure_time":"13:06:00","lat":48.936848,"lon":17.289411,"is_passed":false},{"stop_id":"U19302Z11","name":"Moravský Písek, Kolonie, žel. stanice","arrival_time":"13:10:00","departure_time":"13:11:00","lat":48.977119,"lon":17.314582,"is_passed":false},{"stop_id":"U29301Z11","name":"Moravský Písek zastávka","arrival_time":"13:13:00","departure_time":"13:13:00","lat":48.991141,"lon":17.330034,"is_passed":false},{"stop_id":"U30319Z11","name":"Nedakonice","arrival_time":"13:17:00","departure_time":"13:18:00","lat":49.032515,"lon":17.374985,"is_passed":false},{"stop_id":"U30342Z11","name":"Kostelany nad Moravou","arrival_time":"13:20:00","departure_time":"13:20:00","lat":49.052678,"lon":17.396915,"is_passed":false},{"stop_id":"U31028Z11","name":"Staré Město u Uherského Hradiště","arrival_time":"13:24:00","departure_time":"13:24:00","lat":49.076212,"lon":17.422903,"is_passed":false}],"1091":[{"stop_id":"U31028Z10","name":"Staré Město u Uherského Hradiště","arrival_time":"15:37:00","departure_time":"15:37:00","lat":49.076247,"lon":17.422785,"is_passed":false},{"stop_id":"U30342Z10","name":"Kostelany nad Moravou","arrival_time":"15:39:00","departure_time":"15:39:00","lat":49.052678,"lon":17.396915,"is_passed":false},{"stop_id":"U30319Z10","name":"Nedakonice","arrival_time":"15:42:00","departure_time":"15:43:00","lat":49.032515,"lon":17.374985,"is_passed":false},{"stop_id":"U29301Z10","name":"Moravský Písek zastávka","arrival_time":"15:46:00","departure_time":"15:47:00","lat":48.990628,"lon":17.329288,"is_passed":false},{"stop_id":"U19302Z10","name":"Moravský Písek, Kolonie, žel. stanice","arrival_time":"15:49:00","departure_time":"15:50:00","lat":48.977119,"lon":17.314582,"is_passed":false},{"stop_id":"U16905Z10","name":"Bzenec, Přívoz, železniční stanice","arrival_time":"15:54:00","departure_time":"15:54:00","lat":48.936778,"lon":17.289314,"is_passed":false},{"stop_id":"U29103Z10","name":"Rohatec","arrival_time":"16:00:00","departure_time":"16:00:00","lat":48.892515,"lon":17.197852,"is_passed":false},{"stop_id":"U29102Z10","name":"Rohatec zastávka","arrival_time":"16:02:00","departure_time":"16:03:00","lat":48.88309,"lon":17.178111,"is_passed":false},{"stop_id":"U19001Z20","name":"Hodonín, autobusové nádraží","arrival_time":"16:06:00","departure_time":"16:07:00","lat":48.85575,"lon":17.12069,"is_passed":false},{"stop_id":"U19119Z10","name":"Lužice, železniční stanice","arrival_time":"16:11:00","departure_time":"16:12:00","lat":48.827619,"lon":17.061961,"is_passed":false},{"stop_id":"U19129Z10","name":"Moravská Nová Ves, železniční stanice","arrival_time":"16:15:00","departure_time":"16:16:00","lat":48.799493,"lon":17.021674,"is_passed":false},{"stop_id":"U29101Z10","name":"Hrušky zastávka","arrival_time":"16:19:00","departure_time":"16:19:00","lat":48.786692,"lon":16.980171,"is_passed":false},{"stop_id":"U15729Z10","name":"Břeclav, autobusové nádraží","arrival_time":"16:25:00","departure_time":"16:35:00","lat":48.753851,"lon":16.893169,"is_passed":false}],"1092":[{"stop_id":"U15729Z11","name":"Břeclav, autobusové nádraží","arrival_time":"16:35:00","departure_time":"16:35:00","lat":48.753851,"lon":16.893169,"is_passed":false},{"stop_id":"U29101Z11","name":"Hrušky zastávka","arrival_time":"16:41:00","departure_time":"16:41:00","lat":48.787328,"lon":16.982583,"is_passed":false},{"stop_id":"U19129Z11","name":"Moravská Nová Ves, železniční stanice","arrival_time":"16:44:00","departure_time":"16:45:00","lat":48.799493,"lon":17.021674,"is_passed":false},{"stop_id":"U19119Z11","name":"Lužice, železniční stanice","arrival_time":"16:48:00","departure_time":"16:48:00","lat":48.827619,"lon":17.061961,"is_passed":false},{"stop_id":"U19001Z21","name":"Hodonín, autobusové nádraží","arrival_time":"16:52:00","departure_time":"16:54:00","lat":48.85575,"lon":17.12069,"is_passed":false},{"stop_id":"U29102Z11","name":"Rohatec zastávka","arrival_time":"16:57:00","departure_time":"16:58:00","lat":48.88309,"lon":17.178111,"is_passed":false},{"stop_id":"U29103Z11","name":"Rohatec","arrival_time":"17:00:00","departure_time":"17:01:00","lat":48.892515,"lon":17.197852,"is_passed":false},{"stop_id":"U16905Z11","name":"Bzenec, Přívoz, železniční stanice","arrival_time":"17:06:00","departure_time":"17:06:00","lat":48.936848,"lon":17.289411,"is_passed":false},{"stop_id":"U19302Z11","name":"Moravský Písek, Kolonie, žel. stanice","arrival_time":"17:10:00","departure_time":"17:11:00","lat":48.977119,"lon":17.314582,"is_passed":false},{"stop_id":"U29301Z11","name":"Moravský Písek zastávka","arrival_time":"17:13:00","departure_time":"17:13:00","lat":48.991141,"lon":17.330034,"is_passed":false},{"stop_id":"U30319Z11","name":"Nedakonice","arrival_time":"17:17:00","departure_time":"17:18:00","lat":49.032515,"lon":17.374985,"is_passed":false},{"stop_id":"U30342Z11","name":"Kostelany nad Moravou","arrival_time":"17:20:00","departure_time":"17:20:00","lat":49.052678,"lon":17.396915,"is_passed":false},{"stop_id":"U31028Z11","name":"Staré Město u Uherského Hradiště","arrival_time":"17:24:00","departure_time":"17:24:00","lat":49.076212,"lon":17.422903,"is_passed":false}],"1093":[{"stop_id":"U31028Z10","name":"Staré Město u Uherského Hradiště","arrival_time":"20:37:00","departure_time":"20:37:00","lat":49.076247,"lon":17.422785,"is_passed":false},{"stop_id":"U30342Z10","name":"Kostelany nad Moravou","arrival_time":"20:39:00","departure_time":"20:39:00","lat":49.052678,"lon":17.396915,"is_passed":false},{"stop_id":"U30319Z10","name":"Nedakonice","arrival_time":"20:42:00","departure_time":"20:43:00","lat":49.032515,"lon":17.374985,"is_passed":false},{"stop_id":"U29301Z10","name":"Moravský Písek zastávka","arrival_time":"20:46:00","departure_time":"20:47:00","lat":48.990628,"lon":17.329288,"is_passed":false},{"stop_id":"U19302Z10","name":"Moravský Písek, Kolonie, žel. stanice","arrival_time":"20:49:00","departure_time":"20:50:00","lat":48.977119,"lon":17.314582,"is_passed":false},{"stop_id":"U16905Z10","name":"Bzenec, Přívoz, železniční stanice","arrival_time":"20:54:00","departure_time":"20:54:00","lat":48.936778,"lon":17.289314,"is_passed":false},{"stop_id":"U29103Z10","name":"Rohatec","arrival_time":"21:00:00","departure_time":"21:00:00","lat":48.892515,"lon":17.197852,"is_passed":false},{"stop_id":"U29102Z10","name":"Rohatec zastávka","arrival_time":"21:02:00","departure_time":"21:03:00","lat":48.88309,"lon":17.178111,"is_passed":false},{"stop_id":"U19001Z20","name":"Hodonín, autobusové nádraží","arrival_time":"21:06:00","departure_time":"21:07:00","lat":48.85575,"lon":17.12069,"is_passed":false},{"stop_id":"U19119Z10","name":"Lužice, železniční stanice","arrival_time":"21:11:00","departure_time":"21:12:00","lat":48.827619,"lon":17.061961,"is_passed":false},{"stop_id":"U19129Z10","name":"Moravská Nová Ves, železniční stanice","arrival_time":"21:15:00","departure_time":"21:16:00","lat":48.799493,"lon":17.021674,"is_passed":false},{"stop_id":"U29101Z10","name":"Hrušky zastávka","arrival_time":"21:19:00","departure_time":"21:19:00","lat":48.786692,"lon":16.980171,"is_passed":false},{"stop_id":"U15729Z10","name":"Břeclav, autobusové nádraží","arrival_time":"21:25:00","departure_time":"21:25:00","lat":48.753851,"lon":16.893169,"is_passed":false}],"1094":[{"stop_id":"U15729Z11","name":"Břeclav, autobusové nádraží","arrival_time":"4:35:00","departure_time":"4:35:00","lat":48.753851,"lon":16.893169,"is_passed":false},{"stop_id":"U29101Z11","name":"Hrušky zastávka","arrival_time":"4:41:00","departure_time":"4:41:00","lat":48.787328,"lon":16.982583,"is_passed":false},{"stop_id":"U19129Z11","name":"Moravská Nová Ves, železniční stanice","arrival_time":"4:44:00","departure_time":"4:45:00","lat":48.799493,"lon":17.021674,"is_passed":false},{"stop_id":"U19119Z11","name":"Lužice, železniční stanice","arrival_time":"4:48:00","departure_time":"4:48:00","lat":48.827619,"lon":17.061961,"is_passed":false},{"stop_id":"U19001Z21","name":"Hodonín, autobusové nádraží","arrival_time":"4:52:00","departure_time":"4:54:00","lat":48.85575,"lon":17.12069,"is_passed":false},{"stop_id":"U29102Z11","name":"Rohatec zastávka","arrival_time":"4:57:00","departure_time":"4:58:00","lat":48.88309,"lon":17.178111,"is_passed":false},{"stop_id":"U29103Z11","name":"Rohatec","arrival_time":"5:00:00","departure_time":"5:01:00","lat":48.892515,"lon":17.197852,"is_passed":false},{"stop_id":"U16905Z11","name":"Bzenec, Přívoz, železniční stanice","arrival_time":"5:06:00","departure_time":"5:06:00","lat":48.936848,"lon":17.289411,"is_passed":false},{"stop_id":"U19302Z11","name":"Moravský Písek, Kolonie, žel. stanice","arrival_time":"5:10:00","departure_time":"5:11:00","lat":48.977119,"lon":17.314582,"is_passed":false},{"stop_id":"U29301Z11","name":"Moravský Písek zastávka","arrival_time":"5:13:00","departure_time":"5:13:00","lat":48.991141,"lon":17.330034,"is_passed":false},{"stop_id":"U30319Z11","name":"Nedakonice","arrival_time":"5:17:00","departure_time":"5:18:00","lat":49.032515,"lon":17.374985,"is_passed":false},{"stop_id":"U30342Z11","name":"Kostelany nad Moravou","arrival_time":"5:20:00","departure_time":"5:20:00","lat":49.052678,"lon":17.396915,"is_passed":false},{"stop_id":"U31028Z11","name":"Staré Město u Uherského Hradiště","arrival_time":"5:24:00","departure_time":"5:24:00","lat":49.076212,"lon":17.422903,"is_passed":false}],"1095":[{"stop_id":"U31028Z10","name":"Staré Město u Uherského Hradiště","arrival_time":"14:37:00","departure_time":"14:37:00","lat":49.076247,"lon":17.422785,"is_passed":false},{"stop_id":"U30342Z10","name":"Kostelany nad Moravou","arrival_time":"14:39:00","departure_time":"14:39:00","lat":49.052678,"lon":17.396915,"is_passed":false},{"stop_id":"U30319Z10","name":"Nedakonice","arrival_time":"14:42:00","departure_time":"14:43:00","lat":49.032515,"lon":17.374985,"is_passed":false},{"stop_id":"U29301Z10","name":"Moravský Písek zastávka","arrival_time":"14:46:00","departure_time":"14:47:00","lat":48.990628,"lon":17.329288,"is_passed":false},{"stop_id":"U19302Z10","name":"Moravský Písek, Kolonie, žel. stanice","arrival_time":"14:49:00","departure_time":"14:50:00","lat":48.977119,"lon":17.314582,"is_passed":false},{"stop_id":"U16905Z10","name":"Bzenec, Přívoz, železniční stanice","arrival_time":"14:54:00","departure_time":"14:54:00","lat":48.936778,"lon":17.289314,"is_passed":false},{"stop_id":"U29103Z10","name":"Rohatec","arrival_time":"15:00:00","departure_time":"15:00:00","lat":48.892515,"lon":17.197852,"is_passed":false},{"stop_id":"U29102Z10","name":"Rohatec zastávka","arrival_time":"15:02:00","departure_time":"15:03:00","lat":48.88309,"lon":17.178111,"is_passed":false},{"stop_id":"U19001Z20","name":"Hodonín, autobusové nádraží","arrival_time":"15:06:00","departure_time":"15:07:00","lat":48.85575,"lon":17.12069,"is_passed":false},{"stop_id":"U19119Z10","name":"Lužice, železniční stanice","arrival_time":"15:11:00","departure_time":"15:12:00","lat":48.827619,"lon":17.061961,"is_passed":false},{"stop_id":"U19129Z10","name":"Moravská Nová Ves, železniční stanice","arrival_time":"15:15:00","departure_time":"15:16:00","lat":48.799493,"lon":17.021674,"is_passed":false},{"stop_id":"U29101Z10","name":"Hrušky zastávka","arrival_time":"15:19:00","departure_time":"15:19:00","lat":48.786692,"lon":16.980171,"is_passed":false},{"stop_id":"U15729Z10","name":"Břeclav, autobusové nádraží","arrival_time":"15:25:00","departure_time":"15:35:00","lat":48.753851,"lon":16.893169,"is_passed":false}],"1096":[{"stop_id":"U15729Z11","name":"Břeclav, autobusové nádraží","arrival_time":"15:35:00","departure_time":"15:35:00","lat":48.753851,"lon":16.893169,"is_passed":false},{"stop_id":"U29101Z11","name":"Hrušky zastávka","arrival_time":"15:41:00","departure_time":"15:41:00","lat":48.787328,"lon":16.982583,"is_passed":false},{"stop_id":"U19129Z11","name":"Moravská Nová Ves, železniční stanice","arrival_time":"15:44:00","departure_time":"15:45:00","lat":48.799493,"lon":17.021674,"is_passed":false},{"stop_id":"U19119Z11","name":"Lužice, železniční stanice","arrival_time":"15:48:00","departure_time":"15:48:00","lat":48.827619,"lon":17.061961,"is_passed":false},{"stop_id":"U19001Z21","name":"Hodonín, autobusové nádraží","arrival_time":"15:52:00","departure_time":"15:54:00","lat":48.85575,"lon":17.12069,"is_passed":false},{"stop_id":"U29102Z11","name":"Rohatec zastávka","arrival_time":"15:57:00","departure_time":"15:58:00","lat":48.88309,"lon":17.178111,"is_passed":false},{"stop_id":"U29103Z11","name":"Rohatec","arrival_time":"16:00:00","departure_time":"16:01:00","lat":48.892515,"lon":17.197852,"is_passed":false},{"stop_id":"U16905Z11","name":"Bzenec, Přívoz, železniční stanice","arrival_time":"16:06:00","departure_time":"16:06:00","lat":48.936848,"lon":17.289411,"is_passed":false},{"stop_id":"U19302Z11","name":"Moravský Písek, Kolonie, žel. stanice","arrival_time":"16:10:00","departure_time":"16:11:00","lat":48.977119,"lon":17.314582,"is_passed":false},{"stop_id":"U29301Z11","name":"Moravský Písek zastávka","arrival_time":"16:13:00","departure_time":"16:13:00","lat":48.991141,"lon":17.330034,"is_passed":false},{"stop_id":"U30319Z11","name":"Nedakonice","arrival_time":"16:17:00","departure_time":"16:18:00","lat":49.032515,"lon":17.374985,"is_passed":false},{"stop_id":"U30342Z11","name":"Kostelany nad Moravou","arrival_time":"16:20:00","departure_time":"16:20:00","lat":49.052678,"lon":17.396915,"is_passed":false},{"stop_id":"U31028Z11","name":"Staré Město u Uherského Hradiště","arrival_time":"16:24:00","departure_time":"16:24:00","lat":49.076212,"lon":17.422903,"is_passed":false}],"1097":[{"stop_id":"U31028Z10","name":"Staré Město u Uherského Hradiště","arrival_time":"18:37:00","departure_time":"18:37:00","lat":49.076247,"lon":17.422785,"is_passed":false},{"stop_id":"U30342Z10","name":"Kostelany nad Moravou","arrival_time":"18:39:00","departure_time":"18:39:00","lat":49.052678,"lon":17.396915,"is_passed":false},{"stop_id":"U30319Z10","name":"Nedakonice","arrival_time":"18:42:00","departure_time":"18:43:00","lat":49.032515,"lon":17.374985,"is_passed":false},{"stop_id":"U29301Z10","name":"Moravský Písek zastávka","arrival_time":"18:46:00","departure_time":"18:47:00","lat":48.990628,"lon":17.329288,"is_passed":false},{"stop_id":"U19302Z10","name":"Moravský Písek, Kolonie, žel. stanice","arrival_time":"18:49:00","departure_time":"18:50:00","lat":48.977119,"lon":17.314582,"is_passed":false},{"stop_id":"U16905Z10","name":"Bzenec, Přívoz, železniční stanice","arrival_time":"18:54:00","departure_time":"18:54:00","lat":48.936778,"lon":17.289314,"is_passed":false},{"stop_id":"U29103Z10","name":"Rohatec","arrival_time":"19:00:00","departure_time":"19:00:00","lat":48.892515,"lon":17.197852,"is_passed":false},{"stop_id":"U29102Z10","name":"Rohatec zastávka","arrival_time":"19:02:00","departure_time":"19:03:00","lat":48.88309,"lon":17.178111,"is_passed":false},{"stop_id":"U19001Z20","name":"Hodonín, autobusové nádraží","arrival_time":"19:06:00","departure_time":"19:07:00","lat":48.85575,"lon":17.12069,"is_passed":false},{"stop_id":"U19119Z10","name":"Lužice, železniční stanice","arrival_time":"19:11:00","departure_time":"19:12:00","lat":48.827619,"lon":17.061961,"is_passed":false},{"stop_id":"U19129Z10","name":"Moravská Nová Ves, železniční stanice","arrival_time":"19:15:00","departure_time":"19:16:00","lat":48.799493,"lon":17.021674,"is_passed":false},{"stop_id":"U29101Z10","name":"Hrušky zastávka","arrival_time":"19:19:00","departure_time":"19:19:00","lat":48.786692,"lon":16.980171,"is_passed":false},{"stop_id":"U15729Z10","name":"Břeclav, autobusové nádraží","arrival_time":"19:25:00","departure_time":"19:35:00","lat":48.753851,"lon":16.893169,"is_passed":false}],"1098":[{"stop_id":"U15729Z11","name":"Břeclav, autobusové nádraží","arrival_time":"19:35:00","departure_time":"19:35:00","lat":48.753851,"lon":16.893169,"is_passed":false},{"stop_id":"U29101Z11","name":"Hrušky zastávka","arrival_time":"19:41:00","departure_time":"19:41:00","lat":48.787328,"lon":16.982583,"is_passed":false},{"stop_id":"U19129Z11","name":"Moravská Nová Ves, železniční stanice","arrival_time":"19:44:00","departure_time":"19:45:00","lat":48.799493,"lon":17.021674,"is_passed":false},{"stop_id":"U19119Z11","name":"Lužice, železniční stanice","arrival_time":"19:48:00","departure_time":"19:48:00","lat":48.827619,"lon":17.061961,"is_passed":false},{"stop_id":"U19001Z21","name":"Hodonín, autobusové nádraží","arrival_time":"19:53:00","departure_time":"20:07:00","lat":48.85575,"lon":17.12069,"is_passed":false}],"1099":[{"stop_id":"U19001Z20","name":"Hodonín, autobusové nádraží","arrival_time":"20:07:00","departure_time":"20:07:00","lat":48.85575,"lon":17.12069,"is_passed":false},{"stop_id":"U19119Z10","name":"Lužice, železniční stanice","arrival_time":"20:11:00","departure_time":"20:12:00","lat":48.827619,"lon":17.061961,"is_passed":false},{"stop_id":"U19129Z10","name":"Moravská Nová Ves, železniční stanice","arrival_time":"20:15:00","departure_time":"20:16:00","lat":48.799493,"lon":17.021674,"is_passed":false},{"stop_id":"U29101Z10","name":"Hrušky zastávka","arrival_time":"20:19:00","departure_time":"20:19:00","lat":48.786692,"lon":16.980171,"is_passed":false},{"stop_id":"U15729Z10","name":"Břeclav, autobusové nádraží","arrival_time":"20:25:00","departure_time":"20:35:00","lat":48.753851,"lon":16.893169,"is_passed":false}],"10900":[{"stop_id":"U12342Z29","name":"Blansko, aut. st.","arrival_time":"2:30:00","departure_time":"2:30:00","lat":49.352753,"lon":16.646848,"is_passed":false},{"stop_id":"U1146Z98","name":"Hlavní nádraží","arrival_time":"2:49:00","departure_time":"2:49:00","lat":49.19035,"lon":16.612342,"is_passed":false}],"10901":[{"stop_id":"U1146Z99","name":"Hlavní nádraží","arrival_time":"3:10:00","departure_time":"3:10:00","lat":49.19035,"lon":16.612342,"is_passed":false},{"stop_id":"U12342Z30","name":"Blansko, aut. st.","arrival_time":"3:28:00","departure_time":"3:29:00","lat":49.352753,"lon":16.646848,"is_passed":false}],"10902":[{"stop_id":"U1146Z99","name":"Hlavní nádraží","arrival_time":"4:28:00","departure_time":"4:28:00","lat":49.19035,"lon":16.612342,"is_passed":false},{"stop_id":"U12342Z30","name":"Blansko, aut. st.","arrival_time":"4:48:00","departure_time":"4:50:00","lat":49.352753,"lon":16.646848,"is_passed":false},{"stop_id":"U12736Z50","name":"Letovice, železniční stanice","arrival_time":"5:05:00","departure_time":"5:07:00","lat":49.555973,"lon":16.570906,"is_passed":false}],"10903":[{"stop_id":"U12936Z11","name":"Březová nad Svitavou, železniční stanice","arrival_time":"7:13:00","departure_time":"7:13:00","lat":49.633104,"lon":16.520656,"is_passed":false},{"stop_id":"U12804Z11","name":"Brněnec, Mor.Chrastová, žel.st.","arrival_time":"7:14:00","departure_time":"7:15:00","lat":49.623616,"lon":16.524459,"is_passed":false},{"stop_id":"U12819Z11","name":"Rozhraní, železniční zastávka","arrival_time":"7:18:00","departure_time":"7:19:00","lat":49.601763,"lon":16.532438,"is_passed":false},{"stop_id":"U12736Z51","name":"Letovice, železniční stanice","arrival_time":"7:23:00","departure_time":"7:24:00","lat":49.555973,"lon":16.570906,"is_passed":false},{"stop_id":"U12676Z51","name":"Skalice nad Svitavou, žel.st.","arrival_time":"7:30:00","departure_time":"7:31:00","lat":49.480123,"lon":16.609726,"is_passed":false},{"stop_id":"U12342Z29","name":"Blansko, aut. st.","arrival_time":"7:42:00","departure_time":"7:44:00","lat":49.352753,"lon":16.646848,"is_passed":false},{"stop_id":"U1146Z98","name":"Hlavní nádraží","arrival_time":"8:02:00","departure_time":"8:02:00","lat":49.19035,"lon":16.612342,"is_passed":false}],"10904":[{"stop_id":"U12936Z11","name":"Březová nad Svitavou, železniční stanice","arrival_time":"8:16:00","departure_time":"8:16:00","lat":49.633104,"lon":16.520656,"is_passed":false},{"stop_id":"U12736Z51","name":"Letovice, železniční stanice","arrival_time":"8:22:00","departure_time":"8:23:00","lat":49.555973,"lon":16.570906,"is_passed":false},{"stop_id":"U12676Z51","name":"Skalice nad Svitavou, žel.st.","arrival_time":"8:30:00","departure_time":"8:31:00","lat":49.480123,"lon":16.609726,"is_passed":false},{"stop_id":"U12342Z29","name":"Blansko, aut. st.","arrival_time":"8:41:00","departure_time":"8:42:00","lat":49.352753,"lon":16.646848,"is_passed":false},{"stop_id":"U1146Z98","name":"Hlavní nádraží","arrival_time":"9:03:00","departure_time":"9:03:00","lat":49.19035,"lon":16.612342,"is_passed":false}],"10905":[{"stop_id":"U1146Z99","name":"Hlavní nádraží","arrival_time":"6:56:00","departure_time":"6:56:00","lat":49.19035,"lon":16.612342,"is_passed":false},{"stop_id":"U12342Z30","name":"Blansko, aut. st.","arrival_time":"7:14:00","departure_time":"7:16:00","lat":49.352753,"lon":16.646848,"is_passed":false},{"stop_id":"U12676Z50","name":"Skalice nad Svitavou, žel.st.","arrival_time":"7:25:00","departure_time":"7:29:00","lat":49.480123,"lon":16.609726,"is_passed":false},{"stop_id":"U12736Z50","name":"Letovice, železniční stanice","arrival_time":"7:36:00","departure_time":"7:37:00","lat":49.555973,"lon":16.570906,"is_passed":false},{"stop_id":"U12936Z10","name":"Březová nad Svitavou, železniční stanice","arrival_time":"7:44:00","departure_time":"7:45:00","lat":49.633104,"lon":16.520656,"is_passed":false}],"10906":[{"stop_id":"U12936Z11","name":"Březová nad Svitavou, železniční stanice","arrival_time":"10:16:00","departure_time":"10:16:00","lat":49.633104,"lon":16.520656,"is_passed":false},{"stop_id":"U12736Z51","name":"Letovice, železniční stanice","arrival_time":"10:22:00","departure_time":"10:23:00","lat":49.555973,"lon":16.570906,"is_passed":false},{"stop_id":"U12676Z51","name":"Skalice nad Svitavou, žel.st.","arrival_time":"10:30:00","departure_time":"10:31:00","lat":49.480123,"lon":16.609726,"is_passed":false},{"stop_id":"U12342Z29","name":"Blansko, aut. st.","arrival_time":"10:41:00","departure_time":"10:42:00","lat":49.352753,"lon":16.646848,"is_passed":false},{"stop_id":"U1146Z98","name":"Hlavní nádraží","arrival_time":"11:02:00","departure_time":"11:02:00","lat":49.19035,"lon":16.612342,"is_passed":false}],"10907":[{"stop_id":"U1146Z99","name":"Hlavní nádraží","arrival_time":"8:56:00","departure_time":"8:56:00","lat":49.19035,"lon":16.612342,"is_passed":false},{"stop_id":"U12342Z30","name":"Blansko, aut. st.","arrival_time":"9:14:00","departure_time":"9:16:00","lat":49.352753,"lon":16.646848,"is_passed":false},{"stop_id":"U12676Z50","name":"Skalice nad Svitavou, žel.st.","arrival_time":"9:25:00","departure_time":"9:29:00","lat":49.480123,"lon":16.609726,"is_passed":false},{"stop_id":"U12736Z50","name":"Letovice, železniční stanice","arrival_time":"9:36:00","departure_time":"9:37:00","lat":49.555973,"lon":16.570906,"is_passed":false},{"stop_id":"U12936Z10","name":"Březová nad Svitavou, železniční stanice","arrival_time":"9:44:00","departure_time":"9:45:00","lat":49.633104,"lon":16.520656,"is_passed":false}],"10908":[{"stop_id":"U12936Z11","name":"Březová nad Svitavou, železniční stanice","arrival_time":"12:16:00","departure_time":"12:16:00","lat":49.633104,"lon":16.520656,"is_passed":false},{"stop_id":"U12736Z51","name":"Letovice, železniční stanice","arrival_time":"12:22:00","departure_time":"12:23:00","lat":49.555973,"lon":16.570906,"is_passed":false},{"stop_id":"U12676Z51","name":"Skalice nad Svitavou, žel.st.","arrival_time":"12:30:00","departure_time":"12:31:00","lat":49.480123,"lon":16.609726,"is_passed":false},{"stop_id":"U12342Z29","name":"Blansko, aut. st.","arrival_time":"12:41:00","departure_time":"12:42:00","lat":49.352753,"lon":16.646848,"is_passed":false},{"stop_id":"U1146Z98","name":"Hlavní nádraží","arrival_time":"13:02:00","departure_time":"13:02:00","lat":49.19035,"lon":16.612342,"is_passed":false}],"10909":[{"stop_id":"U1146Z99","name":"Hlavní nádraží","arrival_time":"10:56:00","departure_time":"10:56:00","lat":49.19035,"lon":16.612342,"is_passed":false},{"stop_id":"U12342Z30","name":"Blansko, aut. st.","arrival_time":"11:14:00","departure_time":"11:16:00","lat":49.352753,"lon":16.646848,"is_passed":false},{"stop_id":"U12676Z50","name":"Skalice nad Svitavou, žel.st.","arrival_time":"11:25:00","departure_time":"11:29:00","lat":49.480123,"lon":16.609726,"is_passed":false},{"stop_id":"U12736Z50","name":"Letovice, železniční stanice","arrival_time":"11:36:00","departure_time":"11:37:00","lat":49.555973,"lon":16.570906,"is_passed":false},{"stop_id":"U12936Z10","name":"Březová nad Svitavou, železniční stanice","arrival_time":"11:44:00","departure_time":"11:45:00","lat":49.633104,"lon":16.520656,"is_passed":false}],"10910":[{"stop_id":"U12936Z11","name":"Březová nad Svitavou, železniční stanice","arrival_time":"14:16:00","departure_time":"14:16:00","lat":49.633104,"lon":16.520656,"is_passed":false},{"stop_id":"U12736Z51","name":"Letovice, železniční stanice","arrival_time":"14:22:00","departure_time":"14:23:00","lat":49.555973,"lon":16.570906,"is_passed":false},{"stop_id":"U12676Z51","name":"Skalice nad Svitavou, žel.st.","arrival_time":"14:30:00","departure_time":"14:31:00","lat":49.480123,"lon":16.609726,"is_passed":false},{"stop_id":"U12342Z29","name":"Blansko, aut. st.","arrival_time":"14:41:00","departure_time":"14:42:00","lat":49.352753,"lon":16.646848,"is_passed":false},{"stop_id":"U1146Z98","name":"Hlavní nádraží","arrival_time":"15:02:00","departure_time":"15:02:00","lat":49.19035,"lon":16.612342,"is_passed":false}],"10911":[{"stop_id":"U1146Z99","name":"Hlavní nádraží","arrival_time":"12:56:00","departure_time":"12:56:00","lat":49.19035,"lon":16.612342,"is_passed":false},{"stop_id":"U12342Z30","name":"Blansko, aut. st.","arrival_time":"13:14:00","departure_time":"13:16:00","lat":49.352753,"lon":16.646848,"is_passed":false},{"stop_id":"U12676Z50","name":"Skalice nad Svitavou, žel.st.","arrival_time":"13:25:00","departure_time":"13:29:00","lat":49.480123,"lon":16.609726,"is_passed":false},{"stop_id":"U12736Z50","name":"Letovice, železniční stanice","arrival_time":"13:36:00","departure_time":"13:37:00","lat":49.555973,"lon":16.570906,"is_passed":false},{"stop_id":"U12936Z10","name":"Březová nad Svitavou, železniční stanice","arrival_time":"13:44:00","departure_time":"13:45:00","lat":49.633104,"lon":16.520656,"is_passed":false}],"10912":[{"stop_id":"U12936Z11","name":"Březová nad Svitavou, železniční stanice","arrival_time":"16:16:00","departure_time":"16:16:00","lat":49.633104,"lon":16.520656,"is_passed":false},{"stop_id":"U12736Z51","name":"Letovice, železniční stanice","arrival_time":"16:22:00","departure_time":"16:23:00","lat":49.555973,"lon":16.570906,"is_passed":false},{"stop_id":"U12676Z51","name":"Skalice nad Svitavou, žel.st.","arrival_time":"16:30:00","departure_time":"16:31:00","lat":49.480123,"lon":16.609726,"is_passed":false},{"stop_id":"U12342Z29","name":"Blansko, aut. st.","arrival_time":"16:41:00","departure_time":"16:42:00","lat":49.352753,"lon":16.646848,"is_passed":false},{"stop_id":"U1146Z98","name":"Hlavní nádraží","arrival_time":"17:02:00","departure_time":"17:02:00","lat":49.19035,"lon":16.612342,"is_passed":false}],"10913":[{"stop_id":"U1146Z99","name":"Hlavní nádraží","arrival_time":"14:56:00","departure_time":"14:56:00","lat":49.19035,"lon":16.612342,"is_passed":false},{"stop_id":"U12342Z30","name":"Blansko, aut. st.","arrival_time":"15:14:00","departure_time":"15:16:00","lat":49.352753,"lon":16.646848,"is_passed":false},{"stop_id":"U12676Z50","name":"Skalice nad Svitavou, žel.st.","arrival_time":"15:25:00","departure_time":"15:29:00","lat":49.480123,"lon":16.609726,"is_passed":false},{"stop_id":"U12736Z50","name":"Letovice, železniční stanice","arrival_time":"15:36:00","departure_time":"15:37:00","lat":49.555973,"lon":16.570906,"is_passed":false},{"stop_id":"U12936Z10","name":"Březová nad Svitavou, železniční stanice","arrival_time":"15:44:00","departure_time":"15:45:00","lat":49.633104,"lon":16.520656,"is_passed":false}],"10914":[{"stop_id":"U12936Z11","name":"Březová nad Svitavou, železniční stanice","arrival_time":"18:16:00","departure_time":"18:16:00","lat":49.633104,"lon":16.520656,"is_passed":false},{"stop_id":"U12736Z51","name":"Letovice, železniční stanice","arrival_time":"18:22:00","departure_time":"18:23:00","lat":49.555973,"lon":16.570906,"is_passed":false},{"stop_id":"U12676Z51","name":"Skalice nad Svitavou, žel.st.","arrival_time":"18:30:00","departure_time":"18:31:00","lat":49.480123,"lon":16.609726,"is_passed":false},{"stop_id":"U12342Z29","name":"Blansko, aut. st.","arrival_time":"18:41:00","departure_time":"18:42:00","lat":49.352753,"lon":16.646848,"is_passed":false},{"stop_id":"U1146Z98","name":"Hlavní nádraží","arrival_time":"19:02:00","departure_time":"19:02:00","lat":49.19035,"lon":16.612342,"is_passed":false}],"10915":[{"stop_id":"U12936Z11","name":"Březová nad Svitavou, železniční stanice","arrival_time":"20:16:00","departure_time":"20:16:00","lat":49.633104,"lon":16.520656,"is_passed":false},{"stop_id":"U12736Z51","name":"Letovice, železniční stanice","arrival_time":"20:22:00","departure_time":"20:23:00","lat":49.555973,"lon":16.570906,"is_passed":false},{"stop_id":"U12676Z51","name":"Skalice nad Svitavou, žel.st.","arrival_time":"20:30:00","departure_time":"20:31:00","lat":49.480123,"lon":16.609726,"is_passed":false},{"stop_id":"U12342Z29","name":"Blansko, aut. st.","arrival_time":"20:41:00","departure_time":"20:42:00","lat":49.352753,"lon":16.646848,"is_passed":false},{"stop_id":"U1146Z98","name":"Hlavní nádraží","arrival_time":"21:02:00","departure_time":"21:02:00","lat":49.19035,"lon":16.612342,"is_passed":false}],"10916":[{"stop_id":"U1146Z99","name":"Hlavní nádraží","arrival_time":"16:56:00","departure_time":"16:56:00","lat":49.19035,"lon":16.612342,"is_passed":false},{"stop_id":"U12342Z30","name":"Blansko, aut. st.","arrival_time":"17:14:00","departure_time":"17:16:00","lat":49.352753,"lon":16.646848,"is_passed":false},{"stop_id":"U12676Z50","name":"Skalice nad Svitavou, žel.st.","arrival_time":"17:25:00","departure_time":"17:29:00","lat":49.480123,"lon":16.609726,"is_passed":false},{"stop_id":"U12736Z50","name":"Letovice, železniční stanice","arrival_time":"17:36:00","departure_time":"17:37:00","lat":49.555973,"lon":16.570906,"is_passed":false},{"stop_id":"U12936Z10","name":"Březová nad Svitavou, železniční stanice","arrival_time":"17:44:00","departure_time":"17:45:00","lat":49.633104,"lon":16.520656,"is_passed":false}],"10917":[{"stop_id":"U12736Z51","name":"Letovice, železniční stanice","arrival_time":"23:14:00","departure_time":"23:14:00","lat":49.555973,"lon":16.570906,"is_passed":false},{"stop_id":"U12342Z29","name":"Blansko, aut. st.","arrival_time":"23:30:00","departure_time":"23:31:00","lat":49.352753,"lon":16.646848,"is_passed":false},{"stop_id":"U1146Z98","name":"Hlavní nádraží","arrival_time":"23:51:00","departure_time":"23:51:00","lat":49.19035,"lon":16.612342,"is_passed":false}],"10918":[{"stop_id":"U1146Z99","name":"Hlavní nádraží","arrival_time":"18:56:00","departure_time":"18:56:00","lat":49.19035,"lon":16.612342,"is_passed":false},{"stop_id":"U12342Z30","name":"Blansko, aut. st.","arrival_time":"19:14:00","departure_time":"19:16:00","lat":49.352753,"lon":16.646848,"is_passed":false},{"stop_id":"U12676Z50","name":"Skalice nad Svitavou, žel.st.","arrival_time":"19:25:00","departure_time":"19:29:00","lat":49.480123,"lon":16.609726,"is_passed":false},{"stop_id":"U12736Z50","name":"Letovice, železniční stanice","arrival_time":"19:36:00","departure_time":"19:37:00","lat":49.555973,"lon":16.570906,"is_passed":false},{"stop_id":"U12936Z10","name":"Březová nad Svitavou, železniční stanice","arrival_time":"19:44:00","departure_time":"19:45:00","lat":49.633104,"lon":16.520656,"is_passed":false}],"10919":[{"stop_id":"U1146Z99","name":"Hlavní nádraží","arrival_time":"20:46:00","departure_time":"20:46:00","lat":49.19035,"lon":16.612342,"is_passed":false},{"stop_id":"U12342Z30","name":"Blansko, aut. st.","arrival_time":"21:06:00","departure_time":"21:08:00","lat":49.352753,"lon":16.646848,"is_passed":false},{"stop_id":"U12736Z50","name":"Letovice, železniční stanice","arrival_time":"21:23:00","departure_time":"21:25:00","lat":49.555973,"lon":16.570906,"is_passed":false}],"10920":[{"stop_id":"U27503Z1","name":"Nezamyslice","arrival_time":"8:37:00","departure_time":"8:37:00","lat":49.336,"lon":17.1625,"is_passed":false},{"stop_id":"U27502Z1","name":"Chvalkovice na Hané","arrival_time":"8:41:00","departure_time":"8:41:00","lat":49.321667,"lon":17.111389,"is_passed":false},{"stop_id":"U17514Z20","name":"Ivanovice na Hané, aut. st.","arrival_time":"8:44:00","departure_time":"8:48:00","lat":49.306111,"lon":17.086945,"is_passed":false},{"stop_id":"U27501Z1","name":"Hoštice-Heroltice","arrival_time":"8:51:00","departure_time":"8:51:00","lat":49.291389,"lon":17.057778,"is_passed":false},{"stop_id":"U17446Z10","name":"Vyškov, železniční stanice","arrival_time":"8:56:00","departure_time":"8:56:00","lat":49.277222,"lon":16.990833,"is_passed":false}],"10921":[{"stop_id":"U17446Z11","name":"Vyškov, železniční stanice","arrival_time":"7:04:00","departure_time":"7:04:00","lat":49.277222,"lon":16.990833,"is_passed":false},{"stop_id":"U27501Z2","name":"Hoštice-Heroltice","arrival_time":"7:09:00","departure_time":"7:09:00","lat":49.291389,"lon":17.057778,"is_passed":false},{"stop_id":"U17514Z21","name":"Ivanovice na Hané, aut. st.","arrival_time":"7:13:00","departure_time":"7:15:00","lat":49.306111,"lon":17.086945,"is_passed":false},{"stop_id":"U27502Z2","name":"Chvalkovice na Hané","arrival_time":"7:18:00","departure_time":"7:18:00","lat":49.321667,"lon":17.111389,"is_passed":false},{"stop_id":"U27503Z2","name":"Nezamyslice","arrival_time":"7:22:00","departure_time":"7:25:00","lat":49.336,"lon":17.1625,"is_passed":false}],"10922":[{"stop_id":"U17446Z11","name":"Vyškov, železniční stanice","arrival_time":"9:04:00","departure_time":"9:04:00","lat":49.277222,"lon":16.990833,"is_passed":false},{"stop_id":"U27501Z2","name":"Hoštice-Heroltice","arrival_time":"9:09:00","departure_time":"9:09:00","lat":49.291389,"lon":17.057778,"is_passed":false},{"stop_id":"U17514Z21","name":"Ivanovice na Hané, aut. st.","arrival_time":"9:13:00","departure_time":"9:15:00","lat":49.306111,"lon":17.086945,"is_passed":false},{"stop_id":"U27502Z2","name":"Chvalkovice na Hané","arrival_time":"9:18:00","departure_time":"9:18:00","lat":49.321667,"lon":17.111389,"is_passed":false},{"stop_id":"U27503Z2","name":"Nezamyslice","arrival_time":"9:22:00","departure_time":"9:25:00","lat":49.336,"lon":17.1625,"is_passed":false}],"10923":[{"stop_id":"U27503Z1","name":"Nezamyslice","arrival_time":"14:37:00","departure_time":"14:37:00","lat":49.336,"lon":17.1625,"is_passed":false},{"stop_id":"U27502Z1","name":"Chvalkovice na Hané","arrival_time":"14:41:00","departure_time":"14:41:00","lat":49.321667,"lon":17.111389,"is_passed":false},{"stop_id":"U17514Z20","name":"Ivanovice na Hané, aut. st.","arrival_time":"14:44:00","departure_time":"14:48:00","lat":49.306111,"lon":17.086945,"is_passed":false},{"stop_id":"U27501Z1","name":"Hoštice-Heroltice","arrival_time":"14:51:00","departure_time":"14:51:00","lat":49.291389,"lon":17.057778,"is_passed":false},{"stop_id":"U17446Z10","name":"Vyškov, železniční stanice","arrival_time":"14:56:00","departure_time":"14:56:00","lat":49.277222,"lon":16.990833,"is_passed":false}],"10924":[{"stop_id":"U17446Z11","name":"Vyškov, železniční stanice","arrival_time":"13:04:00","departure_time":"13:04:00","lat":49.277222,"lon":16.990833,"is_passed":false},{"stop_id":"U27501Z2","name":"Hoštice-Heroltice","arrival_time":"13:09:00","departure_time":"13:09:00","lat":49.291389,"lon":17.057778,"is_passed":false},{"stop_id":"U17514Z21","name":"Ivanovice na Hané, aut. st.","arrival_time":"13:13:00","departure_time":"13:15:00","lat":49.306111,"lon":17.086945,"is_passed":false},{"stop_id":"U27502Z2","name":"Chvalkovice na Hané","arrival_time":"13:18:00","departure_time":"13:18:00","lat":49.321667,"lon":17.111389,"is_passed":false},{"stop_id":"U27503Z2","name":"Nezamyslice","arrival_time":"13:22:00","departure_time":"13:25:00","lat":49.336,"lon":17.1625,"is_passed":false}],"10925":[{"stop_id":"U27503Z1","name":"Nezamyslice","arrival_time":"16:37:00","departure_time":"16:37:00","lat":49.336,"lon":17.1625,"is_passed":false},{"stop_id":"U27502Z1","name":"Chvalkovice na Hané","arrival_time":"16:41:00","departure_time":"16:41:00","lat":49.321667,"lon":17.111389,"is_passed":false},{"stop_id":"U17514Z20","name":"Ivanovice na Hané, aut. st.","arrival_time":"16:44:00","departure_time":"16:48:00","lat":49.306111,"lon":17.086945,"is_passed":false},{"stop_id":"U27501Z1","name":"Hoštice-Heroltice","arrival_time":"16:51:00","departure_time":"16:51:00","lat":49.291389,"lon":17.057778,"is_passed":false},{"stop_id":"U17446Z10","name":"Vyškov, železniční stanice","arrival_time":"16:56:00","departure_time":"16:56:00","lat":49.277222,"lon":16.990833,"is_passed":false}],"10926":[{"stop_id":"U17446Z11","name":"Vyškov, železniční stanice","arrival_time":"15:04:00","departure_time":"15:04:00","lat":49.277222,"lon":16.990833,"is_passed":false},{"stop_id":"U27501Z2","name":"Hoštice-Heroltice","arrival_time":"15:09:00","departure_time":"15:09:00","lat":49.291389,"lon":17.057778,"is_passed":false},{"stop_id":"U17514Z21","name":"Ivanovice na Hané, aut. st.","arrival_time":"15:13:00","departure_time":"15:15:00","lat":49.306111,"lon":17.086945,"is_passed":false},{"stop_id":"U27502Z2","name":"Chvalkovice na Hané","arrival_time":"15:18:00","departure_time":"15:18:00","lat":49.321667,"lon":17.111389,"is_passed":false},{"stop_id":"U27503Z2","name":"Nezamyslice","arrival_time":"15:22:00","departure_time":"15:25:00","lat":49.336,"lon":17.1625,"is_passed":false}],"10927":[{"stop_id":"U17446Z11","name":"Vyškov, železniční stanice","arrival_time":"17:04:00","departure_time":"17:04:00","lat":49.277222,"lon":16.990833,"is_passed":false},{"stop_id":"U27501Z2","name":"Hoštice-Heroltice","arrival_time":"17:09:00","departure_time":"17:09:00","lat":49.291389,"lon":17.057778,"is_passed":false},{"stop_id":"U17514Z21","name":"Ivanovice na Hané, aut. st.","arrival_time":"17:13:00","departure_time":"17:15:00","lat":49.306111,"lon":17.086945,"is_passed":false},{"stop_id":"U27502Z2","name":"Chvalkovice na Hané","arrival_time":"17:18:00","departure_time":"17:18:00","lat":49.321667,"lon":17.111389,"is_passed":false},{"stop_id":"U27503Z2","name":"Nezamyslice","arrival_time":"17:22:00","departure_time":"17:25:00","lat":49.336,"lon":17.1625,"is_passed":false}],"10928":[{"stop_id":"U27503Z1","name":"Nezamyslice","arrival_time":"21:22:00","departure_time":"21:22:00","lat":49.336,"lon":17.1625,"is_passed":false},{"stop_id":"U27502Z1","name":"Chvalkovice na Hané","arrival_time":"21:26:00","departure_time":"21:26:00","lat":49.321667,"lon":17.111389,"is_passed":false},{"stop_id":"U17514Z20","name":"Ivanovice na Hané, aut. st.","arrival_time":"21:29:00","departure_time":"21:29:00","lat":49.306111,"lon":17.086945,"is_passed":false},{"stop_id":"U27501Z1","name":"Hoštice-Heroltice","arrival_time":"21:32:00","departure_time":"21:32:00","lat":49.291389,"lon":17.057778,"is_passed":false},{"stop_id":"U17446Z10","name":"Vyškov, železniční stanice","arrival_time":"21:37:00","departure_time":"21:37:00","lat":49.277222,"lon":16.990833,"is_passed":false}],"10929":[{"stop_id":"U17446Z11","name":"Vyškov, železniční stanice","arrival_time":"19:04:00","departure_time":"19:04:00","lat":49.277222,"lon":16.990833,"is_passed":false},{"stop_id":"U27501Z2","name":"Hoštice-Heroltice","arrival_time":"19:09:00","departure_time":"19:09:00","lat":49.291389,"lon":17.057778,"is_passed":false},{"stop_id":"U17514Z21","name":"Ivanovice na Hané, aut. st.","arrival_time":"19:13:00","departure_time":"19:15:00","lat":49.306111,"lon":17.086945,"is_passed":false},{"stop_id":"U27502Z2","name":"Chvalkovice na Hané","arrival_time":"19:18:00","departure_time":"19:18:00","lat":49.321667,"lon":17.111389,"is_passed":false},{"stop_id":"U27503Z2","name":"Nezamyslice","arrival_time":"19:22:00","departure_time":"19:25:00","lat":49.336,"lon":17.1625,"is_passed":false}],"10930":[{"stop_id":"U27503Z1","name":"Nezamyslice","arrival_time":"6:37:00","departure_time":"6:37:00","lat":49.336,"lon":17.1625,"is_passed":false},{"stop_id":"U27502Z1","name":"Chvalkovice na Hané","arrival_time":"6:41:00","departure_time":"6:41:00","lat":49.321667,"lon":17.111389,"is_passed":false},{"stop_id":"U17514Z20","name":"Ivanovice na Hané, aut. st.","arrival_time":"6:44:00","departure_time":"6:48:00","lat":49.306111,"lon":17.086945,"is_passed":false},{"stop_id":"U27501Z1","name":"Hoštice-Heroltice","arrival_time":"6:51:00","departure_time":"6:51:00","lat":49.291389,"lon":17.057778,"is_passed":false},{"stop_id":"U17446Z10","name":"Vyškov, železniční stanice","arrival_time":"6:56:00","departure_time":"6:56:00","lat":49.277222,"lon":16.990833,"is_passed":false}],"10931":[{"stop_id":"U17446Z11","name":"Vyškov, železniční stanice","arrival_time":"5:53:00","departure_time":"5:53:00","lat":49.277222,"lon":16.990833,"is_passed":false},{"stop_id":"U27501Z2","name":"Hoštice-Heroltice","arrival_time":"5:58:00","departure_time":"5:58:00","lat":49.291389,"lon":17.057778,"is_passed":false},{"stop_id":"U17514Z21","name":"Ivanovice na Hané, aut. st.","arrival_time":"6:01:00","departure_time":"6:02:00","lat":49.306111,"lon":17.086945,"is_passed":false},{"stop_id":"U27502Z2","name":"Chvalkovice na Hané","arrival_time":"6:04:00","departure_time":"6:04:00","lat":49.321667,"lon":17.111389,"is_passed":false},{"stop_id":"U27503Z2","name":"Nezamyslice","arrival_time":"6:08:00","departure_time":"6:25:00","lat":49.336,"lon":17.1625,"is_passed":false}],"10932":[{"stop_id":"U27503Z1","name":"Nezamyslice","arrival_time":"12:37:00","departure_time":"12:37:00","lat":49.336,"lon":17.1625,"is_passed":false},{"stop_id":"U27502Z1","name":"Chvalkovice na Hané","arrival_time":"12:41:00","departure_time":"12:41:00","lat":49.321667,"lon":17.111389,"is_passed":false},{"stop_id":"U17514Z20","name":"Ivanovice na Hané, aut. st.","arrival_time":"12:44:00","departure_time":"12:48:00","lat":49.306111,"lon":17.086945,"is_passed":false},{"stop_id":"U27501Z1","name":"Hoštice-Heroltice","arrival_time":"12:51:00","departure_time":"12:51:00","lat":49.291389,"lon":17.057778,"is_passed":false},{"stop_id":"U17446Z10","name":"Vyškov, železniční stanice","arrival_time":"12:56:00","departure_time":"12:56:00","lat":49.277222,"lon":16.990833,"is_passed":false}],"10933":[{"stop_id":"U27503Z1","name":"Nezamyslice","arrival_time":"18:37:00","departure_time":"18:37:00","lat":49.336,"lon":17.1625,"is_passed":false},{"stop_id":"U27502Z1","name":"Chvalkovice na Hané","arrival_time":"18:41:00","departure_time":"18:41:00","lat":49.321667,"lon":17.111389,"is_passed":false},{"stop_id":"U17514Z20","name":"Ivanovice na Hané, aut. st.","arrival_time":"18:44:00","departure_time":"18:48:00","lat":49.306111,"lon":17.086945,"is_passed":false},{"stop_id":"U27501Z1","name":"Hoštice-Heroltice","arrival_time":"18:51:00","departure_time":"18:51:00","lat":49.291389,"lon":17.057778,"is_passed":false},{"stop_id":"U17446Z10","name":"Vyškov, železniční stanice","arrival_time":"18:56:00","departure_time":"18:56:00","lat":49.277222,"lon":16.990833,"is_passed":false}],"10934":[{"stop_id":"U15637Z11","name":"Hrušovany nad Jevišovkou, žel. st.","arrival_time":"4:31:00","departure_time":"4:31:00","lat":48.810029,"lon":16.383137,"is_passed":false},{"stop_id":"U25505Z11","name":"Jevišovka","arrival_time":"4:37:00","departure_time":"4:37:00","lat":48.820272,"lon":16.467125,"is_passed":false},{"stop_id":"U15563Z11","name":"Novosedly, železniční stanice","arrival_time":"4:40:00","departure_time":"4:41:00","lat":48.825719,"lon":16.49405,"is_passed":false},{"stop_id":"U25602Z11","name":"Dobré Pole","arrival_time":"4:45:00","departure_time":"4:45:00","lat":48.820008,"lon":16.533833,"is_passed":false},{"stop_id":"U25601Z11","name":"Březí","arrival_time":"4:47:00","departure_time":"4:48:00","lat":48.812925,"lon":16.554169,"is_passed":false},{"stop_id":"U15714Z11","name":"Mikulov, železniční stanice","arrival_time":"4:53:00","departure_time":"4:54:00","lat":48.802203,"lon":16.625492,"is_passed":false},{"stop_id":"U25701Z11","name":"Sedlec u Mikulova","arrival_time":"4:59:00","departure_time":"4:59:00","lat":48.774727,"lon":16.697093,"is_passed":false},{"stop_id":"U15811Z11","name":"Valtice, železniční stanice","arrival_time":"5:03:00","departure_time":"5:06:00","lat":48.747484,"lon":16.742944,"is_passed":false},{"stop_id":"U15828Z11","name":"Valtice, železniční zastávka","arrival_time":"5:08:00","departure_time":"5:08:00","lat":48.748776,"lon":16.762369,"is_passed":false},{"stop_id":"U25702Z11","name":"Boří les","arrival_time":"5:15:00","departure_time":"5:15:00","lat":48.737912,"lon":16.867165,"is_passed":false},{"stop_id":"U15729Z15","name":"Břeclav, autobusové nádraží","arrival_time":"5:19:00","departure_time":"6:04:00","lat":48.753851,"lon":16.893169,"is_passed":false}],"10935":[{"stop_id":"U15729Z14","name":"Břeclav, autobusové nádraží","arrival_time":"6:04:00","departure_time":"6:04:00","lat":48.753851,"lon":16.893169,"is_passed":false},{"stop_id":"U25702Z10","name":"Boří les","arrival_time":"6:07:00","departure_time":"6:07:00","lat":48.737922,"lon":16.866996,"is_passed":false},{"stop_id":"U15828Z10","name":"Valtice, železniční zastávka","arrival_time":"6:14:00","departure_time":"6:14:00","lat":48.748776,"lon":16.762369,"is_passed":false},{"stop_id":"U15811Z10","name":"Valtice, železniční stanice","arrival_time":"6:16:00","departure_time":"6:17:00","lat":48.74752,"lon":16.742831,"is_passed":false},{"stop_id":"U25701Z10","name":"Sedlec u Mikulova","arrival_time":"6:21:00","departure_time":"6:21:00","lat":48.774739,"lon":16.696954,"is_passed":false},{"stop_id":"U15714Z10","name":"Mikulov, železniční stanice","arrival_time":"6:26:00","departure_time":"6:27:00","lat":48.802203,"lon":16.625492,"is_passed":false},{"stop_id":"U25601Z10","name":"Březí","arrival_time":"6:32:00","departure_time":"6:32:00","lat":48.812925,"lon":16.554169,"is_passed":false},{"stop_id":"U25602Z10","name":"Dobré Pole","arrival_time":"6:34:00","departure_time":"6:34:00","lat":48.820008,"lon":16.533833,"is_passed":false},{"stop_id":"U15563Z10","name":"Novosedly, železniční stanice","arrival_time":"6:39:00","departure_time":"6:39:00","lat":48.825719,"lon":16.49405,"is_passed":false},{"stop_id":"U25505Z10","name":"Jevišovka","arrival_time":"6:42:00","departure_time":"6:42:00","lat":48.820272,"lon":16.467125,"is_passed":false},{"stop_id":"U15637Z10","name":"Hrušovany nad Jevišovkou, žel. st.","arrival_time":"6:49:00","departure_time":"6:53:00","lat":48.810029,"lon":16.383137,"is_passed":false},{"stop_id":"U18208Z10","name":"Božice, železniční stanice","arrival_time":"7:00:00","departure_time":"7:01:00","lat":48.823282,"lon":16.287832,"is_passed":false},{"stop_id":"U28101Z10","name":"Hodonice","arrival_time":"7:09:00","departure_time":"7:10:00","lat":48.841514,"lon":16.164403,"is_passed":false},{"stop_id":"U28102Z10","name":"Dyje","arrival_time":"7:14:00","departure_time":"7:14:00","lat":48.850047,"lon":16.1205,"is_passed":false},{"stop_id":"U18009Z20","name":"Znojmo, autobusové nádraží","arrival_time":"7:21:00","departure_time":"8:00:00","lat":48.852761,"lon":16.059287,"is_passed":false}],"10936":[{"stop_id":"U18009Z21","name":"Znojmo, autobusové nádraží","arrival_time":"8:00:00","departure_time":"8:00:00","lat":48.852761,"lon":16.059287,"is_passed":false},{"stop_id":"U28101Z11","name":"Hodonice","arrival_time":"8:09:00","departure_time":"8:10:00","lat":48.841514,"lon":16.164403,"is_passed":false},{"stop_id":"U15637Z11","name":"Hrušovany nad Jevišovkou, žel. st.","arrival_time":"8:25:00","departure_time":"8:28:00","lat":48.810029,"lon":16.383137,"is_passed":false},{"stop_id":"U15714Z11","name":"Mikulov, železniční stanice","arrival_time":"8:44:00","departure_time":"8:46:00","lat":48.802203,"lon":16.625492,"is_passed":false},{"stop_id":"U15828Z11","name":"Valtice, železniční zastávka","arrival_time":"8:58:00","departure_time":"8:59:00","lat":48.748776,"lon":16.762369,"is_passed":false},{"stop_id":"U15729Z15","name":"Břeclav, autobusové nádraží","arrival_time":"9:07:00","departure_time":"9:20:00","lat":48.753851,"lon":16.893169,"is_passed":false}],"10937":[{"stop_id":"U15729Z14","name":"Břeclav, autobusové nádraží","arrival_time":"9:20:00","departure_time":"9:20:00","lat":48.753851,"lon":16.893169,"is_passed":false},{"stop_id":"U15828Z10","name":"Valtice, železniční zastávka","arrival_time":"9:28:00","departure_time":"9:28:00","lat":48.748776,"lon":16.762369,"is_passed":false},{"stop_id":"U25701Z10","name":"Sedlec u Mikulova","arrival_time":"9:33:00","departure_time":"9:34:00","lat":48.774739,"lon":16.696954,"is_passed":false},{"stop_id":"U15714Z10","name":"Mikulov, železniční stanice","arrival_time":"9:39:00","departure_time":"9:39:00","lat":48.802203,"lon":16.625492,"is_passed":false}],"10938":[{"stop_id":"U15729Z14","name":"Břeclav, autobusové nádraží","arrival_time":"10:45:00","departure_time":"10:45:00","lat":48.753851,"lon":16.893169,"is_passed":false},{"stop_id":"U15828Z10","name":"Valtice, železniční zastávka","arrival_time":"10:53:00","departure_time":"10:53:00","lat":48.748776,"lon":16.762369,"is_passed":false},{"stop_id":"U15714Z10","name":"Mikulov, železniční stanice","arrival_time":"11:03:00","departure_time":"11:07:00","lat":48.802203,"lon":16.625492,"is_passed":false},{"stop_id":"U25601Z10","name":"Březí","arrival_time":"11:12:00","departure_time":"11:12:00","lat":48.812925,"lon":16.554169,"is_passed":false},{"stop_id":"U15563Z10","name":"Novosedly, železniční stanice","arrival_time":"11:17:00","departure_time":"11:18:00","lat":48.825719,"lon":16.49405,"is_passed":false},{"stop_id":"U15637Z10","name":"Hrušovany nad Jevišovkou, žel. st.","arrival_time":"11:26:00","departure_time":"11:27:00","lat":48.810029,"lon":16.383137,"is_passed":false},{"stop_id":"U28101Z10","name":"Hodonice","arrival_time":"11:43:00","departure_time":"11:44:00","lat":48.841514,"lon":16.164403,"is_passed":false},{"stop_id":"U18009Z20","name":"Znojmo, autobusové nádraží","arrival_time":"11:53:00","departure_time":"12:59:00","lat":48.852761,"lon":16.059287,"is_passed":false}],"10939":[{"stop_id":"U18009Z21","name":"Znojmo, autobusové nádraží","arrival_time":"12:59:00","departure_time":"12:59:00","lat":48.852761,"lon":16.059287,"is_passed":false},{"stop_id":"U28102Z11","name":"Dyje","arrival_time":"13:04:00","departure_time":"13:04:00","lat":48.850047,"lon":16.1205,"is_passed":false},{"stop_id":"U28101Z11","name":"Hodonice","arrival_time":"13:08:00","departure_time":"13:09:00","lat":48.841514,"lon":16.164403,"is_passed":false},{"stop_id":"U18208Z11","name":"Božice, železniční stanice","arrival_time":"13:17:00","departure_time":"13:18:00","lat":48.823282,"lon":16.287832,"is_passed":false},{"stop_id":"U15637Z11","name":"Hrušovany nad Jevišovkou, žel. st.","arrival_time":"13:25:00","departure_time":"13:29:00","lat":48.810029,"lon":16.383137,"is_passed":false},{"stop_id":"U25505Z11","name":"Jevišovka","arrival_time":"13:35:00","departure_time":"13:35:00","lat":48.820272,"lon":16.467125,"is_passed":false},{"stop_id":"U15563Z11","name":"Novosedly, železniční stanice","arrival_time":"13:38:00","departure_time":"13:39:00","lat":48.825719,"lon":16.49405,"is_passed":false},{"stop_id":"U25602Z11","name":"Dobré Pole","arrival_time":"13:42:00","departure_time":"13:42:00","lat":48.820008,"lon":16.533833,"is_passed":false},{"stop_id":"U25601Z11","name":"Březí","arrival_time":"13:45:00","departure_time":"13:45:00","lat":48.812925,"lon":16.554169,"is_passed":false},{"stop_id":"U15714Z11","name":"Mikulov, železniční stanice","arrival_time":"13:50:00","departure_time":"13:53:00","lat":48.802203,"lon":16.625492,"is_passed":false},{"stop_id":"U25701Z11","name":"Sedlec u Mikulova","arrival_time":"13:58:00","departure_time":"13:59:00","lat":48.774727,"lon":16.697093,"is_passed":false},{"stop_id":"U15811Z11","name":"Valtice, železniční stanice","arrival_time":"14:03:00","departure_time":"14:03:00","lat":48.747484,"lon":16.742944,"is_passed":false},{"stop_id":"U15828Z11","name":"Valtice, železniční zastávka","arrival_time":"14:05:00","departure_time":"14:06:00","lat":48.748776,"lon":16.762369,"is_passed":false},{"stop_id":"U25702Z11","name":"Boří les","arrival_time":"14:12:00","departure_time":"14:12:00","lat":48.737912,"lon":16.867165,"is_passed":false},{"stop_id":"U15729Z15","name":"Břeclav, autobusové nádraží","arrival_time":"14:16:00","departure_time":"14:45:00","lat":48.753851,"lon":16.893169,"is_passed":false}],"10940":[{"stop_id":"U15729Z14","name":"Břeclav, autobusové nádraží","arrival_time":"14:45:00","departure_time":"14:45:00","lat":48.753851,"lon":16.893169,"is_passed":false},{"stop_id":"U15828Z10","name":"Valtice, železniční zastávka","arrival_time":"14:53:00","departure_time":"14:53:00","lat":48.748776,"lon":16.762369,"is_passed":false},{"stop_id":"U15714Z10","name":"Mikulov, železniční stanice","arrival_time":"15:03:00","departure_time":"15:07:00","lat":48.802203,"lon":16.625492,"is_passed":false},{"stop_id":"U25601Z10","name":"Březí","arrival_time":"15:12:00","departure_time":"15:12:00","lat":48.812925,"lon":16.554169,"is_passed":false},{"stop_id":"U15563Z10","name":"Novosedly, železniční stanice","arrival_time":"15:17:00","departure_time":"15:18:00","lat":48.825719,"lon":16.49405,"is_passed":false},{"stop_id":"U15637Z10","name":"Hrušovany nad Jevišovkou, žel. st.","arrival_time":"15:26:00","departure_time":"15:27:00","lat":48.810029,"lon":16.383137,"is_passed":false},{"stop_id":"U28101Z10","name":"Hodonice","arrival_time":"15:43:00","departure_time":"15:44:00","lat":48.841514,"lon":16.164403,"is_passed":false},{"stop_id":"U18009Z20","name":"Znojmo, autobusové nádraží","arrival_time":"15:53:00","departure_time":"16:59:00","lat":48.852761,"lon":16.059287,"is_passed":false}],"10941":[{"stop_id":"U18009Z21","name":"Znojmo, autobusové nádraží","arrival_time":"16:59:00","departure_time":"16:59:00","lat":48.852761,"lon":16.059287,"is_passed":false},{"stop_id":"U28102Z11","name":"Dyje","arrival_time":"17:04:00","departure_time":"17:04:00","lat":48.850047,"lon":16.1205,"is_passed":false},{"stop_id":"U28101Z11","name":"Hodonice","arrival_time":"17:08:00","departure_time":"17:09:00","lat":48.841514,"lon":16.164403,"is_passed":false},{"stop_id":"U18208Z11","name":"Božice, železniční stanice","arrival_time":"17:17:00","departure_time":"17:18:00","lat":48.823282,"lon":16.287832,"is_passed":false},{"stop_id":"U15637Z11","name":"Hrušovany nad Jevišovkou, žel. st.","arrival_time":"17:25:00","departure_time":"17:29:00","lat":48.810029,"lon":16.383137,"is_passed":false},{"stop_id":"U25505Z11","name":"Jevišovka","arrival_time":"17:35:00","departure_time":"17:35:00","lat":48.820272,"lon":16.467125,"is_passed":false},{"stop_id":"U15563Z11","name":"Novosedly, železniční stanice","arrival_time":"17:38:00","departure_time":"17:38:00","lat":48.825719,"lon":16.49405,"is_passed":false},{"stop_id":"U25602Z11","name":"Dobré Pole","arrival_time":"17:42:00","departure_time":"17:42:00","lat":48.820008,"lon":16.533833,"is_passed":false},{"stop_id":"U25601Z11","name":"Březí","arrival_time":"17:45:00","departure_time":"17:45:00","lat":48.812925,"lon":16.554169,"is_passed":false},{"stop_id":"U15714Z11","name":"Mikulov, železniční stanice","arrival_time":"17:50:00","departure_time":"17:53:00","lat":48.802203,"lon":16.625492,"is_passed":false},{"stop_id":"U25701Z11","name":"Sedlec u Mikulova","arrival_time":"17:58:00","departure_time":"17:59:00","lat":48.774727,"lon":16.697093,"is_passed":false},{"stop_id":"U15811Z11","name":"Valtice, železniční stanice","arrival_time":"18:03:00","departure_time":"18:03:00","lat":48.747484,"lon":16.742944,"is_passed":false},{"stop_id":"U15828Z11","name":"Valtice, železniční zastávka","arrival_time":"18:05:00","departure_time":"18:06:00","lat":48.748776,"lon":16.762369,"is_passed":false},{"stop_id":"U25702Z11","name":"Boří les","arrival_time":"18:12:00","departure_time":"18:12:00","lat":48.737912,"lon":16.867165,"is_passed":false},{"stop_id":"U15729Z15","name":"Břeclav, autobusové nádraží","arrival_time":"18:16:00","departure_time":"18:45:00","lat":48.753851,"lon":16.893169,"is_passed":false}],"10942":[{"stop_id":"U15729Z14","name":"Břeclav, autobusové nádraží","arrival_time":"18:45:00","departure_time":"18:45:00","lat":48.753851,"lon":16.893169,"is_passed":false},{"stop_id":"U15828Z10","name":"Valtice, železniční zastávka","arrival_time":"18:53:00","departure_time":"18:53:00","lat":48.748776,"lon":16.762369,"is_passed":false},{"stop_id":"U25701Z10","name":"Sedlec u Mikulova","arrival_time":"18:59:00","departure_time":"19:00:00","lat":48.774739,"lon":16.696954,"is_passed":false},{"stop_id":"U15714Z10","name":"Mikulov, železniční stanice","arrival_time":"19:05:00","departure_time":"19:06:00","lat":48.802203,"lon":16.625492,"is_passed":false},{"stop_id":"U25601Z10","name":"Březí","arrival_time":"19:11:00","departure_time":"19:11:00","lat":48.812925,"lon":16.554169,"is_passed":false},{"stop_id":"U25602Z10","name":"Dobré Pole","arrival_time":"19:13:00","departure_time":"19:13:00","lat":48.820008,"lon":16.533833,"is_passed":false},{"stop_id":"U15563Z10","name":"Novosedly, železniční stanice","arrival_time":"19:18:00","departure_time":"19:18:00","lat":48.825719,"lon":16.49405,"is_passed":false},{"stop_id":"U25505Z10","name":"Jevišovka","arrival_time":"19:21:00","departure_time":"19:21:00","lat":48.820272,"lon":16.467125,"is_passed":false},{"stop_id":"U15637Z10","name":"Hrušovany nad Jevišovkou, žel. st.","arrival_time":"19:28:00","departure_time":"19:29:00","lat":48.810029,"lon":16.383137,"is_passed":false}],"10943":[{"stop_id":"U15637Z10","name":"Hrušovany nad Jevišovkou, žel. st.","arrival_time":"19:29:00","departure_time":"19:29:00","lat":48.810029,"lon":16.383137,"is_passed":false},{"stop_id":"U28101Z10","name":"Hodonice","arrival_time":"19:44:00","departure_time":"19:45:00","lat":48.841514,"lon":16.164403,"is_passed":false},{"stop_id":"U18009Z20","name":"Znojmo, autobusové nádraží","arrival_time":"19:54:00","departure_time":"19:54:00","lat":48.852761,"lon":16.059287,"is_passed":false}],"10944":[{"stop_id":"U18009Z21","name":"Znojmo, autobusové nádraží","arrival_time":"5:34:00","departure_time":"5:34:00","lat":48.852761,"lon":16.059287,"is_passed":false},{"stop_id":"U28102Z11","name":"Dyje","arrival_time":"5:39:00","departure_time":"5:39:00","lat":48.850047,"lon":16.1205,"is_passed":false},{"stop_id":"U28101Z11","name":"Hodonice","arrival_time":"5:43:00","departure_time":"5:44:00","lat":48.841514,"lon":16.164403,"is_passed":false},{"stop_id":"U18208Z11","name":"Božice, železniční stanice","arrival_time":"5:52:00","departure_time":"5:53:00","lat":48.823282,"lon":16.287832,"is_passed":false},{"stop_id":"U15637Z11","name":"Hrušovany nad Jevišovkou, žel. st.","arrival_time":"6:00:00","departure_time":"6:02:00","lat":48.810029,"lon":16.383137,"is_passed":false},{"stop_id":"U25505Z11","name":"Jevišovka","arrival_time":"6:08:00","departure_time":"6:08:00","lat":48.820272,"lon":16.467125,"is_passed":false},{"stop_id":"U15563Z11","name":"Novosedly, železniční stanice","arrival_time":"6:11:00","departure_time":"6:12:00","lat":48.825719,"lon":16.49405,"is_passed":false},{"stop_id":"U25602Z11","name":"Dobré Pole","arrival_time":"6:16:00","departure_time":"6:16:00","lat":48.820008,"lon":16.533833,"is_passed":false},{"stop_id":"U25601Z11","name":"Březí","arrival_time":"6:18:00","departure_time":"6:19:00","lat":48.812925,"lon":16.554169,"is_passed":false},{"stop_id":"U15714Z11","name":"Mikulov, železniční stanice","arrival_time":"6:24:00","departure_time":"6:28:00","lat":48.802203,"lon":16.625492,"is_passed":false},{"stop_id":"U25701Z11","name":"Sedlec u Mikulova","arrival_time":"6:33:00","departure_time":"6:33:00","lat":48.774727,"lon":16.697093,"is_passed":false},{"stop_id":"U15811Z11","name":"Valtice, železniční stanice","arrival_time":"6:37:00","departure_time":"6:38:00","lat":48.747484,"lon":16.742944,"is_passed":false},{"stop_id":"U15828Z11","name":"Valtice, železniční zastávka","arrival_time":"6:40:00","departure_time":"6:40:00","lat":48.748776,"lon":16.762369,"is_passed":false},{"stop_id":"U25702Z11","name":"Boří les","arrival_time":"6:46:00","departure_time":"6:47:00","lat":48.737912,"lon":16.867165,"is_passed":false},{"stop_id":"U15729Z15","name":"Břeclav, autobusové nádraží","arrival_time":"6:50:00","departure_time":"7:41:00","lat":48.753851,"lon":16.893169,"is_passed":false}],"10945":[{"stop_id":"U15729Z14","name":"Břeclav, autobusové nádraží","arrival_time":"7:41:00","departure_time":"7:41:00","lat":48.753851,"lon":16.893169,"is_passed":false},{"stop_id":"U25702Z10","name":"Boří les","arrival_time":"7:44:00","departure_time":"7:44:00","lat":48.737922,"lon":16.866996,"is_passed":false},{"stop_id":"U15828Z10","name":"Valtice, železniční zastávka","arrival_time":"7:51:00","departure_time":"7:51:00","lat":48.748776,"lon":16.762369,"is_passed":false},{"stop_id":"U15811Z10","name":"Valtice, železniční stanice","arrival_time":"7:53:00","departure_time":"7:54:00","lat":48.74752,"lon":16.742831,"is_passed":false},{"stop_id":"U25701Z10","name":"Sedlec u Mikulova","arrival_time":"7:58:00","departure_time":"7:58:00","lat":48.774739,"lon":16.696954,"is_passed":false},{"stop_id":"U15714Z10","name":"Mikulov, železniční stanice","arrival_time":"8:03:00","departure_time":"8:04:00","lat":48.802203,"lon":16.625492,"is_passed":false},{"stop_id":"U25601Z10","name":"Březí","arrival_time":"8:09:00","departure_time":"8:10:00","lat":48.812925,"lon":16.554169,"is_passed":false},{"stop_id":"U25602Z10","name":"Dobré Pole","arrival_time":"8:12:00","departure_time":"8:12:00","lat":48.820008,"lon":16.533833,"is_passed":false},{"stop_id":"U15563Z10","name":"Novosedly, železniční stanice","arrival_time":"8:16:00","departure_time":"8:17:00","lat":48.825719,"lon":16.49405,"is_passed":false},{"stop_id":"U25505Z10","name":"Jevišovka","arrival_time":"8:19:00","departure_time":"8:19:00","lat":48.820272,"lon":16.467125,"is_passed":false},{"stop_id":"U15637Z10","name":"Hrušovany nad Jevišovkou, žel. st.","arrival_time":"8:26:00","departure_time":"8:27:00","lat":48.810029,"lon":16.383137,"is_passed":false},{"stop_id":"U18208Z10","name":"Božice, železniční stanice","arrival_time":"8:35:00","departure_time":"8:35:00","lat":48.823282,"lon":16.287832,"is_passed":false},{"stop_id":"U28101Z10","name":"Hodonice","arrival_time":"8:44:00","departure_time":"8:44:00","lat":48.841514,"lon":16.164403,"is_passed":false},{"stop_id":"U28102Z10","name":"Dyje","arrival_time":"8:48:00","departure_time":"8:48:00","lat":48.850047,"lon":16.1205,"is_passed":false},{"stop_id":"U18009Z20","name":"Znojmo, autobusové nádraží","arrival_time":"8:54:00","departure_time":"10:00:00","lat":48.852761,"lon":16.059287,"is_passed":false}],"10946":[{"stop_id":"U18009Z21","name":"Znojmo, autobusové nádraží","arrival_time":"10:00:00","departure_time":"10:00:00","lat":48.852761,"lon":16.059287,"is_passed":false},{"stop_id":"U28101Z11","name":"Hodonice","arrival_time":"10:09:00","departure_time":"10:10:00","lat":48.841514,"lon":16.164403,"is_passed":false},{"stop_id":"U15637Z11","name":"Hrušovany nad Jevišovkou, žel. st.","arrival_time":"10:25:00","departure_time":"10:28:00","lat":48.810029,"lon":16.383137,"is_passed":false},{"stop_id":"U25601Z11","name":"Březí","arrival_time":"10:40:00","departure_time":"10:40:00","lat":48.812925,"lon":16.554169,"is_passed":false},{"stop_id":"U15714Z11","name":"Mikulov, železniční stanice","arrival_time":"10:45:00","departure_time":"10:46:00","lat":48.802203,"lon":16.625492,"is_passed":false},{"stop_id":"U15828Z11","name":"Valtice, železniční zastávka","arrival_time":"10:58:00","departure_time":"10:59:00","lat":48.748776,"lon":16.762369,"is_passed":false},{"stop_id":"U15729Z15","name":"Břeclav, autobusové nádraží","arrival_time":"11:07:00","departure_time":"11:41:00","lat":48.753851,"lon":16.893169,"is_passed":false}],"10947":[{"stop_id":"U15729Z14","name":"Břeclav, autobusové nádraží","arrival_time":"11:41:00","departure_time":"11:41:00","lat":48.753851,"lon":16.893169,"is_passed":false},{"stop_id":"U25702Z10","name":"Boří les","arrival_time":"11:44:00","departure_time":"11:44:00","lat":48.737922,"lon":16.866996,"is_passed":false},{"stop_id":"U15828Z10","name":"Valtice, železniční zastávka","arrival_time":"11:51:00","departure_time":"11:51:00","lat":48.748776,"lon":16.762369,"is_passed":false},{"stop_id":"U15811Z10","name":"Valtice, železniční stanice","arrival_time":"11:53:00","departure_time":"11:54:00","lat":48.74752,"lon":16.742831,"is_passed":false},{"stop_id":"U25701Z10","name":"Sedlec u Mikulova","arrival_time":"11:58:00","departure_time":"11:58:00","lat":48.774739,"lon":16.696954,"is_passed":false},{"stop_id":"U15714Z10","name":"Mikulov, železniční stanice","arrival_time":"12:03:00","departure_time":"12:04:00","lat":48.802203,"lon":16.625492,"is_passed":false},{"stop_id":"U25601Z10","name":"Březí","arrival_time":"12:09:00","departure_time":"12:10:00","lat":48.812925,"lon":16.554169,"is_passed":false},{"stop_id":"U25602Z10","name":"Dobré Pole","arrival_time":"12:12:00","departure_time":"12:12:00","lat":48.820008,"lon":16.533833,"is_passed":false},{"stop_id":"U15563Z10","name":"Novosedly, železniční stanice","arrival_time":"12:16:00","departure_time":"12:17:00","lat":48.825719,"lon":16.49405,"is_passed":false},{"stop_id":"U25505Z10","name":"Jevišovka","arrival_time":"12:19:00","departure_time":"12:19:00","lat":48.820272,"lon":16.467125,"is_passed":false},{"stop_id":"U15637Z10","name":"Hrušovany nad Jevišovkou, žel. st.","arrival_time":"12:26:00","departure_time":"12:27:00","lat":48.810029,"lon":16.383137,"is_passed":false},{"stop_id":"U18208Z10","name":"Božice, železniční stanice","arrival_time":"12:35:00","departure_time":"12:35:00","lat":48.823282,"lon":16.287832,"is_passed":false},{"stop_id":"U28101Z10","name":"Hodonice","arrival_time":"12:44:00","departure_time":"12:44:00","lat":48.841514,"lon":16.164403,"is_passed":false},{"stop_id":"U28102Z10","name":"Dyje","arrival_time":"12:48:00","departure_time":"12:48:00","lat":48.850047,"lon":16.1205,"is_passed":false},{"stop_id":"U18009Z20","name":"Znojmo, autobusové nádraží","arrival_time":"12:54:00","departure_time":"14:00:00","lat":48.852761,"lon":16.059287,"is_passed":false}],"10948":[{"stop_id":"U18009Z21","name":"Znojmo, autobusové nádraží","arrival_time":"14:00:00","departure_time":"14:00:00","lat":48.852761,"lon":16.059287,"is_passed":false},{"stop_id":"U28101Z11","name":"Hodonice","arrival_time":"14:09:00","departure_time":"14:10:00","lat":48.841514,"lon":16.164403,"is_passed":false},{"stop_id":"U15637Z11","name":"Hrušovany nad Jevišovkou, žel. st.","arrival_time":"14:25:00","departure_time":"14:28:00","lat":48.810029,"lon":16.383137,"is_passed":false},{"stop_id":"U15714Z11","name":"Mikulov, železniční stanice","arrival_time":"14:45:00","departure_time":"14:46:00","lat":48.802203,"lon":16.625492,"is_passed":false},{"stop_id":"U15828Z11","name":"Valtice, železniční zastávka","arrival_time":"14:58:00","departure_time":"14:59:00","lat":48.748776,"lon":16.762369,"is_passed":false},{"stop_id":"U15729Z15","name":"Břeclav, autobusové nádraží","arrival_time":"15:07:00","departure_time":"15:41:00","lat":48.753851,"lon":16.893169,"is_passed":false}],"10949":[{"stop_id":"U15729Z14","name":"Břeclav, autobusové nádraží","arrival_time":"15:41:00","departure_time":"15:41:00","lat":48.753851,"lon":16.893169,"is_passed":false},{"stop_id":"U25702Z10","name":"Boří les","arrival_time":"15:44:00","departure_time":"15:44:00","lat":48.737922,"lon":16.866996,"is_passed":false},{"stop_id":"U15828Z10","name":"Valtice, železniční zastávka","arrival_time":"15:51:00","departure_time":"15:51:00","lat":48.748776,"lon":16.762369,"is_passed":false},{"stop_id":"U15811Z10","name":"Valtice, železniční stanice","arrival_time":"15:53:00","departure_time":"15:54:00","lat":48.74752,"lon":16.742831,"is_passed":false},{"stop_id":"U25701Z10","name":"Sedlec u Mikulova","arrival_time":"15:58:00","departure_time":"15:58:00","lat":48.774739,"lon":16.696954,"is_passed":false},{"stop_id":"U15714Z10","name":"Mikulov, železniční stanice","arrival_time":"16:03:00","departure_time":"16:04:00","lat":48.802203,"lon":16.625492,"is_passed":false},{"stop_id":"U25601Z10","name":"Březí","arrival_time":"16:09:00","departure_time":"16:10:00","lat":48.812925,"lon":16.554169,"is_passed":false},{"stop_id":"U25602Z10","name":"Dobré Pole","arrival_time":"16:12:00","departure_time":"16:12:00","lat":48.820008,"lon":16.533833,"is_passed":false},{"stop_id":"U15563Z10","name":"Novosedly, železniční stanice","arrival_time":"16:16:00","departure_time":"16:17:00","lat":48.825719,"lon":16.49405,"is_passed":false},{"stop_id":"U25505Z10","name":"Jevišovka","arrival_time":"16:19:00","departure_time":"16:19:00","lat":48.820272,"lon":16.467125,"is_passed":false},{"stop_id":"U15637Z10","name":"Hrušovany nad Jevišovkou, žel. st.","arrival_time":"16:26:00","departure_time":"16:27:00","lat":48.810029,"lon":16.383137,"is_passed":false},{"stop_id":"U18208Z10","name":"Božice, železniční stanice","arrival_time":"16:35:00","departure_time":"16:35:00","lat":48.823282,"lon":16.287832,"is_passed":false},{"stop_id":"U28101Z10","name":"Hodonice","arrival_time":"16:44:00","departure_time":"16:44:00","lat":48.841514,"lon":16.164403,"is_passed":false},{"stop_id":"U28102Z10","name":"Dyje","arrival_time":"16:48:00","departure_time":"16:48:00","lat":48.850047,"lon":16.1205,"is_passed":false},{"stop_id":"U18009Z20","name":"Znojmo, autobusové nádraží","arrival_time":"16:54:00","departure_time":"16:54:00","lat":48.852761,"lon":16.059287,"is_passed":false}],"10950":[{"stop_id":"U18009Z23","name":"Znojmo, autobusové nádraží","arrival_time":"17:29:00","departure_time":"17:29:00","lat":48.852761,"lon":16.059287,"is_passed":false},{"stop_id":"U28001Z1","name":"Znojmo-Nový Šaldorf","arrival_time":"17:33:00","departure_time":"17:33:00","lat":48.820061,"lon":16.044266,"is_passed":false},{"stop_id":"U18168Z11","name":"Šatov, železniční stanice","arrival_time":"17:39:00","departure_time":"17:47:00","lat":48.780786,"lon":16.026006,"is_passed":false}],"10951":[{"stop_id":"U18168Z10","name":"Šatov, železniční stanice","arrival_time":"17:47:00","departure_time":"17:47:00","lat":48.780786,"lon":16.026006,"is_passed":false},{"stop_id":"U28001Z2","name":"Znojmo-Nový Šaldorf","arrival_time":"17:52:00","departure_time":"17:53:00","lat":48.820061,"lon":16.044266,"is_passed":false},{"stop_id":"U18009Z22","name":"Znojmo, autobusové nádraží","arrival_time":"17:58:00","departure_time":"18:00:00","lat":48.852761,"lon":16.059287,"is_passed":false}],"10952":[{"stop_id":"U18009Z21","name":"Znojmo, autobusové nádraží","arrival_time":"18:00:00","departure_time":"18:00:00","lat":48.852761,"lon":16.059287,"is_passed":false},{"stop_id":"U28101Z11","name":"Hodonice","arrival_time":"18:09:00","departure_time":"18:10:00","lat":48.841514,"lon":16.164403,"is_passed":false},{"stop_id":"U15637Z11","name":"Hrušovany nad Jevišovkou, žel. st.","arrival_time":"18:25:00","departure_time":"18:28:00","lat":48.810029,"lon":16.383137,"is_passed":false},{"stop_id":"U15714Z11","name":"Mikulov, železniční stanice","arrival_time":"18:45:00","departure_time":"18:46:00","lat":48.802203,"lon":16.625492,"is_passed":false},{"stop_id":"U15828Z11","name":"Valtice, železniční zastávka","arrival_time":"18:58:00","departure_time":"18:59:00","lat":48.748776,"lon":16.762369,"is_passed":false},{"stop_id":"U15729Z15","name":"Břeclav, autobusové nádraží","arrival_time":"19:07:00","departure_time":"19:15:00","lat":48.753851,"lon":16.893169,"is_passed":false}],"10953":[{"stop_id":"U15729Z10","name":"Břeclav, autobusové nádraží","arrival_time":"19:15:00","departure_time":"19:15:00","lat":48.753851,"lon":16.893169,"is_passed":false},{"stop_id":"U15619Z10","name":"Podivín, železniční stanice","arrival_time":"19:22:00","departure_time":"19:23:00","lat":48.837726,"lon":16.853526,"is_passed":false},{"stop_id":"U1146Z99","name":"Hlavní nádraží","arrival_time":"19:53:00","departure_time":"19:53:00","lat":49.19035,"lon":16.612342,"is_passed":false}],"10954":[{"stop_id":"U15637Z10","name":"Hrušovany nad Jevišovkou, žel. st.","arrival_time":"6:02:00","departure_time":"6:02:00","lat":48.810029,"lon":16.383137,"is_passed":false},{"stop_id":"U18208Z10","name":"Božice, železniční stanice","arrival_time":"6:09:00","departure_time":"6:10:00","lat":48.823282,"lon":16.287832,"is_passed":false},{"stop_id":"U28101Z10","name":"Hodonice","arrival_time":"6:18:00","departure_time":"6:19:00","lat":48.841514,"lon":16.164403,"is_passed":false},{"stop_id":"U28102Z10","name":"Dyje","arrival_time":"6:23:00","departure_time":"6:23:00","lat":48.850047,"lon":16.1205,"is_passed":false},{"stop_id":"U18009Z20","name":"Znojmo, autobusové nádraží","arrival_time":"6:29:00","departure_time":"6:56:00","lat":48.852761,"lon":16.059287,"is_passed":false}],"10955":[{"stop_id":"U18009Z21","name":"Znojmo, autobusové nádraží","arrival_time":"6:56:00","departure_time":"6:56:00","lat":48.852761,"lon":16.059287,"is_passed":false},{"stop_id":"U28102Z11","name":"Dyje","arrival_time":"7:01:00","departure_time":"7:01:00","lat":48.850047,"lon":16.1205,"is_passed":false},{"stop_id":"U28101Z11","name":"Hodonice","arrival_time":"7:05:00","departure_time":"7:11:00","lat":48.841514,"lon":16.164403,"is_passed":false},{"stop_id":"U18208Z11","name":"Božice, železniční stanice","arrival_time":"7:19:00","departure_time":"7:20:00","lat":48.823282,"lon":16.287832,"is_passed":false},{"stop_id":"U15637Z11","name":"Hrušovany nad Jevišovkou, žel. st.","arrival_time":"7:27:00","departure_time":"7:29:00","lat":48.810029,"lon":16.383137,"is_passed":false},{"stop_id":"U25505Z11","name":"Jevišovka","arrival_time":"7:35:00","departure_time":"7:35:00","lat":48.820272,"lon":16.467125,"is_passed":false},{"stop_id":"U15563Z11","name":"Novosedly, železniční stanice","arrival_time":"7:38:00","departure_time":"7:38:00","lat":48.825719,"lon":16.49405,"is_passed":false},{"stop_id":"U25602Z11","name":"Dobré Pole","arrival_time":"7:42:00","departure_time":"7:42:00","lat":48.820008,"lon":16.533833,"is_passed":false},{"stop_id":"U25601Z11","name":"Březí","arrival_time":"7:45:00","departure_time":"7:45:00","lat":48.812925,"lon":16.554169,"is_passed":false},{"stop_id":"U15714Z11","name":"Mikulov, železniční stanice","arrival_time":"7:50:00","departure_time":"7:53:00","lat":48.802203,"lon":16.625492,"is_passed":false},{"stop_id":"U25701Z11","name":"Sedlec u Mikulova","arrival_time":"7:58:00","departure_time":"7:59:00","lat":48.774727,"lon":16.697093,"is_passed":false},{"stop_id":"U15811Z11","name":"Valtice, železniční stanice","arrival_time":"8:03:00","departure_time":"8:03:00","lat":48.747484,"lon":16.742944,"is_passed":false},{"stop_id":"U15828Z11","name":"Valtice, železniční zastávka","arrival_time":"8:05:00","departure_time":"8:06:00","lat":48.748776,"lon":16.762369,"is_passed":false},{"stop_id":"U25702Z11","name":"Boří les","arrival_time":"8:12:00","departure_time":"8:12:00","lat":48.737912,"lon":16.867165,"is_passed":false},{"stop_id":"U15729Z15","name":"Břeclav, autobusové nádraží","arrival_time":"8:16:00","departure_time":"9:41:00","lat":48.753851,"lon":16.893169,"is_passed":false}],"10956":[{"stop_id":"U15729Z14","name":"Břeclav, autobusové nádraží","arrival_time":"9:41:00","departure_time":"9:41:00","lat":48.753851,"lon":16.893169,"is_passed":false},{"stop_id":"U25702Z10","name":"Boří les","arrival_time":"9:44:00","departure_time":"9:44:00","lat":48.737922,"lon":16.866996,"is_passed":false},{"stop_id":"U15828Z10","name":"Valtice, železniční zastávka","arrival_time":"9:51:00","departure_time":"9:51:00","lat":48.748776,"lon":16.762369,"is_passed":false},{"stop_id":"U15811Z10","name":"Valtice, železniční stanice","arrival_time":"9:53:00","departure_time":"9:54:00","lat":48.74752,"lon":16.742831,"is_passed":false},{"stop_id":"U25701Z10","name":"Sedlec u Mikulova","arrival_time":"9:58:00","departure_time":"9:58:00","lat":48.774739,"lon":16.696954,"is_passed":false},{"stop_id":"U15714Z10","name":"Mikulov, železniční stanice","arrival_time":"10:03:00","departure_time":"10:04:00","lat":48.802203,"lon":16.625492,"is_passed":false},{"stop_id":"U25601Z10","name":"Březí","arrival_time":"10:09:00","departure_time":"10:10:00","lat":48.812925,"lon":16.554169,"is_passed":false},{"stop_id":"U25602Z10","name":"Dobré Pole","arrival_time":"10:12:00","departure_time":"10:12:00","lat":48.820008,"lon":16.533833,"is_passed":false},{"stop_id":"U15563Z10","name":"Novosedly, železniční stanice","arrival_time":"10:16:00","departure_time":"10:17:00","lat":48.825719,"lon":16.49405,"is_passed":false},{"stop_id":"U25505Z10","name":"Jevišovka","arrival_time":"10:19:00","departure_time":"10:19:00","lat":48.820272,"lon":16.467125,"is_passed":false},{"stop_id":"U15637Z10","name":"Hrušovany nad Jevišovkou, žel. st.","arrival_time":"10:26:00","departure_time":"10:27:00","lat":48.810029,"lon":16.383137,"is_passed":false},{"stop_id":"U18208Z10","name":"Božice, železniční stanice","arrival_time":"10:35:00","departure_time":"10:35:00","lat":48.823282,"lon":16.287832,"is_passed":false},{"stop_id":"U28101Z10","name":"Hodonice","arrival_time":"10:44:00","departure_time":"10:44:00","lat":48.841514,"lon":16.164403,"is_passed":false},{"stop_id":"U28102Z10","name":"Dyje","arrival_time":"10:48:00","departure_time":"10:48:00","lat":48.850047,"lon":16.1205,"is_passed":false},{"stop_id":"U18009Z20","name":"Znojmo, autobusové nádraží","arrival_time":"10:54:00","departure_time":"12:00:00","lat":48.852761,"lon":16.059287,"is_passed":false}],"10957":[{"stop_id":"U18009Z21","name":"Znojmo, autobusové nádraží","arrival_time":"12:00:00","departure_time":"12:00:00","lat":48.852761,"lon":16.059287,"is_passed":false},{"stop_id":"U28101Z11","name":"Hodonice","arrival_time":"12:09:00","departure_time":"12:10:00","lat":48.841514,"lon":16.164403,"is_passed":false},{"stop_id":"U15637Z11","name":"Hrušovany nad Jevišovkou, žel. st.","arrival_time":"12:25:00","departure_time":"12:28:00","lat":48.810029,"lon":16.383137,"is_passed":false},{"stop_id":"U25601Z11","name":"Březí","arrival_time":"12:40:00","departure_time":"12:40:00","lat":48.812925,"lon":16.554169,"is_passed":false},{"stop_id":"U15714Z11","name":"Mikulov, železniční stanice","arrival_time":"12:45:00","departure_time":"12:46:00","lat":48.802203,"lon":16.625492,"is_passed":false},{"stop_id":"U15828Z11","name":"Valtice, železniční zastávka","arrival_time":"12:58:00","departure_time":"12:59:00","lat":48.748776,"lon":16.762369,"is_passed":false},{"stop_id":"U15729Z15","name":"Břeclav, autobusové nádraží","arrival_time":"13:07:00","departure_time":"13:41:00","lat":48.753851,"lon":16.893169,"is_passed":false}],"10958":[{"stop_id":"U15729Z14","name":"Břeclav, autobusové nádraží","arrival_time":"13:41:00","departure_time":"13:41:00","lat":48.753851,"lon":16.893169,"is_passed":false},{"stop_id":"U25702Z10","name":"Boří les","arrival_time":"13:44:00","departure_time":"13:44:00","lat":48.737922,"lon":16.866996,"is_passed":false},{"stop_id":"U15828Z10","name":"Valtice, železniční zastávka","arrival_time":"13:51:00","departure_time":"13:51:00","lat":48.748776,"lon":16.762369,"is_passed":false},{"stop_id":"U15811Z10","name":"Valtice, železniční stanice","arrival_time":"13:53:00","departure_time":"13:54:00","lat":48.74752,"lon":16.742831,"is_passed":false},{"stop_id":"U25701Z10","name":"Sedlec u Mikulova","arrival_time":"13:58:00","departure_time":"13:58:00","lat":48.774739,"lon":16.696954,"is_passed":false},{"stop_id":"U15714Z10","name":"Mikulov, železniční stanice","arrival_time":"14:03:00","departure_time":"14:04:00","lat":48.802203,"lon":16.625492,"is_passed":false},{"stop_id":"U25601Z10","name":"Březí","arrival_time":"14:09:00","departure_time":"14:10:00","lat":48.812925,"lon":16.554169,"is_passed":false},{"stop_id":"U25602Z10","name":"Dobré Pole","arrival_time":"14:12:00","departure_time":"14:12:00","lat":48.820008,"lon":16.533833,"is_passed":false},{"stop_id":"U15563Z10","name":"Novosedly, železniční stanice","arrival_time":"14:16:00","departure_time":"14:17:00","lat":48.825719,"lon":16.49405,"is_passed":false},{"stop_id":"U25505Z10","name":"Jevišovka","arrival_time":"14:19:00","departure_time":"14:19:00","lat":48.820272,"lon":16.467125,"is_passed":false},{"stop_id":"U15637Z10","name":"Hrušovany nad Jevišovkou, žel. st.","arrival_time":"14:26:00","departure_time":"14:27:00","lat":48.810029,"lon":16.383137,"is_passed":false},{"stop_id":"U18208Z10","name":"Božice, železniční stanice","arrival_time":"14:35:00","departure_time":"14:35:00","lat":48.823282,"lon":16.287832,"is_passed":false},{"stop_id":"U28101Z10","name":"Hodonice","arrival_time":"14:44:00","departure_time":"14:44:00","lat":48.841514,"lon":16.164403,"is_passed":false},{"stop_id":"U28102Z10","name":"Dyje","arrival_time":"14:48:00","departure_time":"14:48:00","lat":48.850047,"lon":16.1205,"is_passed":false},{"stop_id":"U18009Z20","name":"Znojmo, autobusové nádraží","arrival_time":"14:54:00","departure_time":"16:00:00","lat":48.852761,"lon":16.059287,"is_passed":false}],"10959":[{"stop_id":"U18009Z21","name":"Znojmo, autobusové nádraží","arrival_time":"16:00:00","departure_time":"16:00:00","lat":48.852761,"lon":16.059287,"is_passed":false},{"stop_id":"U28101Z11","name":"Hodonice","arrival_time":"16:09:00","departure_time":"16:10:00","lat":48.841514,"lon":16.164403,"is_passed":false},{"stop_id":"U15637Z11","name":"Hrušovany nad Jevišovkou, žel. st.","arrival_time":"16:25:00","departure_time":"16:28:00","lat":48.810029,"lon":16.383137,"is_passed":false},{"stop_id":"U15714Z11","name":"Mikulov, železniční stanice","arrival_time":"16:45:00","departure_time":"16:46:00","lat":48.802203,"lon":16.625492,"is_passed":false},{"stop_id":"U15828Z11","name":"Valtice, železniční zastávka","arrival_time":"16:58:00","departure_time":"16:59:00","lat":48.748776,"lon":16.762369,"is_passed":false},{"stop_id":"U15729Z15","name":"Břeclav, autobusové nádraží","arrival_time":"17:07:00","departure_time":"17:41:00","lat":48.753851,"lon":16.893169,"is_passed":false}],"10960":[{"stop_id":"U15729Z14","name":"Břeclav, autobusové nádraží","arrival_time":"17:41:00","departure_time":"17:41:00","lat":48.753851,"lon":16.893169,"is_passed":false},{"stop_id":"U25702Z10","name":"Boří les","arrival_time":"17:44:00","departure_time":"17:44:00","lat":48.737922,"lon":16.866996,"is_passed":false},{"stop_id":"U15828Z10","name":"Valtice, železniční zastávka","arrival_time":"17:51:00","departure_time":"17:51:00","lat":48.748776,"lon":16.762369,"is_passed":false},{"stop_id":"U15811Z10","name":"Valtice, železniční stanice","arrival_time":"17:53:00","departure_time":"17:54:00","lat":48.74752,"lon":16.742831,"is_passed":false},{"stop_id":"U25701Z10","name":"Sedlec u Mikulova","arrival_time":"17:58:00","departure_time":"17:58:00","lat":48.774739,"lon":16.696954,"is_passed":false},{"stop_id":"U15714Z10","name":"Mikulov, železniční stanice","arrival_time":"18:03:00","departure_time":"18:04:00","lat":48.802203,"lon":16.625492,"is_passed":false},{"stop_id":"U25601Z10","name":"Březí","arrival_time":"18:09:00","departure_time":"18:10:00","lat":48.812925,"lon":16.554169,"is_passed":false},{"stop_id":"U25602Z10","name":"Dobré Pole","arrival_time":"18:12:00","departure_time":"18:12:00","lat":48.820008,"lon":16.533833,"is_passed":false},{"stop_id":"U15563Z10","name":"Novosedly, železniční stanice","arrival_time":"18:16:00","departure_time":"18:17:00","lat":48.825719,"lon":16.49405,"is_passed":false},{"stop_id":"U25505Z10","name":"Jevišovka","arrival_time":"18:19:00","departure_time":"18:19:00","lat":48.820272,"lon":16.467125,"is_passed":false},{"stop_id":"U15637Z10","name":"Hrušovany nad Jevišovkou, žel. st.","arrival_time":"18:26:00","departure_time":"18:27:00","lat":48.810029,"lon":16.383137,"is_passed":false},{"stop_id":"U18208Z10","name":"Božice, železniční stanice","arrival_time":"18:35:00","departure_time":"18:35:00","lat":48.823282,"lon":16.287832,"is_passed":false},{"stop_id":"U28101Z10","name":"Hodonice","arrival_time":"18:44:00","departure_time":"18:44:00","lat":48.841514,"lon":16.164403,"is_passed":false},{"stop_id":"U28102Z10","name":"Dyje","arrival_time":"18:48:00","departure_time":"18:48:00","lat":48.850047,"lon":16.1205,"is_passed":false},{"stop_id":"U18009Z20","name":"Znojmo, autobusové nádraží","arrival_time":"18:54:00","departure_time":"18:59:00","lat":48.852761,"lon":16.059287,"is_passed":false}],"10961":[{"stop_id":"U18009Z21","name":"Znojmo, autobusové nádraží","arrival_time":"18:59:00","departure_time":"18:59:00","lat":48.852761,"lon":16.059287,"is_passed":false},{"stop_id":"U28102Z11","name":"Dyje","arrival_time":"19:04:00","departure_time":"19:04:00","lat":48.850047,"lon":16.1205,"is_passed":false},{"stop_id":"U28101Z11","name":"Hodonice","arrival_time":"19:08:00","departure_time":"19:09:00","lat":48.841514,"lon":16.164403,"is_passed":false},{"stop_id":"U18208Z11","name":"Božice, železniční stanice","arrival_time":"19:18:00","departure_time":"19:19:00","lat":48.823282,"lon":16.287832,"is_passed":false},{"stop_id":"U15637Z11","name":"Hrušovany nad Jevišovkou, žel. st.","arrival_time":"19:26:00","departure_time":"19:29:00","lat":48.810029,"lon":16.383137,"is_passed":false}],"10962":[{"stop_id":"U15637Z11","name":"Hrušovany nad Jevišovkou, žel. st.","arrival_time":"19:29:00","departure_time":"19:29:00","lat":48.810029,"lon":16.383137,"is_passed":false},{"stop_id":"U25505Z11","name":"Jevišovka","arrival_time":"19:35:00","departure_time":"19:35:00","lat":48.820272,"lon":16.467125,"is_passed":false},{"stop_id":"U15563Z11","name":"Novosedly, železniční stanice","arrival_time":"19:38:00","departure_time":"19:39:00","lat":48.825719,"lon":16.49405,"is_passed":false},{"stop_id":"U25602Z11","name":"Dobré Pole","arrival_time":"19:43:00","departure_time":"19:43:00","lat":48.820008,"lon":16.533833,"is_passed":false},{"stop_id":"U25601Z11","name":"Březí","arrival_time":"19:45:00","departure_time":"19:46:00","lat":48.812925,"lon":16.554169,"is_passed":false},{"stop_id":"U15714Z11","name":"Mikulov, železniční stanice","arrival_time":"19:51:00","departure_time":"19:52:00","lat":48.802203,"lon":16.625492,"is_passed":false},{"stop_id":"U25701Z11","name":"Sedlec u Mikulova","arrival_time":"19:57:00","departure_time":"19:59:00","lat":48.774727,"lon":16.697093,"is_passed":false},{"stop_id":"U15811Z11","name":"Valtice, železniční stanice","arrival_time":"20:03:00","departure_time":"20:03:00","lat":48.747484,"lon":16.742944,"is_passed":false},{"stop_id":"U15828Z11","name":"Valtice, železniční zastávka","arrival_time":"20:05:00","departure_time":"20:06:00","lat":48.748776,"lon":16.762369,"is_passed":false},{"stop_id":"U25702Z11","name":"Boří les","arrival_time":"20:12:00","departure_time":"20:13:00","lat":48.737912,"lon":16.867165,"is_passed":false},{"stop_id":"U15729Z15","name":"Břeclav, autobusové nádraží","arrival_time":"20:16:00","departure_time":"20:16:00","lat":48.753851,"lon":16.893169,"is_passed":false}],"10963":[{"stop_id":"U1146Z98","name":"Hlavní nádraží","arrival_time":"8:02:00","departure_time":"8:02:00","lat":49.19035,"lon":16.612342,"is_passed":false},{"stop_id":"U15619Z11","name":"Podivín, železniční stanice","arrival_time":"8:30:00","departure_time":"8:32:00","lat":48.837726,"lon":16.853526,"is_passed":false},{"stop_id":"U15729Z11","name":"Břeclav, autobusové nádraží","arrival_time":"8:41:00","departure_time":"8:45:00","lat":48.753851,"lon":16.893169,"is_passed":false}],"10964":[{"stop_id":"U15729Z14","name":"Břeclav, autobusové nádraží","arrival_time":"8:45:00","departure_time":"8:45:00","lat":48.753851,"lon":16.893169,"is_passed":false},{"stop_id":"U15828Z10","name":"Valtice, železniční zastávka","arrival_time":"8:53:00","departure_time":"8:53:00","lat":48.748776,"lon":16.762369,"is_passed":false},{"stop_id":"U15714Z10","name":"Mikulov, železniční stanice","arrival_time":"9:03:00","departure_time":"9:07:00","lat":48.802203,"lon":16.625492,"is_passed":false},{"stop_id":"U25601Z10","name":"Březí","arrival_time":"9:12:00","departure_time":"9:12:00","lat":48.812925,"lon":16.554169,"is_passed":false},{"stop_id":"U15563Z10","name":"Novosedly, železniční stanice","arrival_time":"9:17:00","departure_time":"9:18:00","lat":48.825719,"lon":16.49405,"is_passed":false},{"stop_id":"U15637Z10","name":"Hrušovany nad Jevišovkou, žel. st.","arrival_time":"9:26:00","departure_time":"9:27:00","lat":48.810029,"lon":16.383137,"is_passed":false},{"stop_id":"U28101Z10","name":"Hodonice","arrival_time":"9:43:00","departure_time":"9:44:00","lat":48.841514,"lon":16.164403,"is_passed":false},{"stop_id":"U18009Z20","name":"Znojmo, autobusové nádraží","arrival_time":"9:53:00","departure_time":"9:56:00","lat":48.852761,"lon":16.059287,"is_passed":false}],"10965":[{"stop_id":"U18009Z23","name":"Znojmo, autobusové nádraží","arrival_time":"9:56:00","departure_time":"9:56:00","lat":48.852761,"lon":16.059287,"is_passed":false},{"stop_id":"U28001Z1","name":"Znojmo-Nový Šaldorf","arrival_time":"10:02:00","departure_time":"10:02:00","lat":48.820061,"lon":16.044266,"is_passed":false},{"stop_id":"U18168Z11","name":"Šatov, železniční stanice","arrival_time":"10:08:00","departure_time":"10:45:00","lat":48.780786,"lon":16.026006,"is_passed":false}],"10966":[{"stop_id":"U18168Z10","name":"Šatov, železniční stanice","arrival_time":"10:45:00","departure_time":"10:45:00","lat":48.780786,"lon":16.026006,"is_passed":false},{"stop_id":"U28001Z2","name":"Znojmo-Nový Šaldorf","arrival_time":"10:51:00","departure_time":"10:51:00","lat":48.820061,"lon":16.044266,"is_passed":false},{"stop_id":"U18009Z22","name":"Znojmo, autobusové nádraží","arrival_time":"10:56:00","departure_time":"10:59:00","lat":48.852761,"lon":16.059287,"is_passed":false}],"10967":[{"stop_id":"U18009Z21","name":"Znojmo, autobusové nádraží","arrival_time":"10:59:00","departure_time":"10:59:00","lat":48.852761,"lon":16.059287,"is_passed":false},{"stop_id":"U28102Z11","name":"Dyje","arrival_time":"11:04:00","departure_time":"11:04:00","lat":48.850047,"lon":16.1205,"is_passed":false},{"stop_id":"U28101Z11","name":"Hodonice","arrival_time":"11:08:00","departure_time":"11:09:00","lat":48.841514,"lon":16.164403,"is_passed":false},{"stop_id":"U18208Z11","name":"Božice, železniční stanice","arrival_time":"11:17:00","departure_time":"11:18:00","lat":48.823282,"lon":16.287832,"is_passed":false},{"stop_id":"U15637Z11","name":"Hrušovany nad Jevišovkou, žel. st.","arrival_time":"11:25:00","departure_time":"11:29:00","lat":48.810029,"lon":16.383137,"is_passed":false},{"stop_id":"U25505Z11","name":"Jevišovka","arrival_time":"11:35:00","departure_time":"11:35:00","lat":48.820272,"lon":16.467125,"is_passed":false},{"stop_id":"U15563Z11","name":"Novosedly, železniční stanice","arrival_time":"11:38:00","departure_time":"11:38:00","lat":48.825719,"lon":16.49405,"is_passed":false},{"stop_id":"U25602Z11","name":"Dobré Pole","arrival_time":"11:42:00","departure_time":"11:42:00","lat":48.820008,"lon":16.533833,"is_passed":false},{"stop_id":"U25601Z11","name":"Březí","arrival_time":"11:45:00","departure_time":"11:45:00","lat":48.812925,"lon":16.554169,"is_passed":false},{"stop_id":"U15714Z11","name":"Mikulov, železniční stanice","arrival_time":"11:50:00","departure_time":"11:53:00","lat":48.802203,"lon":16.625492,"is_passed":false},{"stop_id":"U25701Z11","name":"Sedlec u Mikulova","arrival_time":"11:58:00","departure_time":"11:59:00","lat":48.774727,"lon":16.697093,"is_passed":false},{"stop_id":"U15811Z11","name":"Valtice, železniční stanice","arrival_time":"12:03:00","departure_time":"12:03:00","lat":48.747484,"lon":16.742944,"is_passed":false},{"stop_id":"U15828Z11","name":"Valtice, železniční zastávka","arrival_time":"12:05:00","departure_time":"12:06:00","lat":48.748776,"lon":16.762369,"is_passed":false},{"stop_id":"U25702Z11","name":"Boří les","arrival_time":"12:12:00","departure_time":"12:12:00","lat":48.737912,"lon":16.867165,"is_passed":false},{"stop_id":"U15729Z15","name":"Břeclav, autobusové nádraží","arrival_time":"12:16:00","departure_time":"12:45:00","lat":48.753851,"lon":16.893169,"is_passed":false}],"10968":[{"stop_id":"U15729Z14","name":"Břeclav, autobusové nádraží","arrival_time":"12:45:00","departure_time":"12:45:00","lat":48.753851,"lon":16.893169,"is_passed":false},{"stop_id":"U15828Z10","name":"Valtice, železniční zastávka","arrival_time":"12:53:00","departure_time":"12:53:00","lat":48.748776,"lon":16.762369,"is_passed":false},{"stop_id":"U15714Z10","name":"Mikulov, železniční stanice","arrival_time":"13:03:00","departure_time":"13:07:00","lat":48.802203,"lon":16.625492,"is_passed":false},{"stop_id":"U25601Z10","name":"Březí","arrival_time":"13:12:00","departure_time":"13:12:00","lat":48.812925,"lon":16.554169,"is_passed":false},{"stop_id":"U15563Z10","name":"Novosedly, železniční stanice","arrival_time":"13:17:00","departure_time":"13:18:00","lat":48.825719,"lon":16.49405,"is_passed":false},{"stop_id":"U15637Z10","name":"Hrušovany nad Jevišovkou, žel. st.","arrival_time":"13:26:00","departure_time":"13:27:00","lat":48.810029,"lon":16.383137,"is_passed":false},{"stop_id":"U28101Z10","name":"Hodonice","arrival_time":"13:43:00","departure_time":"13:44:00","lat":48.841514,"lon":16.164403,"is_passed":false},{"stop_id":"U18009Z20","name":"Znojmo, autobusové nádraží","arrival_time":"13:53:00","departure_time":"14:59:00","lat":48.852761,"lon":16.059287,"is_passed":false}],"10969":[{"stop_id":"U18009Z21","name":"Znojmo, autobusové nádraží","arrival_time":"14:59:00","departure_time":"14:59:00","lat":48.852761,"lon":16.059287,"is_passed":false},{"stop_id":"U28102Z11","name":"Dyje","arrival_time":"15:04:00","departure_time":"15:04:00","lat":48.850047,"lon":16.1205,"is_passed":false},{"stop_id":"U28101Z11","name":"Hodonice","arrival_time":"15:08:00","departure_time":"15:09:00","lat":48.841514,"lon":16.164403,"is_passed":false},{"stop_id":"U18208Z11","name":"Božice, železniční stanice","arrival_time":"15:17:00","departure_time":"15:18:00","lat":48.823282,"lon":16.287832,"is_passed":false},{"stop_id":"U15637Z11","name":"Hrušovany nad Jevišovkou, žel. st.","arrival_time":"15:25:00","departure_time":"15:29:00","lat":48.810029,"lon":16.383137,"is_passed":false},{"stop_id":"U25505Z11","name":"Jevišovka","arrival_time":"15:35:00","departure_time":"15:35:00","lat":48.820272,"lon":16.467125,"is_passed":false},{"stop_id":"U15563Z11","name":"Novosedly, železniční stanice","arrival_time":"15:38:00","departure_time":"15:38:00","lat":48.825719,"lon":16.49405,"is_passed":false},{"stop_id":"U25602Z11","name":"Dobré Pole","arrival_time":"15:42:00","departure_time":"15:42:00","lat":48.820008,"lon":16.533833,"is_passed":false},{"stop_id":"U25601Z11","name":"Březí","arrival_time":"15:45:00","departure_time":"15:45:00","lat":48.812925,"lon":16.554169,"is_passed":false},{"stop_id":"U15714Z11","name":"Mikulov, železniční stanice","arrival_time":"15:50:00","departure_time":"15:53:00","lat":48.802203,"lon":16.625492,"is_passed":false},{"stop_id":"U25701Z11","name":"Sedlec u Mikulova","arrival_time":"15:58:00","departure_time":"15:59:00","lat":48.774727,"lon":16.697093,"is_passed":false},