[{"stop_id":"U1146Z99","name":"Hlavní nádraží","arrival_time":"14:56:00","departure_time":"14:56:00","lat":49.19035,"lon":16.612342,"is_passed":false},{"stop_id":"U12342Z30","name":"Blansko, aut. st.","arrival_time":"15:14:00","departure_time":"15:16:00","lat":49.352753,"lon":16.646848,"is_passed":false},{"stop_id":"U12676Z50","name":"Skalice nad Svitavou, žel.st.","arrival_time":"15:25:00","departure_time":"15:29:00","lat":49.480123,"lon":16.609726,"is_passed":false},{"stop_id":"U12736Z50","name":"Letovice, železniční stanice","arrival_time":"15:36:00","departure_time":"15:37:00","lat":49.555973,"lon":16.570906,"is_passed":false},{"stop_id":"U12936Z10","name":"Březová nad Svitavou, železniční stanice","arrival_time":"15:44:00","departure_time":"15:45:00","lat":49.633104,"lon":16.520656,"is_passed":false}]