[{"stop_id":"U15637Z10","name":"Hrušovany nad Jevišovkou, žel. st.","arrival_time":"6:02:00","departure_time":"6:02:00","lat":48.810029,"lon":16.383137,"is_passed":false},{"stop_id":"U18208Z10","name":"Božice, železniční stanice","arrival_time":"6:09:00","departure_time":"6:10:00","lat":48.823282,"lon":16.287832,"is_passed":false},{"stop_id":"U28101Z10","name":"Hodonice","arrival_time":"6:18:00","departure_time":"6:19:00","lat":48.841514,"lon":16.164403,"is_passed":false},{"stop_id":"U28102Z10","name":"Dyje","arrival_time":"6:23:00","departure_time":"6:23:00","lat":48.850047,"lon":16.1205,"is_passed":false},{"stop_id":"U18009Z20","name":"Znojmo, autobusové nádraží","arrival_time":"6:29:00","departure_time":"6:56:00","lat":48.852761,"lon":16.059287,"is_passed":false}]