[{"stop_id":"U15729Z11","name":"Břeclav, autobusové nádraží","arrival_time":"19:35:00","departure_time":"19:35:00","lat":48.753851,"lon":16.893169,"is_passed":false},{"stop_id":"U29101Z11","name":"Hrušky zastávka","arrival_time":"19:41:00","departure_time":"19:41:00","lat":48.787328,"lon":16.982583,"is_passed":false},{"stop_id":"U19129Z11","name":"Moravská Nová Ves, železniční stanice","arrival_time":"19:44:00","departure_time":"19:45:00","lat":48.799493,"lon":17.021674,"is_passed":false},{"stop_id":"U19119Z11","name":"Lužice, železniční stanice","arrival_time":"19:48:00","departure_time":"19:48:00","lat":48.827619,"lon":17.061961,"is_passed":false},{"stop_id":"U19001Z21","name":"Hodonín, autobusové nádraží","arrival_time":"19:53:00","departure_time":"20:07:00","lat":48.85575,"lon":17.12069,"is_passed":false}]