[{"stop_id":"U15537Z13","name":"Zaječí, železniční stanice","arrival_time":"11:06:00","departure_time":"11:06:00","lat":48.889637,"lon":16.781831,"is_passed":false},{"stop_id":"U25502Z11","name":"Velké Pavlovice","arrival_time":"11:11:00","departure_time":"11:12:00","lat":48.88985,"lon":16.823672,"is_passed":false},{"stop_id":"U25503Z11","name":"Velké Pavlovice zastávka","arrival_time":"11:14:00","departure_time":"11:14:00","lat":48.901672,"lon":16.8224,"is_passed":false},{"stop_id":"U15513Z11","name":"Bořetice, železniční stanice","arrival_time":"11:19:00","departure_time":"11:20:00","lat":48.916314,"lon":16.850139,"is_passed":false},{"stop_id":"U25504Z11","name":"Kobylí na Moravě","arrival_time":"11:25:00","departure_time":"11:26:00","lat":48.934022,"lon":16.881272,"is_passed":false}]