[{"stop_id":"U1146Z98","name":"Hlavní nádraží","arrival_time":"18:35:00","departure_time":"18:35:00","lat":49.19035,"lon":16.612342,"is_passed":false},{"stop_id":"U15425Z11","name":"Šakvice, železniční stanice","arrival_time":"18:54:00","departure_time":"18:56:00","lat":48.912883,"lon":16.70557,"is_passed":false},{"stop_id":"U15537Z11","name":"Zaječí, železniční stanice","arrival_time":"19:00:00","departure_time":"19:01:00","lat":48.889637,"lon":16.781831,"is_passed":false},{"stop_id":"U15619Z11","name":"Podivín, železniční stanice","arrival_time":"19:06:00","departure_time":"19:07:00","lat":48.837726,"lon":16.853526,"is_passed":false},{"stop_id":"U15729Z11","name":"Břeclav, autobusové nádraží","arrival_time":"19:14:00","departure_time":"19:21:00","lat":48.753851,"lon":16.893169,"is_passed":false},{"stop_id":"U19001Z21","name":"Hodonín, autobusové nádraží","arrival_time":"19:33:00","departure_time":"19:37:00","lat":48.85575,"lon":17.12069,"is_passed":false},{"stop_id":"U19302Z11","name":"Moravský Písek, Kolonie, žel. stanice","arrival_time":"19:47:00","departure_time":"19:49:00","lat":48.977119,"lon":17.314582,"is_passed":false},{"stop_id":"U31028Z11","name":"Staré Město u Uherského Hradiště","arrival_time":"19:56:00","departure_time":"19:56:00","lat":49.076212,"lon":17.422903,"is_passed":false}]