[{"stop_id":"U19001Z20","name":"Hodonín, autobusové nádraží","arrival_time":"6:07:00","departure_time":"6:07:00","lat":48.85575,"lon":17.12069,"is_passed":false},{"stop_id":"U19119Z10","name":"Lužice, železniční stanice","arrival_time":"6:11:00","departure_time":"6:12:00","lat":48.827619,"lon":17.061961,"is_passed":false},{"stop_id":"U19129Z10","name":"Moravská Nová Ves, železniční stanice","arrival_time":"6:15:00","departure_time":"6:16:00","lat":48.799493,"lon":17.021674,"is_passed":false},{"stop_id":"U29101Z10","name":"Hrušky zastávka","arrival_time":"6:19:00","departure_time":"6:19:00","lat":48.786692,"lon":16.980171,"is_passed":false},{"stop_id":"U15729Z10","name":"Břeclav, autobusové nádraží","arrival_time":"6:25:00","departure_time":"6:25:00","lat":48.753851,"lon":16.893169,"is_passed":false}]