[{"stop_id":"U1146Z97","name":"Hlavní nádraží","arrival_time":"6:11:00","departure_time":"6:11:00","lat":49.189976,"lon":16.610222,"is_passed":false},{"stop_id":"U24101Z2","name":"Střelice","arrival_time":"6:26:00","departure_time":"6:27:00","lat":49.154016,"lon":16.483608,"is_passed":false},{"stop_id":"U14238Z11","name":"Tetčice, žel. st.","arrival_time":"6:33:00","departure_time":"6:33:00","lat":49.172316,"lon":16.408496,"is_passed":false},{"stop_id":"U14234Z11","name":"Rosice, Těstárny","arrival_time":"6:35:00","departure_time":"6:36:00","lat":49.178895,"lon":16.383608,"is_passed":false},{"stop_id":"U14242Z21","name":"Zastávka, železniční stanice","arrival_time":"6:38:00","departure_time":"6:38:00","lat":49.187463,"lon":16.358639,"is_passed":false}]