[{"stop_id":"U1146Z97","name":"Hlavní nádraží","arrival_time":"5:45:00","departure_time":"5:45:00","lat":49.189976,"lon":16.610222,"is_passed":false},{"stop_id":"U11002Z11","name":"Brno-Horní Heršpice","arrival_time":"5:48:00","departure_time":"5:49:00","lat":49.167404,"lon":16.60686,"is_passed":false},{"stop_id":"U11009Z21","name":"Brno-Starý Lískovec","arrival_time":"5:52:00","departure_time":"5:52:00","lat":49.162219,"lon":16.571096,"is_passed":false},{"stop_id":"U24103Z1","name":"Ostopovice","arrival_time":"5:54:00","departure_time":"5:54:00","lat":49.164994,"lon":16.544202,"is_passed":false},{"stop_id":"U14110Z11","name":"Troubsko, U dráhy","arrival_time":"5:57:00","departure_time":"5:57:00","lat":49.164054,"lon":16.526498,"is_passed":false},{"stop_id":"U24101Z2","name":"Střelice","arrival_time":"6:00:00","departure_time":"6:01:00","lat":49.154016,"lon":16.483608,"is_passed":false},{"stop_id":"U14238Z11","name":"Tetčice, žel. st.","arrival_time":"6:07:00","departure_time":"6:07:00","lat":49.172316,"lon":16.408496,"is_passed":false},{"stop_id":"U14234Z11","name":"Rosice, Těstárny","arrival_time":"6:09:00","departure_time":"6:10:00","lat":49.178895,"lon":16.383608,"is_passed":false},{"stop_id":"U14242Z21","name":"Zastávka, železniční stanice","arrival_time":"6:12:00","departure_time":"6:41:00","lat":49.187463,"lon":16.358639,"is_passed":false}]