[{"stop_id":"U14242Z20","name":"Zastávka, železniční stanice","arrival_time":"7:16:00","departure_time":"7:16:00","lat":49.187405,"lon":16.358754,"is_passed":false},{"stop_id":"U14234Z10","name":"Rosice, Těstárny","arrival_time":"7:18:00","departure_time":"7:18:00","lat":49.17882,"lon":16.383519,"is_passed":false},{"stop_id":"U14238Z10","name":"Tetčice, žel. st.","arrival_time":"7:20:00","departure_time":"7:21:00","lat":49.1722,"lon":16.40842,"is_passed":false},{"stop_id":"U24101Z1","name":"Střelice","arrival_time":"7:26:00","departure_time":"7:26:00","lat":49.153958,"lon":16.483833,"is_passed":false},{"stop_id":"U14119Z10","name":"Střelice, dolní železniční stanice","arrival_time":"7:28:00","departure_time":"7:29:00","lat":49.156488,"lon":16.506231,"is_passed":false},{"stop_id":"U24103Z2","name":"Ostopovice","arrival_time":"7:31:00","departure_time":"7:31:00","lat":49.164923,"lon":16.544112,"is_passed":false},{"stop_id":"U11002Z10","name":"Brno-Horní Heršpice","arrival_time":"7:36:00","departure_time":"7:36:00","lat":49.167404,"lon":16.60686,"is_passed":false},{"stop_id":"U1146Z96","name":"Hlavní nádraží","arrival_time":"7:41:00","departure_time":"7:41:00","lat":49.189976,"lon":16.610222,"is_passed":false}]