{"113":[{"stop_id":"U1696Z6","name":"ÚAN Zvonařka","arrival_time":"17:42:00","departure_time":"17:42:00","lat":49.185364,"lon":16.616151,"is_passed":false},{"stop_id":"U1677Z3","name":"Tržní","arrival_time":"17:46:00","departure_time":"17:46:00","lat":49.189342,"lon":16.630314,"is_passed":false},{"stop_id":"U16206Z1","name":"Holubice, nadjezd","arrival_time":"17:59:00","departure_time":"17:59:00","lat":49.178081,"lon":16.819173,"is_passed":false},{"stop_id":"U16334Z1","name":"Velešovice, rozc.","arrival_time":"18:01:00","departure_time":"18:01:00","lat":49.166882,"lon":16.842802,"is_passed":false},{"stop_id":"U16328Z3","name":"Slavkov u Brna, aut. st.","arrival_time":"18:07:00","departure_time":"18:07:00","lat":49.149057,"lon":16.876562,"is_passed":false},{"stop_id":"U16332Z1","name":"Slavkov u Brna, rozcestí k žel. st.","arrival_time":"18:10:00","departure_time":"18:10:00","lat":49.143955,"lon":16.878297,"is_passed":false},{"stop_id":"U16337Z1","name":"Nížkovice, rozcestí","arrival_time":"18:13:00","departure_time":"18:13:00","lat":49.11212,"lon":16.895599,"is_passed":false},{"stop_id":"U16336Z1","name":"Heršpice, Bílý Vlk","arrival_time":"18:16:00","departure_time":"18:16:00","lat":49.095813,"lon":16.909428,"is_passed":false},{"stop_id":"U16445Z1","name":"Žarošice, Těšanka","arrival_time":"18:18:00","departure_time":"18:18:00","lat":49.079005,"lon":16.936517,"is_passed":false},{"stop_id":"U16446Z1","name":"Žarošice, Zdravá Voda","arrival_time":"18:20:00","departure_time":"18:20:00","lat":49.065466,"lon":16.945145,"is_passed":false},{"stop_id":"U16444Z1","name":"Žarošice, Silničná, rozcestí Uhřice","arrival_time":"18:23:00","departure_time":"18:23:00","lat":49.051812,"lon":16.953006,"is_passed":false},{"stop_id":"U16448Z1","name":"Žarošice, škola","arrival_time":"18:26:00","departure_time":"18:26:00","lat":49.039337,"lon":16.96142,"is_passed":false},{"stop_id":"U16449Z1","name":"Žarošice","arrival_time":"18:27:00","departure_time":"18:27:00","lat":49.040617,"lon":16.967482,"is_passed":false},{"stop_id":"U16525Z1","name":"Archlebov","arrival_time":"18:32:00","departure_time":"18:32:00","lat":49.043113,"lon":17.00413,"is_passed":false},{"stop_id":"U16527Z1","name":"Dražůvky","arrival_time":"18:36:00","departure_time":"18:36:00","lat":49.031967,"lon":17.020073,"is_passed":false},{"stop_id":"U16533Z1","name":"Želetice, statek","arrival_time":"18:40:00","departure_time":"18:40:00","lat":49.01512,"lon":17.006987,"is_passed":false},{"stop_id":"U16534Z1","name":"Želetice","arrival_time":"18:41:00","departure_time":"18:41:00","lat":49.012693,"lon":17.009444,"is_passed":false},{"stop_id":"U16530Z1","name":"Nenkovice, u kašny","arrival_time":"18:44:00","departure_time":"18:44:00","lat":49.001724,"lon":17.007864,"is_passed":false},{"stop_id":"U16528Z1","name":"Nenkovice, obecní úřad","arrival_time":"18:45:00","departure_time":"18:45:00","lat":49.004197,"lon":17.011395,"is_passed":false},{"stop_id":"U16529Z1","name":"Nenkovice, škola","arrival_time":"18:46:00","departure_time":"18:46:00","lat":49.004607,"lon":17.015563,"is_passed":false},{"stop_id":"U16635Z1","name":"Stavěšice","arrival_time":"18:49:00","departure_time":"18:49:00","lat":49.001868,"lon":17.029877,"is_passed":false},{"stop_id":"U16622Z1","name":"Strážovice","arrival_time":"18:53:00","departure_time":"18:53:00","lat":49.0093,"lon":17.047132,"is_passed":false},{"stop_id":"U16612Z1","name":"Kyjov, nemocnice","arrival_time":"19:00:00","departure_time":"19:00:00","lat":49.006845,"lon":17.11013,"is_passed":false},{"stop_id":"U16608Z16","name":"Kyjov, aut. st.","arrival_time":"19:02:00","departure_time":"19:02:00","lat":49.006873,"lon":17.123912,"is_passed":false}],"1130":[{"stop_id":"U14242Z20","name":"Zastávka, železniční stanice","arrival_time":"18:13:00","departure_time":"18:13:00","lat":49.187405,"lon":16.358754,"is_passed":false},{"stop_id":"U14234Z10","name":"Rosice, Těstárny","arrival_time":"18:15:00","departure_time":"18:15:00","lat":49.17882,"lon":16.383519,"is_passed":false},{"stop_id":"U14238Z10","name":"Tetčice, žel. st.","arrival_time":"18:17:00","departure_time":"18:18:00","lat":49.1722,"lon":16.40842,"is_passed":false},{"stop_id":"U24101Z1","name":"Střelice","arrival_time":"18:23:00","departure_time":"18:23:00","lat":49.153958,"lon":16.483833,"is_passed":false},{"stop_id":"U11002Z10","name":"Brno-Horní Heršpice","arrival_time":"18:31:00","departure_time":"18:31:00","lat":49.167404,"lon":16.60686,"is_passed":false},{"stop_id":"U1146Z96","name":"Hlavní nádraží","arrival_time":"18:42:00","departure_time":"18:42:00","lat":49.189976,"lon":16.610222,"is_passed":false}],"1131":[{"stop_id":"U1146Z97","name":"Hlavní nádraží","arrival_time":"5:28:00","departure_time":"5:28:00","lat":49.189976,"lon":16.610222,"is_passed":false},{"stop_id":"U11002Z11","name":"Brno-Horní Heršpice","arrival_time":"5:32:00","departure_time":"5:36:00","lat":49.167404,"lon":16.60686,"is_passed":false},{"stop_id":"U11009Z21","name":"Brno-Starý Lískovec","arrival_time":"5:39:00","departure_time":"5:39:00","lat":49.162219,"lon":16.571096,"is_passed":false},{"stop_id":"U24103Z1","name":"Ostopovice","arrival_time":"5:42:00","departure_time":"5:42:00","lat":49.164994,"lon":16.544202,"is_passed":false},{"stop_id":"U14110Z11","name":"Troubsko, U dráhy","arrival_time":"5:44:00","departure_time":"5:44:00","lat":49.164054,"lon":16.526498,"is_passed":false},{"stop_id":"U14119Z11","name":"Střelice, dolní železniční stanice","arrival_time":"5:47:00","departure_time":"5:47:00","lat":49.156583,"lon":16.506195,"is_passed":false},{"stop_id":"U24101Z2","name":"Střelice","arrival_time":"5:49:00","departure_time":"5:50:00","lat":49.154016,"lon":16.483608,"is_passed":false},{"stop_id":"U24102Z2","name":"Omice","arrival_time":"5:53:00","departure_time":"5:53:00","lat":49.161062,"lon":16.446848,"is_passed":false},{"stop_id":"U14238Z11","name":"Tetčice, žel. st.","arrival_time":"5:57:00","departure_time":"5:57:00","lat":49.172316,"lon":16.408496,"is_passed":false},{"stop_id":"U14234Z11","name":"Rosice, Těstárny","arrival_time":"5:59:00","departure_time":"6:00:00","lat":49.178895,"lon":16.383608,"is_passed":false},{"stop_id":"U14242Z21","name":"Zastávka, železniční stanice","arrival_time":"6:02:00","departure_time":"6:02:00","lat":49.187463,"lon":16.358639,"is_passed":false}],"1132":[{"stop_id":"U14242Z20","name":"Zastávka, železniční stanice","arrival_time":"4:51:00","departure_time":"4:51:00","lat":49.187405,"lon":16.358754,"is_passed":false},{"stop_id":"U14234Z10","name":"Rosice, Těstárny","arrival_time":"4:53:00","departure_time":"4:54:00","lat":49.17882,"lon":16.383519,"is_passed":false},{"stop_id":"U14238Z10","name":"Tetčice, žel. st.","arrival_time":"4:56:00","departure_time":"4:56:00","lat":49.1722,"lon":16.40842,"is_passed":false},{"stop_id":"U24102Z1","name":"Omice","arrival_time":"4:59:00","departure_time":"4:59:00","lat":49.161005,"lon":16.446698,"is_passed":false},{"stop_id":"U24101Z1","name":"Střelice","arrival_time":"5:03:00","departure_time":"5:03:00","lat":49.153958,"lon":16.483833,"is_passed":false},{"stop_id":"U14119Z10","name":"Střelice, dolní železniční stanice","arrival_time":"5:05:00","departure_time":"5:06:00","lat":49.156488,"lon":16.506231,"is_passed":false},{"stop_id":"U14110Z10","name":"Troubsko, U dráhy","arrival_time":"5:08:00","departure_time":"5:08:00","lat":49.163994,"lon":16.526611,"is_passed":false},{"stop_id":"U24103Z2","name":"Ostopovice","arrival_time":"5:10:00","departure_time":"5:10:00","lat":49.164923,"lon":16.544112,"is_passed":false},{"stop_id":"U11009Z22","name":"Brno-Starý Lískovec","arrival_time":"5:12:00","departure_time":"5:12:00","lat":49.16217,"lon":16.5711,"is_passed":false},{"stop_id":"U11002Z10","name":"Brno-Horní Heršpice","arrival_time":"5:16:00","departure_time":"5:16:00","lat":49.167404,"lon":16.60686,"is_passed":false},{"stop_id":"U1146Z96","name":"Hlavní nádraží","arrival_time":"5:21:00","departure_time":"5:21:00","lat":49.189976,"lon":16.610222,"is_passed":false}],"1133":[{"stop_id":"U1146Z97","name":"Hlavní nádraží","arrival_time":"6:28:00","departure_time":"6:28:00","lat":49.189976,"lon":16.610222,"is_passed":false},{"stop_id":"U11002Z11","name":"Brno-Horní Heršpice","arrival_time":"6:31:00","departure_time":"6:32:00","lat":49.167404,"lon":16.60686,"is_passed":false},{"stop_id":"U11009Z21","name":"Brno-Starý Lískovec","arrival_time":"6:35:00","departure_time":"6:35:00","lat":49.162219,"lon":16.571096,"is_passed":false},{"stop_id":"U24103Z1","name":"Ostopovice","arrival_time":"6:38:00","departure_time":"6:38:00","lat":49.164994,"lon":16.544202,"is_passed":false},{"stop_id":"U14110Z11","name":"Troubsko, U dráhy","arrival_time":"6:40:00","departure_time":"6:40:00","lat":49.164054,"lon":16.526498,"is_passed":false},{"stop_id":"U14119Z11","name":"Střelice, dolní železniční stanice","arrival_time":"6:43:00","departure_time":"6:43:00","lat":49.156583,"lon":16.506195,"is_passed":false},{"stop_id":"U24101Z2","name":"Střelice","arrival_time":"6:45:00","departure_time":"6:47:00","lat":49.154016,"lon":16.483608,"is_passed":false},{"stop_id":"U24102Z2","name":"Omice","arrival_time":"6:50:00","departure_time":"6:50:00","lat":49.161062,"lon":16.446848,"is_passed":false},{"stop_id":"U14238Z11","name":"Tetčice, žel. st.","arrival_time":"6:53:00","departure_time":"6:54:00","lat":49.172316,"lon":16.408496,"is_passed":false},{"stop_id":"U14234Z11","name":"Rosice, Těstárny","arrival_time":"6:56:00","departure_time":"6:56:00","lat":49.178895,"lon":16.383608,"is_passed":false},{"stop_id":"U14242Z21","name":"Zastávka, železniční stanice","arrival_time":"6:59:00","departure_time":"6:59:00","lat":49.187463,"lon":16.358639,"is_passed":false}],"1134":[{"stop_id":"U14242Z20","name":"Zastávka, železniční stanice","arrival_time":"5:52:00","departure_time":"5:52:00","lat":49.187405,"lon":16.358754,"is_passed":false},{"stop_id":"U14234Z10","name":"Rosice, Těstárny","arrival_time":"5:54:00","departure_time":"5:55:00","lat":49.17882,"lon":16.383519,"is_passed":false},{"stop_id":"U14238Z10","name":"Tetčice, žel. st.","arrival_time":"5:57:00","departure_time":"5:57:00","lat":49.1722,"lon":16.40842,"is_passed":false},{"stop_id":"U24102Z1","name":"Omice","arrival_time":"6:00:00","departure_time":"6:00:00","lat":49.161005,"lon":16.446698,"is_passed":false},{"stop_id":"U24101Z1","name":"Střelice","arrival_time":"6:04:00","departure_time":"6:04:00","lat":49.153958,"lon":16.483833,"is_passed":false},{"stop_id":"U14119Z10","name":"Střelice, dolní železniční stanice","arrival_time":"6:06:00","departure_time":"6:07:00","lat":49.156488,"lon":16.506231,"is_passed":false},{"stop_id":"U14110Z10","name":"Troubsko, U dráhy","arrival_time":"6:09:00","departure_time":"6:09:00","lat":49.163994,"lon":16.526611,"is_passed":false},{"stop_id":"U24103Z2","name":"Ostopovice","arrival_time":"6:11:00","departure_time":"6:11:00","lat":49.164923,"lon":16.544112,"is_passed":false},{"stop_id":"U11009Z22","name":"Brno-Starý Lískovec","arrival_time":"6:13:00","departure_time":"6:13:00","lat":49.16217,"lon":16.5711,"is_passed":false},{"stop_id":"U11002Z10","name":"Brno-Horní Heršpice","arrival_time":"6:17:00","departure_time":"6:17:00","lat":49.167404,"lon":16.60686,"is_passed":false},{"stop_id":"U1146Z96","name":"Hlavní nádraží","arrival_time":"6:22:00","departure_time":"6:22:00","lat":49.189976,"lon":16.610222,"is_passed":false}],"1135":[{"stop_id":"U1146Z97","name":"Hlavní nádraží","arrival_time":"7:28:00","departure_time":"7:28:00","lat":49.189976,"lon":16.610222,"is_passed":false},{"stop_id":"U11002Z11","name":"Brno-Horní Heršpice","arrival_time":"7:31:00","departure_time":"7:32:00","lat":49.167404,"lon":16.60686,"is_passed":false},{"stop_id":"U11009Z21","name":"Brno-Starý Lískovec","arrival_time":"7:35:00","departure_time":"7:35:00","lat":49.162219,"lon":16.571096,"is_passed":false},{"stop_id":"U24103Z1","name":"Ostopovice","arrival_time":"7:38:00","departure_time":"7:38:00","lat":49.164994,"lon":16.544202,"is_passed":false},{"stop_id":"U14110Z11","name":"Troubsko, U dráhy","arrival_time":"7:40:00","departure_time":"7:40:00","lat":49.164054,"lon":16.526498,"is_passed":false},{"stop_id":"U14119Z11","name":"Střelice, dolní železniční stanice","arrival_time":"7:43:00","departure_time":"7:43:00","lat":49.156583,"lon":16.506195,"is_passed":false},{"stop_id":"U24101Z2","name":"Střelice","arrival_time":"7:45:00","departure_time":"7:47:00","lat":49.154016,"lon":16.483608,"is_passed":false},{"stop_id":"U24102Z2","name":"Omice","arrival_time":"7:50:00","departure_time":"7:50:00","lat":49.161062,"lon":16.446848,"is_passed":false},{"stop_id":"U14238Z11","name":"Tetčice, žel. st.","arrival_time":"7:53:00","departure_time":"7:54:00","lat":49.172316,"lon":16.408496,"is_passed":false},{"stop_id":"U14234Z11","name":"Rosice, Těstárny","arrival_time":"7:56:00","departure_time":"7:56:00","lat":49.178895,"lon":16.383608,"is_passed":false},{"stop_id":"U14242Z21","name":"Zastávka, železniční stanice","arrival_time":"7:59:00","departure_time":"7:59:00","lat":49.187463,"lon":16.358639,"is_passed":false}],"1136":[{"stop_id":"U14242Z20","name":"Zastávka, železniční stanice","arrival_time":"6:52:00","departure_time":"6:52:00","lat":49.187405,"lon":16.358754,"is_passed":false},{"stop_id":"U14234Z10","name":"Rosice, Těstárny","arrival_time":"6:54:00","departure_time":"6:55:00","lat":49.17882,"lon":16.383519,"is_passed":false},{"stop_id":"U14238Z10","name":"Tetčice, žel. st.","arrival_time":"6:57:00","departure_time":"6:57:00","lat":49.1722,"lon":16.40842,"is_passed":false},{"stop_id":"U24102Z1","name":"Omice","arrival_time":"7:00:00","departure_time":"7:00:00","lat":49.161005,"lon":16.446698,"is_passed":false},{"stop_id":"U24101Z1","name":"Střelice","arrival_time":"7:04:00","departure_time":"7:04:00","lat":49.153958,"lon":16.483833,"is_passed":false},{"stop_id":"U14119Z10","name":"Střelice, dolní železniční stanice","arrival_time":"7:06:00","departure_time":"7:07:00","lat":49.156488,"lon":16.506231,"is_passed":false},{"stop_id":"U14110Z10","name":"Troubsko, U dráhy","arrival_time":"7:09:00","departure_time":"7:09:00","lat":49.163994,"lon":16.526611,"is_passed":false},{"stop_id":"U24103Z2","name":"Ostopovice","arrival_time":"7:11:00","departure_time":"7:11:00","lat":49.164923,"lon":16.544112,"is_passed":false},{"stop_id":"U11009Z22","name":"Brno-Starý Lískovec","arrival_time":"7:13:00","departure_time":"7:13:00","lat":49.16217,"lon":16.5711,"is_passed":false},{"stop_id":"U11002Z10","name":"Brno-Horní Heršpice","arrival_time":"7:19:00","departure_time":"7:19:00","lat":49.167404,"lon":16.60686,"is_passed":false},{"stop_id":"U1146Z96","name":"Hlavní nádraží","arrival_time":"7:24:00","departure_time":"7:24:00","lat":49.189976,"lon":16.610222,"is_passed":false}],"1137":[{"stop_id":"U1146Z97","name":"Hlavní nádraží","arrival_time":"13:33:00","departure_time":"13:33:00","lat":49.189976,"lon":16.610222,"is_passed":false},{"stop_id":"U11002Z11","name":"Brno-Horní Heršpice","arrival_time":"13:36:00","departure_time":"13:37:00","lat":49.167404,"lon":16.60686,"is_passed":false},{"stop_id":"U11009Z21","name":"Brno-Starý Lískovec","arrival_time":"13:40:00","departure_time":"13:40:00","lat":49.162219,"lon":16.571096,"is_passed":false},{"stop_id":"U24103Z1","name":"Ostopovice","arrival_time":"13:43:00","departure_time":"13:43:00","lat":49.164994,"lon":16.544202,"is_passed":false},{"stop_id":"U14110Z11","name":"Troubsko, U dráhy","arrival_time":"13:45:00","departure_time":"13:45:00","lat":49.164054,"lon":16.526498,"is_passed":false},{"stop_id":"U14119Z11","name":"Střelice, dolní železniční stanice","arrival_time":"13:48:00","departure_time":"13:48:00","lat":49.156583,"lon":16.506195,"is_passed":false},{"stop_id":"U24101Z2","name":"Střelice","arrival_time":"13:50:00","departure_time":"13:51:00","lat":49.154016,"lon":16.483608,"is_passed":false},{"stop_id":"U24102Z2","name":"Omice","arrival_time":"13:54:00","departure_time":"13:54:00","lat":49.161062,"lon":16.446848,"is_passed":false},{"stop_id":"U14238Z11","name":"Tetčice, žel. st.","arrival_time":"13:57:00","departure_time":"13:58:00","lat":49.172316,"lon":16.408496,"is_passed":false},{"stop_id":"U14234Z11","name":"Rosice, Těstárny","arrival_time":"14:00:00","departure_time":"14:00:00","lat":49.178895,"lon":16.383608,"is_passed":false},{"stop_id":"U14242Z21","name":"Zastávka, železniční stanice","arrival_time":"14:03:00","departure_time":"14:03:00","lat":49.187463,"lon":16.358639,"is_passed":false}],"1138":[{"stop_id":"U14242Z20","name":"Zastávka, železniční stanice","arrival_time":"7:52:00","departure_time":"7:52:00","lat":49.187405,"lon":16.358754,"is_passed":false},{"stop_id":"U14234Z10","name":"Rosice, Těstárny","arrival_time":"7:54:00","departure_time":"7:55:00","lat":49.17882,"lon":16.383519,"is_passed":false},{"stop_id":"U14238Z10","name":"Tetčice, žel. st.","arrival_time":"7:57:00","departure_time":"7:57:00","lat":49.1722,"lon":16.40842,"is_passed":false},{"stop_id":"U24102Z1","name":"Omice","arrival_time":"8:00:00","departure_time":"8:00:00","lat":49.161005,"lon":16.446698,"is_passed":false},{"stop_id":"U24101Z1","name":"Střelice","arrival_time":"8:04:00","departure_time":"8:04:00","lat":49.153958,"lon":16.483833,"is_passed":false},{"stop_id":"U14119Z10","name":"Střelice, dolní železniční stanice","arrival_time":"8:06:00","departure_time":"8:07:00","lat":49.156488,"lon":16.506231,"is_passed":false},{"stop_id":"U14110Z10","name":"Troubsko, U dráhy","arrival_time":"8:09:00","departure_time":"8:09:00","lat":49.163994,"lon":16.526611,"is_passed":false},{"stop_id":"U24103Z2","name":"Ostopovice","arrival_time":"8:11:00","departure_time":"8:11:00","lat":49.164923,"lon":16.544112,"is_passed":false},{"stop_id":"U11009Z22","name":"Brno-Starý Lískovec","arrival_time":"8:13:00","departure_time":"8:13:00","lat":49.16217,"lon":16.5711,"is_passed":false},{"stop_id":"U11002Z10","name":"Brno-Horní Heršpice","arrival_time":"8:17:00","departure_time":"8:17:00","lat":49.167404,"lon":16.60686,"is_passed":false},{"stop_id":"U1146Z96","name":"Hlavní nádraží","arrival_time":"8:22:00","departure_time":"8:22:00","lat":49.189976,"lon":16.610222,"is_passed":false}],"1139":[{"stop_id":"U1146Z97","name":"Hlavní nádraží","arrival_time":"14:33:00","departure_time":"14:33:00","lat":49.189976,"lon":16.610222,"is_passed":false},{"stop_id":"U11002Z11","name":"Brno-Horní Heršpice","arrival_time":"14:36:00","departure_time":"14:37:00","lat":49.167404,"lon":16.60686,"is_passed":false},{"stop_id":"U11009Z21","name":"Brno-Starý Lískovec","arrival_time":"14:40:00","departure_time":"14:40:00","lat":49.162219,"lon":16.571096,"is_passed":false},{"stop_id":"U24103Z1","name":"Ostopovice","arrival_time":"14:43:00","departure_time":"14:43:00","lat":49.164994,"lon":16.544202,"is_passed":false},{"stop_id":"U14110Z11","name":"Troubsko, U dráhy","arrival_time":"14:45:00","departure_time":"14:45:00","lat":49.164054,"lon":16.526498,"is_passed":false},{"stop_id":"U14119Z11","name":"Střelice, dolní železniční stanice","arrival_time":"14:48:00","departure_time":"14:48:00","lat":49.156583,"lon":16.506195,"is_passed":false},{"stop_id":"U24101Z2","name":"Střelice","arrival_time":"14:50:00","departure_time":"14:51:00","lat":49.154016,"lon":16.483608,"is_passed":false},{"stop_id":"U24102Z2","name":"Omice","arrival_time":"14:54:00","departure_time":"14:54:00","lat":49.161062,"lon":16.446848,"is_passed":false},{"stop_id":"U14238Z11","name":"Tetčice, žel. st.","arrival_time":"14:57:00","departure_time":"14:58:00","lat":49.172316,"lon":16.408496,"is_passed":false},{"stop_id":"U14234Z11","name":"Rosice, Těstárny","arrival_time":"15:00:00","departure_time":"15:00:00","lat":49.178895,"lon":16.383608,"is_passed":false},{"stop_id":"U14242Z21","name":"Zastávka, železniční stanice","arrival_time":"15:03:00","departure_time":"15:03:00","lat":49.187463,"lon":16.358639,"is_passed":false}],"11300":[{"stop_id":"U31027Z2","name":"Uherské Hradiště","arrival_time":"6:16:00","departure_time":"6:16:00","lat":49.066825,"lon":17.457085,"is_passed":false},{"stop_id":"U31028Z2","name":"Staré Město u Uherského Hradiště","arrival_time":"6:22:00","departure_time":"6:32:00","lat":49.076022,"lon":17.42271,"is_passed":false}],"11301":[{"stop_id":"U31028Z1","name":"Staré Město u Uherského Hradiště","arrival_time":"6:32:00","departure_time":"6:32:00","lat":49.076029,"lon":17.422624,"is_passed":false},{"stop_id":"U31027Z1","name":"Uherské Hradiště","arrival_time":"6:38:00","departure_time":"6:39:00","lat":49.066881,"lon":17.457171,"is_passed":false},{"stop_id":"U31026Z2","name":"Kunovice","arrival_time":"6:42:00","departure_time":"6:42:00","lat":49.051914,"lon":17.470711,"is_passed":false}],"11302":[{"stop_id":"U31026Z1","name":"Kunovice","arrival_time":"7:01:00","departure_time":"7:01:00","lat":49.051998,"lon":17.470067,"is_passed":false},{"stop_id":"U31027Z2","name":"Uherské Hradiště","arrival_time":"7:04:00","departure_time":"7:06:00","lat":49.066825,"lon":17.457085,"is_passed":false},{"stop_id":"U31028Z2","name":"Staré Město u Uherského Hradiště","arrival_time":"7:12:00","departure_time":"7:39:00","lat":49.076022,"lon":17.42271,"is_passed":false}],"11303":[{"stop_id":"U31028Z1","name":"Staré Město u Uherského Hradiště","arrival_time":"7:39:00","departure_time":"7:39:00","lat":49.076029,"lon":17.422624,"is_passed":false},{"stop_id":"U31027Z1","name":"Uherské Hradiště","arrival_time":"7:45:00","departure_time":"7:47:00","lat":49.066881,"lon":17.457171,"is_passed":false},{"stop_id":"U31026Z2","name":"Kunovice","arrival_time":"7:50:00","departure_time":"7:50:00","lat":49.051914,"lon":17.470711,"is_passed":false}],"11304":[{"stop_id":"U31027Z2","name":"Uherské Hradiště","arrival_time":"7:47:00","departure_time":"7:47:00","lat":49.066825,"lon":17.457085,"is_passed":false},{"stop_id":"U31028Z2","name":"Staré Město u Uherského Hradiště","arrival_time":"7:53:00","departure_time":"7:59:00","lat":49.076022,"lon":17.42271,"is_passed":false}],"11305":[{"stop_id":"U31028Z1","name":"Staré Město u Uherského Hradiště","arrival_time":"7:59:00","departure_time":"7:59:00","lat":49.076029,"lon":17.422624,"is_passed":false},{"stop_id":"U31027Z1","name":"Uherské Hradiště","arrival_time":"8:05:00","departure_time":"8:07:00","lat":49.066881,"lon":17.457171,"is_passed":false}],"11306":[{"stop_id":"U31026Z1","name":"Kunovice","arrival_time":"7:26:00","departure_time":"7:26:00","lat":49.051998,"lon":17.470067,"is_passed":false},{"stop_id":"U31027Z2","name":"Uherské Hradiště","arrival_time":"7:28:00","departure_time":"7:32:00","lat":49.066825,"lon":17.457085,"is_passed":false},{"stop_id":"U31028Z2","name":"Staré Město u Uherského Hradiště","arrival_time":"7:38:00","departure_time":"7:38:00","lat":49.076022,"lon":17.42271,"is_passed":false}],"11307":[{"stop_id":"U31027Z1","name":"Uherské Hradiště","arrival_time":"8:31:00","departure_time":"8:31:00","lat":49.066881,"lon":17.457171,"is_passed":false},{"stop_id":"U31026Z2","name":"Kunovice","arrival_time":"8:34:00","departure_time":"8:34:00","lat":49.051914,"lon":17.470711,"is_passed":false}],"11308":[{"stop_id":"U31026Z1","name":"Kunovice","arrival_time":"8:10:00","departure_time":"8:10:00","lat":49.051998,"lon":17.470067,"is_passed":false},{"stop_id":"U31027Z2","name":"Uherské Hradiště","arrival_time":"8:13:00","departure_time":"8:16:00","lat":49.066825,"lon":17.457085,"is_passed":false},{"stop_id":"U31028Z2","name":"Staré Město u Uherského Hradiště","arrival_time":"8:22:00","departure_time":"9:35:00","lat":49.076022,"lon":17.42271,"is_passed":false}],"11309":[{"stop_id":"U31028Z1","name":"Staré Město u Uherského Hradiště","arrival_time":"9:35:00","departure_time":"9:35:00","lat":49.076029,"lon":17.422624,"is_passed":false},{"stop_id":"U31027Z1","name":"Uherské Hradiště","arrival_time":"9:41:00","departure_time":"9:42:00","lat":49.066881,"lon":17.457171,"is_passed":false},{"stop_id":"U31026Z2","name":"Kunovice","arrival_time":"9:45:00","departure_time":"9:45:00","lat":49.051914,"lon":17.470711,"is_passed":false}],"11310":[{"stop_id":"U31026Z1","name":"Kunovice","arrival_time":"9:22:00","departure_time":"9:22:00","lat":49.051998,"lon":17.470067,"is_passed":false},{"stop_id":"U31027Z2","name":"Uherské Hradiště","arrival_time":"9:25:00","departure_time":"9:45:00","lat":49.066825,"lon":17.457085,"is_passed":false},{"stop_id":"U31028Z2","name":"Staré Město u Uherského Hradiště","arrival_time":"9:51:00","departure_time":"10:00:00","lat":49.076022,"lon":17.42271,"is_passed":false}],"11311":[{"stop_id":"U31028Z1","name":"Staré Město u Uherského Hradiště","arrival_time":"10:00:00","departure_time":"10:00:00","lat":49.076029,"lon":17.422624,"is_passed":false},{"stop_id":"U31027Z1","name":"Uherské Hradiště","arrival_time":"10:06:00","departure_time":"10:29:00","lat":49.066881,"lon":17.457171,"is_passed":false},{"stop_id":"U31026Z2","name":"Kunovice","arrival_time":"10:32:00","departure_time":"10:32:00","lat":49.051914,"lon":17.470711,"is_passed":false}],"11312":[{"stop_id":"U31026Z1","name":"Kunovice","arrival_time":"11:22:00","departure_time":"11:22:00","lat":49.051998,"lon":17.470067,"is_passed":false},{"stop_id":"U31027Z2","name":"Uherské Hradiště","arrival_time":"11:25:00","departure_time":"11:45:00","lat":49.066825,"lon":17.457085,"is_passed":false},{"stop_id":"U31028Z2","name":"Staré Město u Uherského Hradiště","arrival_time":"11:51:00","departure_time":"12:00:00","lat":49.076022,"lon":17.42271,"is_passed":false}],"11313":[{"stop_id":"U31028Z1","name":"Staré Město u Uherského Hradiště","arrival_time":"12:00:00","departure_time":"12:00:00","lat":49.076029,"lon":17.422624,"is_passed":false},{"stop_id":"U31027Z1","name":"Uherské Hradiště","arrival_time":"12:06:00","departure_time":"12:29:00","lat":49.066881,"lon":17.457171,"is_passed":false},{"stop_id":"U31026Z2","name":"Kunovice","arrival_time":"12:32:00","departure_time":"12:32:00","lat":49.051914,"lon":17.470711,"is_passed":false}],"11314":[{"stop_id":"U31026Z1","name":"Kunovice","arrival_time":"10:06:00","departure_time":"10:06:00","lat":49.051998,"lon":17.470067,"is_passed":false},{"stop_id":"U31027Z2","name":"Uherské Hradiště","arrival_time":"10:09:00","departure_time":"10:11:00","lat":49.066825,"lon":17.457085,"is_passed":false},{"stop_id":"U31028Z2","name":"Staré Město u Uherského Hradiště","arrival_time":"10:17:00","departure_time":"11:35:00","lat":49.076022,"lon":17.42271,"is_passed":false}],"11315":[{"stop_id":"U31028Z1","name":"Staré Město u Uherského Hradiště","arrival_time":"11:35:00","departure_time":"11:35:00","lat":49.076029,"lon":17.422624,"is_passed":false},{"stop_id":"U31027Z1","name":"Uherské Hradiště","arrival_time":"11:41:00","departure_time":"11:42:00","lat":49.066881,"lon":17.457171,"is_passed":false},{"stop_id":"U31026Z2","name":"Kunovice","arrival_time":"11:45:00","departure_time":"11:45:00","lat":49.051914,"lon":17.470711,"is_passed":false}],"11316":[{"stop_id":"U31026Z1","name":"Kunovice","arrival_time":"12:06:00","departure_time":"12:06:00","lat":49.051998,"lon":17.470067,"is_passed":false},{"stop_id":"U31027Z2","name":"Uherské Hradiště","arrival_time":"12:09:00","departure_time":"12:11:00","lat":49.066825,"lon":17.457085,"is_passed":false},{"stop_id":"U31028Z2","name":"Staré Město u Uherského Hradiště","arrival_time":"12:17:00","departure_time":"13:38:00","lat":49.076022,"lon":17.42271,"is_passed":false}],"11317":[{"stop_id":"U31028Z1","name":"Staré Město u Uherského Hradiště","arrival_time":"13:38:00","departure_time":"13:38:00","lat":49.076029,"lon":17.422624,"is_passed":false},{"stop_id":"U31027Z1","name":"Uherské Hradiště","arrival_time":"13:44:00","departure_time":"13:46:00","lat":49.066881,"lon":17.457171,"is_passed":false},{"stop_id":"U31026Z2","name":"Kunovice","arrival_time":"13:49:00","departure_time":"13:49:00","lat":49.051914,"lon":17.470711,"is_passed":false}],"11318":[{"stop_id":"U31026Z1","name":"Kunovice","arrival_time":"13:21:00","departure_time":"13:21:00","lat":49.051998,"lon":17.470067,"is_passed":false},{"stop_id":"U31027Z2","name":"Uherské Hradiště","arrival_time":"13:24:00","departure_time":"13:45:00","lat":49.066825,"lon":17.457085,"is_passed":false},{"stop_id":"U31028Z2","name":"Staré Město u Uherského Hradiště","arrival_time":"13:51:00","departure_time":"14:09:00","lat":49.076022,"lon":17.42271,"is_passed":false}],"11319":[{"stop_id":"U31028Z1","name":"Staré Město u Uherského Hradiště","arrival_time":"14:09:00","departure_time":"14:09:00","lat":49.076029,"lon":17.422624,"is_passed":false},{"stop_id":"U31027Z1","name":"Uherské Hradiště","arrival_time":"14:15:00","departure_time":"14:29:00","lat":49.066881,"lon":17.457171,"is_passed":false},{"stop_id":"U31026Z2","name":"Kunovice","arrival_time":"14:32:00","departure_time":"14:32:00","lat":49.051914,"lon":17.470711,"is_passed":false}],"11320":[{"stop_id":"U31028Z1","name":"Staré Město u Uherského Hradiště","arrival_time":"13:59:00","departure_time":"13:59:00","lat":49.076029,"lon":17.422624,"is_passed":false},{"stop_id":"U31027Z1","name":"Uherské Hradiště","arrival_time":"14:05:00","departure_time":"14:09:00","lat":49.066881,"lon":17.457171,"is_passed":false}],"11321":[{"stop_id":"U31026Z1","name":"Kunovice","arrival_time":"15:22:00","departure_time":"15:22:00","lat":49.051998,"lon":17.470067,"is_passed":false},{"stop_id":"U31027Z2","name":"Uherské Hradiště","arrival_time":"15:25:00","departure_time":"15:26:00","lat":49.066825,"lon":17.457085,"is_passed":false},{"stop_id":"U31028Z2","name":"Staré Město u Uherského Hradiště","arrival_time":"15:32:00","departure_time":"15:39:00","lat":49.076022,"lon":17.42271,"is_passed":false}],"11322":[{"stop_id":"U31028Z1","name":"Staré Město u Uherského Hradiště","arrival_time":"15:39:00","departure_time":"15:39:00","lat":49.076029,"lon":17.422624,"is_passed":false},{"stop_id":"U31027Z1","name":"Uherské Hradiště","arrival_time":"15:45:00","departure_time":"15:46:00","lat":49.066881,"lon":17.457171,"is_passed":false},{"stop_id":"U31026Z2","name":"Kunovice","arrival_time":"15:49:00","departure_time":"15:50:00","lat":49.051914,"lon":17.470711,"is_passed":false}],"11323":[{"stop_id":"U31027Z2","name":"Uherské Hradiště","arrival_time":"15:46:00","departure_time":"15:46:00","lat":49.066825,"lon":17.457085,"is_passed":false},{"stop_id":"U31028Z2","name":"Staré Město u Uherského Hradiště","arrival_time":"15:52:00","departure_time":"16:12:00","lat":49.076022,"lon":17.42271,"is_passed":false}],"11324":[{"stop_id":"U31028Z1","name":"Staré Město u Uherského Hradiště","arrival_time":"16:12:00","departure_time":"16:12:00","lat":49.076029,"lon":17.422624,"is_passed":false},{"stop_id":"U31027Z1","name":"Uherské Hradiště","arrival_time":"16:18:00","departure_time":"16:29:00","lat":49.066881,"lon":17.457171,"is_passed":false},{"stop_id":"U31026Z2","name":"Kunovice","arrival_time":"16:32:00","departure_time":"16:32:00","lat":49.051914,"lon":17.470711,"is_passed":false}],"11325":[{"stop_id":"U31026Z1","name":"Kunovice","arrival_time":"14:13:00","departure_time":"14:13:00","lat":49.051998,"lon":17.470067,"is_passed":false},{"stop_id":"U31027Z2","name":"Uherské Hradiště","arrival_time":"14:15:00","departure_time":"14:16:00","lat":49.066825,"lon":17.457085,"is_passed":false},{"stop_id":"U31028Z2","name":"Staré Město u Uherského Hradiště","arrival_time":"14:22:00","departure_time":"15:59:00","lat":49.076022,"lon":17.42271,"is_passed":false}],"11326":[{"stop_id":"U31028Z1","name":"Staré Město u Uherského Hradiště","arrival_time":"15:59:00","departure_time":"15:59:00","lat":49.076029,"lon":17.422624,"is_passed":false},{"stop_id":"U31027Z1","name":"Uherské Hradiště","arrival_time":"16:04:00","departure_time":"16:09:00","lat":49.066881,"lon":17.457171,"is_passed":false}],"11327":[{"stop_id":"U31026Z1","name":"Kunovice","arrival_time":"16:12:00","departure_time":"16:12:00","lat":49.051998,"lon":17.470067,"is_passed":false},{"stop_id":"U31027Z2","name":"Uherské Hradiště","arrival_time":"16:15:00","departure_time":"16:18:00","lat":49.066825,"lon":17.457085,"is_passed":false},{"stop_id":"U31028Z2","name":"Staré Město u Uherského Hradiště","arrival_time":"16:24:00","departure_time":"17:39:00","lat":49.076022,"lon":17.42271,"is_passed":false}],"11328":[{"stop_id":"U31028Z1","name":"Staré Město u Uherského Hradiště","arrival_time":"17:39:00","departure_time":"17:39:00","lat":49.076029,"lon":17.422624,"is_passed":false},{"stop_id":"U31027Z1","name":"Uherské Hradiště","arrival_time":"17:45:00","departure_time":"17:46:00","lat":49.066881,"lon":17.457171,"is_passed":false},{"stop_id":"U31026Z2","name":"Kunovice","arrival_time":"17:49:00","departure_time":"17:50:00","lat":49.051914,"lon":17.470711,"is_passed":false}],"11329":[{"stop_id":"U31026Z1","name":"Kunovice","arrival_time":"17:21:00","departure_time":"17:21:00","lat":49.051998,"lon":17.470067,"is_passed":false},{"stop_id":"U31027Z2","name":"Uherské Hradiště","arrival_time":"17:24:00","departure_time":"18:55:00","lat":49.066825,"lon":17.457085,"is_passed":false}],"11330":[{"stop_id":"U31027Z1","name":"Uherské Hradiště","arrival_time":"18:55:00","departure_time":"18:55:00","lat":49.066881,"lon":17.457171,"is_passed":false},{"stop_id":"U31026Z2","name":"Kunovice","arrival_time":"18:58:00","departure_time":"18:58:00","lat":49.051914,"lon":17.470711,"is_passed":false}],"11331":[{"stop_id":"U31027Z2","name":"Uherské Hradiště","arrival_time":"17:46:00","departure_time":"17:46:00","lat":49.066825,"lon":17.457085,"is_passed":false},{"stop_id":"U31028Z2","name":"Staré Město u Uherského Hradiště","arrival_time":"17:52:00","departure_time":"17:59:00","lat":49.076022,"lon":17.42271,"is_passed":false}],"11332":[{"stop_id":"U31028Z1","name":"Staré Město u Uherského Hradiště","arrival_time":"17:59:00","departure_time":"17:59:00","lat":49.076029,"lon":17.422624,"is_passed":false},{"stop_id":"U31027Z1","name":"Uherské Hradiště","arrival_time":"18:05:00","departure_time":"18:08:00","lat":49.066881,"lon":17.457171,"is_passed":false}],"11333":[{"stop_id":"U31026Z1","name":"Kunovice","arrival_time":"19:21:00","departure_time":"19:21:00","lat":49.051998,"lon":17.470067,"is_passed":false},{"stop_id":"U31027Z2","name":"Uherské Hradiště","arrival_time":"19:24:00","departure_time":"19:26:00","lat":49.066825,"lon":17.457085,"is_passed":false},{"stop_id":"U31028Z2","name":"Staré Město u Uherského Hradiště","arrival_time":"19:32:00","departure_time":"19:36:00","lat":49.076022,"lon":17.42271,"is_passed":false}],"11334":[{"stop_id":"U31028Z1","name":"Staré Město u Uherského Hradiště","arrival_time":"19:36:00","departure_time":"19:36:00","lat":49.076029,"lon":17.422624,"is_passed":false},{"stop_id":"U31027Z1","name":"Uherské Hradiště","arrival_time":"19:42:00","departure_time":"19:42:00","lat":49.066881,"lon":17.457171,"is_passed":false}],"11335":[{"stop_id":"U31027Z2","name":"Uherské Hradiště","arrival_time":"19:46:00","departure_time":"19:46:00","lat":49.066825,"lon":17.457085,"is_passed":false},{"stop_id":"U31028Z2","name":"Staré Město u Uherského Hradiště","arrival_time":"19:52:00","departure_time":"19:52:00","lat":49.076022,"lon":17.42271,"is_passed":false}],"11336":[{"stop_id":"U31028Z1","name":"Staré Město u Uherského Hradiště","arrival_time":"20:28:00","departure_time":"20:28:00","lat":49.076029,"lon":17.422624,"is_passed":false},{"stop_id":"U31027Z1","name":"Uherské Hradiště","arrival_time":"20:34:00","departure_time":"20:39:00","lat":49.066881,"lon":17.457171,"is_passed":false},{"stop_id":"U31026Z2","name":"Kunovice","arrival_time":"20:42:00","departure_time":"20:42:00","lat":49.051914,"lon":17.470711,"is_passed":false}],"11337":[{"stop_id":"U31026Z1","name":"Kunovice","arrival_time":"21:04:00","departure_time":"21:04:00","lat":49.051998,"lon":17.470067,"is_passed":false},{"stop_id":"U31027Z2","name":"Uherské Hradiště","arrival_time":"21:07:00","departure_time":"21:08:00","lat":49.066825,"lon":17.457085,"is_passed":false},{"stop_id":"U31028Z2","name":"Staré Město u Uherského Hradiště","arrival_time":"21:14:00","departure_time":"21:29:00","lat":49.076022,"lon":17.42271,"is_passed":false}],"11338":[{"stop_id":"U31028Z1","name":"Staré Město u Uherského Hradiště","arrival_time":"21:29:00","departure_time":"21:29:00","lat":49.076029,"lon":17.422624,"is_passed":false},{"stop_id":"U31027Z1","name":"Uherské Hradiště","arrival_time":"21:35:00","departure_time":"21:36:00","lat":49.066881,"lon":17.457171,"is_passed":false},{"stop_id":"U31026Z2","name":"Kunovice","arrival_time":"21:39:00","departure_time":"21:40:00","lat":49.051914,"lon":17.470711,"is_passed":false}],"11339":[{"stop_id":"U31026Z1","name":"Kunovice","arrival_time":"21:39:00","departure_time":"21:39:00","lat":49.051998,"lon":17.470067,"is_passed":false},{"stop_id":"U31027Z2","name":"Uherské Hradiště","arrival_time":"21:42:00","departure_time":"21:45:00","lat":49.066825,"lon":17.457085,"is_passed":false},{"stop_id":"U31028Z2","name":"Staré Město u Uherského Hradiště","arrival_time":"21:51:00","departure_time":"21:59:00","lat":49.076022,"lon":17.42271,"is_passed":false}],"11340":[{"stop_id":"U31028Z1","name":"Staré Město u Uherského Hradiště","arrival_time":"21:59:00","departure_time":"21:59:00","lat":49.076029,"lon":17.422624,"is_passed":false},{"stop_id":"U31027Z1","name":"Uherské Hradiště","arrival_time":"22:05:00","departure_time":"22:06:00","lat":49.066881,"lon":17.457171,"is_passed":false},{"stop_id":"U31026Z2","name":"Kunovice","arrival_time":"22:09:00","departure_time":"22:09:00","lat":49.051914,"lon":17.470711,"is_passed":false}],"11341":[{"stop_id":"U31026Z1","name":"Kunovice","arrival_time":"18:11:00","departure_time":"18:11:00","lat":49.051998,"lon":17.470067,"is_passed":false},{"stop_id":"U31027Z2","name":"Uherské Hradiště","arrival_time":"18:14:00","departure_time":"18:16:00","lat":49.066825,"lon":17.457085,"is_passed":false},{"stop_id":"U31028Z2","name":"Staré Město u Uherského Hradiště","arrival_time":"18:22:00","departure_time":"22:36:00","lat":49.076022,"lon":17.42271,"is_passed":false}],"11342":[{"stop_id":"U31028Z1","name":"Staré Město u Uherského Hradiště","arrival_time":"22:36:00","departure_time":"22:36:00","lat":49.076029,"lon":17.422624,"is_passed":false},{"stop_id":"U31027Z1","name":"Uherské Hradiště","arrival_time":"22:42:00","departure_time":"22:43:00","lat":49.066881,"lon":17.457171,"is_passed":false},{"stop_id":"U31026Z2","name":"Kunovice","arrival_time":"22:46:00","departure_time":"22:46:00","lat":49.051914,"lon":17.470711,"is_passed":false}],"11343":[{"stop_id":"U31028Z1","name":"Staré Město u Uherského Hradiště","arrival_time":"5:26:00","departure_time":"5:26:00","lat":49.076029,"lon":17.422624,"is_passed":false},{"stop_id":"U31027Z1","name":"Uherské Hradiště","arrival_time":"5:32:00","departure_time":"5:32:00","lat":49.066881,"lon":17.457171,"is_passed":false}],"11344":[{"stop_id":"U31027Z2","name":"Uherské Hradiště","arrival_time":"4:00:00","departure_time":"4:00:00","lat":49.066825,"lon":17.457085,"is_passed":false},{"stop_id":"U31028Z2","name":"Staré Město u Uherského Hradiště","arrival_time":"4:06:00","departure_time":"4:06:00","lat":49.076022,"lon":17.42271,"is_passed":false}],"11345":[{"stop_id":"U1146Z98","name":"Hlavní nádraží","arrival_time":"22:46:00","departure_time":"22:46:00","lat":49.19035,"lon":16.612342,"is_passed":false},{"stop_id":"U1183Z11","name":"Chrlice, nádraží","arrival_time":"22:54:00","departure_time":"22:55:00","lat":49.132031,"lon":16.657232,"is_passed":false},{"stop_id":"U16149Z11","name":"Sokolnice, železniční stanice","arrival_time":"23:00:00","departure_time":"23:01:00","lat":49.108029,"lon":16.733459,"is_passed":false},{"stop_id":"U26101Z2","name":"Újezd u Brna","arrival_time":"23:02:00","departure_time":"23:03:00","lat":49.107297,"lon":16.745564,"is_passed":false},{"stop_id":"U26102Z2","name":"Hostěrádky-Rešov","arrival_time":"23:06:00","departure_time":"23:06:00","lat":49.119822,"lon":16.782755,"is_passed":false},{"stop_id":"U26201Z2","name":"Zbýšov","arrival_time":"23:09:00","departure_time":"23:09:00","lat":49.132691,"lon":16.806859,"is_passed":false},{"stop_id":"U16212Z11","name":"Křenovice, hor. žel. st.","arrival_time":"23:11:00","departure_time":"23:12:00","lat":49.143553,"lon":16.824564,"is_passed":false},{"stop_id":"U16228Z11","name":"Holubice, žel.st.","arrival_time":"23:15:00","departure_time":"23:16:00","lat":49.179869,"lon":16.824654,"is_passed":false},{"stop_id":"U17342Z11","name":"Rousínov, žel. st.","arrival_time":"23:19:00","departure_time":"23:20:00","lat":49.196667,"lon":16.867139,"is_passed":false},{"stop_id":"U27301Z2","name":"Luleč","arrival_time":"23:26:00","departure_time":"23:26:00","lat":49.248056,"lon":16.921667,"is_passed":false},{"stop_id":"U17446Z11","name":"Vyškov, železniční stanice","arrival_time":"23:32:00","departure_time":"23:32:00","lat":49.277222,"lon":16.990833,"is_passed":false}],"11346":[{"stop_id":"U12676Z50","name":"Skalice nad Svitavou, žel.st.","arrival_time":"4:36:00","departure_time":"4:36:00","lat":49.480123,"lon":16.609726,"is_passed":false},{"stop_id":"U22602Z1","name":"Svitávka","arrival_time":"4:38:00","departure_time":"4:39:00","lat":49.499434,"lon":16.599208,"is_passed":false},{"stop_id":"U22701Z1","name":"Zboněk","arrival_time":"4:41:00","departure_time":"4:41:00","lat":49.521608,"lon":16.583438,"is_passed":false},{"stop_id":"U22702Z1","name":"Letovice zastávka","arrival_time":"4:44:00","departure_time":"4:44:00","lat":49.535496,"lon":16.576998,"is_passed":false},{"stop_id":"U12736Z50","name":"Letovice, železniční stanice","arrival_time":"4:47:00","departure_time":"4:56:00","lat":49.555973,"lon":16.570906,"is_passed":false}],"11347":[{"stop_id":"U12736Z51","name":"Letovice, železniční stanice","arrival_time":"4:56:00","departure_time":"4:56:00","lat":49.555973,"lon":16.570906,"is_passed":false},{"stop_id":"U22702Z2","name":"Letovice zastávka","arrival_time":"4:58:00","departure_time":"4:59:00","lat":49.536152,"lon":16.576186,"is_passed":false},{"stop_id":"U22701Z2","name":"Zboněk","arrival_time":"5:01:00","departure_time":"5:01:00","lat":49.520482,"lon":16.584439,"is_passed":false},{"stop_id":"U22602Z2","name":"Svitávka","arrival_time":"5:03:00","departure_time":"5:04:00","lat":49.499434,"lon":16.599208,"is_passed":false},{"stop_id":"U12676Z51","name":"Skalice nad Svitavou, žel.st.","arrival_time":"5:07:00","departure_time":"5:11:00","lat":49.480123,"lon":16.609726,"is_passed":false},{"stop_id":"U12511Z51","name":"Doubravice, žel.st.","arrival_time":"5:15:00","departure_time":"5:16:00","lat":49.438707,"lon":16.621809,"is_passed":false},{"stop_id":"U12439Z51","name":"Rájec-Jestřebí, železniční stanice","arrival_time":"5:19:00","departure_time":"5:20:00","lat":49.408206,"lon":16.627711,"is_passed":false},{"stop_id":"U22301Z2","name":"Dolní Lhota","arrival_time":"5:22:00","departure_time":"5:22:00","lat":49.386917,"lon":16.633978,"is_passed":false},{"stop_id":"U22302Z2","name":"Blansko město","arrival_time":"5:25:00","departure_time":"5:26:00","lat":49.360996,"lon":16.639464,"is_passed":false},{"stop_id":"U12342Z29","name":"Blansko, aut. st.","arrival_time":"5:27:00","departure_time":"5:30:00","lat":49.352753,"lon":16.646848,"is_passed":false},{"stop_id":"U12231Z11","name":"Adamov, železniční zastávka","arrival_time":"5:35:00","departure_time":"5:36:00","lat":49.300671,"lon":16.650653,"is_passed":false},{"stop_id":"U12230Z11","name":"Adamov, železniční stanice","arrival_time":"5:37:00","departure_time":"5:38:00","lat":49.295341,"lon":16.663538,"is_passed":false},{"stop_id":"U22101Z2","name":"Babice nad Svitavou","arrival_time":"5:41:00","departure_time":"5:41:00","lat":49.276645,"lon":16.673012,"is_passed":false},{"stop_id":"U12158Z11","name":"Bílovice nad Svitavou, žel. stanice","arrival_time":"5:45:00","departure_time":"5:46:00","lat":49.242715,"lon":16.673677,"is_passed":false},{"stop_id":"U1809Z11","name":"Židenice, nádraží","arrival_time":"5:51:00","departure_time":"5:51:00","lat":49.204282,"lon":16.636042,"is_passed":false},{"stop_id":"U1146Z98","name":"Hlavní nádraží","arrival_time":"5:56:00","departure_time":"6:06:00","lat":49.19035,"lon":16.612342,"is_passed":false},{"stop_id":"U1183Z11","name":"Chrlice, nádraží","arrival_time":"6:14:00","departure_time":"6:17:00","lat":49.132031,"lon":16.657232,"is_passed":false},{"stop_id":"U16149Z11","name":"Sokolnice, železniční stanice","arrival_time":"6:23:00","departure_time":"6:24:00","lat":49.108029,"lon":16.733459,"is_passed":false},{"stop_id":"U26101Z2","name":"Újezd u Brna","arrival_time":"6:25:00","departure_time":"6:26:00","lat":49.107297,"lon":16.745564,"is_passed":false},{"stop_id":"U26102Z2","name":"Hostěrádky-Rešov","arrival_time":"6:29:00","departure_time":"6:29:00","lat":49.119822,"lon":16.782755,"is_passed":false},{"stop_id":"U26201Z2","name":"Zbýšov","arrival_time":"6:32:00","departure_time":"6:32:00","lat":49.132691,"lon":16.806859,"is_passed":false},{"stop_id":"U16212Z11","name":"Křenovice, hor. žel. st.","arrival_time":"6:35:00","departure_time":"6:58:00","lat":49.143553,"lon":16.824564,"is_passed":false}],"11348":[{"stop_id":"U16212Z10","name":"Křenovice, hor. žel. st.","arrival_time":"6:58:00","departure_time":"6:58:00","lat":49.143553,"lon":16.824564,"is_passed":false},{"stop_id":"U26201Z1","name":"Zbýšov","arrival_time":"7:00:00","departure_time":"7:01:00","lat":49.132691,"lon":16.806859,"is_passed":false},{"stop_id":"U26102Z1","name":"Hostěrádky-Rešov","arrival_time":"7:03:00","departure_time":"7:04:00","lat":49.119822,"lon":16.782755,"is_passed":false},{"stop_id":"U26101Z1","name":"Újezd u Brna","arrival_time":"7:07:00","departure_time":"7:07:00","lat":49.107297,"lon":16.745564,"is_passed":false},{"stop_id":"U16149Z10","name":"Sokolnice, železniční stanice","arrival_time":"7:09:00","departure_time":"7:10:00","lat":49.108029,"lon":16.733459,"is_passed":false},{"stop_id":"U1183Z10","name":"Chrlice, nádraží","arrival_time":"7:15:00","departure_time":"7:16:00","lat":49.132031,"lon":16.657232,"is_passed":false},{"stop_id":"U1146Z99","name":"Hlavní nádraží","arrival_time":"7:26:00","departure_time":"7:29:00","lat":49.19035,"lon":16.612342,"is_passed":false},{"stop_id":"U1809Z10","name":"Židenice, nádraží","arrival_time":"7:33:00","departure_time":"7:34:00","lat":49.204282,"lon":16.636042,"is_passed":false},{"stop_id":"U12158Z10","name":"Bílovice nad Svitavou, žel. stanice","arrival_time":"7:39:00","departure_time":"7:40:00","lat":49.242715,"lon":16.673677,"is_passed":false},{"stop_id":"U12230Z10","name":"Adamov, železniční stanice","arrival_time":"7:47:00","departure_time":"7:48:00","lat":49.295341,"lon":16.663538,"is_passed":false},{"stop_id":"U12231Z10","name":"Adamov, železniční zastávka","arrival_time":"7:49:00","departure_time":"7:50:00","lat":49.300671,"lon":16.650653,"is_passed":false},{"stop_id":"U12342Z30","name":"Blansko, aut. st.","arrival_time":"7:55:00","departure_time":"7:57:00","lat":49.352753,"lon":16.646848,"is_passed":false},{"stop_id":"U22302Z1","name":"Blansko město","arrival_time":"7:59:00","departure_time":"8:00:00","lat":49.360996,"lon":16.639464,"is_passed":false},{"stop_id":"U22301Z1","name":"Dolní Lhota","arrival_time":"8:02:00","departure_time":"8:03:00","lat":49.386917,"lon":16.633978,"is_passed":false},{"stop_id":"U12439Z50","name":"Rájec-Jestřebí, železniční stanice","arrival_time":"8:06:00","departure_time":"8:53:00","lat":49.408206,"lon":16.627711,"is_passed":false}],"11349":[{"stop_id":"U12439Z51","name":"Rájec-Jestřebí, železniční stanice","arrival_time":"8:53:00","departure_time":"8:53:00","lat":49.408206,"lon":16.627711,"is_passed":false},{"stop_id":"U22301Z2","name":"Dolní Lhota","arrival_time":"8:55:00","departure_time":"8:56:00","lat":49.386917,"lon":16.633978,"is_passed":false},{"stop_id":"U22302Z2","name":"Blansko město","arrival_time":"8:58:00","departure_time":"8:59:00","lat":49.360996,"lon":16.639464,"is_passed":false},{"stop_id":"U12342Z29","name":"Blansko, aut. st.","arrival_time":"9:00:00","departure_time":"9:01:00","lat":49.352753,"lon":16.646848,"is_passed":false},{"stop_id":"U12231Z11","name":"Adamov, železniční zastávka","arrival_time":"9:07:00","departure_time":"9:07:00","lat":49.300671,"lon":16.650653,"is_passed":false},{"stop_id":"U12230Z11","name":"Adamov, železniční stanice","arrival_time":"9:09:00","departure_time":"9:10:00","lat":49.295341,"lon":16.663538,"is_passed":false},{"stop_id":"U12158Z11","name":"Bílovice nad Svitavou, žel. stanice","arrival_time":"9:16:00","departure_time":"9:17:00","lat":49.242715,"lon":16.673677,"is_passed":false},{"stop_id":"U1809Z11","name":"Židenice, nádraží","arrival_time":"9:22:00","departure_time":"9:22:00","lat":49.204282,"lon":16.636042,"is_passed":false},{"stop_id":"U1146Z98","name":"Hlavní nádraží","arrival_time":"9:29:00","departure_time":"9:58:00","lat":49.19035,"lon":16.612342,"is_passed":false}],"11350":[{"stop_id":"U1146Z99","name":"Hlavní nádraží","arrival_time":"9:58:00","departure_time":"9:58:00","lat":49.19035,"lon":16.612342,"is_passed":false},{"stop_id":"U1809Z10","name":"Židenice, nádraží","arrival_time":"10:01:00","departure_time":"10:04:00","lat":49.204282,"lon":16.636042,"is_passed":false},{"stop_id":"U12158Z10","name":"Bílovice nad Svitavou, žel. stanice","arrival_time":"10:09:00","departure_time":"10:09:00","lat":49.242715,"lon":16.673677,"is_passed":false},{"stop_id":"U22101Z1","name":"Babice nad Svitavou","arrival_time":"10:13:00","departure_time":"10:13:00","lat":49.276645,"lon":16.673012,"is_passed":false},{"stop_id":"U12230Z10","name":"Adamov, železniční stanice","arrival_time":"10:16:00","departure_time":"10:17:00","lat":49.295341,"lon":16.663538,"is_passed":false},{"stop_id":"U12231Z10","name":"Adamov, železniční zastávka","arrival_time":"10:18:00","departure_time":"10:19:00","lat":49.300671,"lon":16.650653,"is_passed":false},{"stop_id":"U12342Z30","name":"Blansko, aut. st.","arrival_time":"10:24:00","departure_time":"10:25:00","lat":49.352753,"lon":16.646848,"is_passed":false},{"stop_id":"U22302Z1","name":"Blansko město","arrival_time":"10:27:00","departure_time":"10:28:00","lat":49.360996,"lon":16.639464,"is_passed":false},{"stop_id":"U22301Z1","name":"Dolní Lhota","arrival_time":"10:30:00","departure_time":"10:31:00","lat":49.386917,"lon":16.633978,"is_passed":false},{"stop_id":"U12439Z50","name":"Rájec-Jestřebí, železniční stanice","arrival_time":"10:33:00","departure_time":"10:34:00","lat":49.408206,"lon":16.627711,"is_passed":false},{"stop_id":"U12511Z50","name":"Doubravice, žel.st.","arrival_time":"10:37:00","departure_time":"10:37:00","lat":49.438707,"lon":16.621809,"is_passed":false},{"stop_id":"U12676Z50","name":"Skalice nad Svitavou, žel.st.","arrival_time":"10:43:00","departure_time":"12:13:00","lat":49.480123,"lon":16.609726,"is_passed":false}],"11351":[{"stop_id":"U12676Z51","name":"Skalice nad Svitavou, žel.st.","arrival_time":"12:13:00","departure_time":"12:13:00","lat":49.480123,"lon":16.609726,"is_passed":false},{"stop_id":"U12511Z51","name":"Doubravice, žel.st.","arrival_time":"12:18:00","departure_time":"12:18:00","lat":49.438707,"lon":16.621809,"is_passed":false},{"stop_id":"U12439Z51","name":"Rájec-Jestřebí, železniční stanice","arrival_time":"12:21:00","departure_time":"12:22:00","lat":49.408206,"lon":16.627711,"is_passed":false},{"stop_id":"U22301Z2","name":"Dolní Lhota","arrival_time":"12:24:00","departure_time":"12:25:00","lat":49.386917,"lon":16.633978,"is_passed":false},{"stop_id":"U22302Z2","name":"Blansko město","arrival_time":"12:27:00","departure_time":"12:28:00","lat":49.360996,"lon":16.639464,"is_passed":false},{"stop_id":"U12342Z29","name":"Blansko, aut. st.","arrival_time":"12:30:00","departure_time":"12:31:00","lat":49.352753,"lon":16.646848,"is_passed":false},{"stop_id":"U12231Z11","name":"Adamov, železniční zastávka","arrival_time":"12:36:00","departure_time":"12:37:00","lat":49.300671,"lon":16.650653,"is_passed":false},{"stop_id":"U12230Z11","name":"Adamov, železniční stanice","arrival_time":"12:38:00","departure_time":"12:39:00","lat":49.295341,"lon":16.663538,"is_passed":false},{"stop_id":"U22101Z2","name":"Babice nad Svitavou","arrival_time":"12:42:00","departure_time":"12:42:00","lat":49.276645,"lon":16.673012,"is_passed":false},{"stop_id":"U12158Z11","name":"Bílovice nad Svitavou, žel. stanice","arrival_time":"12:46:00","departure_time":"12:47:00","lat":49.242715,"lon":16.673677,"is_passed":false},{"stop_id":"U1809Z11","name":"Židenice, nádraží","arrival_time":"12:52:00","departure_time":"12:52:00","lat":49.204282,"lon":16.636042,"is_passed":false},{"stop_id":"U1146Z98","name":"Hlavní nádraží","arrival_time":"12:59:00","departure_time":"13:06:00","lat":49.19035,"lon":16.612342,"is_passed":false},{"stop_id":"U1183Z11","name":"Chrlice, nádraží","arrival_time":"13:14:00","departure_time":"13:17:00","lat":49.132031,"lon":16.657232,"is_passed":false},{"stop_id":"U16149Z11","name":"Sokolnice, železniční stanice","arrival_time":"13:23:00","departure_time":"13:24:00","lat":49.108029,"lon":16.733459,"is_passed":false},{"stop_id":"U26101Z2","name":"Újezd u Brna","arrival_time":"13:25:00","departure_time":"13:26:00","lat":49.107297,"lon":16.745564,"is_passed":false},{"stop_id":"U26102Z2","name":"Hostěrádky-Rešov","arrival_time":"13:29:00","departure_time":"13:29:00","lat":49.119822,"lon":16.782755,"is_passed":false},{"stop_id":"U26201Z2","name":"Zbýšov","arrival_time":"13:32:00","departure_time":"13:32:00","lat":49.132691,"lon":16.806859,"is_passed":false},{"stop_id":"U16212Z11","name":"Křenovice, hor. žel. st.","arrival_time":"13:35:00","departure_time":"13:58:00","lat":49.143553,"lon":16.824564,"is_passed":false}],"11352":[{"stop_id":"U16212Z10","name":"Křenovice, hor. žel. st.","arrival_time":"13:58:00","departure_time":"13:58:00","lat":49.143553,"lon":16.824564,"is_passed":false},{"stop_id":"U26201Z1","name":"Zbýšov","arrival_time":"14:00:00","departure_time":"14:01:00","lat":49.132691,"lon":16.806859,"is_passed":false},{"stop_id":"U26102Z1","name":"Hostěrádky-Rešov","arrival_time":"14:03:00","departure_time":"14:04:00","lat":49.119822,"lon":16.782755,"is_passed":false},{"stop_id":"U26101Z1","name":"Újezd u Brna","arrival_time":"14:07:00","departure_time":"14:07:00","lat":49.107297,"lon":16.745564,"is_passed":false},{"stop_id":"U16149Z10","name":"Sokolnice, železniční stanice","arrival_time":"14:09:00","departure_time":"14:10:00","lat":49.108029,"lon":16.733459,"is_passed":false},{"stop_id":"U1183Z10","name":"Chrlice, nádraží","arrival_time":"14:15:00","departure_time":"14:16:00","lat":49.132031,"lon":16.657232,"is_passed":false},{"stop_id":"U1146Z99","name":"Hlavní nádraží","arrival_time":"14:26:00","departure_time":"14:29:00","lat":49.19035,"lon":16.612342,"is_passed":false},{"stop_id":"U1809Z10","name":"Židenice, nádraží","arrival_time":"14:33:00","departure_time":"14:34:00","lat":49.204282,"lon":16.636042,"is_passed":false},{"stop_id":"U12158Z10","name":"Bílovice nad Svitavou, žel. stanice","arrival_time":"14:39:00","departure_time":"14:40:00","lat":49.242715,"lon":16.673677,"is_passed":false},{"stop_id":"U12230Z10","name":"Adamov, železniční stanice","arrival_time":"14:47:00","departure_time":"14:48:00","lat":49.295341,"lon":16.663538,"is_passed":false},{"stop_id":"U12231Z10","name":"Adamov, železniční zastávka","arrival_time":"14:50:00","departure_time":"14:50:00","lat":49.300671,"lon":16.650653,"is_passed":false},{"stop_id":"U12342Z30","name":"Blansko, aut. st.","arrival_time":"14:56:00","departure_time":"14:57:00","lat":49.352753,"lon":16.646848,"is_passed":false},{"stop_id":"U22302Z1","name":"Blansko město","arrival_time":"14:59:00","departure_time":"15:00:00","lat":49.360996,"lon":16.639464,"is_passed":false},{"stop_id":"U22301Z1","name":"Dolní Lhota","arrival_time":"15:02:00","departure_time":"15:03:00","lat":49.386917,"lon":16.633978,"is_passed":false},{"stop_id":"U12439Z50","name":"Rájec-Jestřebí, železniční stanice","arrival_time":"15:06:00","departure_time":"15:54:00","lat":49.408206,"lon":16.627711,"is_passed":false}],"11353":[{"stop_id":"U12439Z51","name":"Rájec-Jestřebí, železniční stanice","arrival_time":"15:54:00","departure_time":"15:54:00","lat":49.408206,"lon":16.627711,"is_passed":false},{"stop_id":"U22301Z2","name":"Dolní Lhota","arrival_time":"15:56:00","departure_time":"15:57:00","lat":49.386917,"lon":16.633978,"is_passed":false},{"stop_id":"U22302Z2","name":"Blansko město","arrival_time":"15:59:00","departure_time":"16:00:00","lat":49.360996,"lon":16.639464,"is_passed":false},{"stop_id":"U12342Z29","name":"Blansko, aut. st.","arrival_time":"16:01:00","departure_time":"16:02:00","lat":49.352753,"lon":16.646848,"is_passed":false},{"stop_id":"U12231Z11","name":"Adamov, železniční zastávka","arrival_time":"16:08:00","departure_time":"16:08:00","lat":49.300671,"lon":16.650653,"is_passed":false},{"stop_id":"U12230Z11","name":"Adamov, železniční stanice","arrival_time":"16:10:00","departure_time":"16:11:00","lat":49.295341,"lon":16.663538,"is_passed":false},{"stop_id":"U12158Z11","name":"Bílovice nad Svitavou, žel. stanice","arrival_time":"16:18:00","departure_time":"16:19:00","lat":49.242715,"lon":16.673677,"is_passed":false},{"stop_id":"U1809Z11","name":"Židenice, nádraží","arrival_time":"16:24:00","departure_time":"16:24:00","lat":49.204282,"lon":16.636042,"is_passed":false},{"stop_id":"U1146Z98","name":"Hlavní nádraží","arrival_time":"16:29:00","departure_time":"17:00:00","lat":49.19035,"lon":16.612342,"is_passed":false}],"11354":[{"stop_id":"U1146Z99","name":"Hlavní nádraží","arrival_time":"17:00:00","departure_time":"17:00:00","lat":49.19035,"lon":16.612342,"is_passed":false},{"stop_id":"U1809Z10","name":"Židenice, nádraží","arrival_time":"17:04:00","departure_time":"17:05:00","lat":49.204282,"lon":16.636042,"is_passed":false},{"stop_id":"U12158Z10","name":"Bílovice nad Svitavou, žel. stanice","arrival_time":"17:10:00","departure_time":"17:11:00","lat":49.242715,"lon":16.673677,"is_passed":false},{"stop_id":"U22101Z1","name":"Babice nad Svitavou","arrival_time":"17:15:00","departure_time":"17:15:00","lat":49.276645,"lon":16.673012,"is_passed":false},{"stop_id":"U12230Z10","name":"Adamov, železniční stanice","arrival_time":"17:18:00","departure_time":"17:19:00","lat":49.295341,"lon":16.663538,"is_passed":false},{"stop_id":"U12231Z10","name":"Adamov, železniční zastávka","arrival_time":"17:20:00","departure_time":"17:21:00","lat":49.300671,"lon":16.650653,"is_passed":false},{"stop_id":"U12342Z30","name":"Blansko, aut. st.","arrival_time":"17:26:00","departure_time":"17:28:00","lat":49.352753,"lon":16.646848,"is_passed":false},{"stop_id":"U22302Z1","name":"Blansko město","arrival_time":"17:30:00","departure_time":"17:31:00","lat":49.360996,"lon":16.639464,"is_passed":false},{"stop_id":"U22301Z1","name":"Dolní Lhota","arrival_time":"17:33:00","departure_time":"17:34:00","lat":49.386917,"lon":16.633978,"is_passed":false},{"stop_id":"U12439Z50","name":"Rájec-Jestřebí, železniční stanice","arrival_time":"17:36:00","departure_time":"17:37:00","lat":49.408206,"lon":16.627711,"is_passed":false},{"stop_id":"U12511Z50","name":"Doubravice, žel.st.","arrival_time":"17:40:00","departure_time":"17:40:00","lat":49.438707,"lon":16.621809,"is_passed":false},{"stop_id":"U12676Z50","name":"Skalice nad Svitavou, žel.st.","arrival_time":"17:45:00","departure_time":"18:15:00","lat":49.480123,"lon":16.609726,"is_passed":false}],"11355":[{"stop_id":"U12736Z51","name":"Letovice, železniční stanice","arrival_time":"18:57:00","departure_time":"18:57:00","lat":49.555973,"lon":16.570906,"is_passed":false},{"stop_id":"U22702Z2","name":"Letovice zastávka","arrival_time":"18:59:00","departure_time":"19:00:00","lat":49.536152,"lon":16.576186,"is_passed":false},{"stop_id":"U22701Z2","name":"Zboněk","arrival_time":"19:02:00","departure_time":"19:02:00","lat":49.520482,"lon":16.584439,"is_passed":false},{"stop_id":"U22602Z2","name":"Svitávka","arrival_time":"19:05:00","departure_time":"19:05:00","lat":49.499434,"lon":16.599208,"is_passed":false},{"stop_id":"U12676Z51","name":"Skalice nad Svitavou, žel.st.","arrival_time":"19:08:00","departure_time":"19:13:00","lat":49.480123,"lon":16.609726,"is_passed":false},{"stop_id":"U12511Z51","name":"Doubravice, žel.st.","arrival_time":"19:18:00","departure_time":"19:18:00","lat":49.438707,"lon":16.621809,"is_passed":false},{"stop_id":"U12439Z51","name":"Rájec-Jestřebí, železniční stanice","arrival_time":"19:21:00","departure_time":"19:22:00","lat":49.408206,"lon":16.627711,"is_passed":false},{"stop_id":"U22301Z2","name":"Dolní Lhota","arrival_time":"19:24:00","departure_time":"19:25:00","lat":49.386917,"lon":16.633978,"is_passed":false},{"stop_id":"U22302Z2","name":"Blansko město","arrival_time":"19:27:00","departure_time":"19:28:00","lat":49.360996,"lon":16.639464,"is_passed":false},{"stop_id":"U12342Z29","name":"Blansko, aut. st.","arrival_time":"19:30:00","departure_time":"19:31:00","lat":49.352753,"lon":16.646848,"is_passed":false},{"stop_id":"U12231Z11","name":"Adamov, železniční zastávka","arrival_time":"19:36:00","departure_time":"19:37:00","lat":49.300671,"lon":16.650653,"is_passed":false},{"stop_id":"U12230Z11","name":"Adamov, železniční stanice","arrival_time":"19:38:00","departure_time":"19:39:00","lat":49.295341,"lon":16.663538,"is_passed":false},{"stop_id":"U22101Z2","name":"Babice nad Svitavou","arrival_time":"19:42:00","departure_time":"19:42:00","lat":49.276645,"lon":16.673012,"is_passed":false},{"stop_id":"U12158Z11","name":"Bílovice nad Svitavou, žel. stanice","arrival_time":"19:46:00","departure_time":"19:47:00","lat":49.242715,"lon":16.673677,"is_passed":false},{"stop_id":"U1809Z11","name":"Židenice, nádraží","arrival_time":"19:52:00","departure_time":"19:52:00","lat":49.204282,"lon":16.636042,"is_passed":false},{"stop_id":"U1146Z98","name":"Hlavní nádraží","arrival_time":"19:59:00","departure_time":"20:06:00","lat":49.19035,"lon":16.612342,"is_passed":false},{"stop_id":"U1183Z11","name":"Chrlice, nádraží","arrival_time":"20:14:00","departure_time":"20:17:00","lat":49.132031,"lon":16.657232,"is_passed":false},{"stop_id":"U16149Z11","name":"Sokolnice, železniční stanice","arrival_time":"20:22:00","departure_time":"21:10:00","lat":49.108029,"lon":16.733459,"is_passed":false}],"11356":[{"stop_id":"U16149Z10","name":"Sokolnice, železniční stanice","arrival_time":"21:10:00","departure_time":"21:10:00","lat":49.108029,"lon":16.733459,"is_passed":false},{"stop_id":"U1183Z10","name":"Chrlice, nádraží","arrival_time":"21:15:00","departure_time":"21:16:00","lat":49.132031,"lon":16.657232,"is_passed":false},{"stop_id":"U1146Z99","name":"Hlavní nádraží","arrival_time":"21:26:00","departure_time":"21:26:00","lat":49.19035,"lon":16.612342,"is_passed":false}],"11357":[{"stop_id":"U12676Z51","name":"Skalice nad Svitavou, žel.st.","arrival_time":"23:09:00","departure_time":"23:09:00","lat":49.480123,"lon":16.609726,"is_passed":false},{"stop_id":"U12511Z51","name":"Doubravice, žel.st.","arrival_time":"23:14:00","departure_time":"23:14:00","lat":49.438707,"lon":16.621809,"is_passed":false},{"stop_id":"U12439Z51","name":"Rájec-Jestřebí, železniční stanice","arrival_time":"23:17:00","departure_time":"23:18:00","lat":49.408206,"lon":16.627711,"is_passed":false},{"stop_id":"U22301Z2","name":"Dolní Lhota","arrival_time":"23:20:00","departure_time":"23:20:00","lat":49.386917,"lon":16.633978,"is_passed":false},{"stop_id":"U22302Z2","name":"Blansko město","arrival_time":"23:22:00","departure_time":"23:23:00","lat":49.360996,"lon":16.639464,"is_passed":false},{"stop_id":"U12342Z29","name":"Blansko, aut. st.","arrival_time":"23:24:00","departure_time":"23:25:00","lat":49.352753,"lon":16.646848,"is_passed":false},{"stop_id":"U12231Z11","name":"Adamov, železniční zastávka","arrival_time":"23:30:00","departure_time":"23:31:00","lat":49.300671,"lon":16.650653,"is_passed":false},{"stop_id":"U12230Z11","name":"Adamov, železniční stanice","arrival_time":"23:32:00","departure_time":"23:33:00","lat":49.295341,"lon":16.663538,"is_passed":false},{"stop_id":"U12158Z11","name":"Bílovice nad Svitavou, žel. stanice","arrival_time":"23:38:00","departure_time":"23:39:00","lat":49.242715,"lon":16.673677,"is_passed":false},{"stop_id":"U1809Z11","name":"Židenice, nádraží","arrival_time":"23:44:00","departure_time":"23:44:00","lat":49.204282,"lon":16.636042,"is_passed":false},{"stop_id":"U1146Z98","name":"Hlavní nádraží","arrival_time":"23:48:00","departure_time":"23:48:00","lat":49.19035,"lon":16.612342,"is_passed":false}],"11358":[{"stop_id":"U12736Z51","name":"Letovice, železniční stanice","arrival_time":"6:57:00","departure_time":"6:57:00","lat":49.555973,"lon":16.570906,"is_passed":false},{"stop_id":"U22702Z2","name":"Letovice zastávka","arrival_time":"6:59:00","departure_time":"7:00:00","lat":49.536152,"lon":16.576186,"is_passed":false},{"stop_id":"U22701Z2","name":"Zboněk","arrival_time":"7:02:00","departure_time":"7:02:00","lat":49.520482,"lon":16.584439,"is_passed":false},{"stop_id":"U22602Z2","name":"Svitávka","arrival_time":"7:05:00","departure_time":"7:05:00","lat":49.499434,"lon":16.599208,"is_passed":false},{"stop_id":"U12676Z51","name":"Skalice nad Svitavou, žel.st.","arrival_time":"7:08:00","departure_time":"7:12:00","lat":49.480123,"lon":16.609726,"is_passed":false},{"stop_id":"U12511Z51","name":"Doubravice, žel.st.","arrival_time":"7:17:00","departure_time":"7:17:00","lat":49.438707,"lon":16.621809,"is_passed":false},{"stop_id":"U12439Z51","name":"Rájec-Jestřebí, železniční stanice","arrival_time":"7:20:00","departure_time":"7:21:00","lat":49.408206,"lon":16.627711,"is_passed":false},{"stop_id":"U22301Z2","name":"Dolní Lhota","arrival_time":"7:24:00","departure_time":"7:24:00","lat":49.386917,"lon":16.633978,"is_passed":false},{"stop_id":"U22302Z2","name":"Blansko město","arrival_time":"7:27:00","departure_time":"7:28:00","lat":49.360996,"lon":16.639464,"is_passed":false},{"stop_id":"U12342Z29","name":"Blansko, aut. st.","arrival_time":"7:29:00","departure_time":"7:31:00","lat":49.352753,"lon":16.646848,"is_passed":false},{"stop_id":"U12231Z11","name":"Adamov, železniční zastávka","arrival_time":"7:36:00","departure_time":"7:37:00","lat":49.300671,"lon":16.650653,"is_passed":false},{"stop_id":"U12230Z11","name":"Adamov, železniční stanice","arrival_time":"7:38:00","departure_time":"7:39:00","lat":49.295341,"lon":16.663538,"is_passed":false},{"stop_id":"U22101Z2","name":"Babice nad Svitavou","arrival_time":"7:42:00","departure_time":"7:42:00","lat":49.276645,"lon":16.673012,"is_passed":false},{"stop_id":"U12158Z11","name":"Bílovice nad Svitavou, žel. stanice","arrival_time":"7:46:00","departure_time":"7:47:00","lat":49.242715,"lon":16.673677,"is_passed":false},{"stop_id":"U1809Z11","name":"Židenice, nádraží","arrival_time":"7:52:00","departure_time":"7:52:00","lat":49.204282,"lon":16.636042,"is_passed":false},{"stop_id":"U1146Z98","name":"Hlavní nádraží","arrival_time":"7:59:00","departure_time":"8:06:00","lat":49.19035,"lon":16.612342,"is_passed":false},{"stop_id":"U1183Z11","name":"Chrlice, nádraží","arrival_time":"8:14:00","departure_time":"8:17:00","lat":49.132031,"lon":16.657232,"is_passed":false},{"stop_id":"U16149Z11","name":"Sokolnice, železniční stanice","arrival_time":"8:23:00","departure_time":"9:10:00","lat":49.108029,"lon":16.733459,"is_passed":false}],"11359":[{"stop_id":"U16149Z10","name":"Sokolnice, železniční stanice","arrival_time":"9:10:00","departure_time":"9:10:00","lat":49.108029,"lon":16.733459,"is_passed":false},{"stop_id":"U1183Z10","name":"Chrlice, nádraží","arrival_time":"9:15:00","departure_time":"9:16:00","lat":49.132031,"lon":16.657232,"is_passed":false},{"stop_id":"U1146Z99","name":"Hlavní nádraží","arrival_time":"9:26:00","departure_time":"9:29:00","lat":49.19035,"lon":16.612342,"is_passed":false},{"stop_id":"U1809Z10","name":"Židenice, nádraží","arrival_time":"9:33:00","departure_time":"9:35:00","lat":49.204282,"lon":16.636042,"is_passed":false},{"stop_id":"U12158Z10","name":"Bílovice nad Svitavou, žel. stanice","arrival_time":"9:40:00","departure_time":"9:41:00","lat":49.242715,"lon":16.673677,"is_passed":false},{"stop_id":"U12230Z10","name":"Adamov, železniční stanice","arrival_time":"9:47:00","departure_time":"9:48:00","lat":49.295341,"lon":16.663538,"is_passed":false},{"stop_id":"U12231Z10","name":"Adamov, železniční zastávka","arrival_time":"9:50:00","departure_time":"9:50:00","lat":49.300671,"lon":16.650653,"is_passed":false},{"stop_id":"U12342Z30","name":"Blansko, aut. st.","arrival_time":"9:56:00","departure_time":"9:57:00","lat":49.352753,"lon":16.646848,"is_passed":false},{"stop_id":"U22302Z1","name":"Blansko město","arrival_time":"9:59:00","departure_time":"10:00:00","lat":49.360996,"lon":16.639464,"is_passed":false},{"stop_id":"U22301Z1","name":"Dolní Lhota","arrival_time":"10:02:00","departure_time":"10:03:00","lat":49.386917,"lon":16.633978,"is_passed":false},{"stop_id":"U12439Z50","name":"Rájec-Jestřebí, železniční stanice","arrival_time":"10:06:00","departure_time":"10:53:00","lat":49.408206,"lon":16.627711,"is_passed":false}],"11360":[{"stop_id":"U12439Z51","name":"Rájec-Jestřebí, železniční stanice","arrival_time":"10:53:00","departure_time":"10:53:00","lat":49.408206,"lon":16.627711,"is_passed":false},{"stop_id":"U22301Z2","name":"Dolní Lhota","arrival_time":"10:55:00","departure_time":"10:56:00","lat":49.386917,"lon":16.633978,"is_passed":false},{"stop_id":"U22302Z2","name":"Blansko město","arrival_time":"10:58:00","departure_time":"10:59:00","lat":49.360996,"lon":16.639464,"is_passed":false},{"stop_id":"U12342Z29","name":"Blansko, aut. st.","arrival_time":"11:00:00","departure_time":"11:01:00","lat":49.352753,"lon":16.646848,"is_passed":false},{"stop_id":"U12231Z11","name":"Adamov, železniční zastávka","arrival_time":"11:07:00","departure_time":"11:07:00","lat":49.300671,"lon":16.650653,"is_passed":false},{"stop_id":"U12230Z11","name":"Adamov, železniční stanice","arrival_time":"11:09:00","departure_time":"11:10:00","lat":49.295341,"lon":16.663538,"is_passed":false},{"stop_id":"U12158Z11","name":"Bílovice nad Svitavou, žel. stanice","arrival_time":"11:16:00","departure_time":"11:17:00","lat":49.242715,"lon":16.673677,"is_passed":false},{"stop_id":"U1809Z11","name":"Židenice, nádraží","arrival_time":"11:22:00","departure_time":"11:22:00","lat":49.204282,"lon":16.636042,"is_passed":false},{"stop_id":"U1146Z98","name":"Hlavní nádraží","arrival_time":"11:29:00","departure_time":"11:58:00","lat":49.19035,"lon":16.612342,"is_passed":false}],"11361":[{"stop_id":"U1146Z99","name":"Hlavní nádraží","arrival_time":"11:58:00","departure_time":"11:58:00","lat":49.19035,"lon":16.612342,"is_passed":false},{"stop_id":"U1809Z10","name":"Židenice, nádraží","arrival_time":"12:01:00","departure_time":"12:04:00","lat":49.204282,"lon":16.636042,"is_passed":false},{"stop_id":"U12158Z10","name":"Bílovice nad Svitavou, žel. stanice","arrival_time":"12:09:00","departure_time":"12:09:00","lat":49.242715,"lon":16.673677,"is_passed":false},{"stop_id":"U22101Z1","name":"Babice nad Svitavou","arrival_time":"12:13:00","departure_time":"12:13:00","lat":49.276645,"lon":16.673012,"is_passed":false},{"stop_id":"U12230Z10","name":"Adamov, železniční stanice","arrival_time":"12:16:00","departure_time":"12:17:00","lat":49.295341,"lon":16.663538,"is_passed":false},{"stop_id":"U12231Z10","name":"Adamov, železniční zastávka","arrival_time":"12:18:00","departure_time":"12:19:00","lat":49.300671,"lon":16.650653,"is_passed":false},{"stop_id":"U12342Z30","name":"Blansko, aut. st.","arrival_time":"12:24:00","departure_time":"12:25:00","lat":49.352753,"lon":16.646848,"is_passed":false},{"stop_id":"U22302Z1","name":"Blansko město","arrival_time":"12:27:00","departure_time":"12:28:00","lat":49.360996,"lon":16.639464,"is_passed":false},{"stop_id":"U22301Z1","name":"Dolní Lhota","arrival_time":"12:30:00","departure_time":"12:31:00","lat":49.386917,"lon":16.633978,"is_passed":false},{"stop_id":"U12439Z50","name":"Rájec-Jestřebí, železniční stanice","arrival_time":"12:33:00","departure_time":"12:34:00","lat":49.408206,"lon":16.627711,"is_passed":false},{"stop_id":"U12511Z50","name":"Doubravice, žel.st.","arrival_time":"12:37:00","departure_time":"12:37:00","lat":49.438707,"lon":16.621809,"is_passed":false},{"stop_id":"U12676Z50","name":"Skalice nad Svitavou, žel.st.","arrival_time":"12:43:00","departure_time":"14:13:00","lat":49.480123,"lon":16.609726,"is_passed":false}],"11362":[{"stop_id":"U12676Z51","name":"Skalice nad Svitavou, žel.st.","arrival_time":"14:13:00","departure_time":"14:13:00","lat":49.480123,"lon":16.609726,"is_passed":false},{"stop_id":"U12511Z51","name":"Doubravice, žel.st.","arrival_time":"14:18:00","departure_time":"14:18:00","lat":49.438707,"lon":16.621809,"is_passed":false},{"stop_id":"U12439Z51","name":"Rájec-Jestřebí, železniční stanice","arrival_time":"14:21:00","departure_time":"14:22:00","lat":49.408206,"lon":16.627711,"is_passed":false},{"stop_id":"U22301Z2","name":"Dolní Lhota","arrival_time":"14:24:00","departure_time":"14:25:00","lat":49.386917,"lon":16.633978,"is_passed":false},{"stop_id":"U22302Z2","name":"Blansko město","arrival_time":"14:27:00","departure_time":"14:28:00","lat":49.360996,"lon":16.639464,"is_passed":false},{"stop_id":"U12342Z29","name":"Blansko, aut. st.","arrival_time":"14:30:00","departure_time":"14:31:00","lat":49.352753,"lon":16.646848,"is_passed":false},{"stop_id":"U12231Z11","name":"Adamov, železniční zastávka","arrival_time":"14:36:00","departure_time":"14:37:00","lat":49.300671,"lon":16.650653,"is_passed":false},{"stop_id":"U12230Z11","name":"Adamov, železniční stanice","arrival_time":"14:38:00","departure_time":"14:39:00","lat":49.295341,"lon":16.663538,"is_passed":false},{"stop_id":"U22101Z2","name":"Babice nad Svitavou","arrival_time":"14:42:00","departure_time":"14:42:00","lat":49.276645,"lon":16.673012,"is_passed":false},{"stop_id":"U12158Z11","name":"Bílovice nad Svitavou, žel. stanice","arrival_time":"14:46:00","departure_time":"14:47:00","lat":49.242715,"lon":16.673677,"is_passed":false},{"stop_id":"U1809Z11","name":"Židenice, nádraží","arrival_time":"14:52:00","departure_time":"14:52:00","lat":49.204282,"lon":16.636042,"is_passed":false},{"stop_id":"U1146Z98","name":"Hlavní nádraží","arrival_time":"14:59:00","departure_time":"15:06:00","lat":49.19035,"lon":16.612342,"is_passed":false},{"stop_id":"U1183Z11","name":"Chrlice, nádraží","arrival_time":"15:14:00","departure_time":"15:17:00","lat":49.132031,"lon":16.657232,"is_passed":false},{"stop_id":"U16149Z11","name":"Sokolnice, železniční stanice","arrival_time":"15:23:00","departure_time":"15:24:00","lat":49.108029,"lon":16.733459,"is_passed":false},{"stop_id":"U26101Z2","name":"Újezd u Brna","arrival_time":"15:25:00","departure_time":"15:26:00","lat":49.107297,"lon":16.745564,"is_passed":false},{"stop_id":"U26102Z2","name":"Hostěrádky-Rešov","arrival_time":"15:29:00","departure_time":"15:29:00","lat":49.119822,"lon":16.782755,"is_passed":false},{"stop_id":"U26201Z2","name":"Zbýšov","arrival_time":"15:32:00","departure_time":"15:32:00","lat":49.132691,"lon":16.806859,"is_passed":false},{"stop_id":"U16212Z11","name":"Křenovice, hor. žel. st.","arrival_time":"15:35:00","departure_time":"15:58:00","lat":49.143553,"lon":16.824564,"is_passed":false}],"11363":[{"stop_id":"U16212Z10","name":"Křenovice, hor. žel. st.","arrival_time":"15:58:00","departure_time":"15:58:00","lat":49.143553,"lon":16.824564,"is_passed":false},{"stop_id":"U26201Z1","name":"Zbýšov","arrival_time":"16:00:00","departure_time":"16:01:00","lat":49.132691,"lon":16.806859,"is_passed":false},{"stop_id":"U26102Z1","name":"Hostěrádky-Rešov","arrival_time":"16:03:00","departure_time":"16:04:00","lat":49.119822,"lon":16.782755,"is_passed":false},{"stop_id":"U26101Z1","name":"Újezd u Brna","arrival_time":"16:07:00","departure_time":"16:07:00","lat":49.107297,"lon":16.745564,"is_passed":false},{"stop_id":"U16149Z10","name":"Sokolnice, železniční stanice","arrival_time":"16:09:00","departure_time":"16:10:00","lat":49.108029,"lon":16.733459,"is_passed":false},{"stop_id":"U1183Z10","name":"Chrlice, nádraží","arrival_time":"16:15:00","departure_time":"16:16:00","lat":49.132031,"lon":16.657232,"is_passed":false},{"stop_id":"U1146Z99","name":"Hlavní nádraží","arrival_time":"16:26:00","departure_time":"16:29:00","lat":49.19035,"lon":16.612342,"is_passed":false},{"stop_id":"U1809Z10","name":"Židenice, nádraží","arrival_time":"16:33:00","departure_time":"16:34:00","lat":49.204282,"lon":16.636042,"is_passed":false},{"stop_id":"U12158Z10","name":"Bílovice nad Svitavou, žel. stanice","arrival_time":"16:39:00","departure_time":"16:40:00","lat":49.242715,"lon":16.673677,"is_passed":false},{"stop_id":"U12230Z10","name":"Adamov, železniční stanice","arrival_time":"16:47:00","departure_time":"16:48:00","lat":49.295341,"lon":16.663538,"is_passed":false},{"stop_id":"U12231Z10","name":"Adamov, železniční zastávka","arrival_time":"16:50:00","departure_time":"16:50:00","lat":49.300671,"lon":16.650653,"is_passed":false},{"stop_id":"U12342Z30","name":"Blansko, aut. st.","arrival_time":"16:56:00","departure_time":"16:57:00","lat":49.352753,"lon":16.646848,"is_passed":false},{"stop_id":"U22302Z1","name":"Blansko město","arrival_time":"16:59:00","departure_time":"17:00:00","lat":49.360996,"lon":16.639464,"is_passed":false},{"stop_id":"U22301Z1","name":"Dolní Lhota","arrival_time":"17:02:00","departure_time":"17:03:00","lat":49.386917,"lon":16.633978,"is_passed":false},{"stop_id":"U12439Z50","name":"Rájec-Jestřebí, železniční stanice","arrival_time":"17:06:00","departure_time":"17:54:00","lat":49.408206,"lon":16.627711,"is_passed":false}],"11364":[{"stop_id":"U12439Z51","name":"Rájec-Jestřebí, železniční stanice","arrival_time":"17:54:00","departure_time":"17:54:00","lat":49.408206,"lon":16.627711,"is_passed":false},{"stop_id":"U22301Z2","name":"Dolní Lhota","arrival_time":"17:56:00","departure_time":"17:57:00","lat":49.386917,"lon":16.633978,"is_passed":false},{"stop_id":"U22302Z2","name":"Blansko město","arrival_time":"17:59:00","departure_time":"18:00:00","lat":49.360996,"lon":16.639464,"is_passed":false},{"stop_id":"U12342Z29","name":"Blansko, aut. st.","arrival_time":"18:01:00","departure_time":"18:02:00","lat":49.352753,"lon":16.646848,"is_passed":false},{"stop_id":"U12231Z11","name":"Adamov, železniční zastávka","arrival_time":"18:08:00","departure_time":"18:08:00","lat":49.300671,"lon":16.650653,"is_passed":false},{"stop_id":"U12230Z11","name":"Adamov, železniční stanice","arrival_time":"18:10:00","departure_time":"18:11:00","lat":49.295341,"lon":16.663538,"is_passed":false},{"stop_id":"U12158Z11","name":"Bílovice nad Svitavou, žel. stanice","arrival_time":"18:18:00","departure_time":"18:19:00","lat":49.242715,"lon":16.673677,"is_passed":false},{"stop_id":"U1809Z11","name":"Židenice, nádraží","arrival_time":"18:24:00","departure_time":"18:24:00","lat":49.204282,"lon":16.636042,"is_passed":false},{"stop_id":"U1146Z98","name":"Hlavní nádraží","arrival_time":"18:29:00","departure_time":"18:59:00","lat":49.19035,"lon":16.612342,"is_passed":false}],"11365":[{"stop_id":"U1146Z99","name":"Hlavní nádraží","arrival_time":"18:59:00","departure_time":"18:59:00","lat":49.19035,"lon":16.612342,"is_passed":false},{"stop_id":"U1809Z10","name":"Židenice, nádraží","arrival_time":"19:02:00","departure_time":"19:04:00","lat":49.204282,"lon":16.636042,"is_passed":false},{"stop_id":"U12158Z10","name":"Bílovice nad Svitavou, žel. stanice","arrival_time":"19:09:00","departure_time":"19:09:00","lat":49.242715,"lon":16.673677,"is_passed":false},{"stop_id":"U22101Z1","name":"Babice nad Svitavou","arrival_time":"19:13:00","departure_time":"19:13:00","lat":49.276645,"lon":16.673012,"is_passed":false},{"stop_id":"U12230Z10","name":"Adamov, železniční stanice","arrival_time":"19:16:00","departure_time":"19:17:00","lat":49.295341,"lon":16.663538,"is_passed":false},{"stop_id":"U12231Z10","name":"Adamov, železniční zastávka","arrival_time":"19:18:00","departure_time":"19:19:00","lat":49.300671,"lon":16.650653,"is_passed":false},{"stop_id":"U12342Z30","name":"Blansko, aut. st.","arrival_time":"19:24:00","departure_time":"19:25:00","lat":49.352753,"lon":16.646848,"is_passed":false},{"stop_id":"U22302Z1","name":"Blansko město","arrival_time":"19:27:00","departure_time":"19:28:00","lat":49.360996,"lon":16.639464,"is_passed":false},{"stop_id":"U22301Z1","name":"Dolní Lhota","arrival_time":"19:30:00","departure_time":"19:31:00","lat":49.386917,"lon":16.633978,"is_passed":false},{"stop_id":"U12439Z50","name":"Rájec-Jestřebí, železniční stanice","arrival_time":"19:33:00","departure_time":"19:34:00","lat":49.408206,"lon":16.627711,"is_passed":false},{"stop_id":"U12511Z50","name":"Doubravice, žel.st.","arrival_time":"19:37:00","departure_time":"19:37:00","lat":49.438707,"lon":16.621809,"is_passed":false},{"stop_id":"U12676Z50","name":"Skalice nad Svitavou, žel.st.","arrival_time":"19:43:00","departure_time":"19:51:00","lat":49.480123,"lon":16.609726,"is_passed":false},{"stop_id":"U22602Z1","name":"Svitávka","arrival_time":"19:53:00","departure_time":"19:54:00","lat":49.499434,"lon":16.599208,"is_passed":false},{"stop_id":"U22701Z1","name":"Zboněk","arrival_time":"19:56:00","departure_time":"19:56:00","lat":49.521608,"lon":16.583438,"is_passed":false},{"stop_id":"U22702Z1","name":"Letovice zastávka","arrival_time":"19:59:00","departure_time":"19:59:00","lat":49.535496,"lon":16.576998,"is_passed":false},{"stop_id":"U12736Z50","name":"Letovice, železniční stanice","arrival_time":"20:02:00","departure_time":"20:57:00","lat":49.555973,"lon":16.570906,"is_passed":false}],"11366":[{"stop_id":"U12736Z51","name":"Letovice, železniční stanice","arrival_time":"20:57:00","departure_time":"20:57:00","lat":49.555973,"lon":16.570906,"is_passed":false},{"stop_id":"U22702Z2","name":"Letovice zastávka","arrival_time":"20:59:00","departure_time":"21:00:00","lat":49.536152,"lon":16.576186,"is_passed":false},{"stop_id":"U22701Z2","name":"Zboněk","arrival_time":"21:02:00","departure_time":"21:02:00","lat":49.520482,"lon":16.584439,"is_passed":false},{"stop_id":"U22602Z2","name":"Svitávka","arrival_time":"21:05:00","departure_time":"21:05:00","lat":49.499434,"lon":16.599208,"is_passed":false},{"stop_id":"U12676Z51","name":"Skalice nad Svitavou, žel.st.","arrival_time":"21:08:00","departure_time":"21:14:00","lat":49.480123,"lon":16.609726,"is_passed":false},{"stop_id":"U12511Z51","name":"Doubravice, žel.st.","arrival_time":"21:19:00","departure_time":"21:20:00","lat":49.438707,"lon":16.621809,"is_passed":false},{"stop_id":"U12439Z51","name":"Rájec-Jestřebí, železniční stanice","arrival_time":"21:23:00","departure_time":"21:23:00","lat":49.408206,"lon":16.627711,"is_passed":false},{"stop_id":"U22301Z2","name":"Dolní Lhota","arrival_time":"21:26:00","departure_time":"21:26:00","lat":49.386917,"lon":16.633978,"is_passed":false},{"stop_id":"U22302Z2","name":"Blansko město","arrival_time":"21:29:00","departure_time":"21:29:00","lat":49.360996,"lon":16.639464,"is_passed":false},{"stop_id":"U12342Z29","name":"Blansko, aut. st.","arrival_time":"21:31:00","departure_time":"21:32:00","lat":49.352753,"lon":16.646848,"is_passed":false},{"stop_id":"U12231Z11","name":"Adamov, železniční zastávka","arrival_time":"21:37:00","departure_time":"21:38:00","lat":49.300671,"lon":16.650653,"is_passed":false},{"stop_id":"U12230Z11","name":"Adamov, železniční stanice","arrival_time":"21:39:00","departure_time":"21:40:00","lat":49.295341,"lon":16.663538,"is_passed":false},{"stop_id":"U22101Z2","name":"Babice nad Svitavou","arrival_time":"21:43:00","departure_time":"21:43:00","lat":49.276645,"lon":16.673012,"is_passed":false},{"stop_id":"U12158Z11","name":"Bílovice nad Svitavou, žel. stanice","arrival_time":"21:47:00","departure_time":"21:48:00","lat":49.242715,"lon":16.673677,"is_passed":false},{"stop_id":"U1809Z11","name":"Židenice, nádraží","arrival_time":"21:53:00","departure_time":"21:53:00","lat":49.204282,"lon":16.636042,"is_passed":false},{"stop_id":"U1146Z98","name":"Hlavní nádraží","arrival_time":"21:57:00","departure_time":"21:57:00","lat":49.19035,"lon":16.612342,"is_passed":false}],"11367":[{"stop_id":"U12676Z51","name":"Skalice nad Svitavou, žel.st.","arrival_time":"5:42:00","departure_time":"5:42:00","lat":49.480123,"lon":16.609726,"is_passed":false},{"stop_id":"U12511Z51","name":"Doubravice, žel.st.","arrival_time":"5:47:00","departure_time":"5:47:00","lat":49.438707,"lon":16.621809,"is_passed":false},{"stop_id":"U12439Z51","name":"Rájec-Jestřebí, železniční stanice","arrival_time":"5:50:00","departure_time":"5:51:00","lat":49.408206,"lon":16.627711,"is_passed":false},{"stop_id":"U22301Z2","name":"Dolní Lhota","arrival_time":"5:54:00","departure_time":"5:54:00","lat":49.386917,"lon":16.633978,"is_passed":false},{"stop_id":"U22302Z2","name":"Blansko město","arrival_time":"5:57:00","departure_time":"5:58:00","lat":49.360996,"lon":16.639464,"is_passed":false},{"stop_id":"U12342Z29","name":"Blansko, aut. st.","arrival_time":"5:59:00","departure_time":"6:01:00","lat":49.352753,"lon":16.646848,"is_passed":false},{"stop_id":"U12231Z11","name":"Adamov, železniční zastávka","arrival_time":"6:06:00","departure_time":"6:07:00","lat":49.300671,"lon":16.650653,"is_passed":false},{"stop_id":"U12230Z11","name":"Adamov, železniční stanice","arrival_time":"6:08:00","departure_time":"6:09:00","lat":49.295341,"lon":16.663538,"is_passed":false},{"stop_id":"U12158Z11","name":"Bílovice nad Svitavou, žel. stanice","arrival_time":"6:16:00","departure_time":"6:17:00","lat":49.242715,"lon":16.673677,"is_passed":false},{"stop_id":"U1809Z11","name":"Židenice, nádraží","arrival_time":"6:22:00","departure_time":"6:22:00","lat":49.204282,"lon":16.636042,"is_passed":false},{"stop_id":"U1146Z98","name":"Hlavní nádraží","arrival_time":"6:27:00","departure_time":"6:59:00","lat":49.19035,"lon":16.612342,"is_passed":false}],"11368":[{"stop_id":"U1146Z99","name":"Hlavní nádraží","arrival_time":"6:59:00","departure_time":"6:59:00","lat":49.19035,"lon":16.612342,"is_passed":false},{"stop_id":"U1809Z10","name":"Židenice, nádraží","arrival_time":"7:03:00","departure_time":"7:04:00","lat":49.204282,"lon":16.636042,"is_passed":false},{"stop_id":"U12158Z10","name":"Bílovice nad Svitavou, žel. stanice","arrival_time":"7:09:00","departure_time":"7:10:00","lat":49.242715,"lon":16.673677,"is_passed":false},{"stop_id":"U22101Z1","name":"Babice nad Svitavou","arrival_time":"7:14:00","departure_time":"7:14:00","lat":49.276645,"lon":16.673012,"is_passed":false},{"stop_id":"U12230Z10","name":"Adamov, železniční stanice","arrival_time":"7:17:00","departure_time":"7:18:00","lat":49.295341,"lon":16.663538,"is_passed":false},{"stop_id":"U12231Z10","name":"Adamov, železniční zastávka","arrival_time":"7:19:00","departure_time":"7:20:00","lat":49.300671,"lon":16.650653,"is_passed":false},{"stop_id":"U12342Z30","name":"Blansko, aut. st.","arrival_time":"7:25:00","departure_time":"7:27:00","lat":49.352753,"lon":16.646848,"is_passed":false},{"stop_id":"U22302Z1","name":"Blansko město","arrival_time":"7:29:00","departure_time":"7:30:00","lat":49.360996,"lon":16.639464,"is_passed":false},{"stop_id":"U22301Z1","name":"Dolní Lhota","arrival_time":"7:32:00","departure_time":"7:33:00","lat":49.386917,"lon":16.633978,"is_passed":false},{"stop_id":"U12439Z50","name":"Rájec-Jestřebí, železniční stanice","arrival_time":"7:36:00","departure_time":"7:41:00","lat":49.408206,"lon":16.627711,"is_passed":false},{"stop_id":"U12511Z50","name":"Doubravice, žel.st.","arrival_time":"7:44:00","departure_time":"7:44:00","lat":49.438707,"lon":16.621809,"is_passed":false},{"stop_id":"U12676Z50","name":"Skalice nad Svitavou, žel.st.","arrival_time":"7:49:00","departure_time":"9:13:00","lat":49.480123,"lon":16.609726,"is_passed":false}],"11369":[{"stop_id":"U12676Z51","name":"Skalice nad Svitavou, žel.st.","arrival_time":"9:13:00","departure_time":"9:13:00","lat":49.480123,"lon":16.609726,"is_passed":false},{"stop_id":"U12511Z51","name":"Doubravice, žel.st.","arrival_time":"9:18:00","departure_time":"9:18:00","lat":49.438707,"lon":16.621809,"is_passed":false},{"stop_id":"U12439Z51","name":"Rájec-Jestřebí, železniční stanice","arrival_time":"9:21:00","departure_time":"9:22:00","lat":49.408206,"lon":16.627711,"is_passed":false},{"stop_id":"U22301Z2","name":"Dolní Lhota","arrival_time":"9:24:00","departure_time":"9:25:00","lat":49.386917,"lon":16.633978,"is_passed":false},{"stop_id":"U22302Z2","name":"Blansko město","arrival_time":"9:27:00","departure_time":"9:28:00","lat":49.360996,"lon":16.639464,"is_passed":false},{"stop_id":"U12342Z29","name":"Blansko, aut. st.","arrival_time":"9:30:00","departure_time":"9:31:00","lat":49.352753,"lon":16.646848,"is_passed":false},{"stop_id":"U12231Z11","name":"Adamov, železniční zastávka","arrival_time":"9:36:00","departure_time":"9:37:00","lat":49.300671,"lon":16.650653,"is_passed":false},{"stop_id":"U12230Z11","name":"Adamov, železniční stanice","arrival_time":"9:38:00","departure_time":"9:39:00","lat":49.295341,"lon":16.663538,"is_passed":false},{"stop_id":"U22101Z2","name":"Babice nad Svitavou","arrival_time":"9:42:00","departure_time":"9:42:00","lat":49.276645,"lon":16.673012,"is_passed":false},{"stop_id":"U12158Z11","name":"Bílovice nad Svitavou, žel. stanice","arrival_time":"9:46:00","departure_time":"9:47:00","lat":49.242715,"lon":16.673677,"is_passed":false},{"stop_id":"U1809Z11","name":"Židenice, nádraží","arrival_time":"9:52:00","departure_time":"9:52:00","lat":49.204282,"lon":16.636042,"is_passed":false},{"stop_id":"U1146Z98","name":"Hlavní nádraží","arrival_time":"9:59:00","departure_time":"10:06:00","lat":49.19035,"lon":16.612342,"is_passed":false},{"stop_id":"U1183Z11","name":"Chrlice, nádraží","arrival_time":"10:14:00","departure_time":"10:17:00","lat":49.132031,"lon":16.657232,"is_passed":false},{"stop_id":"U16149Z11","name":"Sokolnice, železniční stanice","arrival_time":"10:23:00","departure_time":"11:10:00","lat":49.108029,"lon":16.733459,"is_passed":false}],"11370":[{"stop_id":"U16149Z10","name":"Sokolnice, železniční stanice","arrival_time":"11:10:00","departure_time":"11:10:00","lat":49.108029,"lon":16.733459,"is_passed":false},{"stop_id":"U1183Z10","name":"Chrlice, nádraží","arrival_time":"11:15:00","departure_time":"11:16:00","lat":49.132031,"lon":16.657232,"is_passed":false},{"stop_id":"U1146Z99","name":"Hlavní nádraží","arrival_time":"11:26:00","departure_time":"11:29:00","lat":49.19035,"lon":16.612342,"is_passed":false},{"stop_id":"U1809Z10","name":"Židenice, nádraží","arrival_time":"11:33:00","departure_time":"11:35:00","lat":49.204282,"lon":16.636042,"is_passed":false},{"stop_id":"U12158Z10","name":"Bílovice nad Svitavou, žel. stanice","arrival_time":"11:40:00","departure_time":"11:41:00","lat":49.242715,"lon":16.673677,"is_passed":false},{"stop_id":"U12230Z10","name":"Adamov, železniční stanice","arrival_time":"11:47:00","departure_time":"11:48:00","lat":49.295341,"lon":16.663538,"is_passed":false},{"stop_id":"U12231Z10","name":"Adamov, železniční zastávka","arrival_time":"11:50:00","departure_time":"11:50:00","lat":49.300671,"lon":16.650653,"is_passed":false},{"stop_id":"U12342Z30","name":"Blansko, aut. st.","arrival_time":"11:56:00","departure_time":"11:57:00","lat":49.352753,"lon":16.646848,"is_passed":false},{"stop_id":"U22302Z1","name":"Blansko město","arrival_time":"11:59:00","departure_time":"12:00:00","lat":49.360996,"lon":16.639464,"is_passed":false},{"stop_id":"U22301Z1","name":"Dolní Lhota","arrival_time":"12:02:00","departure_time":"12:03:00","lat":49.386917,"lon":16.633978,"is_passed":false},{"stop_id":"U12439Z50","name":"Rájec-Jestřebí, železniční stanice","arrival_time":"12:06:00","departure_time":"12:53:00","lat":49.408206,"lon":16.627711,"is_passed":false}],"11371":[{"stop_id":"U12439Z51","name":"Rájec-Jestřebí, železniční stanice","arrival_time":"12:53:00","departure_time":"12:53:00","lat":49.408206,"lon":16.627711,"is_passed":false},{"stop_id":"U22301Z2","name":"Dolní Lhota","arrival_time":"12:55:00","departure_time":"12:56:00","lat":49.386917,"lon":16.633978,"is_passed":false},{"stop_id":"U22302Z2","name":"Blansko město","arrival_time":"12:58:00","departure_time":"12:59:00","lat":49.360996,"lon":16.639464,"is_passed":false},{"stop_id":"U12342Z29","name":"Blansko, aut. st.","arrival_time":"13:00:00","departure_time":"13:01:00","lat":49.352753,"lon":16.646848,"is_passed":false},{"stop_id":"U12231Z11","name":"Adamov, železniční zastávka","arrival_time":"13:07:00","departure_time":"13:07:00","lat":49.300671,"lon":16.650653,"is_passed":false},{"stop_id":"U12230Z11","name":"Adamov, železniční stanice","arrival_time":"13:09:00","departure_time":"13:10:00","lat":49.295341,"lon":16.663538,"is_passed":false},{"stop_id":"U12158Z11","name":"Bílovice nad Svitavou, žel. stanice","arrival_time":"13:16:00","departure_time":"13:17:00","lat":49.242715,"lon":16.673677,"is_passed":false},{"stop_id":"U1809Z11","name":"Židenice, nádraží","arrival_time":"13:22:00","departure_time":"13:22:00","lat":49.204282,"lon":16.636042,"is_passed":false},{"stop_id":"U1146Z98","name":"Hlavní nádraží","arrival_time":"13:28:00","departure_time":"13:58:00","lat":49.19035,"lon":16.612342,"is_passed":false}],"11372":[{"stop_id":"U1146Z99","name":"Hlavní nádraží","arrival_time":"13:58:00","departure_time":"13:58:00","lat":49.19035,"lon":16.612342,"is_passed":false},{"stop_id":"U1809Z10","name":"Židenice, nádraží","arrival_time":"14:01:00","departure_time":"14:04:00","lat":49.204282,"lon":16.636042,"is_passed":false},{"stop_id":"U12158Z10","name":"Bílovice nad Svitavou, žel. stanice","arrival_time":"14:09:00","departure_time":"14:09:00","lat":49.242715,"lon":16.673677,"is_passed":false},{"stop_id":"U22101Z1","name":"Babice nad Svitavou","arrival_time":"14:13:00","departure_time":"14:13:00","lat":49.276645,"lon":16.673012,"is_passed":false},{"stop_id":"U12230Z10","name":"Adamov, železniční stanice","arrival_time":"14:16:00","departure_time":"14:17:00","lat":49.295341,"lon":16.663538,"is_passed":false},{"stop_id":"U12231Z10","name":"Adamov, železniční zastávka","arrival_time":"14:18:00","departure_time":"14:19:00","lat":49.300671,"lon":16.650653,"is_passed":false},{"stop_id":"U12342Z30","name":"Blansko, aut. st.","arrival_time":"14:24:00","departure_time":"14:25:00","lat":49.352753,"lon":16.646848,"is_passed":false},{"stop_id":"U22302Z1","name":"Blansko město","arrival_time":"14:27:00","departure_time":"14:28:00","lat":49.360996,"lon":16.639464,"is_passed":false},{"stop_id":"U22301Z1","name":"Dolní Lhota","arrival_time":"14:30:00","departure_time":"14:31:00","lat":49.386917,"lon":16.633978,"is_passed":false},{"stop_id":"U12439Z50","name":"Rájec-Jestřebí, železniční stanice","arrival_time":"14:33:00","departure_time":"14:34:00","lat":49.408206,"lon":16.627711,"is_passed":false},{"stop_id":"U12511Z50","name":"Doubravice, žel.st.","arrival_time":"14:37:00","departure_time":"14:37:00","lat":49.438707,"lon":16.621809,"is_passed":false},{"stop_id":"U12676Z50","name":"Skalice nad Svitavou, žel.st.","arrival_time":"14:43:00","departure_time":"16:13:00","lat":49.480123,"lon":16.609726,"is_passed":false}],"11373":[{"stop_id":"U12676Z51","name":"Skalice nad Svitavou, žel.st.","arrival_time":"16:13:00","departure_time":"16:13:00","lat":49.480123,"lon":16.609726,"is_passed":false},{"stop_id":"U12511Z51","name":"Doubravice, žel.st.","arrival_time":"16:18:00","departure_time":"16:18:00","lat":49.438707,"lon":16.621809,"is_passed":false},{"stop_id":"U12439Z51","name":"Rájec-Jestřebí, železniční stanice","arrival_time":"16:21:00","departure_time":"16:22:00","lat":49.408206,"lon":16.627711,"is_passed":false},{"stop_id":"U22301Z2","name":"Dolní Lhota","arrival_time":"16:24:00","departure_time":"16:25:00","lat":49.386917,"lon":16.633978,"is_passed":false},{"stop_id":"U22302Z2","name":"Blansko město","arrival_time":"16:27:00","departure_time":"16:28:00","lat":49.360996,"lon":16.639464,"is_passed":false},{"stop_id":"U12342Z29","name":"Blansko, aut. st.","arrival_time":"16:30:00","departure_time":"16:31:00","lat":49.352753,"lon":16.646848,"is_passed":false},{"stop_id":"U12231Z11","name":"Adamov, železniční zastávka","arrival_time":"16:36:00","departure_time":"16:37:00","lat":49.300671,"lon":16.650653,"is_passed":false},{"stop_id":"U12230Z11","name":"Adamov, železniční stanice","arrival_time":"16:38:00","departure_time":"16:39:00","lat":49.295341,"lon":16.663538,"is_passed":false},{"stop_id":"U22101Z2","name":"Babice nad Svitavou","arrival_time":"16:42:00","departure_time":"16:42:00","lat":49.276645,"lon":16.673012,"is_passed":false},{"stop_id":"U12158Z11","name":"Bílovice nad Svitavou, žel. stanice","arrival_time":"16:46:00","departure_time":"16:47:00","lat":49.242715,"lon":16.673677,"is_passed":false},{"stop_id":"U1809Z11","name":"Židenice, nádraží","arrival_time":"16:52:00","departure_time":"16:52:00","lat":49.204282,"lon":16.636042,"is_passed":false},{"stop_id":"U1146Z98","name":"Hlavní nádraží","arrival_time":"16:59:00","departure_time":"17:06:00","lat":49.19035,"lon":16.612342,"is_passed":false},{"stop_id":"U1183Z11","name":"Chrlice, nádraží","arrival_time":"17:14:00","departure_time":"17:17:00","lat":49.132031,"lon":16.657232,"is_passed":false},{"stop_id":"U16149Z11","name":"Sokolnice, železniční stanice","arrival_time":"17:23:00","departure_time":"17:24:00","lat":49.108029,"lon":16.733459,"is_passed":false},{"stop_id":"U26101Z2","name":"Újezd u Brna","arrival_time":"17:25:00","departure_time":"17:26:00","lat":49.107297,"lon":16.745564,"is_passed":false},{"stop_id":"U26102Z2","name":"Hostěrádky-Rešov","arrival_time":"17:29:00","departure_time":"17:29:00","lat":49.119822,"lon":16.782755,"is_passed":false},{"stop_id":"U26201Z2","name":"Zbýšov","arrival_time":"17:32:00","departure_time":"17:32:00","lat":49.132691,"lon":16.806859,"is_passed":false},{"stop_id":"U16212Z11","name":"Křenovice, hor. žel. st.","arrival_time":"17:35:00","departure_time":"17:58:00","lat":49.143553,"lon":16.824564,"is_passed":false}],"11374":[{"stop_id":"U16212Z10","name":"Křenovice, hor. žel. st.","arrival_time":"17:58:00","departure_time":"17:58:00","lat":49.143553,"lon":16.824564,"is_passed":false},{"stop_id":"U26201Z1","name":"Zbýšov","arrival_time":"18:00:00","departure_time":"18:01:00","lat":49.132691,"lon":16.806859,"is_passed":false},{"stop_id":"U26102Z1","name":"Hostěrádky-Rešov","arrival_time":"18:03:00","departure_time":"18:04:00","lat":49.119822,"lon":16.782755,"is_passed":false},{"stop_id":"U26101Z1","name":"Újezd u Brna","arrival_time":"18:07:00","departure_time":"18:07:00","lat":49.107297,"lon":16.745564,"is_passed":false},{"stop_id":"U16149Z10","name":"Sokolnice, železniční stanice","arrival_time":"18:09:00","departure_time":"18:10:00","lat":49.108029,"lon":16.733459,"is_passed":false},{"stop_id":"U1183Z10","name":"Chrlice, nádraží","arrival_time":"18:15:00","departure_time":"18:16:00","lat":49.132031,"lon":16.657232,"is_passed":false},{"stop_id":"U1146Z99","name":"Hlavní nádraží","arrival_time":"18:26:00","departure_time":"18:29:00","lat":49.19035,"lon":16.612342,"is_passed":false},{"stop_id":"U1809Z10","name":"Židenice, nádraží","arrival_time":"18:33:00","departure_time":"18:34:00","lat":49.204282,"lon":16.636042,"is_passed":false},{"stop_id":"U12158Z10","name":"Bílovice nad Svitavou, žel. stanice","arrival_time":"18:39:00","departure_time":"18:40:00","lat":49.242715,"lon":16.673677,"is_passed":false},{"stop_id":"U12230Z10","name":"Adamov, železniční stanice","arrival_time":"18:47:00","departure_time":"18:48:00","lat":49.295341,"lon":16.663538,"is_passed":false},{"stop_id":"U12231Z10","name":"Adamov, železniční zastávka","arrival_time":"18:50:00","departure_time":"18:50:00","lat":49.300671,"lon":16.650653,"is_passed":false},{"stop_id":"U12342Z30","name":"Blansko, aut. st.","arrival_time":"18:56:00","departure_time":"18:57:00","lat":49.352753,"lon":16.646848,"is_passed":false},{"stop_id":"U22302Z1","name":"Blansko město","arrival_time":"18:59:00","departure_time":"19:00:00","lat":49.360996,"lon":16.639464,"is_passed":false},{"stop_id":"U22301Z1","name":"Dolní Lhota","arrival_time":"19:02:00","departure_time":"19:03:00","lat":49.386917,"lon":16.633978,"is_passed":false},