[{"stop_id":"U14454Z10","name":"Ivančice, železniční stanice","arrival_time":"19:16:00","departure_time":"19:16:00","lat":49.098253,"lon":16.372176,"is_passed":false},{"stop_id":"U24403Z1","name":"Ivančice město","arrival_time":"19:17:00","departure_time":"19:18:00","lat":49.099079,"lon":16.382843,"is_passed":false},{"stop_id":"U24402Z1","name":"Ivančice letovisko","arrival_time":"19:21:00","departure_time":"19:21:00","lat":49.094553,"lon":16.402136,"is_passed":false},{"stop_id":"U14350Z10","name":"Moravské Bránice, žel. st.","arrival_time":"19:26:00","departure_time":"19:31:00","lat":49.084611,"lon":16.428333,"is_passed":false},{"stop_id":"U24203Z1","name":"Silůvky","arrival_time":"19:35:00","departure_time":"19:36:00","lat":49.108611,"lon":16.462778,"is_passed":false},{"stop_id":"U24202Z1","name":"Radostice","arrival_time":"19:39:00","departure_time":"19:39:00","lat":49.133611,"lon":16.461945,"is_passed":false},{"stop_id":"U24101Z1","name":"Střelice","arrival_time":"19:44:00","departure_time":"19:45:00","lat":49.153958,"lon":16.483833,"is_passed":false},{"stop_id":"U14119Z10","name":"Střelice, dolní železniční stanice","arrival_time":"19:47:00","departure_time":"19:48:00","lat":49.156488,"lon":16.506231,"is_passed":false},{"stop_id":"U11009Z22","name":"Brno-Starý Lískovec","arrival_time":"19:52:00","departure_time":"19:52:00","lat":49.16217,"lon":16.5711,"is_passed":false},{"stop_id":"U11002Z10","name":"Brno-Horní Heršpice","arrival_time":"19:56:00","departure_time":"19:56:00","lat":49.167404,"lon":16.60686,"is_passed":false},{"stop_id":"U1146Z96","name":"Hlavní nádraží","arrival_time":"20:05:00","departure_time":"20:05:00","lat":49.189976,"lon":16.610222,"is_passed":false}]