[{"stop_id":"U31027Z1","name":"Uherské Hradiště","arrival_time":"9:35:00","departure_time":"9:35:00","lat":49.066881,"lon":17.457171,"is_passed":false},{"stop_id":"U31025Z1","name":"Kunovice zastávka","arrival_time":"9:39:00","departure_time":"9:39:00","lat":49.038454,"lon":17.46113,"is_passed":false},{"stop_id":"U31103Z2","name":"Ostrožská Nová Ves lázně","arrival_time":"9:42:00","departure_time":"9:42:00","lat":49.018181,"lon":17.446255,"is_passed":false},{"stop_id":"U30314Z2","name":"Ostrožská Nová Ves","arrival_time":"9:44:00","departure_time":"9:45:00","lat":49.009975,"lon":17.436797,"is_passed":false},{"stop_id":"U29404Z10","name":"Uherský Ostroh","arrival_time":"9:49:00","departure_time":"9:49:00","lat":48.982198,"lon":17.403538,"is_passed":false},{"stop_id":"U19310Z11","name":"Veselí nad Moravou, Milokošť","arrival_time":"9:52:00","departure_time":"9:52:00","lat":48.966999,"lon":17.398828,"is_passed":false},{"stop_id":"U19316Z12","name":"Veselí nad Moravou, železniční stanice","arrival_time":"9:56:00","departure_time":"9:57:00","lat":48.948694,"lon":17.382439,"is_passed":false},{"stop_id":"U16908Z10","name":"Bzenec, železniční stanice","arrival_time":"10:05:00","departure_time":"10:06:00","lat":48.969173,"lon":17.263183,"is_passed":false},{"stop_id":"U26802Z10","name":"Vracov","arrival_time":"10:09:00","departure_time":"10:10:00","lat":48.97657,"lon":17.220097,"is_passed":false},{"stop_id":"U26801Z10","name":"Vlkoš","arrival_time":"10:15:00","departure_time":"10:15:00","lat":48.98791,"lon":17.166472,"is_passed":false},{"stop_id":"U26603Z1","name":"Kyjov zastávka","arrival_time":"10:20:00","departure_time":"10:20:00","lat":49.003312,"lon":17.123835,"is_passed":false},{"stop_id":"U16650Z50","name":"Kyjov, železniční stanice","arrival_time":"10:23:00","departure_time":"10:25:00","lat":49.016226,"lon":17.122949,"is_passed":false},{"stop_id":"U16604Z10","name":"Kyjov, Bohuslavice, železniční stanice","arrival_time":"10:30:00","departure_time":"10:30:00","lat":49.055833,"lon":17.118917,"is_passed":false},{"stop_id":"U26601Z1","name":"Jestřabice","arrival_time":"10:35:00","departure_time":"10:35:00","lat":49.088889,"lon":17.113333,"is_passed":false},{"stop_id":"U16503Z10","name":"Nemotice, železniční stanice","arrival_time":"10:41:00","departure_time":"10:42:00","lat":49.133033,"lon":17.114422,"is_passed":false},{"stop_id":"U16628Z10","name":"Brankovice, železniční stanice","arrival_time":"10:46:00","departure_time":"10:47:00","lat":49.150361,"lon":17.13375,"is_passed":false},{"stop_id":"U16509Z10","name":"Nesovice, železniční stanice","arrival_time":"10:51:00","departure_time":"10:52:00","lat":49.149315,"lon":17.080192,"is_passed":false},{"stop_id":"U26501Z1","name":"Nevojice","arrival_time":"10:56:00","departure_time":"10:56:00","lat":49.136847,"lon":17.04775,"is_passed":false},{"stop_id":"U16463Z50","name":"Bučovice, železniční stanice","arrival_time":"11:00:00","departure_time":"11:01:00","lat":49.145619,"lon":16.999658,"is_passed":false},{"stop_id":"U16406Z10","name":"Bučovice, Marefy, žel. st.","arrival_time":"11:04:00","departure_time":"11:04:00","lat":49.149232,"lon":16.972808,"is_passed":false},{"stop_id":"U16318Z10","name":"Křižanovice, žel. st.","arrival_time":"11:07:00","departure_time":"11:07:00","lat":49.145047,"lon":16.935893,"is_passed":false},{"stop_id":"U16333Z10","name":"Slavkov u Brna, žel. st.","arrival_time":"11:12:00","departure_time":"11:13:00","lat":49.14495,"lon":16.873475,"is_passed":false},{"stop_id":"U16211Z10","name":"Křenovice, dol. žel. st.","arrival_time":"11:16:00","departure_time":"11:17:00","lat":49.143679,"lon":16.834698,"is_passed":false},{"stop_id":"U26103Z1","name":"Blažovice","arrival_time":"11:22:00","departure_time":"11:23:00","lat":49.163735,"lon":16.798179,"is_passed":false},{"stop_id":"U16121Z10","name":"Ponětovice, železniční stanice","arrival_time":"11:27:00","departure_time":"11:27:00","lat":49.154709,"lon":16.748578,"is_passed":false},{"stop_id":"U16137Z10","name":"Šlapanice, železniční stanice","arrival_time":"11:29:00","departure_time":"11:30:00","lat":49.156975,"lon":16.729526,"is_passed":false},{"stop_id":"U16136Z11","name":"Šlapanice, železniční zastávka","arrival_time":"11:32:00","departure_time":"11:32:00","lat":49.163384,"lon":16.719877,"is_passed":false},{"stop_id":"U1573Z10","name":"Slatina, nádraží","arrival_time":"11:36:00","departure_time":"11:37:00","lat":49.169478,"lon":16.682148,"is_passed":false},{"stop_id":"U1146Z99","name":"Hlavní nádraží","arrival_time":"11:48:00","departure_time":"12:15:00","lat":49.19035,"lon":16.612342,"is_passed":false}]