{"114":[{"stop_id":"U16608Z2","name":"Kyjov, aut. st.","arrival_time":"5:57:00","departure_time":"5:57:00","lat":49.006785,"lon":17.124327,"is_passed":false},{"stop_id":"U16612Z2","name":"Kyjov, nemocnice","arrival_time":"5:59:00","departure_time":"5:59:00","lat":49.007061,"lon":17.111463,"is_passed":false},{"stop_id":"U16622Z2","name":"Strážovice","arrival_time":"6:06:00","departure_time":"6:06:00","lat":49.0093,"lon":17.047132,"is_passed":false},{"stop_id":"U16635Z2","name":"Stavěšice","arrival_time":"6:10:00","departure_time":"6:10:00","lat":49.002007,"lon":17.02977,"is_passed":false},{"stop_id":"U16529Z2","name":"Nenkovice, škola","arrival_time":"6:13:00","departure_time":"6:13:00","lat":49.004683,"lon":17.01574,"is_passed":false},{"stop_id":"U16528Z2","name":"Nenkovice, obecní úřad","arrival_time":"6:14:00","departure_time":"6:14:00","lat":49.00398,"lon":17.011083,"is_passed":false},{"stop_id":"U16530Z2","name":"Nenkovice, u kašny","arrival_time":"6:15:00","departure_time":"6:15:00","lat":49.001835,"lon":17.008144,"is_passed":false},{"stop_id":"U16534Z2","name":"Želetice","arrival_time":"6:18:00","departure_time":"6:18:00","lat":49.012481,"lon":17.009044,"is_passed":false},{"stop_id":"U16533Z2","name":"Želetice, statek","arrival_time":"6:19:00","departure_time":"6:19:00","lat":49.015307,"lon":17.006765,"is_passed":false},{"stop_id":"U16527Z2","name":"Dražůvky","arrival_time":"6:23:00","departure_time":"6:23:00","lat":49.031967,"lon":17.020073,"is_passed":false},{"stop_id":"U16525Z2","name":"Archlebov","arrival_time":"6:27:00","departure_time":"6:27:00","lat":49.043193,"lon":17.003877,"is_passed":false},{"stop_id":"U16449Z2","name":"Žarošice","arrival_time":"6:32:00","departure_time":"6:32:00","lat":49.040472,"lon":16.966415,"is_passed":false},{"stop_id":"U16448Z2","name":"Žarošice, škola","arrival_time":"6:33:00","departure_time":"6:33:00","lat":49.039435,"lon":16.9616,"is_passed":false},{"stop_id":"U16444Z2","name":"Žarošice, Silničná, rozcestí Uhřice","arrival_time":"6:36:00","departure_time":"6:36:00","lat":49.051834,"lon":16.95308,"is_passed":false},{"stop_id":"U16446Z2","name":"Žarošice, Zdravá Voda","arrival_time":"6:39:00","departure_time":"6:39:00","lat":49.065466,"lon":16.945145,"is_passed":false},{"stop_id":"U16445Z2","name":"Žarošice, Těšanka","arrival_time":"6:41:00","departure_time":"6:41:00","lat":49.079165,"lon":16.936537,"is_passed":false},{"stop_id":"U16336Z2","name":"Heršpice, Bílý Vlk","arrival_time":"6:43:00","departure_time":"6:43:00","lat":49.095822,"lon":16.90958,"is_passed":false},{"stop_id":"U16337Z2","name":"Nížkovice, rozcestí","arrival_time":"6:46:00","departure_time":"6:46:00","lat":49.11172,"lon":16.896114,"is_passed":false},{"stop_id":"U16332Z2","name":"Slavkov u Brna, rozcestí k žel. st.","arrival_time":"6:49:00","departure_time":"6:49:00","lat":49.14503,"lon":16.877933,"is_passed":false},{"stop_id":"U16328Z2","name":"Slavkov u Brna, aut. st.","arrival_time":"6:52:00","departure_time":"6:52:00","lat":49.149057,"lon":16.876562,"is_passed":false},{"stop_id":"U16334Z2","name":"Velešovice, rozc.","arrival_time":"6:58:00","departure_time":"6:58:00","lat":49.167572,"lon":16.84187,"is_passed":false},{"stop_id":"U16206Z2","name":"Holubice, nadjezd","arrival_time":"7:00:00","departure_time":"7:00:00","lat":49.178267,"lon":16.819095,"is_passed":false},{"stop_id":"U1677Z2","name":"Tržní","arrival_time":"7:13:00","departure_time":"7:13:00","lat":49.189407,"lon":16.629972,"is_passed":false},{"stop_id":"U1696Z6","name":"ÚAN Zvonařka","arrival_time":"7:17:00","departure_time":"7:42:00","lat":49.185364,"lon":16.616151,"is_passed":false}],"1140":[{"stop_id":"U14242Z20","name":"Zastávka, železniční stanice","arrival_time":"13:51:00","departure_time":"13:51:00","lat":49.187405,"lon":16.358754,"is_passed":false},{"stop_id":"U14234Z10","name":"Rosice, Těstárny","arrival_time":"13:53:00","departure_time":"13:53:00","lat":49.17882,"lon":16.383519,"is_passed":false},{"stop_id":"U14238Z10","name":"Tetčice, žel. st.","arrival_time":"13:55:00","departure_time":"13:56:00","lat":49.1722,"lon":16.40842,"is_passed":false},{"stop_id":"U24102Z1","name":"Omice","arrival_time":"13:59:00","departure_time":"13:59:00","lat":49.161005,"lon":16.446698,"is_passed":false},{"stop_id":"U24101Z1","name":"Střelice","arrival_time":"14:02:00","departure_time":"14:03:00","lat":49.153958,"lon":16.483833,"is_passed":false},{"stop_id":"U14119Z10","name":"Střelice, dolní železniční stanice","arrival_time":"14:05:00","departure_time":"14:06:00","lat":49.156488,"lon":16.506231,"is_passed":false},{"stop_id":"U14110Z10","name":"Troubsko, U dráhy","arrival_time":"14:08:00","departure_time":"14:08:00","lat":49.163994,"lon":16.526611,"is_passed":false},{"stop_id":"U24103Z2","name":"Ostopovice","arrival_time":"14:10:00","departure_time":"14:10:00","lat":49.164923,"lon":16.544112,"is_passed":false},{"stop_id":"U11009Z22","name":"Brno-Starý Lískovec","arrival_time":"14:12:00","departure_time":"14:12:00","lat":49.16217,"lon":16.5711,"is_passed":false},{"stop_id":"U11002Z10","name":"Brno-Horní Heršpice","arrival_time":"14:16:00","departure_time":"14:16:00","lat":49.167404,"lon":16.60686,"is_passed":false},{"stop_id":"U1146Z96","name":"Hlavní nádraží","arrival_time":"14:25:00","departure_time":"14:25:00","lat":49.189976,"lon":16.610222,"is_passed":false}],"1141":[{"stop_id":"U1146Z97","name":"Hlavní nádraží","arrival_time":"15:33:00","departure_time":"15:33:00","lat":49.189976,"lon":16.610222,"is_passed":false},{"stop_id":"U11002Z11","name":"Brno-Horní Heršpice","arrival_time":"15:36:00","departure_time":"15:37:00","lat":49.167404,"lon":16.60686,"is_passed":false},{"stop_id":"U11009Z21","name":"Brno-Starý Lískovec","arrival_time":"15:40:00","departure_time":"15:40:00","lat":49.162219,"lon":16.571096,"is_passed":false},{"stop_id":"U24103Z1","name":"Ostopovice","arrival_time":"15:43:00","departure_time":"15:43:00","lat":49.164994,"lon":16.544202,"is_passed":false},{"stop_id":"U14110Z11","name":"Troubsko, U dráhy","arrival_time":"15:45:00","departure_time":"15:45:00","lat":49.164054,"lon":16.526498,"is_passed":false},{"stop_id":"U14119Z11","name":"Střelice, dolní železniční stanice","arrival_time":"15:48:00","departure_time":"15:48:00","lat":49.156583,"lon":16.506195,"is_passed":false},{"stop_id":"U24101Z2","name":"Střelice","arrival_time":"15:50:00","departure_time":"15:51:00","lat":49.154016,"lon":16.483608,"is_passed":false},{"stop_id":"U24102Z2","name":"Omice","arrival_time":"15:54:00","departure_time":"15:54:00","lat":49.161062,"lon":16.446848,"is_passed":false},{"stop_id":"U14238Z11","name":"Tetčice, žel. st.","arrival_time":"15:57:00","departure_time":"15:58:00","lat":49.172316,"lon":16.408496,"is_passed":false},{"stop_id":"U14234Z11","name":"Rosice, Těstárny","arrival_time":"16:00:00","departure_time":"16:00:00","lat":49.178895,"lon":16.383608,"is_passed":false},{"stop_id":"U14242Z21","name":"Zastávka, železniční stanice","arrival_time":"16:03:00","departure_time":"16:03:00","lat":49.187463,"lon":16.358639,"is_passed":false}],"1142":[{"stop_id":"U14242Z20","name":"Zastávka, železniční stanice","arrival_time":"8:42:00","departure_time":"8:42:00","lat":49.187405,"lon":16.358754,"is_passed":false},{"stop_id":"U14234Z10","name":"Rosice, Těstárny","arrival_time":"8:44:00","departure_time":"8:45:00","lat":49.17882,"lon":16.383519,"is_passed":false},{"stop_id":"U14238Z10","name":"Tetčice, žel. st.","arrival_time":"8:47:00","departure_time":"8:47:00","lat":49.1722,"lon":16.40842,"is_passed":false},{"stop_id":"U24102Z1","name":"Omice","arrival_time":"8:50:00","departure_time":"8:50:00","lat":49.161005,"lon":16.446698,"is_passed":false},{"stop_id":"U24101Z1","name":"Střelice","arrival_time":"8:54:00","departure_time":"8:54:00","lat":49.153958,"lon":16.483833,"is_passed":false},{"stop_id":"U14110Z10","name":"Troubsko, U dráhy","arrival_time":"8:57:00","departure_time":"8:57:00","lat":49.163994,"lon":16.526611,"is_passed":false},{"stop_id":"U24103Z2","name":"Ostopovice","arrival_time":"9:00:00","departure_time":"9:00:00","lat":49.164923,"lon":16.544112,"is_passed":false},{"stop_id":"U11002Z10","name":"Brno-Horní Heršpice","arrival_time":"9:05:00","departure_time":"9:05:00","lat":49.167404,"lon":16.60686,"is_passed":false},{"stop_id":"U1146Z96","name":"Hlavní nádraží","arrival_time":"9:10:00","departure_time":"9:48:00","lat":49.189976,"lon":16.610222,"is_passed":false}],"1143":[{"stop_id":"U1146Z97","name":"Hlavní nádraží","arrival_time":"9:48:00","departure_time":"9:48:00","lat":49.189976,"lon":16.610222,"is_passed":false},{"stop_id":"U11002Z11","name":"Brno-Horní Heršpice","arrival_time":"9:51:00","departure_time":"9:52:00","lat":49.167404,"lon":16.60686,"is_passed":false},{"stop_id":"U11009Z21","name":"Brno-Starý Lískovec","arrival_time":"9:55:00","departure_time":"9:55:00","lat":49.162219,"lon":16.571096,"is_passed":false},{"stop_id":"U24103Z1","name":"Ostopovice","arrival_time":"9:57:00","departure_time":"9:57:00","lat":49.164994,"lon":16.544202,"is_passed":false},{"stop_id":"U14110Z11","name":"Troubsko, U dráhy","arrival_time":"10:00:00","departure_time":"10:00:00","lat":49.164054,"lon":16.526498,"is_passed":false},{"stop_id":"U24101Z2","name":"Střelice","arrival_time":"10:03:00","departure_time":"10:04:00","lat":49.154016,"lon":16.483608,"is_passed":false},{"stop_id":"U14238Z11","name":"Tetčice, žel. st.","arrival_time":"10:10:00","departure_time":"10:10:00","lat":49.172316,"lon":16.408496,"is_passed":false},{"stop_id":"U14234Z11","name":"Rosice, Těstárny","arrival_time":"10:12:00","departure_time":"10:13:00","lat":49.178895,"lon":16.383608,"is_passed":false},{"stop_id":"U14242Z21","name":"Zastávka, železniční stanice","arrival_time":"10:15:00","departure_time":"10:42:00","lat":49.187463,"lon":16.358639,"is_passed":false}],"1144":[{"stop_id":"U14242Z20","name":"Zastávka, železniční stanice","arrival_time":"10:42:00","departure_time":"10:42:00","lat":49.187405,"lon":16.358754,"is_passed":false},{"stop_id":"U14234Z10","name":"Rosice, Těstárny","arrival_time":"10:44:00","departure_time":"10:45:00","lat":49.17882,"lon":16.383519,"is_passed":false},{"stop_id":"U14238Z10","name":"Tetčice, žel. st.","arrival_time":"10:47:00","departure_time":"10:47:00","lat":49.1722,"lon":16.40842,"is_passed":false},{"stop_id":"U24102Z1","name":"Omice","arrival_time":"10:50:00","departure_time":"10:50:00","lat":49.161005,"lon":16.446698,"is_passed":false},{"stop_id":"U24101Z1","name":"Střelice","arrival_time":"10:54:00","departure_time":"10:54:00","lat":49.153958,"lon":16.483833,"is_passed":false},{"stop_id":"U14110Z10","name":"Troubsko, U dráhy","arrival_time":"10:57:00","departure_time":"10:57:00","lat":49.163994,"lon":16.526611,"is_passed":false},{"stop_id":"U24103Z2","name":"Ostopovice","arrival_time":"11:00:00","departure_time":"11:00:00","lat":49.164923,"lon":16.544112,"is_passed":false},{"stop_id":"U11002Z10","name":"Brno-Horní Heršpice","arrival_time":"11:05:00","departure_time":"11:05:00","lat":49.167404,"lon":16.60686,"is_passed":false},{"stop_id":"U1146Z96","name":"Hlavní nádraží","arrival_time":"11:10:00","departure_time":"11:48:00","lat":49.189976,"lon":16.610222,"is_passed":false}],"1145":[{"stop_id":"U1146Z97","name":"Hlavní nádraží","arrival_time":"11:48:00","departure_time":"11:48:00","lat":49.189976,"lon":16.610222,"is_passed":false},{"stop_id":"U11002Z11","name":"Brno-Horní Heršpice","arrival_time":"11:51:00","departure_time":"11:52:00","lat":49.167404,"lon":16.60686,"is_passed":false},{"stop_id":"U11009Z21","name":"Brno-Starý Lískovec","arrival_time":"11:55:00","departure_time":"11:55:00","lat":49.162219,"lon":16.571096,"is_passed":false},{"stop_id":"U24103Z1","name":"Ostopovice","arrival_time":"11:57:00","departure_time":"11:57:00","lat":49.164994,"lon":16.544202,"is_passed":false},{"stop_id":"U14110Z11","name":"Troubsko, U dráhy","arrival_time":"12:00:00","departure_time":"12:00:00","lat":49.164054,"lon":16.526498,"is_passed":false},{"stop_id":"U24101Z2","name":"Střelice","arrival_time":"12:03:00","departure_time":"12:04:00","lat":49.154016,"lon":16.483608,"is_passed":false},{"stop_id":"U14238Z11","name":"Tetčice, žel. st.","arrival_time":"12:10:00","departure_time":"12:10:00","lat":49.172316,"lon":16.408496,"is_passed":false},{"stop_id":"U14234Z11","name":"Rosice, Těstárny","arrival_time":"12:12:00","departure_time":"12:13:00","lat":49.178895,"lon":16.383608,"is_passed":false},{"stop_id":"U14242Z21","name":"Zastávka, železniční stanice","arrival_time":"12:15:00","departure_time":"12:42:00","lat":49.187463,"lon":16.358639,"is_passed":false}],"1146":[{"stop_id":"U14242Z20","name":"Zastávka, železniční stanice","arrival_time":"12:42:00","departure_time":"12:42:00","lat":49.187405,"lon":16.358754,"is_passed":false},{"stop_id":"U14234Z10","name":"Rosice, Těstárny","arrival_time":"12:44:00","departure_time":"12:45:00","lat":49.17882,"lon":16.383519,"is_passed":false},{"stop_id":"U14238Z10","name":"Tetčice, žel. st.","arrival_time":"12:47:00","departure_time":"12:47:00","lat":49.1722,"lon":16.40842,"is_passed":false},{"stop_id":"U24102Z1","name":"Omice","arrival_time":"12:50:00","departure_time":"12:50:00","lat":49.161005,"lon":16.446698,"is_passed":false},{"stop_id":"U24101Z1","name":"Střelice","arrival_time":"12:54:00","departure_time":"12:54:00","lat":49.153958,"lon":16.483833,"is_passed":false},{"stop_id":"U14110Z10","name":"Troubsko, U dráhy","arrival_time":"12:57:00","departure_time":"12:57:00","lat":49.163994,"lon":16.526611,"is_passed":false},{"stop_id":"U24103Z2","name":"Ostopovice","arrival_time":"13:00:00","departure_time":"13:00:00","lat":49.164923,"lon":16.544112,"is_passed":false},{"stop_id":"U11002Z10","name":"Brno-Horní Heršpice","arrival_time":"13:05:00","departure_time":"13:05:00","lat":49.167404,"lon":16.60686,"is_passed":false},{"stop_id":"U1146Z96","name":"Hlavní nádraží","arrival_time":"13:10:00","departure_time":"13:10:00","lat":49.189976,"lon":16.610222,"is_passed":false}],"1147":[{"stop_id":"U14242Z20","name":"Zastávka, železniční stanice","arrival_time":"14:51:00","departure_time":"14:51:00","lat":49.187405,"lon":16.358754,"is_passed":false},{"stop_id":"U14234Z10","name":"Rosice, Těstárny","arrival_time":"14:53:00","departure_time":"14:53:00","lat":49.17882,"lon":16.383519,"is_passed":false},{"stop_id":"U14238Z10","name":"Tetčice, žel. st.","arrival_time":"14:55:00","departure_time":"14:56:00","lat":49.1722,"lon":16.40842,"is_passed":false},{"stop_id":"U24102Z1","name":"Omice","arrival_time":"14:59:00","departure_time":"14:59:00","lat":49.161005,"lon":16.446698,"is_passed":false},{"stop_id":"U24101Z1","name":"Střelice","arrival_time":"15:02:00","departure_time":"15:03:00","lat":49.153958,"lon":16.483833,"is_passed":false},{"stop_id":"U14119Z10","name":"Střelice, dolní železniční stanice","arrival_time":"15:05:00","departure_time":"15:06:00","lat":49.156488,"lon":16.506231,"is_passed":false},{"stop_id":"U14110Z10","name":"Troubsko, U dráhy","arrival_time":"15:08:00","departure_time":"15:08:00","lat":49.163994,"lon":16.526611,"is_passed":false},{"stop_id":"U24103Z2","name":"Ostopovice","arrival_time":"15:10:00","departure_time":"15:10:00","lat":49.164923,"lon":16.544112,"is_passed":false},{"stop_id":"U11009Z22","name":"Brno-Starý Lískovec","arrival_time":"15:12:00","departure_time":"15:12:00","lat":49.16217,"lon":16.5711,"is_passed":false},{"stop_id":"U11002Z10","name":"Brno-Horní Heršpice","arrival_time":"15:16:00","departure_time":"15:16:00","lat":49.167404,"lon":16.60686,"is_passed":false},{"stop_id":"U1146Z96","name":"Hlavní nádraží","arrival_time":"15:24:00","departure_time":"15:24:00","lat":49.189976,"lon":16.610222,"is_passed":false}],"1148":[{"stop_id":"U14242Z20","name":"Zastávka, železniční stanice","arrival_time":"18:42:00","departure_time":"18:42:00","lat":49.187405,"lon":16.358754,"is_passed":false},{"stop_id":"U14234Z10","name":"Rosice, Těstárny","arrival_time":"18:44:00","departure_time":"18:45:00","lat":49.17882,"lon":16.383519,"is_passed":false},{"stop_id":"U14238Z10","name":"Tetčice, žel. st.","arrival_time":"18:47:00","departure_time":"18:47:00","lat":49.1722,"lon":16.40842,"is_passed":false},{"stop_id":"U24102Z1","name":"Omice","arrival_time":"18:50:00","departure_time":"18:50:00","lat":49.161005,"lon":16.446698,"is_passed":false},{"stop_id":"U24101Z1","name":"Střelice","arrival_time":"18:54:00","departure_time":"18:54:00","lat":49.153958,"lon":16.483833,"is_passed":false},{"stop_id":"U14110Z10","name":"Troubsko, U dráhy","arrival_time":"18:57:00","departure_time":"18:57:00","lat":49.163994,"lon":16.526611,"is_passed":false},{"stop_id":"U24103Z2","name":"Ostopovice","arrival_time":"19:00:00","departure_time":"19:00:00","lat":49.164923,"lon":16.544112,"is_passed":false},{"stop_id":"U11002Z10","name":"Brno-Horní Heršpice","arrival_time":"19:05:00","departure_time":"19:05:00","lat":49.167404,"lon":16.60686,"is_passed":false},{"stop_id":"U1146Z96","name":"Hlavní nádraží","arrival_time":"19:10:00","departure_time":"19:48:00","lat":49.189976,"lon":16.610222,"is_passed":false}],"1149":[{"stop_id":"U1146Z97","name":"Hlavní nádraží","arrival_time":"19:48:00","departure_time":"19:48:00","lat":49.189976,"lon":16.610222,"is_passed":false},{"stop_id":"U11002Z11","name":"Brno-Horní Heršpice","arrival_time":"19:51:00","departure_time":"19:52:00","lat":49.167404,"lon":16.60686,"is_passed":false},{"stop_id":"U11009Z21","name":"Brno-Starý Lískovec","arrival_time":"19:55:00","departure_time":"19:55:00","lat":49.162219,"lon":16.571096,"is_passed":false},{"stop_id":"U24103Z1","name":"Ostopovice","arrival_time":"19:57:00","departure_time":"19:57:00","lat":49.164994,"lon":16.544202,"is_passed":false},{"stop_id":"U14110Z11","name":"Troubsko, U dráhy","arrival_time":"20:00:00","departure_time":"20:00:00","lat":49.164054,"lon":16.526498,"is_passed":false},{"stop_id":"U24101Z2","name":"Střelice","arrival_time":"20:03:00","departure_time":"20:04:00","lat":49.154016,"lon":16.483608,"is_passed":false},{"stop_id":"U14238Z11","name":"Tetčice, žel. st.","arrival_time":"20:10:00","departure_time":"20:10:00","lat":49.172316,"lon":16.408496,"is_passed":false},{"stop_id":"U14234Z11","name":"Rosice, Těstárny","arrival_time":"20:12:00","departure_time":"20:13:00","lat":49.178895,"lon":16.383608,"is_passed":false},{"stop_id":"U14242Z21","name":"Zastávka, železniční stanice","arrival_time":"20:15:00","departure_time":"20:42:00","lat":49.187463,"lon":16.358639,"is_passed":false}],"11400":[{"stop_id":"U12676Z51","name":"Skalice nad Svitavou, žel.st.","arrival_time":"18:13:00","departure_time":"18:13:00","lat":49.480123,"lon":16.609726,"is_passed":false},{"stop_id":"U12511Z51","name":"Doubravice, žel.st.","arrival_time":"18:18:00","departure_time":"18:18:00","lat":49.438707,"lon":16.621809,"is_passed":false},{"stop_id":"U12439Z51","name":"Rájec-Jestřebí, železniční stanice","arrival_time":"18:21:00","departure_time":"18:22:00","lat":49.408206,"lon":16.627711,"is_passed":false},{"stop_id":"U22301Z2","name":"Dolní Lhota","arrival_time":"18:24:00","departure_time":"18:25:00","lat":49.386917,"lon":16.633978,"is_passed":false},{"stop_id":"U22302Z2","name":"Blansko město","arrival_time":"18:27:00","departure_time":"18:28:00","lat":49.360996,"lon":16.639464,"is_passed":false},{"stop_id":"U12342Z29","name":"Blansko, aut. st.","arrival_time":"18:30:00","departure_time":"18:31:00","lat":49.352753,"lon":16.646848,"is_passed":false},{"stop_id":"U12231Z11","name":"Adamov, železniční zastávka","arrival_time":"18:36:00","departure_time":"18:37:00","lat":49.300671,"lon":16.650653,"is_passed":false},{"stop_id":"U12230Z11","name":"Adamov, železniční stanice","arrival_time":"18:38:00","departure_time":"18:39:00","lat":49.295341,"lon":16.663538,"is_passed":false},{"stop_id":"U22101Z2","name":"Babice nad Svitavou","arrival_time":"18:42:00","departure_time":"18:42:00","lat":49.276645,"lon":16.673012,"is_passed":false},{"stop_id":"U12158Z11","name":"Bílovice nad Svitavou, žel. stanice","arrival_time":"18:46:00","departure_time":"18:47:00","lat":49.242715,"lon":16.673677,"is_passed":false},{"stop_id":"U1809Z11","name":"Židenice, nádraží","arrival_time":"18:52:00","departure_time":"18:52:00","lat":49.204282,"lon":16.636042,"is_passed":false},{"stop_id":"U1146Z98","name":"Hlavní nádraží","arrival_time":"18:59:00","departure_time":"19:06:00","lat":49.19035,"lon":16.612342,"is_passed":false},{"stop_id":"U1183Z11","name":"Chrlice, nádraží","arrival_time":"19:14:00","departure_time":"19:17:00","lat":49.132031,"lon":16.657232,"is_passed":false},{"stop_id":"U16149Z11","name":"Sokolnice, železniční stanice","arrival_time":"19:23:00","departure_time":"19:24:00","lat":49.108029,"lon":16.733459,"is_passed":false},{"stop_id":"U26101Z2","name":"Újezd u Brna","arrival_time":"19:25:00","departure_time":"19:26:00","lat":49.107297,"lon":16.745564,"is_passed":false},{"stop_id":"U26102Z2","name":"Hostěrádky-Rešov","arrival_time":"19:29:00","departure_time":"19:29:00","lat":49.119822,"lon":16.782755,"is_passed":false},{"stop_id":"U26201Z2","name":"Zbýšov","arrival_time":"19:32:00","departure_time":"19:32:00","lat":49.132691,"lon":16.806859,"is_passed":false},{"stop_id":"U16212Z11","name":"Křenovice, hor. žel. st.","arrival_time":"19:35:00","departure_time":"19:58:00","lat":49.143553,"lon":16.824564,"is_passed":false}],"11401":[{"stop_id":"U16212Z10","name":"Křenovice, hor. žel. st.","arrival_time":"19:58:00","departure_time":"19:58:00","lat":49.143553,"lon":16.824564,"is_passed":false},{"stop_id":"U26201Z1","name":"Zbýšov","arrival_time":"20:00:00","departure_time":"20:01:00","lat":49.132691,"lon":16.806859,"is_passed":false},{"stop_id":"U26102Z1","name":"Hostěrádky-Rešov","arrival_time":"20:03:00","departure_time":"20:04:00","lat":49.119822,"lon":16.782755,"is_passed":false},{"stop_id":"U26101Z1","name":"Újezd u Brna","arrival_time":"20:07:00","departure_time":"20:07:00","lat":49.107297,"lon":16.745564,"is_passed":false},{"stop_id":"U16149Z10","name":"Sokolnice, železniční stanice","arrival_time":"20:09:00","departure_time":"20:10:00","lat":49.108029,"lon":16.733459,"is_passed":false},{"stop_id":"U1183Z10","name":"Chrlice, nádraží","arrival_time":"20:15:00","departure_time":"20:16:00","lat":49.132031,"lon":16.657232,"is_passed":false},{"stop_id":"U1146Z99","name":"Hlavní nádraží","arrival_time":"20:26:00","departure_time":"20:26:00","lat":49.19035,"lon":16.612342,"is_passed":false}],"11402":[{"stop_id":"U12736Z51","name":"Letovice, železniční stanice","arrival_time":"5:59:00","departure_time":"5:59:00","lat":49.555973,"lon":16.570906,"is_passed":false},{"stop_id":"U22702Z2","name":"Letovice zastávka","arrival_time":"6:01:00","departure_time":"6:02:00","lat":49.536152,"lon":16.576186,"is_passed":false},{"stop_id":"U22701Z2","name":"Zboněk","arrival_time":"6:04:00","departure_time":"6:04:00","lat":49.520482,"lon":16.584439,"is_passed":false},{"stop_id":"U22602Z2","name":"Svitávka","arrival_time":"6:07:00","departure_time":"6:07:00","lat":49.499434,"lon":16.599208,"is_passed":false},{"stop_id":"U12676Z51","name":"Skalice nad Svitavou, žel.st.","arrival_time":"6:10:00","departure_time":"6:12:00","lat":49.480123,"lon":16.609726,"is_passed":false},{"stop_id":"U12511Z51","name":"Doubravice, žel.st.","arrival_time":"6:16:00","departure_time":"6:17:00","lat":49.438707,"lon":16.621809,"is_passed":false},{"stop_id":"U12439Z51","name":"Rájec-Jestřebí, železniční stanice","arrival_time":"6:20:00","departure_time":"6:21:00","lat":49.408206,"lon":16.627711,"is_passed":false},{"stop_id":"U22301Z2","name":"Dolní Lhota","arrival_time":"6:23:00","departure_time":"6:23:00","lat":49.386917,"lon":16.633978,"is_passed":false},{"stop_id":"U22302Z2","name":"Blansko město","arrival_time":"6:26:00","departure_time":"6:27:00","lat":49.360996,"lon":16.639464,"is_passed":false},{"stop_id":"U12342Z29","name":"Blansko, aut. st.","arrival_time":"6:28:00","departure_time":"6:30:00","lat":49.352753,"lon":16.646848,"is_passed":false},{"stop_id":"U12231Z11","name":"Adamov, železniční zastávka","arrival_time":"6:36:00","departure_time":"6:36:00","lat":49.300671,"lon":16.650653,"is_passed":false},{"stop_id":"U12230Z11","name":"Adamov, železniční stanice","arrival_time":"6:38:00","departure_time":"6:39:00","lat":49.295341,"lon":16.663538,"is_passed":false},{"stop_id":"U22101Z2","name":"Babice nad Svitavou","arrival_time":"6:41:00","departure_time":"6:41:00","lat":49.276645,"lon":16.673012,"is_passed":false},{"stop_id":"U12158Z11","name":"Bílovice nad Svitavou, žel. stanice","arrival_time":"6:46:00","departure_time":"6:47:00","lat":49.242715,"lon":16.673677,"is_passed":false},{"stop_id":"U1809Z11","name":"Židenice, nádraží","arrival_time":"6:52:00","departure_time":"6:52:00","lat":49.204282,"lon":16.636042,"is_passed":false},{"stop_id":"U1146Z98","name":"Hlavní nádraží","arrival_time":"6:59:00","departure_time":"7:06:00","lat":49.19035,"lon":16.612342,"is_passed":false},{"stop_id":"U1183Z11","name":"Chrlice, nádraží","arrival_time":"7:14:00","departure_time":"7:17:00","lat":49.132031,"lon":16.657232,"is_passed":false},{"stop_id":"U16149Z11","name":"Sokolnice, železniční stanice","arrival_time":"7:23:00","departure_time":"7:30:00","lat":49.108029,"lon":16.733459,"is_passed":false},{"stop_id":"U26101Z2","name":"Újezd u Brna","arrival_time":"7:31:00","departure_time":"7:32:00","lat":49.107297,"lon":16.745564,"is_passed":false},{"stop_id":"U26102Z2","name":"Hostěrádky-Rešov","arrival_time":"7:35:00","departure_time":"7:35:00","lat":49.119822,"lon":16.782755,"is_passed":false},{"stop_id":"U26201Z2","name":"Zbýšov","arrival_time":"7:38:00","departure_time":"7:38:00","lat":49.132691,"lon":16.806859,"is_passed":false},{"stop_id":"U16212Z11","name":"Křenovice, hor. žel. st.","arrival_time":"7:41:00","departure_time":"7:58:00","lat":49.143553,"lon":16.824564,"is_passed":false}],"11403":[{"stop_id":"U16212Z10","name":"Křenovice, hor. žel. st.","arrival_time":"7:58:00","departure_time":"7:58:00","lat":49.143553,"lon":16.824564,"is_passed":false},{"stop_id":"U26201Z1","name":"Zbýšov","arrival_time":"8:00:00","departure_time":"8:01:00","lat":49.132691,"lon":16.806859,"is_passed":false},{"stop_id":"U26102Z1","name":"Hostěrádky-Rešov","arrival_time":"8:03:00","departure_time":"8:04:00","lat":49.119822,"lon":16.782755,"is_passed":false},{"stop_id":"U26101Z1","name":"Újezd u Brna","arrival_time":"8:07:00","departure_time":"8:07:00","lat":49.107297,"lon":16.745564,"is_passed":false},{"stop_id":"U16149Z10","name":"Sokolnice, železniční stanice","arrival_time":"8:09:00","departure_time":"8:10:00","lat":49.108029,"lon":16.733459,"is_passed":false},{"stop_id":"U1183Z10","name":"Chrlice, nádraží","arrival_time":"8:15:00","departure_time":"8:16:00","lat":49.132031,"lon":16.657232,"is_passed":false},{"stop_id":"U1146Z99","name":"Hlavní nádraží","arrival_time":"8:26:00","departure_time":"8:29:00","lat":49.19035,"lon":16.612342,"is_passed":false},{"stop_id":"U1809Z10","name":"Židenice, nádraží","arrival_time":"8:33:00","departure_time":"8:35:00","lat":49.204282,"lon":16.636042,"is_passed":false},{"stop_id":"U12158Z10","name":"Bílovice nad Svitavou, žel. stanice","arrival_time":"8:40:00","departure_time":"8:41:00","lat":49.242715,"lon":16.673677,"is_passed":false},{"stop_id":"U12230Z10","name":"Adamov, železniční stanice","arrival_time":"8:47:00","departure_time":"8:48:00","lat":49.295341,"lon":16.663538,"is_passed":false},{"stop_id":"U12231Z10","name":"Adamov, železniční zastávka","arrival_time":"8:50:00","departure_time":"8:50:00","lat":49.300671,"lon":16.650653,"is_passed":false},{"stop_id":"U12342Z30","name":"Blansko, aut. st.","arrival_time":"8:56:00","departure_time":"8:57:00","lat":49.352753,"lon":16.646848,"is_passed":false},{"stop_id":"U22302Z1","name":"Blansko město","arrival_time":"8:59:00","departure_time":"9:00:00","lat":49.360996,"lon":16.639464,"is_passed":false},{"stop_id":"U22301Z1","name":"Dolní Lhota","arrival_time":"9:02:00","departure_time":"9:03:00","lat":49.386917,"lon":16.633978,"is_passed":false},{"stop_id":"U12439Z50","name":"Rájec-Jestřebí, železniční stanice","arrival_time":"9:06:00","departure_time":"9:53:00","lat":49.408206,"lon":16.627711,"is_passed":false}],"11404":[{"stop_id":"U12439Z51","name":"Rájec-Jestřebí, železniční stanice","arrival_time":"9:53:00","departure_time":"9:53:00","lat":49.408206,"lon":16.627711,"is_passed":false},{"stop_id":"U22301Z2","name":"Dolní Lhota","arrival_time":"9:55:00","departure_time":"9:56:00","lat":49.386917,"lon":16.633978,"is_passed":false},{"stop_id":"U22302Z2","name":"Blansko město","arrival_time":"9:58:00","departure_time":"9:59:00","lat":49.360996,"lon":16.639464,"is_passed":false},{"stop_id":"U12342Z29","name":"Blansko, aut. st.","arrival_time":"10:00:00","departure_time":"10:01:00","lat":49.352753,"lon":16.646848,"is_passed":false},{"stop_id":"U12231Z11","name":"Adamov, železniční zastávka","arrival_time":"10:07:00","departure_time":"10:07:00","lat":49.300671,"lon":16.650653,"is_passed":false},{"stop_id":"U12230Z11","name":"Adamov, železniční stanice","arrival_time":"10:09:00","departure_time":"10:10:00","lat":49.295341,"lon":16.663538,"is_passed":false},{"stop_id":"U12158Z11","name":"Bílovice nad Svitavou, žel. stanice","arrival_time":"10:16:00","departure_time":"10:17:00","lat":49.242715,"lon":16.673677,"is_passed":false},{"stop_id":"U1809Z11","name":"Židenice, nádraží","arrival_time":"10:22:00","departure_time":"10:22:00","lat":49.204282,"lon":16.636042,"is_passed":false},{"stop_id":"U1146Z98","name":"Hlavní nádraží","arrival_time":"10:29:00","departure_time":"11:00:00","lat":49.19035,"lon":16.612342,"is_passed":false}],"11405":[{"stop_id":"U1146Z99","name":"Hlavní nádraží","arrival_time":"11:00:00","departure_time":"11:00:00","lat":49.19035,"lon":16.612342,"is_passed":false},{"stop_id":"U1809Z10","name":"Židenice, nádraží","arrival_time":"11:04:00","departure_time":"11:05:00","lat":49.204282,"lon":16.636042,"is_passed":false},{"stop_id":"U12158Z10","name":"Bílovice nad Svitavou, žel. stanice","arrival_time":"11:10:00","departure_time":"11:11:00","lat":49.242715,"lon":16.673677,"is_passed":false},{"stop_id":"U22101Z1","name":"Babice nad Svitavou","arrival_time":"11:15:00","departure_time":"11:15:00","lat":49.276645,"lon":16.673012,"is_passed":false},{"stop_id":"U12230Z10","name":"Adamov, železniční stanice","arrival_time":"11:18:00","departure_time":"11:19:00","lat":49.295341,"lon":16.663538,"is_passed":false},{"stop_id":"U12231Z10","name":"Adamov, železniční zastávka","arrival_time":"11:20:00","departure_time":"11:21:00","lat":49.300671,"lon":16.650653,"is_passed":false},{"stop_id":"U12342Z30","name":"Blansko, aut. st.","arrival_time":"11:26:00","departure_time":"11:28:00","lat":49.352753,"lon":16.646848,"is_passed":false},{"stop_id":"U22302Z1","name":"Blansko město","arrival_time":"11:30:00","departure_time":"11:31:00","lat":49.360996,"lon":16.639464,"is_passed":false},{"stop_id":"U22301Z1","name":"Dolní Lhota","arrival_time":"11:33:00","departure_time":"11:34:00","lat":49.386917,"lon":16.633978,"is_passed":false},{"stop_id":"U12439Z50","name":"Rájec-Jestřebí, železniční stanice","arrival_time":"11:36:00","departure_time":"11:37:00","lat":49.408206,"lon":16.627711,"is_passed":false},{"stop_id":"U12511Z50","name":"Doubravice, žel.st.","arrival_time":"11:40:00","departure_time":"11:40:00","lat":49.438707,"lon":16.621809,"is_passed":false},{"stop_id":"U12676Z50","name":"Skalice nad Svitavou, žel.st.","arrival_time":"11:45:00","departure_time":"13:13:00","lat":49.480123,"lon":16.609726,"is_passed":false}],"11406":[{"stop_id":"U12676Z51","name":"Skalice nad Svitavou, žel.st.","arrival_time":"13:13:00","departure_time":"13:13:00","lat":49.480123,"lon":16.609726,"is_passed":false},{"stop_id":"U12511Z51","name":"Doubravice, žel.st.","arrival_time":"13:18:00","departure_time":"13:18:00","lat":49.438707,"lon":16.621809,"is_passed":false},{"stop_id":"U12439Z51","name":"Rájec-Jestřebí, železniční stanice","arrival_time":"13:21:00","departure_time":"13:22:00","lat":49.408206,"lon":16.627711,"is_passed":false},{"stop_id":"U22301Z2","name":"Dolní Lhota","arrival_time":"13:24:00","departure_time":"13:25:00","lat":49.386917,"lon":16.633978,"is_passed":false},{"stop_id":"U22302Z2","name":"Blansko město","arrival_time":"13:27:00","departure_time":"13:28:00","lat":49.360996,"lon":16.639464,"is_passed":false},{"stop_id":"U12342Z29","name":"Blansko, aut. st.","arrival_time":"13:30:00","departure_time":"13:31:00","lat":49.352753,"lon":16.646848,"is_passed":false},{"stop_id":"U12231Z11","name":"Adamov, železniční zastávka","arrival_time":"13:36:00","departure_time":"13:37:00","lat":49.300671,"lon":16.650653,"is_passed":false},{"stop_id":"U12230Z11","name":"Adamov, železniční stanice","arrival_time":"13:38:00","departure_time":"13:39:00","lat":49.295341,"lon":16.663538,"is_passed":false},{"stop_id":"U22101Z2","name":"Babice nad Svitavou","arrival_time":"13:42:00","departure_time":"13:42:00","lat":49.276645,"lon":16.673012,"is_passed":false},{"stop_id":"U12158Z11","name":"Bílovice nad Svitavou, žel. stanice","arrival_time":"13:46:00","departure_time":"13:47:00","lat":49.242715,"lon":16.673677,"is_passed":false},{"stop_id":"U1809Z11","name":"Židenice, nádraží","arrival_time":"13:52:00","departure_time":"13:52:00","lat":49.204282,"lon":16.636042,"is_passed":false},{"stop_id":"U1146Z98","name":"Hlavní nádraží","arrival_time":"13:59:00","departure_time":"14:06:00","lat":49.19035,"lon":16.612342,"is_passed":false},{"stop_id":"U1183Z11","name":"Chrlice, nádraží","arrival_time":"14:14:00","departure_time":"14:17:00","lat":49.132031,"lon":16.657232,"is_passed":false},{"stop_id":"U16149Z11","name":"Sokolnice, železniční stanice","arrival_time":"14:23:00","departure_time":"15:10:00","lat":49.108029,"lon":16.733459,"is_passed":false}],"11407":[{"stop_id":"U16149Z10","name":"Sokolnice, železniční stanice","arrival_time":"15:10:00","departure_time":"15:10:00","lat":49.108029,"lon":16.733459,"is_passed":false},{"stop_id":"U1183Z10","name":"Chrlice, nádraží","arrival_time":"15:15:00","departure_time":"15:16:00","lat":49.132031,"lon":16.657232,"is_passed":false},{"stop_id":"U1146Z99","name":"Hlavní nádraží","arrival_time":"15:27:00","departure_time":"15:30:00","lat":49.19035,"lon":16.612342,"is_passed":false},{"stop_id":"U1809Z10","name":"Židenice, nádraží","arrival_time":"15:34:00","departure_time":"15:35:00","lat":49.204282,"lon":16.636042,"is_passed":false},{"stop_id":"U12158Z10","name":"Bílovice nad Svitavou, žel. stanice","arrival_time":"15:40:00","departure_time":"15:41:00","lat":49.242715,"lon":16.673677,"is_passed":false},{"stop_id":"U12230Z10","name":"Adamov, železniční stanice","arrival_time":"15:48:00","departure_time":"15:49:00","lat":49.295341,"lon":16.663538,"is_passed":false},{"stop_id":"U12231Z10","name":"Adamov, železniční zastávka","arrival_time":"15:50:00","departure_time":"15:51:00","lat":49.300671,"lon":16.650653,"is_passed":false},{"stop_id":"U12342Z30","name":"Blansko, aut. st.","arrival_time":"15:56:00","departure_time":"15:57:00","lat":49.352753,"lon":16.646848,"is_passed":false},{"stop_id":"U22302Z1","name":"Blansko město","arrival_time":"15:59:00","departure_time":"16:00:00","lat":49.360996,"lon":16.639464,"is_passed":false},{"stop_id":"U22301Z1","name":"Dolní Lhota","arrival_time":"16:02:00","departure_time":"16:03:00","lat":49.386917,"lon":16.633978,"is_passed":false},{"stop_id":"U12439Z50","name":"Rájec-Jestřebí, železniční stanice","arrival_time":"16:06:00","departure_time":"16:53:00","lat":49.408206,"lon":16.627711,"is_passed":false}],"11408":[{"stop_id":"U12439Z51","name":"Rájec-Jestřebí, železniční stanice","arrival_time":"16:53:00","departure_time":"16:53:00","lat":49.408206,"lon":16.627711,"is_passed":false},{"stop_id":"U22301Z2","name":"Dolní Lhota","arrival_time":"16:55:00","departure_time":"16:56:00","lat":49.386917,"lon":16.633978,"is_passed":false},{"stop_id":"U22302Z2","name":"Blansko město","arrival_time":"16:58:00","departure_time":"16:59:00","lat":49.360996,"lon":16.639464,"is_passed":false},{"stop_id":"U12342Z29","name":"Blansko, aut. st.","arrival_time":"17:00:00","departure_time":"17:01:00","lat":49.352753,"lon":16.646848,"is_passed":false},{"stop_id":"U12231Z11","name":"Adamov, železniční zastávka","arrival_time":"17:07:00","departure_time":"17:07:00","lat":49.300671,"lon":16.650653,"is_passed":false},{"stop_id":"U12230Z11","name":"Adamov, železniční stanice","arrival_time":"17:09:00","departure_time":"17:10:00","lat":49.295341,"lon":16.663538,"is_passed":false},{"stop_id":"U12158Z11","name":"Bílovice nad Svitavou, žel. stanice","arrival_time":"17:17:00","departure_time":"17:18:00","lat":49.242715,"lon":16.673677,"is_passed":false},{"stop_id":"U1809Z11","name":"Židenice, nádraží","arrival_time":"17:23:00","departure_time":"17:23:00","lat":49.204282,"lon":16.636042,"is_passed":false},{"stop_id":"U1146Z98","name":"Hlavní nádraží","arrival_time":"17:28:00","departure_time":"17:58:00","lat":49.19035,"lon":16.612342,"is_passed":false}],"11409":[{"stop_id":"U1146Z99","name":"Hlavní nádraží","arrival_time":"17:58:00","departure_time":"17:58:00","lat":49.19035,"lon":16.612342,"is_passed":false},{"stop_id":"U1809Z10","name":"Židenice, nádraží","arrival_time":"18:01:00","departure_time":"18:04:00","lat":49.204282,"lon":16.636042,"is_passed":false},{"stop_id":"U12158Z10","name":"Bílovice nad Svitavou, žel. stanice","arrival_time":"18:09:00","departure_time":"18:09:00","lat":49.242715,"lon":16.673677,"is_passed":false},{"stop_id":"U22101Z1","name":"Babice nad Svitavou","arrival_time":"18:13:00","departure_time":"18:13:00","lat":49.276645,"lon":16.673012,"is_passed":false},{"stop_id":"U12230Z10","name":"Adamov, železniční stanice","arrival_time":"18:16:00","departure_time":"18:17:00","lat":49.295341,"lon":16.663538,"is_passed":false},{"stop_id":"U12231Z10","name":"Adamov, železniční zastávka","arrival_time":"18:18:00","departure_time":"18:19:00","lat":49.300671,"lon":16.650653,"is_passed":false},{"stop_id":"U12342Z30","name":"Blansko, aut. st.","arrival_time":"18:24:00","departure_time":"18:25:00","lat":49.352753,"lon":16.646848,"is_passed":false},{"stop_id":"U22302Z1","name":"Blansko město","arrival_time":"18:27:00","departure_time":"18:28:00","lat":49.360996,"lon":16.639464,"is_passed":false},{"stop_id":"U22301Z1","name":"Dolní Lhota","arrival_time":"18:30:00","departure_time":"18:31:00","lat":49.386917,"lon":16.633978,"is_passed":false},{"stop_id":"U12439Z50","name":"Rájec-Jestřebí, železniční stanice","arrival_time":"18:33:00","departure_time":"18:34:00","lat":49.408206,"lon":16.627711,"is_passed":false},{"stop_id":"U12511Z50","name":"Doubravice, žel.st.","arrival_time":"18:37:00","departure_time":"18:37:00","lat":49.438707,"lon":16.621809,"is_passed":false},{"stop_id":"U12676Z50","name":"Skalice nad Svitavou, žel.st.","arrival_time":"18:43:00","departure_time":"18:51:00","lat":49.480123,"lon":16.609726,"is_passed":false},{"stop_id":"U22602Z1","name":"Svitávka","arrival_time":"18:53:00","departure_time":"18:54:00","lat":49.499434,"lon":16.599208,"is_passed":false},{"stop_id":"U22701Z1","name":"Zboněk","arrival_time":"18:56:00","departure_time":"18:56:00","lat":49.521608,"lon":16.583438,"is_passed":false},{"stop_id":"U22702Z1","name":"Letovice zastávka","arrival_time":"18:59:00","departure_time":"18:59:00","lat":49.535496,"lon":16.576998,"is_passed":false},{"stop_id":"U12736Z50","name":"Letovice, železniční stanice","arrival_time":"19:02:00","departure_time":"19:57:00","lat":49.555973,"lon":16.570906,"is_passed":false}],"11410":[{"stop_id":"U12736Z51","name":"Letovice, železniční stanice","arrival_time":"19:57:00","departure_time":"19:57:00","lat":49.555973,"lon":16.570906,"is_passed":false},{"stop_id":"U22702Z2","name":"Letovice zastávka","arrival_time":"19:59:00","departure_time":"20:00:00","lat":49.536152,"lon":16.576186,"is_passed":false},{"stop_id":"U22701Z2","name":"Zboněk","arrival_time":"20:02:00","departure_time":"20:02:00","lat":49.520482,"lon":16.584439,"is_passed":false},{"stop_id":"U22602Z2","name":"Svitávka","arrival_time":"20:05:00","departure_time":"20:05:00","lat":49.499434,"lon":16.599208,"is_passed":false},{"stop_id":"U12676Z51","name":"Skalice nad Svitavou, žel.st.","arrival_time":"20:08:00","departure_time":"20:15:00","lat":49.480123,"lon":16.609726,"is_passed":false},{"stop_id":"U12511Z51","name":"Doubravice, žel.st.","arrival_time":"20:20:00","departure_time":"20:20:00","lat":49.438707,"lon":16.621809,"is_passed":false},{"stop_id":"U12439Z51","name":"Rájec-Jestřebí, železniční stanice","arrival_time":"20:23:00","departure_time":"20:24:00","lat":49.408206,"lon":16.627711,"is_passed":false},{"stop_id":"U22301Z2","name":"Dolní Lhota","arrival_time":"20:26:00","departure_time":"20:27:00","lat":49.386917,"lon":16.633978,"is_passed":false},{"stop_id":"U22302Z2","name":"Blansko město","arrival_time":"20:29:00","departure_time":"20:30:00","lat":49.360996,"lon":16.639464,"is_passed":false},{"stop_id":"U12342Z29","name":"Blansko, aut. st.","arrival_time":"20:32:00","departure_time":"20:33:00","lat":49.352753,"lon":16.646848,"is_passed":false},{"stop_id":"U12231Z11","name":"Adamov, železniční zastávka","arrival_time":"20:38:00","departure_time":"20:39:00","lat":49.300671,"lon":16.650653,"is_passed":false},{"stop_id":"U12230Z11","name":"Adamov, železniční stanice","arrival_time":"20:40:00","departure_time":"20:41:00","lat":49.295341,"lon":16.663538,"is_passed":false},{"stop_id":"U22101Z2","name":"Babice nad Svitavou","arrival_time":"20:44:00","departure_time":"20:44:00","lat":49.276645,"lon":16.673012,"is_passed":false},{"stop_id":"U12158Z11","name":"Bílovice nad Svitavou, žel. stanice","arrival_time":"20:48:00","departure_time":"20:49:00","lat":49.242715,"lon":16.673677,"is_passed":false},{"stop_id":"U1809Z11","name":"Židenice, nádraží","arrival_time":"20:54:00","departure_time":"20:54:00","lat":49.204282,"lon":16.636042,"is_passed":false},{"stop_id":"U1146Z98","name":"Hlavní nádraží","arrival_time":"20:59:00","departure_time":"21:06:00","lat":49.19035,"lon":16.612342,"is_passed":false},{"stop_id":"U1183Z11","name":"Chrlice, nádraží","arrival_time":"21:14:00","departure_time":"21:17:00","lat":49.132031,"lon":16.657232,"is_passed":false},{"stop_id":"U16149Z11","name":"Sokolnice, železniční stanice","arrival_time":"21:23:00","departure_time":"21:24:00","lat":49.108029,"lon":16.733459,"is_passed":false},{"stop_id":"U26101Z2","name":"Újezd u Brna","arrival_time":"21:25:00","departure_time":"21:26:00","lat":49.107297,"lon":16.745564,"is_passed":false},{"stop_id":"U26102Z2","name":"Hostěrádky-Rešov","arrival_time":"21:29:00","departure_time":"21:30:00","lat":49.119822,"lon":16.782755,"is_passed":false},{"stop_id":"U26201Z2","name":"Zbýšov","arrival_time":"21:32:00","departure_time":"21:33:00","lat":49.132691,"lon":16.806859,"is_passed":false},{"stop_id":"U16212Z11","name":"Křenovice, hor. žel. st.","arrival_time":"21:35:00","departure_time":"21:58:00","lat":49.143553,"lon":16.824564,"is_passed":false}],"11411":[{"stop_id":"U16212Z10","name":"Křenovice, hor. žel. st.","arrival_time":"21:58:00","departure_time":"21:58:00","lat":49.143553,"lon":16.824564,"is_passed":false},{"stop_id":"U26201Z1","name":"Zbýšov","arrival_time":"22:00:00","departure_time":"22:01:00","lat":49.132691,"lon":16.806859,"is_passed":false},{"stop_id":"U26102Z1","name":"Hostěrádky-Rešov","arrival_time":"22:03:00","departure_time":"22:04:00","lat":49.119822,"lon":16.782755,"is_passed":false},{"stop_id":"U26101Z1","name":"Újezd u Brna","arrival_time":"22:07:00","departure_time":"22:07:00","lat":49.107297,"lon":16.745564,"is_passed":false},{"stop_id":"U16149Z10","name":"Sokolnice, železniční stanice","arrival_time":"22:09:00","departure_time":"22:10:00","lat":49.108029,"lon":16.733459,"is_passed":false},{"stop_id":"U1183Z10","name":"Chrlice, nádraží","arrival_time":"22:15:00","departure_time":"22:16:00","lat":49.132031,"lon":16.657232,"is_passed":false},{"stop_id":"U1146Z99","name":"Hlavní nádraží","arrival_time":"22:26:00","departure_time":"22:26:00","lat":49.19035,"lon":16.612342,"is_passed":false}],"11412":[{"stop_id":"U1146Z99","name":"Hlavní nádraží","arrival_time":"21:00:00","departure_time":"21:00:00","lat":49.19035,"lon":16.612342,"is_passed":false},{"stop_id":"U1809Z10","name":"Židenice, nádraží","arrival_time":"21:04:00","departure_time":"21:05:00","lat":49.204282,"lon":16.636042,"is_passed":false},{"stop_id":"U12158Z10","name":"Bílovice nad Svitavou, žel. stanice","arrival_time":"21:10:00","departure_time":"21:11:00","lat":49.242715,"lon":16.673677,"is_passed":false},{"stop_id":"U22101Z1","name":"Babice nad Svitavou","arrival_time":"21:15:00","departure_time":"21:15:00","lat":49.276645,"lon":16.673012,"is_passed":false},{"stop_id":"U12230Z10","name":"Adamov, železniční stanice","arrival_time":"21:18:00","departure_time":"21:19:00","lat":49.295341,"lon":16.663538,"is_passed":false},{"stop_id":"U12231Z10","name":"Adamov, železniční zastávka","arrival_time":"21:20:00","departure_time":"21:21:00","lat":49.300671,"lon":16.650653,"is_passed":false},{"stop_id":"U12342Z30","name":"Blansko, aut. st.","arrival_time":"21:26:00","departure_time":"21:28:00","lat":49.352753,"lon":16.646848,"is_passed":false},{"stop_id":"U22302Z1","name":"Blansko město","arrival_time":"21:30:00","departure_time":"21:31:00","lat":49.360996,"lon":16.639464,"is_passed":false},{"stop_id":"U22301Z1","name":"Dolní Lhota","arrival_time":"21:33:00","departure_time":"21:34:00","lat":49.386917,"lon":16.633978,"is_passed":false},{"stop_id":"U12439Z50","name":"Rájec-Jestřebí, železniční stanice","arrival_time":"21:36:00","departure_time":"21:37:00","lat":49.408206,"lon":16.627711,"is_passed":false},{"stop_id":"U12511Z50","name":"Doubravice, žel.st.","arrival_time":"21:40:00","departure_time":"21:40:00","lat":49.438707,"lon":16.621809,"is_passed":false},{"stop_id":"U12676Z50","name":"Skalice nad Svitavou, žel.st.","arrival_time":"21:45:00","departure_time":"21:51:00","lat":49.480123,"lon":16.609726,"is_passed":false},{"stop_id":"U22602Z1","name":"Svitávka","arrival_time":"21:53:00","departure_time":"21:54:00","lat":49.499434,"lon":16.599208,"is_passed":false},{"stop_id":"U22701Z1","name":"Zboněk","arrival_time":"21:56:00","departure_time":"21:56:00","lat":49.521608,"lon":16.583438,"is_passed":false},{"stop_id":"U22702Z1","name":"Letovice zastávka","arrival_time":"21:59:00","departure_time":"21:59:00","lat":49.535496,"lon":16.576998,"is_passed":false},{"stop_id":"U12736Z50","name":"Letovice, železniční stanice","arrival_time":"22:02:00","departure_time":"22:02:00","lat":49.555973,"lon":16.570906,"is_passed":false}],"11413":[{"stop_id":"U1146Z99","name":"Hlavní nádraží","arrival_time":"22:00:00","departure_time":"22:00:00","lat":49.19035,"lon":16.612342,"is_passed":false},{"stop_id":"U1809Z10","name":"Židenice, nádraží","arrival_time":"22:04:00","departure_time":"22:05:00","lat":49.204282,"lon":16.636042,"is_passed":false},{"stop_id":"U12158Z10","name":"Bílovice nad Svitavou, žel. stanice","arrival_time":"22:10:00","departure_time":"22:11:00","lat":49.242715,"lon":16.673677,"is_passed":false},{"stop_id":"U22101Z1","name":"Babice nad Svitavou","arrival_time":"22:15:00","departure_time":"22:15:00","lat":49.276645,"lon":16.673012,"is_passed":false},{"stop_id":"U12230Z10","name":"Adamov, železniční stanice","arrival_time":"22:18:00","departure_time":"22:19:00","lat":49.295341,"lon":16.663538,"is_passed":false},{"stop_id":"U12231Z10","name":"Adamov, železniční zastávka","arrival_time":"22:20:00","departure_time":"22:21:00","lat":49.300671,"lon":16.650653,"is_passed":false},{"stop_id":"U12342Z30","name":"Blansko, aut. st.","arrival_time":"22:26:00","departure_time":"22:31:00","lat":49.352753,"lon":16.646848,"is_passed":false},{"stop_id":"U22302Z1","name":"Blansko město","arrival_time":"22:33:00","departure_time":"22:34:00","lat":49.360996,"lon":16.639464,"is_passed":false},{"stop_id":"U22301Z1","name":"Dolní Lhota","arrival_time":"22:36:00","departure_time":"22:37:00","lat":49.386917,"lon":16.633978,"is_passed":false},{"stop_id":"U12439Z50","name":"Rájec-Jestřebí, železniční stanice","arrival_time":"22:39:00","departure_time":"22:40:00","lat":49.408206,"lon":16.627711,"is_passed":false},{"stop_id":"U12511Z50","name":"Doubravice, žel.st.","arrival_time":"22:43:00","departure_time":"22:43:00","lat":49.438707,"lon":16.621809,"is_passed":false},{"stop_id":"U12676Z50","name":"Skalice nad Svitavou, žel.st.","arrival_time":"22:48:00","departure_time":"22:48:00","lat":49.480123,"lon":16.609726,"is_passed":false}],"11414":[{"stop_id":"U1146Z99","name":"Hlavní nádraží","arrival_time":"23:05:00","departure_time":"23:05:00","lat":49.19035,"lon":16.612342,"is_passed":false},{"stop_id":"U1809Z10","name":"Židenice, nádraží","arrival_time":"23:08:00","departure_time":"23:08:00","lat":49.204282,"lon":16.636042,"is_passed":false},{"stop_id":"U12158Z10","name":"Bílovice nad Svitavou, žel. stanice","arrival_time":"23:13:00","departure_time":"23:14:00","lat":49.242715,"lon":16.673677,"is_passed":false},{"stop_id":"U22101Z1","name":"Babice nad Svitavou","arrival_time":"23:18:00","departure_time":"23:18:00","lat":49.276645,"lon":16.673012,"is_passed":false},{"stop_id":"U12230Z10","name":"Adamov, železniční stanice","arrival_time":"23:21:00","departure_time":"23:22:00","lat":49.295341,"lon":16.663538,"is_passed":false},{"stop_id":"U12231Z10","name":"Adamov, železniční zastávka","arrival_time":"23:24:00","departure_time":"23:24:00","lat":49.300671,"lon":16.650653,"is_passed":false},{"stop_id":"U12342Z30","name":"Blansko, aut. st.","arrival_time":"23:30:00","departure_time":"23:32:00","lat":49.352753,"lon":16.646848,"is_passed":false},{"stop_id":"U22302Z1","name":"Blansko město","arrival_time":"23:33:00","departure_time":"23:34:00","lat":49.360996,"lon":16.639464,"is_passed":false},{"stop_id":"U22301Z1","name":"Dolní Lhota","arrival_time":"23:36:00","departure_time":"23:37:00","lat":49.386917,"lon":16.633978,"is_passed":false},{"stop_id":"U12439Z50","name":"Rájec-Jestřebí, železniční stanice","arrival_time":"23:39:00","departure_time":"23:40:00","lat":49.408206,"lon":16.627711,"is_passed":false},{"stop_id":"U12511Z50","name":"Doubravice, žel.st.","arrival_time":"23:43:00","departure_time":"23:43:00","lat":49.438707,"lon":16.621809,"is_passed":false},{"stop_id":"U12676Z50","name":"Skalice nad Svitavou, žel.st.","arrival_time":"23:48:00","departure_time":"23:48:00","lat":49.480123,"lon":16.609726,"is_passed":false},{"stop_id":"U22602Z1","name":"Svitávka","arrival_time":"23:51:00","departure_time":"23:51:00","lat":49.499434,"lon":16.599208,"is_passed":false},{"stop_id":"U22701Z1","name":"Zboněk","arrival_time":"23:54:00","departure_time":"23:54:00","lat":49.521608,"lon":16.583438,"is_passed":false},{"stop_id":"U22702Z1","name":"Letovice zastávka","arrival_time":"23:56:00","departure_time":"23:56:00","lat":49.535496,"lon":16.576998,"is_passed":false},{"stop_id":"U12736Z50","name":"Letovice, železniční stanice","arrival_time":"23:59:00","departure_time":"23:59:00","lat":49.555973,"lon":16.570906,"is_passed":false}],"11415":[{"stop_id":"U1146Z99","name":"Hlavní nádraží","arrival_time":"6:29:00","departure_time":"6:29:00","lat":49.19035,"lon":16.612342,"is_passed":false},{"stop_id":"U1809Z10","name":"Židenice, nádraží","arrival_time":"6:33:00","departure_time":"6:34:00","lat":49.204282,"lon":16.636042,"is_passed":false},{"stop_id":"U12158Z10","name":"Bílovice nad Svitavou, žel. stanice","arrival_time":"6:39:00","departure_time":"6:39:00","lat":49.242715,"lon":16.673677,"is_passed":false},{"stop_id":"U12230Z10","name":"Adamov, železniční stanice","arrival_time":"6:46:00","departure_time":"6:46:00","lat":49.295341,"lon":16.663538,"is_passed":false},{"stop_id":"U12231Z10","name":"Adamov, železniční zastávka","arrival_time":"6:48:00","departure_time":"6:48:00","lat":49.300671,"lon":16.650653,"is_passed":false},{"stop_id":"U12342Z30","name":"Blansko, aut. st.","arrival_time":"6:54:00","departure_time":"6:55:00","lat":49.352753,"lon":16.646848,"is_passed":false},{"stop_id":"U22302Z1","name":"Blansko město","arrival_time":"6:57:00","departure_time":"6:57:00","lat":49.360996,"lon":16.639464,"is_passed":false},{"stop_id":"U22301Z1","name":"Dolní Lhota","arrival_time":"7:00:00","departure_time":"7:00:00","lat":49.386917,"lon":16.633978,"is_passed":false},{"stop_id":"U12439Z50","name":"Rájec-Jestřebí, železniční stanice","arrival_time":"7:03:00","departure_time":"7:03:00","lat":49.408206,"lon":16.627711,"is_passed":false}],"11416":[{"stop_id":"U12439Z51","name":"Rájec-Jestřebí, železniční stanice","arrival_time":"7:53:00","departure_time":"7:53:00","lat":49.408206,"lon":16.627711,"is_passed":false},{"stop_id":"U22301Z2","name":"Dolní Lhota","arrival_time":"7:55:00","departure_time":"7:56:00","lat":49.386917,"lon":16.633978,"is_passed":false},{"stop_id":"U22302Z2","name":"Blansko město","arrival_time":"7:58:00","departure_time":"7:59:00","lat":49.360996,"lon":16.639464,"is_passed":false},{"stop_id":"U12342Z29","name":"Blansko, aut. st.","arrival_time":"8:00:00","departure_time":"8:01:00","lat":49.352753,"lon":16.646848,"is_passed":false},{"stop_id":"U12231Z11","name":"Adamov, železniční zastávka","arrival_time":"8:07:00","departure_time":"8:07:00","lat":49.300671,"lon":16.650653,"is_passed":false},{"stop_id":"U12230Z11","name":"Adamov, železniční stanice","arrival_time":"8:09:00","departure_time":"8:10:00","lat":49.295341,"lon":16.663538,"is_passed":false},{"stop_id":"U12158Z11","name":"Bílovice nad Svitavou, žel. stanice","arrival_time":"8:17:00","departure_time":"8:18:00","lat":49.242715,"lon":16.673677,"is_passed":false},{"stop_id":"U1809Z11","name":"Židenice, nádraží","arrival_time":"8:23:00","departure_time":"8:23:00","lat":49.204282,"lon":16.636042,"is_passed":false},{"stop_id":"U1146Z98","name":"Hlavní nádraží","arrival_time":"8:30:00","departure_time":"8:30:00","lat":49.19035,"lon":16.612342,"is_passed":false}],"11417":[{"stop_id":"U1146Z99","name":"Hlavní nádraží","arrival_time":"0:08:00","departure_time":"0:08:00","lat":49.19035,"lon":16.612342,"is_passed":false},{"stop_id":"U1809Z10","name":"Židenice, nádraží","arrival_time":"0:11:00","departure_time":"0:12:00","lat":49.204282,"lon":16.636042,"is_passed":false},{"stop_id":"U12158Z10","name":"Bílovice nad Svitavou, žel. stanice","arrival_time":"0:17:00","departure_time":"0:17:00","lat":49.242715,"lon":16.673677,"is_passed":false},{"stop_id":"U22101Z1","name":"Babice nad Svitavou","arrival_time":"0:21:00","departure_time":"0:21:00","lat":49.276645,"lon":16.673012,"is_passed":false},{"stop_id":"U12230Z10","name":"Adamov, železniční stanice","arrival_time":"0:24:00","departure_time":"0:25:00","lat":49.295341,"lon":16.663538,"is_passed":false},{"stop_id":"U12231Z10","name":"Adamov, železniční zastávka","arrival_time":"0:26:00","departure_time":"0:27:00","lat":49.300671,"lon":16.650653,"is_passed":false},{"stop_id":"U12342Z30","name":"Blansko, aut. st.","arrival_time":"0:32:00","departure_time":"0:33:00","lat":49.352753,"lon":16.646848,"is_passed":false},{"stop_id":"U22302Z1","name":"Blansko město","arrival_time":"0:35:00","departure_time":"0:35:00","lat":49.360996,"lon":16.639464,"is_passed":false},{"stop_id":"U22301Z1","name":"Dolní Lhota","arrival_time":"0:38:00","departure_time":"0:38:00","lat":49.386917,"lon":16.633978,"is_passed":false},{"stop_id":"U12439Z50","name":"Rájec-Jestřebí, železniční stanice","arrival_time":"0:41:00","departure_time":"0:41:00","lat":49.408206,"lon":16.627711,"is_passed":false},{"stop_id":"U12511Z50","name":"Doubravice, žel.st.","arrival_time":"0:44:00","departure_time":"0:45:00","lat":49.438707,"lon":16.621809,"is_passed":false},{"stop_id":"U12676Z50","name":"Skalice nad Svitavou, žel.st.","arrival_time":"0:49:00","departure_time":"0:50:00","lat":49.480123,"lon":16.609726,"is_passed":false},{"stop_id":"U22602Z1","name":"Svitávka","arrival_time":"0:52:00","departure_time":"0:53:00","lat":49.499434,"lon":16.599208,"is_passed":false},{"stop_id":"U22701Z1","name":"Zboněk","arrival_time":"0:55:00","departure_time":"0:55:00","lat":49.521608,"lon":16.583438,"is_passed":false},{"stop_id":"U22702Z1","name":"Letovice zastávka","arrival_time":"0:58:00","departure_time":"0:58:00","lat":49.535496,"lon":16.576998,"is_passed":false},{"stop_id":"U12736Z50","name":"Letovice, železniční stanice","arrival_time":"1:01:00","departure_time":"1:01:00","lat":49.555973,"lon":16.570906,"is_passed":false}],"11418":[{"stop_id":"U12676Z50","name":"Skalice nad Svitavou, žel.st.","arrival_time":"5:38:00","departure_time":"5:38:00","lat":49.480123,"lon":16.609726,"is_passed":false},{"stop_id":"U12635Z50","name":"Boskovice, aut.st.","arrival_time":"5:45:00","departure_time":"6:01:00","lat":49.491667,"lon":16.651778,"is_passed":false}],"11419":[{"stop_id":"U12635Z51","name":"Boskovice, aut.st.","arrival_time":"6:01:00","departure_time":"6:01:00","lat":49.491667,"lon":16.651778,"is_passed":false},{"stop_id":"U12676Z51","name":"Skalice nad Svitavou, žel.st.","arrival_time":"6:08:00","departure_time":"6:50:00","lat":49.480123,"lon":16.609726,"is_passed":false}],"11420":[{"stop_id":"U12676Z50","name":"Skalice nad Svitavou, žel.st.","arrival_time":"6:50:00","departure_time":"6:50:00","lat":49.480123,"lon":16.609726,"is_passed":false},{"stop_id":"U12635Z50","name":"Boskovice, aut.st.","arrival_time":"6:57:00","departure_time":"7:01:00","lat":49.491667,"lon":16.651778,"is_passed":false}],"11421":[{"stop_id":"U12635Z51","name":"Boskovice, aut.st.","arrival_time":"7:01:00","departure_time":"7:01:00","lat":49.491667,"lon":16.651778,"is_passed":false},{"stop_id":"U12676Z51","name":"Skalice nad Svitavou, žel.st.","arrival_time":"7:08:00","departure_time":"7:35:00","lat":49.480123,"lon":16.609726,"is_passed":false}],"11422":[{"stop_id":"U12676Z50","name":"Skalice nad Svitavou, žel.st.","arrival_time":"7:35:00","departure_time":"7:35:00","lat":49.480123,"lon":16.609726,"is_passed":false},{"stop_id":"U12635Z50","name":"Boskovice, aut.st.","arrival_time":"7:42:00","departure_time":"8:20:00","lat":49.491667,"lon":16.651778,"is_passed":false}],"11423":[{"stop_id":"U12635Z51","name":"Boskovice, aut.st.","arrival_time":"8:20:00","departure_time":"8:20:00","lat":49.491667,"lon":16.651778,"is_passed":false},{"stop_id":"U12676Z51","name":"Skalice nad Svitavou, žel.st.","arrival_time":"8:27:00","departure_time":"8:47:00","lat":49.480123,"lon":16.609726,"is_passed":false}],"11424":[{"stop_id":"U12676Z50","name":"Skalice nad Svitavou, žel.st.","arrival_time":"8:47:00","departure_time":"8:47:00","lat":49.480123,"lon":16.609726,"is_passed":false},{"stop_id":"U12635Z50","name":"Boskovice, aut.st.","arrival_time":"8:54:00","departure_time":"9:01:00","lat":49.491667,"lon":16.651778,"is_passed":false}],"11425":[{"stop_id":"U12635Z51","name":"Boskovice, aut.st.","arrival_time":"9:01:00","departure_time":"9:01:00","lat":49.491667,"lon":16.651778,"is_passed":false},{"stop_id":"U12676Z51","name":"Skalice nad Svitavou, žel.st.","arrival_time":"9:08:00","departure_time":"9:27:00","lat":49.480123,"lon":16.609726,"is_passed":false}],"11426":[{"stop_id":"U12676Z50","name":"Skalice nad Svitavou, žel.st.","arrival_time":"9:27:00","departure_time":"9:27:00","lat":49.480123,"lon":16.609726,"is_passed":false},{"stop_id":"U12635Z50","name":"Boskovice, aut.st.","arrival_time":"9:34:00","departure_time":"10:19:00","lat":49.491667,"lon":16.651778,"is_passed":false}],"11427":[{"stop_id":"U12635Z51","name":"Boskovice, aut.st.","arrival_time":"10:19:00","departure_time":"10:19:00","lat":49.491667,"lon":16.651778,"is_passed":false},{"stop_id":"U12676Z51","name":"Skalice nad Svitavou, žel.st.","arrival_time":"10:26:00","departure_time":"10:47:00","lat":49.480123,"lon":16.609726,"is_passed":false}],"11428":[{"stop_id":"U12676Z50","name":"Skalice nad Svitavou, žel.st.","arrival_time":"10:47:00","departure_time":"10:47:00","lat":49.480123,"lon":16.609726,"is_passed":false},{"stop_id":"U12635Z50","name":"Boskovice, aut.st.","arrival_time":"10:54:00","departure_time":"11:01:00","lat":49.491667,"lon":16.651778,"is_passed":false}],"11429":[{"stop_id":"U12635Z51","name":"Boskovice, aut.st.","arrival_time":"11:01:00","departure_time":"11:01:00","lat":49.491667,"lon":16.651778,"is_passed":false},{"stop_id":"U12676Z51","name":"Skalice nad Svitavou, žel.st.","arrival_time":"11:08:00","departure_time":"11:27:00","lat":49.480123,"lon":16.609726,"is_passed":false}],"11430":[{"stop_id":"U12676Z50","name":"Skalice nad Svitavou, žel.st.","arrival_time":"11:27:00","departure_time":"11:27:00","lat":49.480123,"lon":16.609726,"is_passed":false},{"stop_id":"U12635Z50","name":"Boskovice, aut.st.","arrival_time":"11:34:00","departure_time":"12:19:00","lat":49.491667,"lon":16.651778,"is_passed":false}],"11431":[{"stop_id":"U12635Z51","name":"Boskovice, aut.st.","arrival_time":"12:19:00","departure_time":"12:19:00","lat":49.491667,"lon":16.651778,"is_passed":false},{"stop_id":"U12676Z51","name":"Skalice nad Svitavou, žel.st.","arrival_time":"12:26:00","departure_time":"12:47:00","lat":49.480123,"lon":16.609726,"is_passed":false}],"11432":[{"stop_id":"U12676Z50","name":"Skalice nad Svitavou, žel.st.","arrival_time":"12:47:00","departure_time":"12:47:00","lat":49.480123,"lon":16.609726,"is_passed":false},{"stop_id":"U12635Z50","name":"Boskovice, aut.st.","arrival_time":"12:54:00","departure_time":"13:01:00","lat":49.491667,"lon":16.651778,"is_passed":false}],"11433":[{"stop_id":"U12635Z51","name":"Boskovice, aut.st.","arrival_time":"13:01:00","departure_time":"13:01:00","lat":49.491667,"lon":16.651778,"is_passed":false},{"stop_id":"U12676Z51","name":"Skalice nad Svitavou, žel.st.","arrival_time":"13:08:00","departure_time":"13:27:00","lat":49.480123,"lon":16.609726,"is_passed":false}],"11434":[{"stop_id":"U12676Z50","name":"Skalice nad Svitavou, žel.st.","arrival_time":"13:27:00","departure_time":"13:27:00","lat":49.480123,"lon":16.609726,"is_passed":false},{"stop_id":"U12635Z50","name":"Boskovice, aut.st.","arrival_time":"13:34:00","departure_time":"14:19:00","lat":49.491667,"lon":16.651778,"is_passed":false}],"11435":[{"stop_id":"U12635Z51","name":"Boskovice, aut.st.","arrival_time":"14:19:00","departure_time":"14:19:00","lat":49.491667,"lon":16.651778,"is_passed":false},{"stop_id":"U12676Z51","name":"Skalice nad Svitavou, žel.st.","arrival_time":"14:26:00","departure_time":"14:47:00","lat":49.480123,"lon":16.609726,"is_passed":false}],"11436":[{"stop_id":"U12676Z50","name":"Skalice nad Svitavou, žel.st.","arrival_time":"14:47:00","departure_time":"14:47:00","lat":49.480123,"lon":16.609726,"is_passed":false},{"stop_id":"U12635Z50","name":"Boskovice, aut.st.","arrival_time":"14:54:00","departure_time":"15:01:00","lat":49.491667,"lon":16.651778,"is_passed":false}],"11437":[{"stop_id":"U12635Z51","name":"Boskovice, aut.st.","arrival_time":"15:01:00","departure_time":"15:01:00","lat":49.491667,"lon":16.651778,"is_passed":false},{"stop_id":"U12676Z51","name":"Skalice nad Svitavou, žel.st.","arrival_time":"15:08:00","departure_time":"15:27:00","lat":49.480123,"lon":16.609726,"is_passed":false}],"11438":[{"stop_id":"U12676Z50","name":"Skalice nad Svitavou, žel.st.","arrival_time":"15:27:00","departure_time":"15:27:00","lat":49.480123,"lon":16.609726,"is_passed":false},{"stop_id":"U12635Z50","name":"Boskovice, aut.st.","arrival_time":"15:34:00","departure_time":"16:16:00","lat":49.491667,"lon":16.651778,"is_passed":false}],"11439":[{"stop_id":"U12635Z51","name":"Boskovice, aut.st.","arrival_time":"16:16:00","departure_time":"16:16:00","lat":49.491667,"lon":16.651778,"is_passed":false},{"stop_id":"U12676Z51","name":"Skalice nad Svitavou, žel.st.","arrival_time":"16:23:00","departure_time":"16:47:00","lat":49.480123,"lon":16.609726,"is_passed":false}],"11440":[{"stop_id":"U12676Z50","name":"Skalice nad Svitavou, žel.st.","arrival_time":"16:47:00","departure_time":"16:47:00","lat":49.480123,"lon":16.609726,"is_passed":false},{"stop_id":"U12635Z50","name":"Boskovice, aut.st.","arrival_time":"16:54:00","departure_time":"17:01:00","lat":49.491667,"lon":16.651778,"is_passed":false}],"11441":[{"stop_id":"U12635Z51","name":"Boskovice, aut.st.","arrival_time":"17:01:00","departure_time":"17:01:00","lat":49.491667,"lon":16.651778,"is_passed":false},{"stop_id":"U12676Z51","name":"Skalice nad Svitavou, žel.st.","arrival_time":"17:08:00","departure_time":"17:27:00","lat":49.480123,"lon":16.609726,"is_passed":false}],"11442":[{"stop_id":"U12676Z50","name":"Skalice nad Svitavou, žel.st.","arrival_time":"17:27:00","departure_time":"17:27:00","lat":49.480123,"lon":16.609726,"is_passed":false},{"stop_id":"U12635Z50","name":"Boskovice, aut.st.","arrival_time":"17:34:00","departure_time":"18:19:00","lat":49.491667,"lon":16.651778,"is_passed":false}],"11443":[{"stop_id":"U12635Z51","name":"Boskovice, aut.st.","arrival_time":"18:19:00","departure_time":"18:19:00","lat":49.491667,"lon":16.651778,"is_passed":false},{"stop_id":"U12676Z51","name":"Skalice nad Svitavou, žel.st.","arrival_time":"18:26:00","departure_time":"18:47:00","lat":49.480123,"lon":16.609726,"is_passed":false}],"11444":[{"stop_id":"U12676Z50","name":"Skalice nad Svitavou, žel.st.","arrival_time":"18:47:00","departure_time":"18:47:00","lat":49.480123,"lon":16.609726,"is_passed":false},{"stop_id":"U12635Z50","name":"Boskovice, aut.st.","arrival_time":"18:54:00","departure_time":"19:01:00","lat":49.491667,"lon":16.651778,"is_passed":false}],"11445":[{"stop_id":"U12635Z51","name":"Boskovice, aut.st.","arrival_time":"19:01:00","departure_time":"19:01:00","lat":49.491667,"lon":16.651778,"is_passed":false},{"stop_id":"U12676Z51","name":"Skalice nad Svitavou, žel.st.","arrival_time":"19:08:00","departure_time":"19:27:00","lat":49.480123,"lon":16.609726,"is_passed":false}],"11446":[{"stop_id":"U12676Z50","name":"Skalice nad Svitavou, žel.st.","arrival_time":"19:27:00","departure_time":"19:27:00","lat":49.480123,"lon":16.609726,"is_passed":false},{"stop_id":"U12635Z50","name":"Boskovice, aut.st.","arrival_time":"19:34:00","departure_time":"20:19:00","lat":49.491667,"lon":16.651778,"is_passed":false}],"11447":[{"stop_id":"U12635Z51","name":"Boskovice, aut.st.","arrival_time":"20:19:00","departure_time":"20:19:00","lat":49.491667,"lon":16.651778,"is_passed":false},{"stop_id":"U12676Z51","name":"Skalice nad Svitavou, žel.st.","arrival_time":"20:26:00","departure_time":"20:47:00","lat":49.480123,"lon":16.609726,"is_passed":false}],"11448":[{"stop_id":"U12676Z50","name":"Skalice nad Svitavou, žel.st.","arrival_time":"20:47:00","departure_time":"20:47:00","lat":49.480123,"lon":16.609726,"is_passed":false},{"stop_id":"U12635Z50","name":"Boskovice, aut.st.","arrival_time":"20:54:00","departure_time":"21:02:00","lat":49.491667,"lon":16.651778,"is_passed":false}],"11449":[{"stop_id":"U12635Z51","name":"Boskovice, aut.st.","arrival_time":"21:02:00","departure_time":"21:02:00","lat":49.491667,"lon":16.651778,"is_passed":false},{"stop_id":"U12676Z51","name":"Skalice nad Svitavou, žel.st.","arrival_time":"21:09:00","departure_time":"21:47:00","lat":49.480123,"lon":16.609726,"is_passed":false}],"11450":[{"stop_id":"U12676Z50","name":"Skalice nad Svitavou, žel.st.","arrival_time":"21:47:00","departure_time":"21:47:00","lat":49.480123,"lon":16.609726,"is_passed":false},{"stop_id":"U12635Z50","name":"Boskovice, aut.st.","arrival_time":"21:54:00","departure_time":"22:02:00","lat":49.491667,"lon":16.651778,"is_passed":false}],"11451":[{"stop_id":"U12635Z51","name":"Boskovice, aut.st.","arrival_time":"22:02:00","departure_time":"22:02:00","lat":49.491667,"lon":16.651778,"is_passed":false},{"stop_id":"U12676Z51","name":"Skalice nad Svitavou, žel.st.","arrival_time":"22:09:00","departure_time":"22:09:00","lat":49.480123,"lon":16.609726,"is_passed":false}],"11452":[{"stop_id":"U12936Z11","name":"Březová nad Svitavou, železniční stanice","arrival_time":"4:39:00","departure_time":"4:39:00","lat":49.633104,"lon":16.520656,"is_passed":false},{"stop_id":"U12804Z11","name":"Brněnec, Mor.Chrastová, žel.st.","arrival_time":"4:41:00","departure_time":"4:41:00","lat":49.623616,"lon":16.524459,"is_passed":false},{"stop_id":"U12819Z11","name":"Rozhraní, železniční zastávka","arrival_time":"4:44:00","departure_time":"4:44:00","lat":49.601763,"lon":16.532438,"is_passed":false},{"stop_id":"U12736Z51","name":"Letovice, železniční stanice","arrival_time":"4:49:00","departure_time":"4:49:00","lat":49.555973,"lon":16.570906,"is_passed":false}],"11453":[{"stop_id":"U12936Z11","name":"Březová nad Svitavou, železniční stanice","arrival_time":"5:40:00","departure_time":"5:40:00","lat":49.633104,"lon":16.520656,"is_passed":false},{"stop_id":"U12804Z11","name":"Brněnec, Mor.Chrastová, žel.st.","arrival_time":"5:42:00","departure_time":"5:42:00","lat":49.623616,"lon":16.524459,"is_passed":false},{"stop_id":"U12819Z11","name":"Rozhraní, železniční zastávka","arrival_time":"5:45:00","departure_time":"5:45:00","lat":49.601763,"lon":16.532438,"is_passed":false},{"stop_id":"U12736Z51","name":"Letovice, železniční stanice","arrival_time":"5:50:00","departure_time":"5:50:00","lat":49.555973,"lon":16.570906,"is_passed":false}],"11454":[{"stop_id":"U12936Z11","name":"Březová nad Svitavou, železniční stanice","arrival_time":"7:40:00","departure_time":"7:40:00","lat":49.633104,"lon":16.520656,"is_passed":false},{"stop_id":"U12804Z11","name":"Brněnec, Mor.Chrastová, žel.st.","arrival_time":"7:41:00","departure_time":"7:41:00","lat":49.623616,"lon":16.524459,"is_passed":false},{"stop_id":"U12819Z11","name":"Rozhraní, železniční zastávka","arrival_time":"7:44:00","departure_time":"7:44:00","lat":49.601763,"lon":16.532438,"is_passed":false},{"stop_id":"U12736Z51","name":"Letovice, železniční stanice","arrival_time":"7:49:00","departure_time":"7:49:00","lat":49.555973,"lon":16.570906,"is_passed":false}],"11455":[{"stop_id":"U12736Z50","name":"Letovice, železniční stanice","arrival_time":"8:09:00","departure_time":"8:09:00","lat":49.555973,"lon":16.570906,"is_passed":false},{"stop_id":"U12819Z10","name":"Rozhraní, železniční zastávka","arrival_time":"8:13:00","departure_time":"8:13:00","lat":49.601763,"lon":16.532438,"is_passed":false},{"stop_id":"U12804Z10","name":"Brněnec, Mor.Chrastová, žel.st.","arrival_time":"8:16:00","departure_time":"8:16:00","lat":49.622904,"lon":16.524586,"is_passed":false},{"stop_id":"U12936Z10","name":"Březová nad Svitavou, železniční stanice","arrival_time":"8:18:00","departure_time":"8:19:00","lat":49.633104,"lon":16.520656,"is_passed":false}],"11456":[{"stop_id":"U12936Z11","name":"Březová nad Svitavou, železniční stanice","arrival_time":"9:40:00","departure_time":"9:40:00","lat":49.633104,"lon":16.520656,"is_passed":false},{"stop_id":"U12804Z11","name":"Brněnec, Mor.Chrastová, žel.st.","arrival_time":"9:41:00","departure_time":"9:41:00","lat":49.623616,"lon":16.524459,"is_passed":false},{"stop_id":"U12819Z11","name":"Rozhraní, železniční zastávka","arrival_time":"9:44:00","departure_time":"9:44:00","lat":49.601763,"lon":16.532438,"is_passed":false},{"stop_id":"U12736Z51","name":"Letovice, železniční stanice","arrival_time":"9:50:00","departure_time":"9:50:00","lat":49.555973,"lon":16.570906,"is_passed":false}],"11457":[{"stop_id":"U12736Z50","name":"Letovice, železniční stanice","arrival_time":"10:09:00","departure_time":"10:09:00","lat":49.555973,"lon":16.570906,"is_passed":false},{"stop_id":"U12819Z10","name":"Rozhraní, železniční zastávka","arrival_time":"10:13:00","departure_time":"10:13:00","lat":49.601763,"lon":16.532438,"is_passed":false},{"stop_id":"U12804Z10","name":"Brněnec, Mor.Chrastová, žel.st.","arrival_time":"10:16:00","departure_time":"10:16:00","lat":49.622904,"lon":16.524586,"is_passed":false},{"stop_id":"U12936Z10","name":"Březová nad Svitavou, železniční stanice","arrival_time":"10:18:00","departure_time":"10:19:00","lat":49.633104,"lon":16.520656,"is_passed":false}],"11458":[{"stop_id":"U12936Z11","name":"Březová nad Svitavou, železniční stanice","arrival_time":"11:40:00","departure_time":"11:40:00","lat":49.633104,"lon":16.520656,"is_passed":false},{"stop_id":"U12804Z11","name":"Brněnec, Mor.Chrastová, žel.st.","arrival_time":"11:41:00","departure_time":"11:41:00","lat":49.623616,"lon":16.524459,"is_passed":false},{"stop_id":"U12819Z11","name":"Rozhraní, železniční zastávka","arrival_time":"11:44:00","departure_time":"11:44:00","lat":49.601763,"lon":16.532438,"is_passed":false},{"stop_id":"U12736Z51","name":"Letovice, železniční stanice","arrival_time":"11:50:00","departure_time":"11:50:00","lat":49.555973,"lon":16.570906,"is_passed":false}],"11459":[{"stop_id":"U12736Z50","name":"Letovice, železniční stanice","arrival_time":"12:09:00","departure_time":"12:09:00","lat":49.555973,"lon":16.570906,"is_passed":false},{"stop_id":"U12819Z10","name":"Rozhraní, železniční zastávka","arrival_time":"12:13:00","departure_time":"12:13:00","lat":49.601763,"lon":16.532438,"is_passed":false},{"stop_id":"U12804Z10","name":"Brněnec, Mor.Chrastová, žel.st.","arrival_time":"12:16:00","departure_time":"12:16:00","lat":49.622904,"lon":16.524586,"is_passed":false},{"stop_id":"U12936Z10","name":"Březová nad Svitavou, železniční stanice","arrival_time":"12:18:00","departure_time":"12:19:00","lat":49.633104,"lon":16.520656,"is_passed":false}],"11460":[{"stop_id":"U12936Z11","name":"Březová nad Svitavou, železniční stanice","arrival_time":"13:40:00","departure_time":"13:40:00","lat":49.633104,"lon":16.520656,"is_passed":false},{"stop_id":"U12804Z11","name":"Brněnec, Mor.Chrastová, žel.st.","arrival_time":"13:41:00","departure_time":"13:41:00","lat":49.623616,"lon":16.524459,"is_passed":false},{"stop_id":"U12819Z11","name":"Rozhraní, železniční zastávka","arrival_time":"13:44:00","departure_time":"13:44:00","lat":49.601763,"lon":16.532438,"is_passed":false},{"stop_id":"U12736Z51","name":"Letovice, železniční stanice","arrival_time":"13:50:00","departure_time":"13:50:00","lat":49.555973,"lon":16.570906,"is_passed":false}],"11461":[{"stop_id":"U12936Z11","name":"Březová nad Svitavou, železniční stanice","arrival_time":"15:40:00","departure_time":"15:40:00","lat":49.633104,"lon":16.520656,"is_passed":false},{"stop_id":"U12804Z11","name":"Brněnec, Mor.Chrastová, žel.st.","arrival_time":"15:41:00","departure_time":"15:41:00","lat":49.623616,"lon":16.524459,"is_passed":false},{"stop_id":"U12819Z11","name":"Rozhraní, železniční zastávka","arrival_time":"15:44:00","departure_time":"15:44:00","lat":49.601763,"lon":16.532438,"is_passed":false},{"stop_id":"U12736Z51","name":"Letovice, železniční stanice","arrival_time":"15:50:00","departure_time":"15:50:00","lat":49.555973,"lon":16.570906,"is_passed":false}],"11462":[{"stop_id":"U12736Z50","name":"Letovice, železniční stanice","arrival_time":"16:09:00","departure_time":"16:09:00","lat":49.555973,"lon":16.570906,"is_passed":false},{"stop_id":"U12819Z10","name":"Rozhraní, železniční zastávka","arrival_time":"16:13:00","departure_time":"16:13:00","lat":49.601763,"lon":16.532438,"is_passed":false},{"stop_id":"U12804Z10","name":"Brněnec, Mor.Chrastová, žel.st.","arrival_time":"16:16:00","departure_time":"16:16:00","lat":49.622904,"lon":16.524586,"is_passed":false},{"stop_id":"U12936Z10","name":"Březová nad Svitavou, železniční stanice","arrival_time":"16:18:00","departure_time":"16:19:00","lat":49.633104,"lon":16.520656,"is_passed":false}],"11463":[{"stop_id":"U12936Z11","name":"Březová nad Svitavou, železniční stanice","arrival_time":"17:40:00","departure_time":"17:40:00","lat":49.633104,"lon":16.520656,"is_passed":false},{"stop_id":"U12804Z11","name":"Brněnec, Mor.Chrastová, žel.st.","arrival_time":"17:41:00","departure_time":"17:41:00","lat":49.623616,"lon":16.524459,"is_passed":false},{"stop_id":"U12819Z11","name":"Rozhraní, železniční zastávka","arrival_time":"17:44:00","departure_time":"17:44:00","lat":49.601763,"lon":16.532438,"is_passed":false},{"stop_id":"U12736Z51","name":"Letovice, železniční stanice","arrival_time":"17:50:00","departure_time":"17:50:00","lat":49.555973,"lon":16.570906,"is_passed":false}],"11464":[{"stop_id":"U12736Z50","name":"Letovice, železniční stanice","arrival_time":"18:09:00","departure_time":"18:09:00","lat":49.555973,"lon":16.570906,"is_passed":false},{"stop_id":"U12819Z10","name":"Rozhraní, železniční zastávka","arrival_time":"18:13:00","departure_time":"18:13:00","lat":49.601763,"lon":16.532438,"is_passed":false},{"stop_id":"U12804Z10","name":"Brněnec, Mor.Chrastová, žel.st.","arrival_time":"18:16:00","departure_time":"18:16:00","lat":49.622904,"lon":16.524586,"is_passed":false},{"stop_id":"U12936Z10","name":"Březová nad Svitavou, železniční stanice","arrival_time":"18:18:00","departure_time":"18:19:00","lat":49.633104,"lon":16.520656,"is_passed":false}],"11465":[{"stop_id":"U12936Z11","name":"Březová nad Svitavou, železniční stanice","arrival_time":"19:40:00","departure_time":"19:40:00","lat":49.633104,"lon":16.520656,"is_passed":false},{"stop_id":"U12804Z11","name":"Brněnec, Mor.Chrastová, žel.st.","arrival_time":"19:41:00","departure_time":"19:41:00","lat":49.623616,"lon":16.524459,"is_passed":false},{"stop_id":"U12819Z11","name":"Rozhraní, železniční zastávka","arrival_time":"19:44:00","departure_time":"19:44:00","lat":49.601763,"lon":16.532438,"is_passed":false},{"stop_id":"U12736Z51","name":"Letovice, železniční stanice","arrival_time":"19:49:00","departure_time":"19:49:00","lat":49.555973,"lon":16.570906,"is_passed":false}],"11466":[{"stop_id":"U12736Z50","name":"Letovice, železniční stanice","arrival_time":"21:28:00","departure_time":"21:28:00","lat":49.555973,"lon":16.570906,"is_passed":false},{"stop_id":"U12819Z10","name":"Rozhraní, železniční zastávka","arrival_time":"21:32:00","departure_time":"21:32:00","lat":49.601763,"lon":16.532438,"is_passed":false},{"stop_id":"U12804Z10","name":"Brněnec, Mor.Chrastová, žel.st.","arrival_time":"21:35:00","departure_time":"21:35:00","lat":49.622904,"lon":16.524586,"is_passed":false},{"stop_id":"U12936Z10","name":"Březová nad Svitavou, železniční stanice","arrival_time":"21:37:00","departure_time":"21:38:00","lat":49.633104,"lon":16.520656,"is_passed":false}],"11467":[{"stop_id":"U12736Z50","name":"Letovice, železniční stanice","arrival_time":"6:09:00","departure_time":"6:09:00","lat":49.555973,"lon":16.570906,"is_passed":false},{"stop_id":"U12819Z10","name":"Rozhraní, železniční zastávka","arrival_time":"6:13:00","departure_time":"6:13:00","lat":49.601763,"lon":16.532438,"is_passed":false},{"stop_id":"U12804Z10","name":"Brněnec, Mor.Chrastová, žel.st.","arrival_time":"6:16:00","departure_time":"6:16:00","lat":49.622904,"lon":16.524586,"is_passed":false},{"stop_id":"U12936Z10","name":"Březová nad Svitavou, železniční stanice","arrival_time":"6:18:00","departure_time":"6:19:00","lat":49.633104,"lon":16.520656,"is_passed":false}],"11468":[{"stop_id":"U12736Z50","name":"Letovice, železniční stanice","arrival_time":"14:09:00","departure_time":"14:09:00","lat":49.555973,"lon":16.570906,"is_passed":false},{"stop_id":"U12819Z10","name":"Rozhraní, železniční zastávka","arrival_time":"14:13:00","departure_time":"14:13:00","lat":49.601763,"lon":16.532438,"is_passed":false},{"stop_id":"U12804Z10","name":"Brněnec, Mor.Chrastová, žel.st.","arrival_time":"14:16:00","departure_time":"14:16:00","lat":49.622904,"lon":16.524586,"is_passed":false},{"stop_id":"U12936Z10","name":"Březová nad Svitavou, železniční stanice","arrival_time":"14:18:00","departure_time":"14:19:00","lat":49.633104,"lon":16.520656,"is_passed":false}],"11469":[{"stop_id":"U12736Z50","name":"Letovice, železniční stanice","arrival_time":"4:56:00","departure_time":"4:56:00","lat":49.555973,"lon":16.570906,"is_passed":false},{"stop_id":"U12819Z10","name":"Rozhraní, železniční zastávka","arrival_time":"5:01:00","departure_time":"5:01:00","lat":49.601763,"lon":16.532438,"is_passed":false},{"stop_id":"U12804Z10","name":"Brněnec, Mor.Chrastová, žel.st.","arrival_time":"5:04:00","departure_time":"5:04:00","lat":49.622904,"lon":16.524586,"is_passed":false},{"stop_id":"U12936Z10","name":"Březová nad Svitavou, železniční stanice","arrival_time":"5:06:00","departure_time":"5:07:00","lat":49.633104,"lon":16.520656,"is_passed":false}],"11470":[{"stop_id":"U1146Z99","name":"Hlavní nádraží","arrival_time":"6:15:00","departure_time":"6:15:00","lat":49.19035,"lon":16.612342,"is_passed":false},{"stop_id":"U1286Z10","name":"Královo Pole, nádraží","arrival_time":"6:26:00","departure_time":"6:27:00","lat":49.231051,"lon":16.596651,"is_passed":false},{"stop_id":"U13143Z10","name":"Kuřim, železniční stanice","arrival_time":"6:34:00","departure_time":"6:35:00","lat":49.301,"lon":16.534523,"is_passed":false},{"stop_id":"U13334Z20","name":"Tišnov, železniční stanice","arrival_time":"6:43:00","departure_time":"6:44:00","lat":49.3475,"lon":16.41725,"is_passed":false}],"11471":[{"stop_id":"U1146Z99","name":"Hlavní nádraží","arrival_time":"8:13:00","departure_time":"8:13:00","lat":49.19035,"lon":16.612342,"is_passed":false},{"stop_id":"U1286Z10","name":"Královo Pole, nádraží","arrival_time":"8:24:00","departure_time":"8:25:00","lat":49.231051,"lon":16.596651,"is_passed":false},{"stop_id":"U13334Z20","name":"Tišnov, železniční stanice","arrival_time":"8:40:00","departure_time":"8:44:00","lat":49.3475,"lon":16.41725,"is_passed":false}],"11472":[{"stop_id":"U1146Z99","name":"Hlavní nádraží","arrival_time":"10:13:00","departure_time":"10:13:00","lat":49.19035,"lon":16.612342,"is_passed":false},{"stop_id":"U1286Z10","name":"Královo Pole, nádraží","arrival_time":"10:24:00","departure_time":"10:26:00","lat":49.231051,"lon":16.596651,"is_passed":false},{"stop_id":"U13334Z20","name":"Tišnov, železniční stanice","arrival_time":"10:41:00","departure_time":"10:44:00","lat":49.3475,"lon":16.41725,"is_passed":false}],"11473":[{"stop_id":"U1146Z99","name":"Hlavní nádraží","arrival_time":"12:13:00","departure_time":"12:13:00","lat":49.19035,"lon":16.612342,"is_passed":false},{"stop_id":"U1286Z10","name":"Královo Pole, nádraží","arrival_time":"12:24:00","departure_time":"12:26:00","lat":49.231051,"lon":16.596651,"is_passed":false},{"stop_id":"U13334Z20","name":"Tišnov, železniční stanice","arrival_time":"12:41:00","departure_time":"12:44:00","lat":49.3475,"lon":16.41725,"is_passed":false}],"11474":[{"stop_id":"U1146Z99","name":"Hlavní nádraží","arrival_time":"14:13:00","departure_time":"14:13:00","lat":49.19035,"lon":16.612342,"is_passed":false},{"stop_id":"U1286Z10","name":"Královo Pole, nádraží","arrival_time":"14:24:00","departure_time":"14:26:00","lat":49.231051,"lon":16.596651,"is_passed":false},{"stop_id":"U13334Z20","name":"Tišnov, železniční stanice","arrival_time":"14:41:00","departure_time":"14:44:00","lat":49.3475,"lon":16.41725,"is_passed":false}],"11475":[{"stop_id":"U1146Z99","name":"Hlavní nádraží","arrival_time":"16:13:00","departure_time":"16:13:00","lat":49.19035,"lon":16.612342,"is_passed":false},{"stop_id":"U1286Z10","name":"Královo Pole, nádraží","arrival_time":"16:24:00","departure_time":"16:26:00","lat":49.231051,"lon":16.596651,"is_passed":false},{"stop_id":"U13334Z20","name":"Tišnov, železniční stanice","arrival_time":"16:42:00","departure_time":"16:44:00","lat":49.3475,"lon":16.41725,"is_passed":false}],"11476":[{"stop_id":"U1146Z99","name":"Hlavní nádraží","arrival_time":"18:13:00","departure_time":"18:13:00","lat":49.19035,"lon":16.612342,"is_passed":false},{"stop_id":"U1286Z10","name":"Královo Pole, nádraží","arrival_time":"18:24:00","departure_time":"18:26:00","lat":49.231051,"lon":16.596651,"is_passed":false},{"stop_id":"U13334Z20","name":"Tišnov, železniční stanice","arrival_time":"18:41:00","departure_time":"18:44:00","lat":49.3475,"lon":16.41725,"is_passed":false}],"11477":[{"stop_id":"U1146Z99","name":"Hlavní nádraží","arrival_time":"20:13:00","departure_time":"20:13:00","lat":49.19035,"lon":16.612342,"is_passed":false},{"stop_id":"U1286Z10","name":"Královo Pole, nádraží","arrival_time":"20:24:00","departure_time":"20:26:00","lat":49.231051,"lon":16.596651,"is_passed":false},{"stop_id":"U13334Z20","name":"Tišnov, železniční stanice","arrival_time":"20:41:00","departure_time":"20:44:00","lat":49.3475,"lon":16.41725,"is_passed":false}],"11478":[{"stop_id":"U13334Z21","name":"Tišnov, železniční stanice","arrival_time":"6:25:00","departure_time":"6:25:00","lat":49.3475,"lon":16.41725,"is_passed":false},{"stop_id":"U1286Z11","name":"Královo Pole, nádraží","arrival_time":"6:40:00","departure_time":"6:40:00","lat":49.231051,"lon":16.596651,"is_passed":false},{"stop_id":"U1146Z98","name":"Hlavní nádraží","arrival_time":"6:53:00","departure_time":"6:53:00","lat":49.19035,"lon":16.612342,"is_passed":false}],"11479":[{"stop_id":"U13334Z21","name":"Tišnov, železniční stanice","arrival_time":"17:15:00","departure_time":"17:15:00","lat":49.3475,"lon":16.41725,"is_passed":false},{"stop_id":"U1286Z11","name":"Královo Pole, nádraží","arrival_time":"17:30:00","departure_time":"17:30:00","lat":49.231051,"lon":16.596651,"is_passed":false},{"stop_id":"U1146Z98","name":"Hlavní nádraží","arrival_time":"17:44:00","departure_time":"17:44:00","lat":49.19035,"lon":16.612342,"is_passed":false}],"11480":[{"stop_id":"U13334Z21","name":"Tišnov, železniční stanice","arrival_time":"7:15:00","departure_time":"7:15:00","lat":49.3475,"lon":16.41725,"is_passed":false},{"stop_id":"U1286Z11","name":"Královo Pole, nádraží","arrival_time":"7:30:00","departure_time":"7:30:00","lat":49.231051,"lon":16.596651,"is_passed":false},{"stop_id":"U1146Z98","name":"Hlavní nádraží","arrival_time":"7:42:00","departure_time":"7:42:00","lat":49.19035,"lon":16.612342,"is_passed":false}],"11481":[{"stop_id":"U13334Z21","name":"Tišnov, železniční stanice","arrival_time":"9:15:00","departure_time":"9:15:00","lat":49.3475,"lon":16.41725,"is_passed":false},{"stop_id":"U1286Z11","name":"Královo Pole, nádraží","arrival_time":"9:30:00","departure_time":"9:30:00","lat":49.231051,"lon":16.596651,"is_passed":false},{"stop_id":"U1146Z98","name":"Hlavní nádraží","arrival_time":"9:44:00","departure_time":"9:44:00","lat":49.19035,"lon":16.612342,"is_passed":false}],"11482":[{"stop_id":"U13334Z21","name":"Tišnov, železniční stanice","arrival_time":"11:15:00","departure_time":"11:15:00","lat":49.3475,"lon":16.41725,"is_passed":false},{"stop_id":"U1286Z11","name":"Královo Pole, nádraží","arrival_time":"11:30:00","departure_time":"11:30:00","lat":49.231051,"lon":16.596651,"is_passed":false},{"stop_id":"U1146Z98","name":"Hlavní nádraží","arrival_time":"11:44:00","departure_time":"11:44:00","lat":49.19035,"lon":16.612342,"is_passed":false}],"11483":[{"stop_id":"U13334Z21","name":"Tišnov, železniční stanice","arrival_time":"13:15:00","departure_time":"13:15:00","lat":49.3475,"lon":16.41725,"is_passed":false},{"stop_id":"U1286Z11","name":"Královo Pole, nádraží","arrival_time":"13:30:00","departure_time":"13:30:00","lat":49.231051,"lon":16.596651,"is_passed":false},{"stop_id":"U1146Z98","name":"Hlavní nádraží","arrival_time":"13:44:00","departure_time":"13:44:00","lat":49.19035,"lon":16.612342,"is_passed":false}],"11484":[{"stop_id":"U13334Z21","name":"Tišnov, železniční stanice","arrival_time":"15:17:00","departure_time":"15:17:00","lat":49.3475,"lon":16.41725,"is_passed":false},{"stop_id":"U1286Z11","name":"Královo Pole, nádraží","arrival_time":"15:32:00","departure_time":"15:32:00","lat":49.231051,"lon":16.596651,"is_passed":false},{"stop_id":"U1146Z98","name":"Hlavní nádraží","arrival_time":"15:44:00","departure_time":"15:44:00","lat":49.19035,"lon":16.612342,"is_passed":false}],"11485":[{"stop_id":"U13334Z21","name":"Tišnov, železniční stanice","arrival_time":"19:15:00","departure_time":"19:15:00","lat":49.3475,"lon":16.41725,"is_passed":false},{"stop_id":"U1286Z11","name":"Královo Pole, nádraží","arrival_time":"19:30:00","departure_time":"19:30:00","lat":49.231051,"lon":16.596651,"is_passed":false},{"stop_id":"U1146Z98","name":"Hlavní nádraží","arrival_time":"19:44:00","departure_time":"19:44:00","lat":49.19035,"lon":16.612342,"is_passed":false}],"11486":[{"stop_id":"U13334Z21","name":"Tišnov, železniční stanice","arrival_time":"21:14:00","departure_time":"21:14:00","lat":49.3475,"lon":16.41725,"is_passed":false},{"stop_id":"U13143Z11","name":"Kuřim, železniční stanice","arrival_time":"21:22:00","departure_time":"21:23:00","lat":49.301,"lon":16.534523,"is_passed":false},{"stop_id":"U1286Z11","name":"Královo Pole, nádraží","arrival_time":"21:31:00","departure_time":"21:31:00","lat":49.231051,"lon":16.596651,"is_passed":false},{"stop_id":"U1146Z98","name":"Hlavní nádraží","arrival_time":"21:42:00","departure_time":"21:42:00","lat":49.19035,"lon":16.612342,"is_passed":false}],"11487":[{"stop_id":"U1146Z97","name":"Hlavní nádraží","arrival_time":"5:41:00","departure_time":"5:41:00","lat":49.189976,"lon":16.610222,"is_passed":false},{"stop_id":"U14507Z51","name":"Náměšť nad Oslavou, autobusové nádraží","arrival_time":"6:26:00","departure_time":"6:28:00","lat":49.207007,"lon":16.14766,"is_passed":false}],"11488":[{"stop_id":"U1146Z97","name":"Hlavní nádraží","arrival_time":"7:42:00","departure_time":"7:42:00","lat":49.189976,"lon":16.610222,"is_passed":false},{"stop_id":"U14507Z51","name":"Náměšť nad Oslavou, autobusové nádraží","arrival_time":"8:26:00","departure_time":"8:28:00","lat":49.207007,"lon":16.14766,"is_passed":false}],"11489":[{"stop_id":"U14507Z52","name":"Náměšť nad Oslavou, autobusové nádraží","arrival_time":"7:28:00","departure_time":"7:28:00","lat":49.207007,"lon":16.14766,"is_passed":false},{"stop_id":"U1146Z96","name":"Hlavní nádraží","arrival_time":"8:14:00","departure_time":"9:44:00","lat":49.189976,"lon":16.610222,"is_passed":false}],"11490":[{"stop_id":"U1146Z97","name":"Hlavní nádraží","arrival_time":"9:44:00","departure_time":"9:44:00","lat":49.189976,"lon":16.610222,"is_passed":false},{"stop_id":"U14507Z51","name":"Náměšť nad Oslavou, autobusové nádraží","arrival_time":"10:26:00","departure_time":"10:28:00","lat":49.207007,"lon":16.14766,"is_passed":false}],"11491":[{"stop_id":"U14507Z52","name":"Náměšť nad Oslavou, autobusové nádraží","arrival_time":"9:28:00","departure_time":"9:28:00","lat":49.207007,"lon":16.14766,"is_passed":false},{"stop_id":"U1146Z96","name":"Hlavní nádraží","arrival_time":"10:14:00","departure_time":"11:44:00","lat":49.189976,"lon":16.610222,"is_passed":false}],"11492":[{"stop_id":"U1146Z97","name":"Hlavní nádraží","arrival_time":"11:44:00","departure_time":"11:44:00","lat":49.189976,"lon":16.610222,"is_passed":false},{"stop_id":"U14507Z51","name":"Náměšť nad Oslavou, autobusové nádraží","arrival_time":"12:26:00","departure_time":"12:28:00","lat":49.207007,"lon":16.14766,"is_passed":false}],"11493":[{"stop_id":"U14507Z52","name":"Náměšť nad Oslavou, autobusové nádraží","arrival_time":"11:28:00","departure_time":"11:28:00","lat":49.207007,"lon":16.14766,"is_passed":false},{"stop_id":"U1146Z96","name":"Hlavní nádraží","arrival_time":"12:14:00","departure_time":"13:44:00","lat":49.189976,"lon":16.610222,"is_passed":false}],"11494":[{"stop_id":"U1146Z97","name":"Hlavní nádraží","arrival_time":"13:44:00","departure_time":"13:44:00","lat":49.189976,"lon":16.610222,"is_passed":false},{"stop_id":"U14507Z51","name":"Náměšť nad Oslavou, autobusové nádraží","arrival_time":"14:26:00","departure_time":"14:28:00","lat":49.207007,"lon":16.14766,"is_passed":false}],"11495":[{"stop_id":"U14507Z52","name":"Náměšť nad Oslavou, autobusové nádraží","arrival_time":"13:28:00","departure_time":"13:28:00","lat":49.207007,"lon":16.14766,"is_passed":false},{"stop_id":"U1146Z96","name":"Hlavní nádraží","arrival_time":"14:14:00","departure_time":"15:44:00","lat":49.189976,"lon":16.610222,"is_passed":false}],"11496":[{"stop_id":"U1146Z97","name":"Hlavní nádraží","arrival_time":"15:44:00","departure_time":"15:44:00","lat":49.189976,"lon":16.610222,"is_passed":false},{"stop_id":"U14507Z51","name":"Náměšť nad Oslavou, autobusové nádraží","arrival_time":"16:26:00","departure_time":"16:28:00","lat":49.207007,"lon":16.14766,"is_passed":false}],"11497":[{"stop_id":"U14507Z52","name":"Náměšť nad Oslavou, autobusové nádraží","arrival_time":"15:28:00","departure_time":"15:28:00","lat":49.207007,"lon":16.14766,"is_passed":false},{"stop_id":"U1146Z96","name":"Hlavní nádraží","arrival_time":"16:14:00","departure_time":"17:44:00","lat":49.189976,"lon":16.610222,"is_passed":false}],"11498":[{"stop_id":"U1146Z97","name":"Hlavní nádraží","arrival_time":"17:44:00","departure_time":"17:44:00","lat":49.189976,"lon":16.610222,"is_passed":false},{"stop_id":"U14507Z51","name":"Náměšť nad Oslavou, autobusové nádraží","arrival_time":"18:26:00","departure_time":"18:28:00","lat":49.207007,"lon":16.14766,"is_passed":false}],"11499":[{"stop_id":"U14507Z52","name":"Náměšť nad Oslavou, autobusové nádraží","arrival_time":"17:28:00","departure_time":"17:28:00","lat":49.207007,"lon":16.14766,"is_passed":false},{"stop_id":"U1146Z96","name":"Hlavní nádraží","arrival_time":"18:14:00","departure_time":"19:44:00","lat":49.189976,"lon":16.610222,"is_passed":false}]}