[{"stop_id":"U1146Z97","name":"Hlavní nádraží","arrival_time":"6:28:00","departure_time":"6:28:00","lat":49.189976,"lon":16.610222,"is_passed":false},{"stop_id":"U11002Z11","name":"Brno-Horní Heršpice","arrival_time":"6:31:00","departure_time":"6:32:00","lat":49.167404,"lon":16.60686,"is_passed":false},{"stop_id":"U11009Z21","name":"Brno-Starý Lískovec","arrival_time":"6:35:00","departure_time":"6:35:00","lat":49.162219,"lon":16.571096,"is_passed":false},{"stop_id":"U24103Z1","name":"Ostopovice","arrival_time":"6:38:00","departure_time":"6:38:00","lat":49.164994,"lon":16.544202,"is_passed":false},{"stop_id":"U14110Z11","name":"Troubsko, U dráhy","arrival_time":"6:40:00","departure_time":"6:40:00","lat":49.164054,"lon":16.526498,"is_passed":false},{"stop_id":"U14119Z11","name":"Střelice, dolní železniční stanice","arrival_time":"6:43:00","departure_time":"6:43:00","lat":49.156583,"lon":16.506195,"is_passed":false},{"stop_id":"U24101Z2","name":"Střelice","arrival_time":"6:45:00","departure_time":"6:47:00","lat":49.154016,"lon":16.483608,"is_passed":false},{"stop_id":"U24102Z2","name":"Omice","arrival_time":"6:50:00","departure_time":"6:50:00","lat":49.161062,"lon":16.446848,"is_passed":false},{"stop_id":"U14238Z11","name":"Tetčice, žel. st.","arrival_time":"6:53:00","departure_time":"6:54:00","lat":49.172316,"lon":16.408496,"is_passed":false},{"stop_id":"U14234Z11","name":"Rosice, Těstárny","arrival_time":"6:56:00","departure_time":"6:56:00","lat":49.178895,"lon":16.383608,"is_passed":false},{"stop_id":"U14242Z21","name":"Zastávka, železniční stanice","arrival_time":"6:59:00","departure_time":"6:59:00","lat":49.187463,"lon":16.358639,"is_passed":false}]