[{"stop_id":"U1146Z98","name":"Hlavní nádraží","arrival_time":"6:20:00","departure_time":"6:20:00","lat":49.19035,"lon":16.612342,"is_passed":false},{"stop_id":"U1573Z11","name":"Slatina, nádraží","arrival_time":"6:30:00","departure_time":"6:31:00","lat":49.169478,"lon":16.682148,"is_passed":false},{"stop_id":"U16136Z12","name":"Šlapanice, železniční zastávka","arrival_time":"6:34:00","departure_time":"6:34:00","lat":49.163296,"lon":16.719903,"is_passed":false},{"stop_id":"U16137Z11","name":"Šlapanice, železniční stanice","arrival_time":"6:35:00","departure_time":"6:36:00","lat":49.156915,"lon":16.729568,"is_passed":false},{"stop_id":"U16121Z11","name":"Ponětovice, železniční stanice","arrival_time":"6:38:00","departure_time":"6:38:00","lat":49.154709,"lon":16.748578,"is_passed":false},{"stop_id":"U26103Z2","name":"Blažovice","arrival_time":"6:42:00","departure_time":"6:42:00","lat":49.163735,"lon":16.798179,"is_passed":false},{"stop_id":"U16211Z11","name":"Křenovice, dol. žel. st.","arrival_time":"6:46:00","departure_time":"6:47:00","lat":49.144304,"lon":16.834023,"is_passed":false},{"stop_id":"U16333Z11","name":"Slavkov u Brna, žel. st.","arrival_time":"6:50:00","departure_time":"6:52:00","lat":49.14495,"lon":16.873475,"is_passed":false},{"stop_id":"U16318Z11","name":"Křižanovice, žel. st.","arrival_time":"6:57:00","departure_time":"6:57:00","lat":49.144986,"lon":16.93419,"is_passed":false},{"stop_id":"U16406Z11","name":"Bučovice, Marefy, žel. st.","arrival_time":"7:01:00","departure_time":"7:01:00","lat":49.14914,"lon":16.972851,"is_passed":false},{"stop_id":"U16463Z51","name":"Bučovice, železniční stanice","arrival_time":"7:04:00","departure_time":"7:05:00","lat":49.145619,"lon":16.999658,"is_passed":false},{"stop_id":"U26501Z2","name":"Nevojice","arrival_time":"7:09:00","departure_time":"7:09:00","lat":49.136847,"lon":17.04775,"is_passed":false},{"stop_id":"U16509Z11","name":"Nesovice, železniční stanice","arrival_time":"7:12:00","departure_time":"7:13:00","lat":49.14916,"lon":17.079897,"is_passed":false},{"stop_id":"U16628Z11","name":"Brankovice, železniční stanice","arrival_time":"7:17:00","departure_time":"7:18:00","lat":49.150361,"lon":17.13375,"is_passed":false},{"stop_id":"U16503Z11","name":"Nemotice, železniční stanice","arrival_time":"7:22:00","departure_time":"7:22:00","lat":49.132992,"lon":17.114242,"is_passed":false},{"stop_id":"U26601Z2","name":"Jestřabice","arrival_time":"7:28:00","departure_time":"7:28:00","lat":49.088889,"lon":17.113333,"is_passed":false},{"stop_id":"U16604Z11","name":"Kyjov, Bohuslavice, železniční stanice","arrival_time":"7:33:00","departure_time":"7:33:00","lat":49.055833,"lon":17.118917,"is_passed":false},{"stop_id":"U16650Z51","name":"Kyjov, železniční stanice","arrival_time":"7:38:00","departure_time":"7:39:00","lat":49.016263,"lon":17.122856,"is_passed":false},{"stop_id":"U26603Z2","name":"Kyjov zastávka","arrival_time":"7:42:00","departure_time":"7:42:00","lat":49.003383,"lon":17.123528,"is_passed":false},{"stop_id":"U26801Z11","name":"Vlkoš","arrival_time":"7:47:00","departure_time":"7:47:00","lat":48.987902,"lon":17.166624,"is_passed":false},{"stop_id":"U26802Z11","name":"Vracov","arrival_time":"7:51:00","departure_time":"7:52:00","lat":48.976674,"lon":17.218698,"is_passed":false},{"stop_id":"U16908Z11","name":"Bzenec, železniční stanice","arrival_time":"7:56:00","departure_time":"7:57:00","lat":48.969173,"lon":17.263183,"is_passed":false},{"stop_id":"U19316Z13","name":"Veselí nad Moravou, železniční stanice","arrival_time":"8:05:00","departure_time":"8:05:00","lat":48.948694,"lon":17.382439,"is_passed":false}]