[{"stop_id":"U1146Z98","name":"Hlavní nádraží","arrival_time":"17:28:00","departure_time":"17:28:00","lat":49.19035,"lon":16.612342,"is_passed":false},{"stop_id":"U16333Z11","name":"Slavkov u Brna, žel. st.","arrival_time":"17:52:00","departure_time":"17:53:00","lat":49.14495,"lon":16.873475,"is_passed":false},{"stop_id":"U16463Z51","name":"Bučovice, železniční stanice","arrival_time":"18:01:00","departure_time":"18:02:00","lat":49.145619,"lon":16.999658,"is_passed":false},{"stop_id":"U16509Z11","name":"Nesovice, železniční stanice","arrival_time":"18:09:00","departure_time":"18:10:00","lat":49.14916,"lon":17.079897,"is_passed":false},{"stop_id":"U16503Z11","name":"Nemotice, železniční stanice","arrival_time":"18:17:00","departure_time":"18:18:00","lat":49.132992,"lon":17.114242,"is_passed":false},{"stop_id":"U16650Z51","name":"Kyjov, železniční stanice","arrival_time":"18:31:00","departure_time":"18:32:00","lat":49.016263,"lon":17.122856,"is_passed":false},{"stop_id":"U26603Z2","name":"Kyjov zastávka","arrival_time":"18:35:00","departure_time":"18:35:00","lat":49.003383,"lon":17.123528,"is_passed":false},{"stop_id":"U26802Z11","name":"Vracov","arrival_time":"18:44:00","departure_time":"18:45:00","lat":48.976674,"lon":17.218698,"is_passed":false},{"stop_id":"U16908Z11","name":"Bzenec, železniční stanice","arrival_time":"18:48:00","departure_time":"18:49:00","lat":48.969173,"lon":17.263183,"is_passed":false},{"stop_id":"U19316Z13","name":"Veselí nad Moravou, železniční stanice","arrival_time":"18:58:00","departure_time":"19:00:00","lat":48.948694,"lon":17.382439,"is_passed":false},{"stop_id":"U29404Z11","name":"Uherský Ostroh","arrival_time":"19:04:00","departure_time":"19:05:00","lat":48.981817,"lon":17.403441,"is_passed":false},{"stop_id":"U30314Z1","name":"Ostrožská Nová Ves","arrival_time":"19:09:00","departure_time":"19:09:00","lat":49.009594,"lon":17.436368,"is_passed":false},{"stop_id":"U31025Z2","name":"Kunovice zastávka","arrival_time":"19:13:00","departure_time":"19:14:00","lat":49.038039,"lon":17.461023,"is_passed":false},{"stop_id":"U31026Z2","name":"Kunovice","arrival_time":"19:17:00","departure_time":"19:20:00","lat":49.051914,"lon":17.470711,"is_passed":false}]