[{"stop_id":"U14242Z20","name":"Zastávka, železniční stanice","arrival_time":"14:51:00","departure_time":"14:51:00","lat":49.187405,"lon":16.358754,"is_passed":false},{"stop_id":"U14234Z10","name":"Rosice, Těstárny","arrival_time":"14:53:00","departure_time":"14:53:00","lat":49.17882,"lon":16.383519,"is_passed":false},{"stop_id":"U14238Z10","name":"Tetčice, žel. st.","arrival_time":"14:55:00","departure_time":"14:56:00","lat":49.1722,"lon":16.40842,"is_passed":false},{"stop_id":"U24102Z1","name":"Omice","arrival_time":"14:59:00","departure_time":"14:59:00","lat":49.161005,"lon":16.446698,"is_passed":false},{"stop_id":"U24101Z1","name":"Střelice","arrival_time":"15:02:00","departure_time":"15:03:00","lat":49.153958,"lon":16.483833,"is_passed":false},{"stop_id":"U14119Z10","name":"Střelice, dolní železniční stanice","arrival_time":"15:05:00","departure_time":"15:06:00","lat":49.156488,"lon":16.506231,"is_passed":false},{"stop_id":"U14110Z10","name":"Troubsko, U dráhy","arrival_time":"15:08:00","departure_time":"15:08:00","lat":49.163994,"lon":16.526611,"is_passed":false},{"stop_id":"U24103Z2","name":"Ostopovice","arrival_time":"15:10:00","departure_time":"15:10:00","lat":49.164923,"lon":16.544112,"is_passed":false},{"stop_id":"U11009Z22","name":"Brno-Starý Lískovec","arrival_time":"15:12:00","departure_time":"15:12:00","lat":49.16217,"lon":16.5711,"is_passed":false},{"stop_id":"U11002Z10","name":"Brno-Horní Heršpice","arrival_time":"15:16:00","departure_time":"15:16:00","lat":49.167404,"lon":16.60686,"is_passed":false},{"stop_id":"U1146Z96","name":"Hlavní nádraží","arrival_time":"15:24:00","departure_time":"15:24:00","lat":49.189976,"lon":16.610222,"is_passed":false}]