[{"stop_id":"U19316Z11","name":"Veselí nad Moravou, železniční stanice","arrival_time":"11:03:00","departure_time":"11:03:00","lat":48.948694,"lon":17.382439,"is_passed":false},{"stop_id":"U29403Z11","name":"Blatnice pod Sv. Antonínkem","arrival_time":"11:07:00","departure_time":"11:07:00","lat":48.941163,"lon":17.437706,"is_passed":false},{"stop_id":"U29402Z11","name":"Lipov","arrival_time":"11:12:00","departure_time":"11:12:00","lat":48.909806,"lon":17.457953,"is_passed":false},{"stop_id":"U29401Z11","name":"Louka u Ostrohu","arrival_time":"11:14:00","departure_time":"11:15:00","lat":48.912234,"lon":17.484226,"is_passed":false},{"stop_id":"U19530Z11","name":"Velká nad Veličkou, železniční stanice","arrival_time":"11:21:00","departure_time":"11:23:00","lat":48.878631,"lon":17.51092,"is_passed":false},{"stop_id":"U29502Z11","name":"Javorník nad Veličkou zastávka","arrival_time":"11:26:00","departure_time":"11:26:00","lat":48.860802,"lon":17.520722,"is_passed":false},{"stop_id":"U29501Z11","name":"Vrbovce","arrival_time":"11:31:00","departure_time":"11:40:00","lat":48.824439,"lon":17.516352,"is_passed":false},{"stop_id":"U29504Z2","name":"Vrbovce zastávka","arrival_time":"11:43:00","departure_time":"11:44:00","lat":48.804784,"lon":17.52869,"is_passed":false},{"stop_id":"U29601Z2","name":"Brestovec","arrival_time":"11:47:00","departure_time":"11:47:00","lat":48.786012,"lon":17.557593,"is_passed":false},{"stop_id":"U29602Z2","name":"Myjava","arrival_time":"11:51:00","departure_time":"12:07:00","lat":48.763641,"lon":17.570897,"is_passed":false}]