[{"stop_id":"U19001Z23","name":"Hodonín, autobusové nádraží","arrival_time":"21:46:00","departure_time":"21:46:00","lat":48.85575,"lon":17.12069,"is_passed":false},{"stop_id":"U29106Z10","name":"Mutěnice","arrival_time":"22:00:00","departure_time":"22:01:00","lat":48.904678,"lon":17.039875,"is_passed":false},{"stop_id":"U29105Z10","name":"Mutěnice zastávka","arrival_time":"22:03:00","departure_time":"22:10:00","lat":48.911986,"lon":17.027008,"is_passed":false},{"stop_id":"U16546Z10","name":"Čejč, železniční stanice","arrival_time":"22:19:00","departure_time":"22:20:00","lat":48.942189,"lon":16.958672,"is_passed":false},{"stop_id":"U16454Z10","name":"Brumovice, železniční stanice","arrival_time":"22:26:00","departure_time":"22:26:00","lat":48.947228,"lon":16.905767,"is_passed":false},{"stop_id":"U25504Z10","name":"Kobylí na Moravě","arrival_time":"22:30:00","departure_time":"22:33:00","lat":48.934022,"lon":16.881272,"is_passed":false}]