[{"stop_id":"U25504Z11","name":"Kobylí na Moravě","arrival_time":"19:35:00","departure_time":"19:35:00","lat":48.934022,"lon":16.881272,"is_passed":false},{"stop_id":"U16454Z11","name":"Brumovice, železniční stanice","arrival_time":"19:38:00","departure_time":"19:38:00","lat":48.947228,"lon":16.905767,"is_passed":false},{"stop_id":"U16546Z11","name":"Čejč, železniční stanice","arrival_time":"19:44:00","departure_time":"19:46:00","lat":48.942189,"lon":16.958672,"is_passed":false},{"stop_id":"U29105Z11","name":"Mutěnice zastávka","arrival_time":"19:55:00","departure_time":"19:57:00","lat":48.911986,"lon":17.027008,"is_passed":false},{"stop_id":"U29106Z11","name":"Mutěnice","arrival_time":"19:59:00","departure_time":"20:03:00","lat":48.904678,"lon":17.039875,"is_passed":false},{"stop_id":"U19001Z22","name":"Hodonín, autobusové nádraží","arrival_time":"20:17:00","departure_time":"20:22:00","lat":48.85575,"lon":17.12069,"is_passed":false}]