[{"stop_id":"U14242Z20","name":"Zastávka, železniční stanice","arrival_time":"6:43:00","departure_time":"6:43:00","lat":49.187405,"lon":16.358754,"is_passed":false},{"stop_id":"U14234Z10","name":"Rosice, Těstárny","arrival_time":"6:45:00","departure_time":"6:46:00","lat":49.17882,"lon":16.383519,"is_passed":false},{"stop_id":"U14238Z10","name":"Tetčice, žel. st.","arrival_time":"6:48:00","departure_time":"6:49:00","lat":49.1722,"lon":16.40842,"is_passed":false},{"stop_id":"U24103Z2","name":"Ostopovice","arrival_time":"6:58:00","departure_time":"6:58:00","lat":49.164923,"lon":16.544112,"is_passed":false},{"stop_id":"U11002Z10","name":"Brno-Horní Heršpice","arrival_time":"7:03:00","departure_time":"7:03:00","lat":49.167404,"lon":16.60686,"is_passed":false},{"stop_id":"U1146Z96","name":"Hlavní nádraží","arrival_time":"7:08:00","departure_time":"7:08:00","lat":49.189976,"lon":16.610222,"is_passed":false}]