[{"stop_id":"U15637Z12","name":"Hrušovany nad Jevišovkou, žel. st.","arrival_time":"7:13:00","departure_time":"7:13:00","lat":48.810029,"lon":16.383137,"is_passed":false},{"stop_id":"U25603Z10","name":"Pravice","arrival_time":"7:18:00","departure_time":"7:18:00","lat":48.848689,"lon":16.370211,"is_passed":false},{"stop_id":"U25507Z10","name":"Břežany","arrival_time":"7:21:00","departure_time":"7:21:00","lat":48.873106,"lon":16.367539,"is_passed":false},{"stop_id":"U25506Z10","name":"Dolenice","arrival_time":"7:26:00","departure_time":"7:26:00","lat":48.9122,"lon":16.367822,"is_passed":false},{"stop_id":"U14555Z10","name":"Miroslav, železniční stanice","arrival_time":"7:29:00","departure_time":"7:30:00","lat":48.93532,"lon":16.362297,"is_passed":false},{"stop_id":"U24501Z10","name":"Bohutice","arrival_time":"7:36:00","departure_time":"7:37:00","lat":48.987956,"lon":16.356025,"is_passed":false},{"stop_id":"U14490Z10","name":"Moravský Krumlov, Rakšice, žel.st.","arrival_time":"7:41:00","departure_time":"7:42:00","lat":49.014428,"lon":16.34527,"is_passed":false},{"stop_id":"U14479Z10","name":"Moravský Krumlov, železniční stanice","arrival_time":"7:47:00","departure_time":"7:48:00","lat":49.046389,"lon":16.338056,"is_passed":false},{"stop_id":"U14350Z10","name":"Moravské Bránice, žel. st.","arrival_time":"7:58:00","departure_time":"7:59:00","lat":49.084611,"lon":16.428333,"is_passed":false},{"stop_id":"U24203Z1","name":"Silůvky","arrival_time":"8:04:00","departure_time":"8:05:00","lat":49.108611,"lon":16.462778,"is_passed":false},{"stop_id":"U14119Z10","name":"Střelice, dolní železniční stanice","arrival_time":"8:14:00","departure_time":"8:15:00","lat":49.156488,"lon":16.506231,"is_passed":false},{"stop_id":"U11002Z10","name":"Brno-Horní Heršpice","arrival_time":"8:23:00","departure_time":"8:23:00","lat":49.167404,"lon":16.60686,"is_passed":false},{"stop_id":"U1146Z96","name":"Hlavní nádraží","arrival_time":"8:27:00","departure_time":"8:27:00","lat":49.189976,"lon":16.610222,"is_passed":false}]