[{"stop_id":"U12536Z1","name":"Kozárov","arrival_time":"9:42:00","departure_time":"9:42:00","lat":49.443447,"lon":16.458255,"is_passed":false},{"stop_id":"U12457Z2","name":"Rašov, rozc. 1.0","arrival_time":"9:43:00","departure_time":"9:43:00","lat":49.439382,"lon":16.467598,"is_passed":false},{"stop_id":"U12537Z1","name":"Kunčina Ves","arrival_time":"9:45:00","departure_time":"9:45:00","lat":49.447555,"lon":16.476263,"is_passed":false},{"stop_id":"U12531Z1","name":"Štěchov","arrival_time":"9:49:00","departure_time":"9:49:00","lat":49.452001,"lon":16.506835,"is_passed":false},{"stop_id":"U12528Z1","name":"Lysice, Štěchovská","arrival_time":"9:52:00","departure_time":"9:52:00","lat":49.451057,"lon":16.527132,"is_passed":false},{"stop_id":"U12524Z2","name":"Lysice, pohostinství","arrival_time":"9:54:00","departure_time":"10:06:00","lat":49.452327,"lon":16.537945,"is_passed":false},{"stop_id":"U12529Z1","name":"Lysice, výzkum","arrival_time":"10:08:00","departure_time":"10:08:00","lat":49.456417,"lon":16.556818,"is_passed":false},{"stop_id":"U12666Z1","name":"Krhov, Pohodlí","arrival_time":"10:11:00","departure_time":"10:11:00","lat":49.462407,"lon":16.575283,"is_passed":false},{"stop_id":"U12686Z1","name":"Voděrady, nám.","arrival_time":"10:15:00","departure_time":"10:15:00","lat":49.480877,"lon":16.56021,"is_passed":false},{"stop_id":"U12665Z1","name":"Krhov","arrival_time":"10:20:00","departure_time":"10:20:00","lat":49.463333,"lon":16.58325,"is_passed":false},{"stop_id":"U12667Z1","name":"Krhov, rozc. 1.0","arrival_time":"10:22:00","departure_time":"10:22:00","lat":49.468313,"lon":16.584207,"is_passed":false},{"stop_id":"U12663Z1","name":"Jabloňany, rozc.","arrival_time":"10:23:00","departure_time":"10:23:00","lat":49.474687,"lon":16.594285,"is_passed":false},{"stop_id":"U12676Z1","name":"Skalice nad Svitavou, žel.st.","arrival_time":"10:26:00","departure_time":"10:34:00","lat":49.480276,"lon":16.609048,"is_passed":false},{"stop_id":"U12648Z1","name":"Boskovice, Mladkov","arrival_time":"10:37:00","departure_time":"10:37:00","lat":49.490525,"lon":16.619477,"is_passed":false},{"stop_id":"U12650Z1","name":"Boskovice, nemocnice","arrival_time":"10:40:00","departure_time":"10:40:00","lat":49.491627,"lon":16.644028,"is_passed":false},{"stop_id":"U12635Z30","name":"Boskovice, aut.st.","arrival_time":"10:42:00","departure_time":"10:42:00","lat":49.49169,"lon":16.653337,"is_passed":false},{"stop_id":"U12633Z31","name":"Boskovice, 17. listopadu","arrival_time":"10:45:00","departure_time":"11:11:00","lat":49.488891,"lon":16.661476,"is_passed":false}]