[{"stop_id":"U13115Z4","name":"Jinačovice","arrival_time":"19:05:00","departure_time":"19:05:00","lat":49.267766,"lon":16.527544,"is_passed":false},{"stop_id":"U13114Z2","name":"Jinačovice, Chaloupky","arrival_time":"19:06:00","departure_time":"19:06:00","lat":49.264438,"lon":16.527233,"is_passed":false},{"stop_id":"U1689Z2","name":"U Luhu","arrival_time":"19:09:00","departure_time":"19:09:00","lat":49.239053,"lon":16.530136,"is_passed":false},{"stop_id":"U1690Z2","name":"U památníku","arrival_time":"19:10:00","departure_time":"19:10:00","lat":49.235964,"lon":16.527962,"is_passed":false},{"stop_id":"U1494Z2","name":"Pod Mniší horou","arrival_time":"19:12:00","departure_time":"19:12:00","lat":49.227995,"lon":16.533868,"is_passed":false},{"stop_id":"U1796Z5","name":"Zoologická zahrada","arrival_time":"19:16:00","departure_time":"19:17:00","lat":49.227735,"lon":16.531369,"is_passed":false}]