[{"stop_id":"U1429Z6","name":"Nemocnice Bohunice","arrival_time":"6:47:00","departure_time":"6:47:00","lat":49.175872,"lon":16.566969,"is_passed":false},{"stop_id":"U14215Z1","name":"Ostrovačice, náměstí Viléma Mrštíka","arrival_time":"7:00:00","departure_time":"7:00:00","lat":49.210578,"lon":16.40984,"is_passed":false},{"stop_id":"U14217Z1","name":"Říčany","arrival_time":"7:03:00","departure_time":"7:03:00","lat":49.21488,"lon":16.394307,"is_passed":false},{"stop_id":"U14219Z1","name":"Říčky","arrival_time":"7:07:00","departure_time":"7:07:00","lat":49.23318,"lon":16.356038,"is_passed":false},{"stop_id":"U14303Z1","name":"Domašov, Nový konec","arrival_time":"7:09:00","departure_time":"7:09:00","lat":49.24051,"lon":16.347567,"is_passed":false},{"stop_id":"U14301Z1","name":"Domašov","arrival_time":"7:11:00","departure_time":"7:11:00","lat":49.245377,"lon":16.343687,"is_passed":false},{"stop_id":"U14302Z1","name":"Domašov, cestmistrovství","arrival_time":"7:13:00","departure_time":"7:13:00","lat":49.25722,"lon":16.312128,"is_passed":false},{"stop_id":"U14311Z1","name":"Zálesná Zhoř, rozcestí","arrival_time":"7:14:00","departure_time":"7:14:00","lat":49.262033,"lon":16.301082,"is_passed":false},{"stop_id":"U14306Z1","name":"Lesní Hluboké","arrival_time":"7:17:00","departure_time":"7:17:00","lat":49.268358,"lon":16.310195,"is_passed":false},{"stop_id":"U14307Z1","name":"Lesní Hluboké, motel 9 křížů","arrival_time":"7:19:00","departure_time":"7:19:00","lat":49.267502,"lon":16.296427,"is_passed":false},{"stop_id":"U14404Z1","name":"Přibyslavice, motorest 9 křížů","arrival_time":"7:20:00","departure_time":"7:20:00","lat":49.271665,"lon":16.280943,"is_passed":false},{"stop_id":"U14403Z1","name":"Přibyslavice","arrival_time":"7:22:00","departure_time":"7:22:00","lat":49.27874,"lon":16.259757,"is_passed":false},{"stop_id":"U14410Z1","name":"Velká Bíteš, cihelna","arrival_time":"7:23:00","departure_time":"7:23:00","lat":49.28448,"lon":16.241968,"is_passed":false},{"stop_id":"U14412Z10","name":"Velká Bíteš, náměstí","arrival_time":"7:26:00","departure_time":"7:38:00","lat":49.288278,"lon":16.227354,"is_passed":false}]