[{"stop_id":"U13511Z2","name":"Borovník","arrival_time":"10:47:00","departure_time":"10:47:00","lat":49.355849,"lon":16.229482,"is_passed":false},{"stop_id":"U13513Z2","name":"Rozseč","arrival_time":"10:49:00","departure_time":"10:49:00","lat":49.36009,"lon":16.221983,"is_passed":false},{"stop_id":"U13515Z1","name":"Vidonín, rozcestí","arrival_time":"10:52:00","departure_time":"10:52:00","lat":49.375642,"lon":16.220187,"is_passed":false},{"stop_id":"U13521Z2","name":"Rojetín","arrival_time":"10:58:00","departure_time":"10:58:00","lat":49.367423,"lon":16.257195,"is_passed":false},{"stop_id":"U13512Z2","name":"Rojetín, rozcestí","arrival_time":"10:59:00","departure_time":"10:59:00","lat":49.370422,"lon":16.254615,"is_passed":false},{"stop_id":"U13518Z2","name":"Žďárec, u kostela","arrival_time":"11:02:00","departure_time":"11:02:00","lat":49.376253,"lon":16.264473,"is_passed":false},{"stop_id":"U13517Z2","name":"Žďárec, náměstí","arrival_time":"11:04:00","departure_time":"11:04:00","lat":49.379542,"lon":16.267252,"is_passed":false},{"stop_id":"U13443Z2","name":"Žďárec, Ostrov","arrival_time":"11:06:00","departure_time":"11:06:00","lat":49.374198,"lon":16.279568,"is_passed":false},{"stop_id":"U13425Z2","name":"Řikonín, železniční stanice","arrival_time":"11:10:00","departure_time":"12:45:00","lat":49.365493,"lon":16.30887,"is_passed":false}]