[{"stop_id":"U14412Z2","name":"Velká Bíteš, náměstí","arrival_time":"19:38:00","departure_time":"19:38:00","lat":49.288453,"lon":16.227188,"is_passed":false},{"stop_id":"U14410Z2","name":"Velká Bíteš, cihelna","arrival_time":"19:40:00","departure_time":"19:40:00","lat":49.284448,"lon":16.241852,"is_passed":false},{"stop_id":"U14403Z2","name":"Přibyslavice","arrival_time":"19:42:00","departure_time":"19:42:00","lat":49.278468,"lon":16.260348,"is_passed":false},{"stop_id":"U14404Z2","name":"Přibyslavice, motorest 9 křížů","arrival_time":"19:44:00","departure_time":"19:44:00","lat":49.271475,"lon":16.281373,"is_passed":false},{"stop_id":"U14307Z2","name":"Lesní Hluboké, motel 9 křížů","arrival_time":"19:45:00","departure_time":"19:45:00","lat":49.265802,"lon":16.296657,"is_passed":false},{"stop_id":"U14311Z2","name":"Zálesná Zhoř, rozcestí","arrival_time":"19:46:00","departure_time":"19:46:00","lat":49.261788,"lon":16.301592,"is_passed":false},{"stop_id":"U14302Z2","name":"Domašov, cestmistrovství","arrival_time":"19:47:00","departure_time":"19:47:00","lat":49.257245,"lon":16.311853,"is_passed":false},{"stop_id":"U14301Z2","name":"Domašov","arrival_time":"19:50:00","departure_time":"19:50:00","lat":49.245362,"lon":16.343588,"is_passed":false},{"stop_id":"U14303Z2","name":"Domašov, Nový konec","arrival_time":"19:51:00","departure_time":"19:51:00","lat":49.240153,"lon":16.347798,"is_passed":false},{"stop_id":"U14219Z2","name":"Říčky","arrival_time":"19:53:00","departure_time":"19:53:00","lat":49.231828,"lon":16.357412,"is_passed":false},{"stop_id":"U14217Z2","name":"Říčany","arrival_time":"19:58:00","departure_time":"19:58:00","lat":49.214683,"lon":16.395327,"is_passed":false},{"stop_id":"U14244Z2","name":"Ostrovačice, Říčanská","arrival_time":"19:59:00","departure_time":"19:59:00","lat":49.212743,"lon":16.406495,"is_passed":false},{"stop_id":"U14215Z2","name":"Ostrovačice, náměstí Viléma Mrštíka","arrival_time":"20:00:00","departure_time":"20:00:00","lat":49.210782,"lon":16.409187,"is_passed":false},{"stop_id":"U1429Z6","name":"Nemocnice Bohunice","arrival_time":"20:13:00","departure_time":"20:42:00","lat":49.175872,"lon":16.566969,"is_passed":false}]