[{"stop_id":"U18306Z1","name":"Višňové, náměstí","arrival_time":"11:22:00","departure_time":"11:22:00","lat":48.982684,"lon":16.1501,"is_passed":false},{"stop_id":"U18304Z2","name":"Trstěnice","arrival_time":"11:29:00","departure_time":"11:29:00","lat":48.98693,"lon":16.194828,"is_passed":false},{"stop_id":"U14531Z1","name":"Džbánice","arrival_time":"11:32:00","departure_time":"11:32:00","lat":49.00157,"lon":16.208232,"is_passed":false},{"stop_id":"U14539Z2","name":"Vémyslice, u kostela","arrival_time":"11:39:00","departure_time":"11:39:00","lat":49.022508,"lon":16.253893,"is_passed":false},{"stop_id":"U14540Z2","name":"Vémyslice, váha","arrival_time":"11:40:00","departure_time":"11:40:00","lat":49.01865,"lon":16.263217,"is_passed":false},{"stop_id":"U14528Z2","name":"Dobelice, Krumlovská","arrival_time":"11:43:00","departure_time":"11:43:00","lat":49.017307,"lon":16.278638,"is_passed":false},{"stop_id":"U14495Z2","name":"Rybníky","arrival_time":"11:45:00","departure_time":"11:45:00","lat":49.025433,"lon":16.28111,"is_passed":false},{"stop_id":"U14483Z2","name":"Moravský Krumlov, Na Kačence","arrival_time":"11:48:00","departure_time":"11:48:00","lat":49.033102,"lon":16.303372,"is_passed":false},{"stop_id":"U14470Z2","name":"Moravský Krumlov, Jatky","arrival_time":"11:49:00","departure_time":"11:49:00","lat":49.038392,"lon":16.308949,"is_passed":false},{"stop_id":"U14467Z2","name":"Moravský Krumlov, Břízová","arrival_time":"11:50:00","departure_time":"11:50:00","lat":49.041368,"lon":16.307078,"is_passed":false},{"stop_id":"U14473Z2","name":"Moravský Krumlov, poliklinika","arrival_time":"11:51:00","departure_time":"11:51:00","lat":49.043683,"lon":16.305472,"is_passed":false},{"stop_id":"U14472Z21","name":"Moravský Krumlov, náměstí","arrival_time":"11:54:00","departure_time":"11:54:00","lat":49.048618,"lon":16.31303,"is_passed":false},{"stop_id":"U14499Z51","name":"Moravský Krumlov, autobusové nádraží","arrival_time":"11:56:00","departure_time":"13:56:00","lat":49.048181,"lon":16.309497,"is_passed":false}]