[{"stop_id":"U15203Z4","name":"Ledce, obecní úřad","arrival_time":"5:42:00","departure_time":"5:42:00","lat":49.052175,"lon":16.555735,"is_passed":false},{"stop_id":"U15208Z4","name":"Sobotovice","arrival_time":"5:44:00","departure_time":"5:44:00","lat":49.059145,"lon":16.558115,"is_passed":false},{"stop_id":"U15209Z2","name":"Sobotovice, transformátor","arrival_time":"5:46:00","departure_time":"5:46:00","lat":49.061625,"lon":16.552708,"is_passed":false},{"stop_id":"U15212Z2","name":"Syrovice, Sobotovická","arrival_time":"5:49:00","departure_time":"5:49:00","lat":49.077625,"lon":16.545298,"is_passed":false},{"stop_id":"U15210Z2","name":"Syrovice","arrival_time":"5:50:00","departure_time":"5:50:00","lat":49.08029,"lon":16.548905,"is_passed":false},{"stop_id":"U15182Z2","name":"Rajhrad, GEIS","arrival_time":"5:52:00","departure_time":"5:52:00","lat":49.085595,"lon":16.583357,"is_passed":false},{"stop_id":"U15166Z2","name":"Rajhrad, stará pošta","arrival_time":"5:53:00","departure_time":"5:53:00","lat":49.087794,"lon":16.591688,"is_passed":false},{"stop_id":"U15181Z7","name":"Rajhrad, železniční stanice","arrival_time":"5:58:00","departure_time":"6:00:00","lat":49.084495,"lon":16.605152,"is_passed":false},{"stop_id":"U15168Z2","name":"Rajhrad, městský úřad","arrival_time":"6:01:00","departure_time":"6:01:00","lat":49.089963,"lon":16.60397,"is_passed":false},{"stop_id":"U15122Z4","name":"Modřice, Brněnská","arrival_time":"6:07:00","departure_time":"6:07:00","lat":49.130132,"lon":16.604936,"is_passed":false},{"stop_id":"U1393Z4","name":"Moravanská","arrival_time":"6:09:00","departure_time":"6:09:00","lat":49.142614,"lon":16.603006,"is_passed":false},{"stop_id":"U1396Z4","name":"Moravanské lány","arrival_time":"6:10:00","departure_time":"6:10:00","lat":49.149305,"lon":16.601813,"is_passed":false},{"stop_id":"U1466Z4","name":"Ořechovská","arrival_time":"6:12:00","departure_time":"6:12:00","lat":49.156124,"lon":16.600676,"is_passed":false},{"stop_id":"U1703Z5","name":"Ústřední hřbitov","arrival_time":"6:17:00","departure_time":"6:43:00","lat":49.171604,"lon":16.597316,"is_passed":false}]