[{"stop_id":"U16449Z2","name":"Žarošice","arrival_time":"15:42:00","departure_time":"15:42:00","lat":49.040472,"lon":16.966415,"is_passed":false},{"stop_id":"U16448Z2","name":"Žarošice, škola","arrival_time":"15:43:00","departure_time":"15:43:00","lat":49.039435,"lon":16.9616,"is_passed":false},{"stop_id":"U16444Z2","name":"Žarošice, Silničná, rozcestí Uhřice","arrival_time":"15:46:00","departure_time":"15:46:00","lat":49.051834,"lon":16.95308,"is_passed":false},{"stop_id":"U16446Z2","name":"Žarošice, Zdravá Voda","arrival_time":"15:49:00","departure_time":"15:49:00","lat":49.065466,"lon":16.945145,"is_passed":false},{"stop_id":"U16445Z2","name":"Žarošice, Těšanka","arrival_time":"15:51:00","departure_time":"15:51:00","lat":49.079165,"lon":16.936537,"is_passed":false},{"stop_id":"U16336Z2","name":"Heršpice, Bílý Vlk","arrival_time":"15:53:00","departure_time":"15:53:00","lat":49.095822,"lon":16.90958,"is_passed":false},{"stop_id":"U16337Z2","name":"Nížkovice, rozcestí","arrival_time":"15:56:00","departure_time":"15:56:00","lat":49.11172,"lon":16.896114,"is_passed":false},{"stop_id":"U16332Z2","name":"Slavkov u Brna, rozcestí k žel. st.","arrival_time":"15:59:00","departure_time":"15:59:00","lat":49.14503,"lon":16.877933,"is_passed":false},{"stop_id":"U16328Z2","name":"Slavkov u Brna, aut. st.","arrival_time":"16:02:00","departure_time":"16:02:00","lat":49.149057,"lon":16.876562,"is_passed":false},{"stop_id":"U16334Z2","name":"Velešovice, rozc.","arrival_time":"16:08:00","departure_time":"16:08:00","lat":49.167572,"lon":16.84187,"is_passed":false},{"stop_id":"U16206Z2","name":"Holubice, nadjezd","arrival_time":"16:10:00","departure_time":"16:10:00","lat":49.178267,"lon":16.819095,"is_passed":false},{"stop_id":"U1677Z2","name":"Tržní","arrival_time":"16:23:00","departure_time":"16:23:00","lat":49.189407,"lon":16.629972,"is_passed":false},{"stop_id":"U1696Z6","name":"ÚAN Zvonařka","arrival_time":"16:27:00","departure_time":"17:12:00","lat":49.185364,"lon":16.616151,"is_passed":false}]