[{"stop_id":"U14345Z2","name":"Jezeřany-Maršovice, točna","arrival_time":"9:55:00","departure_time":"9:55:00","lat":49.036278,"lon":16.427863,"is_passed":false},{"stop_id":"U14344Z2","name":"Jezeřany-Maršovice, škola","arrival_time":"9:56:00","departure_time":"9:56:00","lat":49.033568,"lon":16.431603,"is_passed":false},{"stop_id":"U14343Z2","name":"Jezeřany-Maršovice, Jezeřany","arrival_time":"9:58:00","departure_time":"9:58:00","lat":49.029257,"lon":16.436803,"is_passed":false},{"stop_id":"U14358Z2","name":"Trboušany, rozc.","arrival_time":"10:02:00","departure_time":"10:02:00","lat":49.044861,"lon":16.471379,"is_passed":false},{"stop_id":"U14355Z2","name":"Pravlov, kulturní dům","arrival_time":"10:04:00","departure_time":"10:04:00","lat":49.054267,"lon":16.480336,"is_passed":false},{"stop_id":"U14354Z2","name":"Pravlov","arrival_time":"10:06:00","departure_time":"10:06:00","lat":49.054483,"lon":16.486867,"is_passed":false},{"stop_id":"U15207Z2","name":"Němčičky","arrival_time":"10:08:00","departure_time":"10:08:00","lat":49.050564,"lon":16.501069,"is_passed":false},{"stop_id":"U15202Z2","name":"Bratčice, pískovna","arrival_time":"10:10:00","departure_time":"10:10:00","lat":49.059722,"lon":16.517698,"is_passed":false},{"stop_id":"U15201Z2","name":"Bratčice","arrival_time":"10:12:00","departure_time":"10:12:00","lat":49.0656,"lon":16.522952,"is_passed":false},{"stop_id":"U15243Z2","name":"Syrovice, Chocholáč","arrival_time":"10:14:00","departure_time":"10:14:00","lat":49.075586,"lon":16.541475,"is_passed":false},{"stop_id":"U15210Z2","name":"Syrovice","arrival_time":"10:15:00","departure_time":"10:15:00","lat":49.08029,"lon":16.548905,"is_passed":false},{"stop_id":"U15182Z2","name":"Rajhrad, GEIS","arrival_time":"10:17:00","departure_time":"10:17:00","lat":49.085595,"lon":16.583357,"is_passed":false},{"stop_id":"U15166Z2","name":"Rajhrad, stará pošta","arrival_time":"10:18:00","departure_time":"10:18:00","lat":49.087794,"lon":16.591688,"is_passed":false},{"stop_id":"U15134Z1","name":"Modřice, smyčka","arrival_time":"10:26:00","departure_time":"10:26:00","lat":49.127138,"lon":16.604706,"is_passed":false},{"stop_id":"U15122Z2","name":"Modřice, Brněnská","arrival_time":"10:26:00","departure_time":"10:26:00","lat":49.129392,"lon":16.604987,"is_passed":false},{"stop_id":"U15140Z1","name":"Modřice, železniční stanice","arrival_time":"10:28:00","departure_time":"11:30:00","lat":49.134137,"lon":16.606734,"is_passed":false}]