[{"stop_id":"U14507Z52","name":"Náměšť nad Oslavou, autobusové nádraží","arrival_time":"17:07:00","departure_time":"17:07:00","lat":49.207007,"lon":16.14766,"is_passed":false},{"stop_id":"U24401Z1","name":"Kralice nad Oslavou","arrival_time":"17:13:00","departure_time":"17:19:00","lat":49.192471,"lon":16.203748,"is_passed":false},{"stop_id":"U14435Z10","name":"Rapotice, železniční stanice","arrival_time":"17:24:00","departure_time":"17:28:00","lat":49.184028,"lon":16.256111,"is_passed":false},{"stop_id":"U24301Z1","name":"Vysoké Popovice","arrival_time":"17:31:00","departure_time":"17:32:00","lat":49.178333,"lon":16.291111,"is_passed":false},{"stop_id":"U14242Z20","name":"Zastávka, železniční stanice","arrival_time":"17:38:00","departure_time":"18:17:00","lat":49.187405,"lon":16.358754,"is_passed":false}]