[{"stop_id":"U15901Z2","name":"Falkenstein im Weinviertel, Marktplatz","arrival_time":"18:15:00","departure_time":"18:15:00","lat":48.720269,"lon":16.585181,"is_passed":false},{"stop_id":"U15902Z2","name":"Poysbrunn, Hauptstraße 25","arrival_time":"18:19:00","departure_time":"18:19:00","lat":48.719276,"lon":16.627493,"is_passed":false},{"stop_id":"U15903Z2","name":"Poysdorf, Dreifaltigkeitsplatz","arrival_time":"18:29:00","departure_time":"18:29:00","lat":48.668266,"lon":16.629496,"is_passed":false},{"stop_id":"U15916Z1","name":"Herrnbaumgarten, Ortsmitte","arrival_time":"18:35:00","departure_time":"18:35:00","lat":48.696501,"lon":16.681574,"is_passed":false},{"stop_id":"U15918Z2","name":"Herrnbaumgarten, Sportplatz","arrival_time":"18:37:00","departure_time":"18:37:00","lat":48.698105,"lon":16.688795,"is_passed":false},{"stop_id":"U15917Z1","name":"Schrattenberg, Kirchenplatz","arrival_time":"18:42:00","departure_time":"18:42:00","lat":48.723694,"lon":16.722837,"is_passed":false},{"stop_id":"U15803Z4","name":"Valtice, celnice","arrival_time":"18:46:00","departure_time":"18:46:00","lat":48.738666,"lon":16.733733,"is_passed":false},{"stop_id":"U15801Z5","name":"Valtice, aut. st.","arrival_time":"18:48:00","departure_time":"18:48:00","lat":48.742822,"lon":16.755605,"is_passed":false},{"stop_id":"U15828Z2","name":"Valtice, železniční zastávka","arrival_time":"18:50:00","departure_time":"18:50:00","lat":48.748531,"lon":16.762619,"is_passed":false},{"stop_id":"U15806Z2","name":"Valtice, hřbitov","arrival_time":"18:51:00","departure_time":"18:51:00","lat":48.75223,"lon":16.765532,"is_passed":false},{"stop_id":"U15727Z2","name":"Lednice, Valtická","arrival_time":"18:55:00","departure_time":"18:55:00","lat":48.794952,"lon":16.79953,"is_passed":false},{"stop_id":"U15722Z2","name":"Lednice, náměstí","arrival_time":"18:58:00","departure_time":"19:00:00","lat":48.800021,"lon":16.804114,"is_passed":false},{"stop_id":"U15615Z2","name":"Podivín, Fruta","arrival_time":"19:06:00","departure_time":"19:06:00","lat":48.823566,"lon":16.846775,"is_passed":false},{"stop_id":"U15614Z2","name":"Podivín, Besední dům","arrival_time":"19:07:00","departure_time":"19:07:00","lat":48.829849,"lon":16.847884,"is_passed":false},{"stop_id":"U15619Z51","name":"Podivín, železniční stanice","arrival_time":"19:09:00","departure_time":"19:13:00","lat":48.837042,"lon":16.85348,"is_passed":false}]