[{"stop_id":"U17423Z14","name":"Vyškov, Autobusové nádraží","arrival_time":"0:01:00","departure_time":"0:01:00","lat":49.275861,"lon":16.991589,"is_passed":false},{"stop_id":"U17429Z2","name":"Vyškov, garáže ČSAD","arrival_time":"0:03:00","departure_time":"0:03:00","lat":49.270982,"lon":16.988643,"is_passed":false},{"stop_id":"U17435Z2","name":"Vyškov, Nouzka","arrival_time":"0:04:00","departure_time":"0:04:00","lat":49.266834,"lon":16.980944,"is_passed":false},{"stop_id":"U17428Z2","name":"Vyškov, Drnovská Bioveta","arrival_time":"0:06:00","departure_time":"0:06:00","lat":49.25374,"lon":16.95539,"is_passed":false},{"stop_id":"U17328Z2","name":"Luleč, rozcestí","arrival_time":"0:08:00","departure_time":"0:08:00","lat":49.246772,"lon":16.941783,"is_passed":false},{"stop_id":"U17344Z2","name":"Tučapy, rozcestí","arrival_time":"0:10:00","departure_time":"0:10:00","lat":49.227053,"lon":16.915262,"is_passed":false},{"stop_id":"U17311Z4","name":"Komořany, EDP","arrival_time":"0:12:00","departure_time":"0:12:00","lat":49.219687,"lon":16.904328,"is_passed":false},{"stop_id":"U17331Z2","name":"Rousínov, Čechyně, rozcestí","arrival_time":"0:15:00","departure_time":"0:15:00","lat":49.207575,"lon":16.892772,"is_passed":false},{"stop_id":"U17335Z4","name":"Rousínov, autobusová stanice","arrival_time":"0:17:00","departure_time":"0:17:00","lat":49.203115,"lon":16.885139,"is_passed":false}]