[{"stop_id":"U16149Z1","name":"Sokolnice, železniční stanice","arrival_time":"6:26:00","departure_time":"6:26:00","lat":49.108328,"lon":16.73367,"is_passed":false},{"stop_id":"U16157Z1","name":"Újezd u Brna, Revoluční","arrival_time":"6:28:00","departure_time":"6:28:00","lat":49.106258,"lon":16.749987,"is_passed":false},{"stop_id":"U16156Z1","name":"Újezd u Brna, městský úřad","arrival_time":"6:30:00","departure_time":"6:30:00","lat":49.104578,"lon":16.757317,"is_passed":false},{"stop_id":"U16144Z1","name":"Újezd u Brna, penzion","arrival_time":"6:32:00","departure_time":"6:32:00","lat":49.106932,"lon":16.766288,"is_passed":false},{"stop_id":"U16103Z1","name":"Hostěrádky-Rešov","arrival_time":"6:35:00","departure_time":"6:35:00","lat":49.117268,"lon":16.785517,"is_passed":false},{"stop_id":"U16222Z1","name":"Šaratice","arrival_time":"6:37:00","departure_time":"6:37:00","lat":49.11691,"lon":16.802618,"is_passed":false},{"stop_id":"U16216Z1","name":"Milešovice, sídliště","arrival_time":"6:44:00","departure_time":"6:44:00","lat":49.08962,"lon":16.84996,"is_passed":false},{"stop_id":"U16220Z1","name":"Otnice, Milešovská","arrival_time":"6:49:00","departure_time":"6:49:00","lat":49.088658,"lon":16.821212,"is_passed":false},{"stop_id":"U16219Z4","name":"Otnice, host. U Marků","arrival_time":"6:50:00","departure_time":"6:50:00","lat":49.087494,"lon":16.813644,"is_passed":false}]