[{"stop_id":"U27503Z1","name":"Nezamyslice","arrival_time":"6:39:00","departure_time":"6:39:00","lat":49.336,"lon":17.1625,"is_passed":false},{"stop_id":"U17514Z20","name":"Ivanovice na Hané, aut. st.","arrival_time":"6:45:00","departure_time":"6:49:00","lat":49.306111,"lon":17.086945,"is_passed":false},{"stop_id":"U17446Z10","name":"Vyškov, železniční stanice","arrival_time":"6:57:00","departure_time":"7:00:00","lat":49.277222,"lon":16.990833,"is_passed":false},{"stop_id":"U17342Z10","name":"Rousínov, žel. st.","arrival_time":"7:11:00","departure_time":"7:12:00","lat":49.196667,"lon":16.867139,"is_passed":false},{"stop_id":"U16212Z10","name":"Křenovice, hor. žel. st.","arrival_time":"7:19:00","departure_time":"7:20:00","lat":49.143553,"lon":16.824564,"is_passed":false},{"stop_id":"U26101Z1","name":"Újezd u Brna","arrival_time":"7:26:00","departure_time":"7:27:00","lat":49.107297,"lon":16.745564,"is_passed":false},{"stop_id":"U1183Z10","name":"Chrlice, nádraží","arrival_time":"7:34:00","departure_time":"7:34:00","lat":49.132031,"lon":16.657232,"is_passed":false},{"stop_id":"U1146Z99","name":"Hlavní nádraží","arrival_time":"7:43:00","departure_time":"7:43:00","lat":49.19035,"lon":16.612342,"is_passed":false}]