[{"stop_id":"U16790Z2","name":"Střílky, náměstí","arrival_time":"12:16:00","departure_time":"12:16:00","lat":49.145214,"lon":17.214831,"is_passed":false},{"stop_id":"U16633Z2","name":"Kožušice","arrival_time":"12:22:00","departure_time":"12:22:00","lat":49.157687,"lon":17.18727,"is_passed":false},{"stop_id":"U16634Z2","name":"Malínky","arrival_time":"12:26:00","departure_time":"12:26:00","lat":49.159158,"lon":17.161372,"is_passed":false},{"stop_id":"U16625Z2","name":"Brankovice, křižovatka","arrival_time":"12:28:00","departure_time":"12:28:00","lat":49.153328,"lon":17.135862,"is_passed":false},{"stop_id":"U16628Z3","name":"Brankovice, železniční stanice","arrival_time":"12:31:00","departure_time":"12:31:00","lat":49.150708,"lon":17.133665,"is_passed":false},{"stop_id":"U16630Z2","name":"Dobročkovice, rozcestí","arrival_time":"12:35:00","departure_time":"12:35:00","lat":49.150134,"lon":17.121907,"is_passed":false},{"stop_id":"U16631Z1","name":"Dobročkovice","arrival_time":"12:38:00","departure_time":"12:38:00","lat":49.16243,"lon":17.10881,"is_passed":false},{"stop_id":"U16509Z3","name":"Nesovice, železniční stanice","arrival_time":"12:44:00","departure_time":"12:44:00","lat":49.149095,"lon":17.079312,"is_passed":false}]