{"136":[{"stop_id":"U1696Z5","name":"ÚAN Zvonařka","arrival_time":"16:24:00","departure_time":"16:24:00","lat":49.185364,"lon":16.616151,"is_passed":false},{"stop_id":"U1677Z3","name":"Tržní","arrival_time":"16:28:00","departure_time":"16:28:00","lat":49.189342,"lon":16.630314,"is_passed":false},{"stop_id":"U17335Z2","name":"Rousínov, autobusová stanice","arrival_time":"16:48:00","departure_time":"16:49:00","lat":49.20291,"lon":16.88497,"is_passed":false},{"stop_id":"U17331Z1","name":"Rousínov, Čechyně, rozcestí","arrival_time":"16:51:00","departure_time":"16:51:00","lat":49.207062,"lon":16.891572,"is_passed":false},{"stop_id":"U17311Z3","name":"Komořany, EDP","arrival_time":"16:54:00","departure_time":"16:54:00","lat":49.220008,"lon":16.905058,"is_passed":false},{"stop_id":"U17344Z1","name":"Tučapy, rozcestí","arrival_time":"16:56:00","departure_time":"16:56:00","lat":49.227308,"lon":16.915917,"is_passed":false},{"stop_id":"U17328Z1","name":"Luleč, rozcestí","arrival_time":"16:58:00","departure_time":"16:58:00","lat":49.248113,"lon":16.944733,"is_passed":false},{"stop_id":"U17428Z1","name":"Vyškov, Drnovská Bioveta","arrival_time":"17:00:00","departure_time":"17:00:00","lat":49.254302,"lon":16.95682,"is_passed":false},{"stop_id":"U17435Z1","name":"Vyškov, Nouzka","arrival_time":"17:03:00","departure_time":"17:03:00","lat":49.267372,"lon":16.982268,"is_passed":false},{"stop_id":"U17429Z1","name":"Vyškov, garáže ČSAD","arrival_time":"17:04:00","departure_time":"17:04:00","lat":49.271332,"lon":16.989108,"is_passed":false},{"stop_id":"U17423Z21","name":"Vyškov, Autobusové nádraží","arrival_time":"17:06:00","departure_time":"17:06:00","lat":49.275819,"lon":16.992078,"is_passed":false}],"1360":[{"stop_id":"U31027Z1","name":"Uherské Hradiště","arrival_time":"17:35:00","departure_time":"17:35:00","lat":49.066881,"lon":17.457171,"is_passed":false},{"stop_id":"U31025Z1","name":"Kunovice zastávka","arrival_time":"17:39:00","departure_time":"17:39:00","lat":49.038454,"lon":17.46113,"is_passed":false},{"stop_id":"U31103Z2","name":"Ostrožská Nová Ves lázně","arrival_time":"17:42:00","departure_time":"17:42:00","lat":49.018181,"lon":17.446255,"is_passed":false},{"stop_id":"U30314Z2","name":"Ostrožská Nová Ves","arrival_time":"17:44:00","departure_time":"17:45:00","lat":49.009975,"lon":17.436797,"is_passed":false},{"stop_id":"U29404Z10","name":"Uherský Ostroh","arrival_time":"17:49:00","departure_time":"17:49:00","lat":48.982198,"lon":17.403538,"is_passed":false},{"stop_id":"U19310Z11","name":"Veselí nad Moravou, Milokošť","arrival_time":"17:52:00","departure_time":"17:52:00","lat":48.966999,"lon":17.398828,"is_passed":false},{"stop_id":"U19316Z12","name":"Veselí nad Moravou, železniční stanice","arrival_time":"17:56:00","departure_time":"17:57:00","lat":48.948694,"lon":17.382439,"is_passed":false},{"stop_id":"U16908Z10","name":"Bzenec, železniční stanice","arrival_time":"18:05:00","departure_time":"18:06:00","lat":48.969173,"lon":17.263183,"is_passed":false},{"stop_id":"U26802Z10","name":"Vracov","arrival_time":"18:09:00","departure_time":"18:10:00","lat":48.97657,"lon":17.220097,"is_passed":false},{"stop_id":"U26801Z10","name":"Vlkoš","arrival_time":"18:15:00","departure_time":"18:15:00","lat":48.98791,"lon":17.166472,"is_passed":false},{"stop_id":"U26603Z1","name":"Kyjov zastávka","arrival_time":"18:20:00","departure_time":"18:20:00","lat":49.003312,"lon":17.123835,"is_passed":false},{"stop_id":"U16650Z50","name":"Kyjov, železniční stanice","arrival_time":"18:23:00","departure_time":"18:25:00","lat":49.016226,"lon":17.122949,"is_passed":false},{"stop_id":"U16604Z10","name":"Kyjov, Bohuslavice, železniční stanice","arrival_time":"18:30:00","departure_time":"18:30:00","lat":49.055833,"lon":17.118917,"is_passed":false},{"stop_id":"U26601Z1","name":"Jestřabice","arrival_time":"18:35:00","departure_time":"18:35:00","lat":49.088889,"lon":17.113333,"is_passed":false},{"stop_id":"U16503Z10","name":"Nemotice, železniční stanice","arrival_time":"18:41:00","departure_time":"18:42:00","lat":49.133033,"lon":17.114422,"is_passed":false},{"stop_id":"U16628Z10","name":"Brankovice, železniční stanice","arrival_time":"18:46:00","departure_time":"18:47:00","lat":49.150361,"lon":17.13375,"is_passed":false},{"stop_id":"U16509Z10","name":"Nesovice, železniční stanice","arrival_time":"18:51:00","departure_time":"18:52:00","lat":49.149315,"lon":17.080192,"is_passed":false},{"stop_id":"U26501Z1","name":"Nevojice","arrival_time":"18:56:00","departure_time":"18:56:00","lat":49.136847,"lon":17.04775,"is_passed":false},{"stop_id":"U16463Z50","name":"Bučovice, železniční stanice","arrival_time":"19:00:00","departure_time":"19:01:00","lat":49.145619,"lon":16.999658,"is_passed":false},{"stop_id":"U16406Z10","name":"Bučovice, Marefy, žel. st.","arrival_time":"19:04:00","departure_time":"19:04:00","lat":49.149232,"lon":16.972808,"is_passed":false},{"stop_id":"U16318Z10","name":"Křižanovice, žel. st.","arrival_time":"19:07:00","departure_time":"19:07:00","lat":49.145047,"lon":16.935893,"is_passed":false},{"stop_id":"U16333Z10","name":"Slavkov u Brna, žel. st.","arrival_time":"19:12:00","departure_time":"19:13:00","lat":49.14495,"lon":16.873475,"is_passed":false},{"stop_id":"U16211Z10","name":"Křenovice, dol. žel. st.","arrival_time":"19:16:00","departure_time":"19:17:00","lat":49.143679,"lon":16.834698,"is_passed":false},{"stop_id":"U26103Z1","name":"Blažovice","arrival_time":"19:22:00","departure_time":"19:23:00","lat":49.163735,"lon":16.798179,"is_passed":false},{"stop_id":"U16121Z10","name":"Ponětovice, železniční stanice","arrival_time":"19:27:00","departure_time":"19:27:00","lat":49.154709,"lon":16.748578,"is_passed":false},{"stop_id":"U16137Z10","name":"Šlapanice, železniční stanice","arrival_time":"19:29:00","departure_time":"19:30:00","lat":49.156975,"lon":16.729526,"is_passed":false},{"stop_id":"U16136Z11","name":"Šlapanice, železniční zastávka","arrival_time":"19:32:00","departure_time":"19:32:00","lat":49.163384,"lon":16.719877,"is_passed":false},{"stop_id":"U1573Z10","name":"Slatina, nádraží","arrival_time":"19:36:00","departure_time":"19:37:00","lat":49.169478,"lon":16.682148,"is_passed":false},{"stop_id":"U1146Z99","name":"Hlavní nádraží","arrival_time":"19:48:00","departure_time":"20:15:00","lat":49.19035,"lon":16.612342,"is_passed":false}],"1361":[{"stop_id":"U1146Z98","name":"Hlavní nádraží","arrival_time":"20:15:00","departure_time":"20:15:00","lat":49.19035,"lon":16.612342,"is_passed":false},{"stop_id":"U1573Z11","name":"Slatina, nádraží","arrival_time":"20:26:00","departure_time":"20:27:00","lat":49.169478,"lon":16.682148,"is_passed":false},{"stop_id":"U16136Z12","name":"Šlapanice, železniční zastávka","arrival_time":"20:30:00","departure_time":"20:31:00","lat":49.163296,"lon":16.719903,"is_passed":false},{"stop_id":"U16137Z11","name":"Šlapanice, železniční stanice","arrival_time":"20:33:00","departure_time":"20:33:00","lat":49.156915,"lon":16.729568,"is_passed":false},{"stop_id":"U16121Z11","name":"Ponětovice, železniční stanice","arrival_time":"20:36:00","departure_time":"20:36:00","lat":49.154709,"lon":16.748578,"is_passed":false},{"stop_id":"U26103Z2","name":"Blažovice","arrival_time":"20:41:00","departure_time":"20:42:00","lat":49.163735,"lon":16.798179,"is_passed":false},{"stop_id":"U16211Z11","name":"Křenovice, dol. žel. st.","arrival_time":"20:46:00","departure_time":"20:47:00","lat":49.144304,"lon":16.834023,"is_passed":false},{"stop_id":"U16333Z11","name":"Slavkov u Brna, žel. st.","arrival_time":"20:50:00","departure_time":"20:52:00","lat":49.14495,"lon":16.873475,"is_passed":false},{"stop_id":"U16318Z11","name":"Křižanovice, žel. st.","arrival_time":"20:56:00","departure_time":"20:57:00","lat":49.144986,"lon":16.93419,"is_passed":false},{"stop_id":"U16406Z11","name":"Bučovice, Marefy, žel. st.","arrival_time":"21:00:00","departure_time":"21:00:00","lat":49.14914,"lon":16.972851,"is_passed":false},{"stop_id":"U16463Z51","name":"Bučovice, železniční stanice","arrival_time":"21:04:00","departure_time":"21:05:00","lat":49.145619,"lon":16.999658,"is_passed":false},{"stop_id":"U26501Z2","name":"Nevojice","arrival_time":"21:09:00","departure_time":"21:09:00","lat":49.136847,"lon":17.04775,"is_passed":false},{"stop_id":"U16509Z11","name":"Nesovice, železniční stanice","arrival_time":"21:12:00","departure_time":"21:13:00","lat":49.14916,"lon":17.079897,"is_passed":false},{"stop_id":"U16628Z11","name":"Brankovice, železniční stanice","arrival_time":"21:17:00","departure_time":"21:18:00","lat":49.150361,"lon":17.13375,"is_passed":false},{"stop_id":"U16503Z11","name":"Nemotice, železniční stanice","arrival_time":"21:22:00","departure_time":"21:22:00","lat":49.132992,"lon":17.114242,"is_passed":false},{"stop_id":"U26601Z2","name":"Jestřabice","arrival_time":"21:28:00","departure_time":"21:28:00","lat":49.088889,"lon":17.113333,"is_passed":false},{"stop_id":"U16604Z11","name":"Kyjov, Bohuslavice, železniční stanice","arrival_time":"21:33:00","departure_time":"21:33:00","lat":49.055833,"lon":17.118917,"is_passed":false},{"stop_id":"U16650Z51","name":"Kyjov, železniční stanice","arrival_time":"21:38:00","departure_time":"21:39:00","lat":49.016263,"lon":17.122856,"is_passed":false},{"stop_id":"U26603Z2","name":"Kyjov zastávka","arrival_time":"21:42:00","departure_time":"21:42:00","lat":49.003383,"lon":17.123528,"is_passed":false},{"stop_id":"U26801Z11","name":"Vlkoš","arrival_time":"21:47:00","departure_time":"21:47:00","lat":48.987902,"lon":17.166624,"is_passed":false},{"stop_id":"U26802Z11","name":"Vracov","arrival_time":"21:51:00","departure_time":"21:52:00","lat":48.976674,"lon":17.218698,"is_passed":false},{"stop_id":"U16908Z11","name":"Bzenec, železniční stanice","arrival_time":"21:56:00","departure_time":"21:57:00","lat":48.969173,"lon":17.263183,"is_passed":false},{"stop_id":"U19316Z13","name":"Veselí nad Moravou, železniční stanice","arrival_time":"22:05:00","departure_time":"22:05:00","lat":48.948694,"lon":17.382439,"is_passed":false}],"1362":[{"stop_id":"U19316Z12","name":"Veselí nad Moravou, železniční stanice","arrival_time":"3:57:00","departure_time":"3:57:00","lat":48.948694,"lon":17.382439,"is_passed":false},{"stop_id":"U16908Z10","name":"Bzenec, železniční stanice","arrival_time":"4:05:00","departure_time":"4:06:00","lat":48.969173,"lon":17.263183,"is_passed":false},{"stop_id":"U26802Z10","name":"Vracov","arrival_time":"4:10:00","departure_time":"4:10:00","lat":48.97657,"lon":17.220097,"is_passed":false},{"stop_id":"U26801Z10","name":"Vlkoš","arrival_time":"4:15:00","departure_time":"4:15:00","lat":48.98791,"lon":17.166472,"is_passed":false},{"stop_id":"U26603Z1","name":"Kyjov zastávka","arrival_time":"4:20:00","departure_time":"4:20:00","lat":49.003312,"lon":17.123835,"is_passed":false},{"stop_id":"U16650Z50","name":"Kyjov, železniční stanice","arrival_time":"4:23:00","departure_time":"4:25:00","lat":49.016226,"lon":17.122949,"is_passed":false},{"stop_id":"U16604Z10","name":"Kyjov, Bohuslavice, železniční stanice","arrival_time":"4:30:00","departure_time":"4:30:00","lat":49.055833,"lon":17.118917,"is_passed":false},{"stop_id":"U26601Z1","name":"Jestřabice","arrival_time":"4:35:00","departure_time":"4:35:00","lat":49.088889,"lon":17.113333,"is_passed":false},{"stop_id":"U16503Z10","name":"Nemotice, železniční stanice","arrival_time":"4:41:00","departure_time":"4:42:00","lat":49.133033,"lon":17.114422,"is_passed":false},{"stop_id":"U16628Z10","name":"Brankovice, železniční stanice","arrival_time":"4:46:00","departure_time":"4:47:00","lat":49.150361,"lon":17.13375,"is_passed":false},{"stop_id":"U16509Z10","name":"Nesovice, železniční stanice","arrival_time":"4:51:00","departure_time":"4:52:00","lat":49.149315,"lon":17.080192,"is_passed":false},{"stop_id":"U26501Z1","name":"Nevojice","arrival_time":"4:55:00","departure_time":"4:56:00","lat":49.136847,"lon":17.04775,"is_passed":false},{"stop_id":"U16463Z50","name":"Bučovice, železniční stanice","arrival_time":"5:00:00","departure_time":"5:01:00","lat":49.145619,"lon":16.999658,"is_passed":false},{"stop_id":"U16406Z10","name":"Bučovice, Marefy, žel. st.","arrival_time":"5:03:00","departure_time":"5:04:00","lat":49.149232,"lon":16.972808,"is_passed":false},{"stop_id":"U16318Z10","name":"Křižanovice, žel. st.","arrival_time":"5:07:00","departure_time":"5:07:00","lat":49.145047,"lon":16.935893,"is_passed":false},{"stop_id":"U16333Z10","name":"Slavkov u Brna, žel. st.","arrival_time":"5:12:00","departure_time":"5:13:00","lat":49.14495,"lon":16.873475,"is_passed":false},{"stop_id":"U16211Z10","name":"Křenovice, dol. žel. st.","arrival_time":"5:16:00","departure_time":"5:17:00","lat":49.143679,"lon":16.834698,"is_passed":false},{"stop_id":"U26103Z1","name":"Blažovice","arrival_time":"5:22:00","departure_time":"5:23:00","lat":49.163735,"lon":16.798179,"is_passed":false},{"stop_id":"U16121Z10","name":"Ponětovice, železniční stanice","arrival_time":"5:26:00","departure_time":"5:27:00","lat":49.154709,"lon":16.748578,"is_passed":false},{"stop_id":"U16137Z10","name":"Šlapanice, železniční stanice","arrival_time":"5:29:00","departure_time":"5:30:00","lat":49.156975,"lon":16.729526,"is_passed":false},{"stop_id":"U16136Z11","name":"Šlapanice, železniční zastávka","arrival_time":"5:32:00","departure_time":"5:32:00","lat":49.163384,"lon":16.719877,"is_passed":false},{"stop_id":"U1573Z10","name":"Slatina, nádraží","arrival_time":"5:36:00","departure_time":"5:37:00","lat":49.169478,"lon":16.682148,"is_passed":false},{"stop_id":"U11001Z1","name":"Brno-Černovice","arrival_time":"5:42:00","departure_time":"5:42:00","lat":49.188984,"lon":16.631233,"is_passed":false},{"stop_id":"U1146Z99","name":"Hlavní nádraží","arrival_time":"5:50:00","departure_time":"6:12:00","lat":49.19035,"lon":16.612342,"is_passed":false}],"1363":[{"stop_id":"U1146Z98","name":"Hlavní nádraží","arrival_time":"6:12:00","departure_time":"6:12:00","lat":49.19035,"lon":16.612342,"is_passed":false},{"stop_id":"U1809Z10","name":"Židenice, nádraží","arrival_time":"6:16:00","departure_time":"6:20:00","lat":49.204282,"lon":16.636042,"is_passed":false},{"stop_id":"U1573Z11","name":"Slatina, nádraží","arrival_time":"6:26:00","departure_time":"6:27:00","lat":49.169478,"lon":16.682148,"is_passed":false},{"stop_id":"U16136Z12","name":"Šlapanice, železniční zastávka","arrival_time":"6:30:00","departure_time":"6:31:00","lat":49.163296,"lon":16.719903,"is_passed":false},{"stop_id":"U16137Z11","name":"Šlapanice, železniční stanice","arrival_time":"6:33:00","departure_time":"6:33:00","lat":49.156915,"lon":16.729568,"is_passed":false},{"stop_id":"U16121Z11","name":"Ponětovice, železniční stanice","arrival_time":"6:36:00","departure_time":"6:36:00","lat":49.154709,"lon":16.748578,"is_passed":false},{"stop_id":"U26103Z2","name":"Blažovice","arrival_time":"6:41:00","departure_time":"6:42:00","lat":49.163735,"lon":16.798179,"is_passed":false},{"stop_id":"U16211Z11","name":"Křenovice, dol. žel. st.","arrival_time":"6:46:00","departure_time":"6:47:00","lat":49.144304,"lon":16.834023,"is_passed":false},{"stop_id":"U16333Z11","name":"Slavkov u Brna, žel. st.","arrival_time":"6:50:00","departure_time":"6:52:00","lat":49.14495,"lon":16.873475,"is_passed":false},{"stop_id":"U16318Z11","name":"Křižanovice, žel. st.","arrival_time":"6:57:00","departure_time":"6:57:00","lat":49.144986,"lon":16.93419,"is_passed":false},{"stop_id":"U16406Z11","name":"Bučovice, Marefy, žel. st.","arrival_time":"7:01:00","departure_time":"7:01:00","lat":49.14914,"lon":16.972851,"is_passed":false},{"stop_id":"U16463Z51","name":"Bučovice, železniční stanice","arrival_time":"7:04:00","departure_time":"7:05:00","lat":49.145619,"lon":16.999658,"is_passed":false},{"stop_id":"U26501Z2","name":"Nevojice","arrival_time":"7:09:00","departure_time":"7:09:00","lat":49.136847,"lon":17.04775,"is_passed":false},{"stop_id":"U16509Z11","name":"Nesovice, železniční stanice","arrival_time":"7:12:00","departure_time":"7:13:00","lat":49.14916,"lon":17.079897,"is_passed":false},{"stop_id":"U16628Z11","name":"Brankovice, železniční stanice","arrival_time":"7:17:00","departure_time":"7:18:00","lat":49.150361,"lon":17.13375,"is_passed":false},{"stop_id":"U16503Z11","name":"Nemotice, železniční stanice","arrival_time":"7:22:00","departure_time":"7:22:00","lat":49.132992,"lon":17.114242,"is_passed":false},{"stop_id":"U26601Z2","name":"Jestřabice","arrival_time":"7:28:00","departure_time":"7:28:00","lat":49.088889,"lon":17.113333,"is_passed":false},{"stop_id":"U16604Z11","name":"Kyjov, Bohuslavice, železniční stanice","arrival_time":"7:33:00","departure_time":"7:33:00","lat":49.055833,"lon":17.118917,"is_passed":false},{"stop_id":"U16650Z51","name":"Kyjov, železniční stanice","arrival_time":"7:38:00","departure_time":"7:39:00","lat":49.016263,"lon":17.122856,"is_passed":false},{"stop_id":"U26603Z2","name":"Kyjov zastávka","arrival_time":"7:42:00","departure_time":"7:42:00","lat":49.003383,"lon":17.123528,"is_passed":false},{"stop_id":"U26801Z11","name":"Vlkoš","arrival_time":"7:47:00","departure_time":"7:47:00","lat":48.987902,"lon":17.166624,"is_passed":false},{"stop_id":"U26802Z11","name":"Vracov","arrival_time":"7:51:00","departure_time":"7:52:00","lat":48.976674,"lon":17.218698,"is_passed":false},{"stop_id":"U16908Z11","name":"Bzenec, železniční stanice","arrival_time":"7:56:00","departure_time":"7:57:00","lat":48.969173,"lon":17.263183,"is_passed":false},{"stop_id":"U19316Z13","name":"Veselí nad Moravou, železniční stanice","arrival_time":"8:05:00","departure_time":"8:07:00","lat":48.948694,"lon":17.382439,"is_passed":false},{"stop_id":"U19310Z12","name":"Veselí nad Moravou, Milokošť","arrival_time":"8:10:00","departure_time":"8:10:00","lat":48.967085,"lon":17.398881,"is_passed":false},{"stop_id":"U29404Z11","name":"Uherský Ostroh","arrival_time":"8:12:00","departure_time":"8:13:00","lat":48.981817,"lon":17.403441,"is_passed":false},{"stop_id":"U30314Z1","name":"Ostrožská Nová Ves","arrival_time":"8:18:00","departure_time":"8:20:00","lat":49.009594,"lon":17.436368,"is_passed":false},{"stop_id":"U31103Z1","name":"Ostrožská Nová Ves lázně","arrival_time":"8:22:00","departure_time":"8:22:00","lat":49.018181,"lon":17.446255,"is_passed":false},{"stop_id":"U31025Z2","name":"Kunovice zastávka","arrival_time":"8:25:00","departure_time":"8:25:00","lat":49.038039,"lon":17.461023,"is_passed":false},{"stop_id":"U31027Z2","name":"Uherské Hradiště","arrival_time":"8:29:00","departure_time":"9:35:00","lat":49.066825,"lon":17.457085,"is_passed":false}],"1364":[{"stop_id":"U31027Z1","name":"Uherské Hradiště","arrival_time":"9:35:00","departure_time":"9:35:00","lat":49.066881,"lon":17.457171,"is_passed":false},{"stop_id":"U31025Z1","name":"Kunovice zastávka","arrival_time":"9:39:00","departure_time":"9:39:00","lat":49.038454,"lon":17.46113,"is_passed":false},{"stop_id":"U31103Z2","name":"Ostrožská Nová Ves lázně","arrival_time":"9:42:00","departure_time":"9:42:00","lat":49.018181,"lon":17.446255,"is_passed":false},{"stop_id":"U30314Z2","name":"Ostrožská Nová Ves","arrival_time":"9:44:00","departure_time":"9:45:00","lat":49.009975,"lon":17.436797,"is_passed":false},{"stop_id":"U29404Z10","name":"Uherský Ostroh","arrival_time":"9:49:00","departure_time":"9:49:00","lat":48.982198,"lon":17.403538,"is_passed":false},{"stop_id":"U19310Z11","name":"Veselí nad Moravou, Milokošť","arrival_time":"9:52:00","departure_time":"9:52:00","lat":48.966999,"lon":17.398828,"is_passed":false},{"stop_id":"U19316Z12","name":"Veselí nad Moravou, železniční stanice","arrival_time":"9:56:00","departure_time":"9:57:00","lat":48.948694,"lon":17.382439,"is_passed":false},{"stop_id":"U16908Z10","name":"Bzenec, železniční stanice","arrival_time":"10:05:00","departure_time":"10:06:00","lat":48.969173,"lon":17.263183,"is_passed":false},{"stop_id":"U26802Z10","name":"Vracov","arrival_time":"10:09:00","departure_time":"10:10:00","lat":48.97657,"lon":17.220097,"is_passed":false},{"stop_id":"U26801Z10","name":"Vlkoš","arrival_time":"10:15:00","departure_time":"10:15:00","lat":48.98791,"lon":17.166472,"is_passed":false},{"stop_id":"U26603Z1","name":"Kyjov zastávka","arrival_time":"10:20:00","departure_time":"10:20:00","lat":49.003312,"lon":17.123835,"is_passed":false},{"stop_id":"U16650Z50","name":"Kyjov, železniční stanice","arrival_time":"10:23:00","departure_time":"10:25:00","lat":49.016226,"lon":17.122949,"is_passed":false},{"stop_id":"U16604Z10","name":"Kyjov, Bohuslavice, železniční stanice","arrival_time":"10:30:00","departure_time":"10:30:00","lat":49.055833,"lon":17.118917,"is_passed":false},{"stop_id":"U26601Z1","name":"Jestřabice","arrival_time":"10:35:00","departure_time":"10:35:00","lat":49.088889,"lon":17.113333,"is_passed":false},{"stop_id":"U16503Z10","name":"Nemotice, železniční stanice","arrival_time":"10:41:00","departure_time":"10:42:00","lat":49.133033,"lon":17.114422,"is_passed":false},{"stop_id":"U16628Z10","name":"Brankovice, železniční stanice","arrival_time":"10:46:00","departure_time":"10:47:00","lat":49.150361,"lon":17.13375,"is_passed":false},{"stop_id":"U16509Z10","name":"Nesovice, železniční stanice","arrival_time":"10:51:00","departure_time":"10:52:00","lat":49.149315,"lon":17.080192,"is_passed":false},{"stop_id":"U26501Z1","name":"Nevojice","arrival_time":"10:56:00","departure_time":"10:56:00","lat":49.136847,"lon":17.04775,"is_passed":false},{"stop_id":"U16463Z50","name":"Bučovice, železniční stanice","arrival_time":"11:00:00","departure_time":"11:01:00","lat":49.145619,"lon":16.999658,"is_passed":false},{"stop_id":"U16406Z10","name":"Bučovice, Marefy, žel. st.","arrival_time":"11:04:00","departure_time":"11:04:00","lat":49.149232,"lon":16.972808,"is_passed":false},{"stop_id":"U16318Z10","name":"Křižanovice, žel. st.","arrival_time":"11:07:00","departure_time":"11:07:00","lat":49.145047,"lon":16.935893,"is_passed":false},{"stop_id":"U16333Z10","name":"Slavkov u Brna, žel. st.","arrival_time":"11:12:00","departure_time":"11:13:00","lat":49.14495,"lon":16.873475,"is_passed":false},{"stop_id":"U16211Z10","name":"Křenovice, dol. žel. st.","arrival_time":"11:16:00","departure_time":"11:17:00","lat":49.143679,"lon":16.834698,"is_passed":false},{"stop_id":"U26103Z1","name":"Blažovice","arrival_time":"11:22:00","departure_time":"11:23:00","lat":49.163735,"lon":16.798179,"is_passed":false},{"stop_id":"U16121Z10","name":"Ponětovice, železniční stanice","arrival_time":"11:27:00","departure_time":"11:27:00","lat":49.154709,"lon":16.748578,"is_passed":false},{"stop_id":"U16137Z10","name":"Šlapanice, železniční stanice","arrival_time":"11:29:00","departure_time":"11:30:00","lat":49.156975,"lon":16.729526,"is_passed":false},{"stop_id":"U16136Z11","name":"Šlapanice, železniční zastávka","arrival_time":"11:32:00","departure_time":"11:32:00","lat":49.163384,"lon":16.719877,"is_passed":false},{"stop_id":"U1573Z10","name":"Slatina, nádraží","arrival_time":"11:36:00","departure_time":"11:37:00","lat":49.169478,"lon":16.682148,"is_passed":false},{"stop_id":"U1146Z99","name":"Hlavní nádraží","arrival_time":"11:48:00","departure_time":"14:43:00","lat":49.19035,"lon":16.612342,"is_passed":false}],"1365":[{"stop_id":"U1146Z98","name":"Hlavní nádraží","arrival_time":"14:43:00","departure_time":"14:43:00","lat":49.19035,"lon":16.612342,"is_passed":false},{"stop_id":"U1809Z10","name":"Židenice, nádraží","arrival_time":"14:47:00","departure_time":"14:51:00","lat":49.204282,"lon":16.636042,"is_passed":false},{"stop_id":"U1573Z11","name":"Slatina, nádraží","arrival_time":"15:01:00","departure_time":"15:02:00","lat":49.169478,"lon":16.682148,"is_passed":false},{"stop_id":"U16136Z12","name":"Šlapanice, železniční zastávka","arrival_time":"15:05:00","departure_time":"15:06:00","lat":49.163296,"lon":16.719903,"is_passed":false},{"stop_id":"U26103Z2","name":"Blažovice","arrival_time":"15:12:00","departure_time":"15:13:00","lat":49.163735,"lon":16.798179,"is_passed":false},{"stop_id":"U16211Z11","name":"Křenovice, dol. žel. st.","arrival_time":"15:17:00","departure_time":"15:18:00","lat":49.144304,"lon":16.834023,"is_passed":false},{"stop_id":"U16333Z11","name":"Slavkov u Brna, žel. st.","arrival_time":"15:21:00","departure_time":"15:22:00","lat":49.14495,"lon":16.873475,"is_passed":false},{"stop_id":"U16318Z11","name":"Křižanovice, žel. st.","arrival_time":"15:27:00","departure_time":"15:27:00","lat":49.144986,"lon":16.93419,"is_passed":false},{"stop_id":"U16406Z11","name":"Bučovice, Marefy, žel. st.","arrival_time":"15:31:00","departure_time":"15:31:00","lat":49.14914,"lon":16.972851,"is_passed":false},{"stop_id":"U16463Z51","name":"Bučovice, železniční stanice","arrival_time":"15:34:00","departure_time":"15:35:00","lat":49.145619,"lon":16.999658,"is_passed":false},{"stop_id":"U26501Z2","name":"Nevojice","arrival_time":"15:39:00","departure_time":"15:39:00","lat":49.136847,"lon":17.04775,"is_passed":false},{"stop_id":"U16509Z11","name":"Nesovice, železniční stanice","arrival_time":"15:43:00","departure_time":"15:43:00","lat":49.14916,"lon":17.079897,"is_passed":false},{"stop_id":"U16628Z11","name":"Brankovice, železniční stanice","arrival_time":"15:48:00","departure_time":"15:49:00","lat":49.150361,"lon":17.13375,"is_passed":false},{"stop_id":"U16503Z11","name":"Nemotice, železniční stanice","arrival_time":"15:53:00","departure_time":"16:09:00","lat":49.132992,"lon":17.114242,"is_passed":false}],"1366":[{"stop_id":"U16503Z10","name":"Nemotice, železniční stanice","arrival_time":"16:09:00","departure_time":"16:09:00","lat":49.133033,"lon":17.114422,"is_passed":false},{"stop_id":"U16628Z10","name":"Brankovice, železniční stanice","arrival_time":"16:13:00","departure_time":"16:13:00","lat":49.150361,"lon":17.13375,"is_passed":false},{"stop_id":"U16509Z10","name":"Nesovice, železniční stanice","arrival_time":"16:18:00","departure_time":"16:19:00","lat":49.149315,"lon":17.080192,"is_passed":false},{"stop_id":"U26501Z1","name":"Nevojice","arrival_time":"16:22:00","departure_time":"16:22:00","lat":49.136847,"lon":17.04775,"is_passed":false},{"stop_id":"U16463Z50","name":"Bučovice, železniční stanice","arrival_time":"16:25:00","departure_time":"16:26:00","lat":49.145619,"lon":16.999658,"is_passed":false},{"stop_id":"U16406Z10","name":"Bučovice, Marefy, žel. st.","arrival_time":"16:29:00","departure_time":"16:29:00","lat":49.149232,"lon":16.972808,"is_passed":false},{"stop_id":"U16318Z10","name":"Křižanovice, žel. st.","arrival_time":"16:32:00","departure_time":"16:32:00","lat":49.145047,"lon":16.935893,"is_passed":false},{"stop_id":"U16333Z10","name":"Slavkov u Brna, žel. st.","arrival_time":"16:37:00","departure_time":"16:38:00","lat":49.14495,"lon":16.873475,"is_passed":false},{"stop_id":"U16211Z10","name":"Křenovice, dol. žel. st.","arrival_time":"16:41:00","departure_time":"16:41:00","lat":49.143679,"lon":16.834698,"is_passed":false},{"stop_id":"U26103Z1","name":"Blažovice","arrival_time":"16:46:00","departure_time":"16:47:00","lat":49.163735,"lon":16.798179,"is_passed":false},{"stop_id":"U16136Z11","name":"Šlapanice, železniční zastávka","arrival_time":"16:53:00","departure_time":"16:53:00","lat":49.163384,"lon":16.719877,"is_passed":false},{"stop_id":"U1573Z10","name":"Slatina, nádraží","arrival_time":"16:57:00","departure_time":"16:58:00","lat":49.169478,"lon":16.682148,"is_passed":false},{"stop_id":"U1809Z10","name":"Židenice, nádraží","arrival_time":"17:04:00","departure_time":"17:04:00","lat":49.204282,"lon":16.636042,"is_passed":false}],"1367":[{"stop_id":"U1146Z98","name":"Hlavní nádraží","arrival_time":"17:41:00","departure_time":"17:41:00","lat":49.19035,"lon":16.612342,"is_passed":false},{"stop_id":"U1809Z10","name":"Židenice, nádraží","arrival_time":"17:45:00","departure_time":"17:49:00","lat":49.204282,"lon":16.636042,"is_passed":false},{"stop_id":"U1573Z11","name":"Slatina, nádraží","arrival_time":"18:00:00","departure_time":"18:01:00","lat":49.169478,"lon":16.682148,"is_passed":false},{"stop_id":"U16136Z12","name":"Šlapanice, železniční zastávka","arrival_time":"18:04:00","departure_time":"18:05:00","lat":49.163296,"lon":16.719903,"is_passed":false},{"stop_id":"U26103Z2","name":"Blažovice","arrival_time":"18:11:00","departure_time":"18:11:00","lat":49.163735,"lon":16.798179,"is_passed":false},{"stop_id":"U16211Z11","name":"Křenovice, dol. žel. st.","arrival_time":"18:16:00","departure_time":"18:16:00","lat":49.144304,"lon":16.834023,"is_passed":false},{"stop_id":"U16333Z11","name":"Slavkov u Brna, žel. st.","arrival_time":"18:20:00","departure_time":"18:22:00","lat":49.14495,"lon":16.873475,"is_passed":false},{"stop_id":"U16318Z11","name":"Křižanovice, žel. st.","arrival_time":"18:26:00","departure_time":"18:27:00","lat":49.144986,"lon":16.93419,"is_passed":false},{"stop_id":"U16406Z11","name":"Bučovice, Marefy, žel. st.","arrival_time":"18:30:00","departure_time":"18:30:00","lat":49.14914,"lon":16.972851,"is_passed":false},{"stop_id":"U16463Z51","name":"Bučovice, železniční stanice","arrival_time":"18:33:00","departure_time":"18:34:00","lat":49.145619,"lon":16.999658,"is_passed":false},{"stop_id":"U26501Z2","name":"Nevojice","arrival_time":"18:38:00","departure_time":"18:38:00","lat":49.136847,"lon":17.04775,"is_passed":false},{"stop_id":"U16509Z11","name":"Nesovice, železniční stanice","arrival_time":"18:42:00","departure_time":"18:42:00","lat":49.14916,"lon":17.079897,"is_passed":false},{"stop_id":"U16628Z11","name":"Brankovice, železniční stanice","arrival_time":"18:47:00","departure_time":"18:48:00","lat":49.150361,"lon":17.13375,"is_passed":false},{"stop_id":"U16503Z11","name":"Nemotice, železniční stanice","arrival_time":"18:52:00","departure_time":"18:52:00","lat":49.132992,"lon":17.114242,"is_passed":false}],"1368":[{"stop_id":"U16509Z10","name":"Nesovice, železniční stanice","arrival_time":"3:52:00","departure_time":"3:52:00","lat":49.149315,"lon":17.080192,"is_passed":false},{"stop_id":"U26501Z1","name":"Nevojice","arrival_time":"3:56:00","departure_time":"3:56:00","lat":49.136847,"lon":17.04775,"is_passed":false},{"stop_id":"U16463Z50","name":"Bučovice, železniční stanice","arrival_time":"4:00:00","departure_time":"4:01:00","lat":49.145619,"lon":16.999658,"is_passed":false},{"stop_id":"U16406Z10","name":"Bučovice, Marefy, žel. st.","arrival_time":"4:04:00","departure_time":"4:04:00","lat":49.149232,"lon":16.972808,"is_passed":false},{"stop_id":"U16318Z10","name":"Křižanovice, žel. st.","arrival_time":"4:07:00","departure_time":"4:07:00","lat":49.145047,"lon":16.935893,"is_passed":false},{"stop_id":"U16333Z10","name":"Slavkov u Brna, žel. st.","arrival_time":"4:12:00","departure_time":"4:13:00","lat":49.14495,"lon":16.873475,"is_passed":false},{"stop_id":"U16211Z10","name":"Křenovice, dol. žel. st.","arrival_time":"4:16:00","departure_time":"4:17:00","lat":49.143679,"lon":16.834698,"is_passed":false},{"stop_id":"U26103Z1","name":"Blažovice","arrival_time":"4:22:00","departure_time":"4:23:00","lat":49.163735,"lon":16.798179,"is_passed":false},{"stop_id":"U16121Z10","name":"Ponětovice, železniční stanice","arrival_time":"4:27:00","departure_time":"4:27:00","lat":49.154709,"lon":16.748578,"is_passed":false},{"stop_id":"U16137Z10","name":"Šlapanice, železniční stanice","arrival_time":"4:29:00","departure_time":"4:30:00","lat":49.156975,"lon":16.729526,"is_passed":false},{"stop_id":"U16136Z11","name":"Šlapanice, železniční zastávka","arrival_time":"4:32:00","departure_time":"4:32:00","lat":49.163384,"lon":16.719877,"is_passed":false},{"stop_id":"U1573Z10","name":"Slatina, nádraží","arrival_time":"4:36:00","departure_time":"4:37:00","lat":49.169478,"lon":16.682148,"is_passed":false},{"stop_id":"U11001Z1","name":"Brno-Černovice","arrival_time":"4:42:00","departure_time":"4:42:00","lat":49.188984,"lon":16.631233,"is_passed":false},{"stop_id":"U1146Z99","name":"Hlavní nádraží","arrival_time":"4:50:00","departure_time":"5:12:00","lat":49.19035,"lon":16.612342,"is_passed":false}],"1369":[{"stop_id":"U1146Z98","name":"Hlavní nádraží","arrival_time":"5:12:00","departure_time":"5:12:00","lat":49.19035,"lon":16.612342,"is_passed":false},{"stop_id":"U1809Z10","name":"Židenice, nádraží","arrival_time":"5:16:00","departure_time":"5:20:00","lat":49.204282,"lon":16.636042,"is_passed":false},{"stop_id":"U1573Z11","name":"Slatina, nádraží","arrival_time":"5:26:00","departure_time":"5:27:00","lat":49.169478,"lon":16.682148,"is_passed":false},{"stop_id":"U16136Z12","name":"Šlapanice, železniční zastávka","arrival_time":"5:30:00","departure_time":"5:30:00","lat":49.163296,"lon":16.719903,"is_passed":false},{"stop_id":"U16137Z11","name":"Šlapanice, železniční stanice","arrival_time":"5:33:00","departure_time":"5:33:00","lat":49.156915,"lon":16.729568,"is_passed":false},{"stop_id":"U26103Z2","name":"Blažovice","arrival_time":"5:39:00","departure_time":"5:42:00","lat":49.163735,"lon":16.798179,"is_passed":false},{"stop_id":"U16211Z11","name":"Křenovice, dol. žel. st.","arrival_time":"5:47:00","departure_time":"5:47:00","lat":49.144304,"lon":16.834023,"is_passed":false},{"stop_id":"U16333Z11","name":"Slavkov u Brna, žel. st.","arrival_time":"5:50:00","departure_time":"5:52:00","lat":49.14495,"lon":16.873475,"is_passed":false},{"stop_id":"U16318Z11","name":"Křižanovice, žel. st.","arrival_time":"5:56:00","departure_time":"5:57:00","lat":49.144986,"lon":16.93419,"is_passed":false},{"stop_id":"U16406Z11","name":"Bučovice, Marefy, žel. st.","arrival_time":"6:00:00","departure_time":"6:00:00","lat":49.14914,"lon":16.972851,"is_passed":false},{"stop_id":"U16463Z51","name":"Bučovice, železniční stanice","arrival_time":"6:03:00","departure_time":"6:04:00","lat":49.145619,"lon":16.999658,"is_passed":false},{"stop_id":"U26501Z2","name":"Nevojice","arrival_time":"6:08:00","departure_time":"6:08:00","lat":49.136847,"lon":17.04775,"is_passed":false},{"stop_id":"U16509Z11","name":"Nesovice, železniční stanice","arrival_time":"6:11:00","departure_time":"6:12:00","lat":49.14916,"lon":17.079897,"is_passed":false},{"stop_id":"U16628Z11","name":"Brankovice, železniční stanice","arrival_time":"6:16:00","departure_time":"6:17:00","lat":49.150361,"lon":17.13375,"is_passed":false},{"stop_id":"U16503Z11","name":"Nemotice, železniční stanice","arrival_time":"6:21:00","departure_time":"6:21:00","lat":49.132992,"lon":17.114242,"is_passed":false},{"stop_id":"U26601Z2","name":"Jestřabice","arrival_time":"6:27:00","departure_time":"6:27:00","lat":49.088889,"lon":17.113333,"is_passed":false},{"stop_id":"U16604Z11","name":"Kyjov, Bohuslavice, železniční stanice","arrival_time":"6:32:00","departure_time":"6:32:00","lat":49.055833,"lon":17.118917,"is_passed":false},{"stop_id":"U16650Z51","name":"Kyjov, železniční stanice","arrival_time":"6:37:00","departure_time":"6:38:00","lat":49.016263,"lon":17.122856,"is_passed":false},{"stop_id":"U26603Z2","name":"Kyjov zastávka","arrival_time":"6:41:00","departure_time":"6:42:00","lat":49.003383,"lon":17.123528,"is_passed":false},{"stop_id":"U26801Z11","name":"Vlkoš","arrival_time":"6:46:00","departure_time":"6:47:00","lat":48.987902,"lon":17.166624,"is_passed":false},{"stop_id":"U26802Z11","name":"Vracov","arrival_time":"6:51:00","departure_time":"6:52:00","lat":48.976674,"lon":17.218698,"is_passed":false},{"stop_id":"U16908Z11","name":"Bzenec, železniční stanice","arrival_time":"6:56:00","departure_time":"6:57:00","lat":48.969173,"lon":17.263183,"is_passed":false},{"stop_id":"U19316Z13","name":"Veselí nad Moravou, železniční stanice","arrival_time":"7:05:00","departure_time":"7:07:00","lat":48.948694,"lon":17.382439,"is_passed":false},{"stop_id":"U19310Z12","name":"Veselí nad Moravou, Milokošť","arrival_time":"7:10:00","departure_time":"7:10:00","lat":48.967085,"lon":17.398881,"is_passed":false},{"stop_id":"U29404Z11","name":"Uherský Ostroh","arrival_time":"7:12:00","departure_time":"7:13:00","lat":48.981817,"lon":17.403441,"is_passed":false},{"stop_id":"U30314Z1","name":"Ostrožská Nová Ves","arrival_time":"7:17:00","departure_time":"7:18:00","lat":49.009594,"lon":17.436368,"is_passed":false},{"stop_id":"U31025Z2","name":"Kunovice zastávka","arrival_time":"7:22:00","departure_time":"7:22:00","lat":49.038039,"lon":17.461023,"is_passed":false},{"stop_id":"U31027Z2","name":"Uherské Hradiště","arrival_time":"7:26:00","departure_time":"7:52:00","lat":49.066825,"lon":17.457085,"is_passed":false},{"stop_id":"U31028Z2","name":"Staré Město u Uherského Hradiště","arrival_time":"7:58:00","departure_time":"8:27:00","lat":49.076022,"lon":17.42271,"is_passed":false}],"13600":[{"stop_id":"U15165Z2","name":"Měnín, obchodní středisko","arrival_time":"20:52:00","departure_time":"20:52:00","lat":49.079732,"lon":16.693543,"is_passed":false},{"stop_id":"U15128Z2","name":"Měnín, u mlýna","arrival_time":"20:53:00","departure_time":"20:53:00","lat":49.085172,"lon":16.694708,"is_passed":false},{"stop_id":"U15154Z2","name":"Měnín, ZD","arrival_time":"20:54:00","departure_time":"20:54:00","lat":49.091685,"lon":16.689643,"is_passed":false},{"stop_id":"U15133Z2","name":"Otmarov, chaloupka","arrival_time":"20:56:00","departure_time":"20:56:00","lat":49.101007,"lon":16.679762,"is_passed":false},{"stop_id":"U15175Z2","name":"Otmarov","arrival_time":"20:58:00","departure_time":"20:58:00","lat":49.100336,"lon":16.671844,"is_passed":false},{"stop_id":"U15176Z2","name":"Rajhradice, obalovna","arrival_time":"21:00:00","departure_time":"21:00:00","lat":49.096394,"lon":16.651454,"is_passed":false},{"stop_id":"U15144Z2","name":"Rajhradice, váha","arrival_time":"21:02:00","departure_time":"21:02:00","lat":49.09362,"lon":16.635452,"is_passed":false},{"stop_id":"U15145Z2","name":"Rebešovice","arrival_time":"21:04:00","departure_time":"21:04:00","lat":49.105028,"lon":16.638127,"is_passed":false},{"stop_id":"U15146Z2","name":"Rebešovice, Horky","arrival_time":"21:05:00","departure_time":"21:05:00","lat":49.108966,"lon":16.641733,"is_passed":false},{"stop_id":"U1182Z3","name":"Chrlice, smyčka","arrival_time":"21:08:00","departure_time":"21:08:00","lat":49.126855,"lon":16.655081,"is_passed":false},{"stop_id":"U1183Z2","name":"Chrlice, nádraží","arrival_time":"21:09:00","departure_time":"21:09:00","lat":49.132136,"lon":16.656638,"is_passed":false},{"stop_id":"U1187Z2","name":"Chrlické náměstí","arrival_time":"21:10:00","departure_time":"21:17:00","lat":49.13548,"lon":16.653876,"is_passed":false}],"13601":[{"stop_id":"U1187Z1","name":"Chrlické náměstí","arrival_time":"21:17:00","departure_time":"21:17:00","lat":49.135283,"lon":16.653902,"is_passed":false},{"stop_id":"U1183Z1","name":"Chrlice, nádraží","arrival_time":"21:18:00","departure_time":"21:18:00","lat":49.131712,"lon":16.656596,"is_passed":false},{"stop_id":"U1182Z4","name":"Chrlice, smyčka","arrival_time":"21:19:00","departure_time":"21:19:00","lat":49.126443,"lon":16.654784,"is_passed":false},{"stop_id":"U15146Z1","name":"Rebešovice, Horky","arrival_time":"21:22:00","departure_time":"21:22:00","lat":49.108356,"lon":16.64093,"is_passed":false},{"stop_id":"U15145Z1","name":"Rebešovice","arrival_time":"21:23:00","departure_time":"21:23:00","lat":49.10491,"lon":16.637941,"is_passed":false},{"stop_id":"U15144Z1","name":"Rajhradice, váha","arrival_time":"21:26:00","departure_time":"21:26:00","lat":49.093623,"lon":16.63553,"is_passed":false},{"stop_id":"U15176Z1","name":"Rajhradice, obalovna","arrival_time":"21:28:00","departure_time":"21:28:00","lat":49.0964,"lon":16.651802,"is_passed":false},{"stop_id":"U15175Z1","name":"Otmarov","arrival_time":"21:30:00","departure_time":"21:30:00","lat":49.100468,"lon":16.672571,"is_passed":false},{"stop_id":"U15133Z1","name":"Otmarov, chaloupka","arrival_time":"21:31:00","departure_time":"21:31:00","lat":49.09991,"lon":16.681232,"is_passed":false},{"stop_id":"U15154Z1","name":"Měnín, ZD","arrival_time":"21:33:00","departure_time":"21:33:00","lat":49.091455,"lon":16.689825,"is_passed":false},{"stop_id":"U15128Z1","name":"Měnín, u mlýna","arrival_time":"21:34:00","departure_time":"21:34:00","lat":49.084102,"lon":16.694181,"is_passed":false},{"stop_id":"U15165Z1","name":"Měnín, obchodní středisko","arrival_time":"21:36:00","departure_time":"21:52:00","lat":49.079732,"lon":16.693543,"is_passed":false}],"13602":[{"stop_id":"U15165Z2","name":"Měnín, obchodní středisko","arrival_time":"21:52:00","departure_time":"21:52:00","lat":49.079732,"lon":16.693543,"is_passed":false},{"stop_id":"U15128Z2","name":"Měnín, u mlýna","arrival_time":"21:53:00","departure_time":"21:53:00","lat":49.085172,"lon":16.694708,"is_passed":false},{"stop_id":"U15154Z2","name":"Měnín, ZD","arrival_time":"21:54:00","departure_time":"21:54:00","lat":49.091685,"lon":16.689643,"is_passed":false},{"stop_id":"U15133Z2","name":"Otmarov, chaloupka","arrival_time":"21:56:00","departure_time":"21:56:00","lat":49.101007,"lon":16.679762,"is_passed":false},{"stop_id":"U15175Z2","name":"Otmarov","arrival_time":"21:58:00","departure_time":"21:58:00","lat":49.100336,"lon":16.671844,"is_passed":false},{"stop_id":"U15176Z2","name":"Rajhradice, obalovna","arrival_time":"22:00:00","departure_time":"22:00:00","lat":49.096394,"lon":16.651454,"is_passed":false},{"stop_id":"U15144Z2","name":"Rajhradice, váha","arrival_time":"22:02:00","departure_time":"22:02:00","lat":49.09362,"lon":16.635452,"is_passed":false},{"stop_id":"U15145Z2","name":"Rebešovice","arrival_time":"22:04:00","departure_time":"22:04:00","lat":49.105028,"lon":16.638127,"is_passed":false},{"stop_id":"U15146Z2","name":"Rebešovice, Horky","arrival_time":"22:05:00","departure_time":"22:05:00","lat":49.108966,"lon":16.641733,"is_passed":false},{"stop_id":"U1182Z3","name":"Chrlice, smyčka","arrival_time":"22:08:00","departure_time":"22:08:00","lat":49.126855,"lon":16.655081,"is_passed":false},{"stop_id":"U1183Z2","name":"Chrlice, nádraží","arrival_time":"22:09:00","departure_time":"22:09:00","lat":49.132136,"lon":16.656638,"is_passed":false},{"stop_id":"U1187Z2","name":"Chrlické náměstí","arrival_time":"22:10:00","departure_time":"22:57:00","lat":49.13548,"lon":16.653876,"is_passed":false}],"13603":[{"stop_id":"U1187Z1","name":"Chrlické náměstí","arrival_time":"22:57:00","departure_time":"22:57:00","lat":49.135283,"lon":16.653902,"is_passed":false},{"stop_id":"U1183Z1","name":"Chrlice, nádraží","arrival_time":"22:58:00","departure_time":"22:58:00","lat":49.131712,"lon":16.656596,"is_passed":false},{"stop_id":"U1182Z4","name":"Chrlice, smyčka","arrival_time":"22:59:00","departure_time":"22:59:00","lat":49.126443,"lon":16.654784,"is_passed":false},{"stop_id":"U15146Z1","name":"Rebešovice, Horky","arrival_time":"23:02:00","departure_time":"23:02:00","lat":49.108356,"lon":16.64093,"is_passed":false},{"stop_id":"U15145Z1","name":"Rebešovice","arrival_time":"23:03:00","departure_time":"23:03:00","lat":49.10491,"lon":16.637941,"is_passed":false},{"stop_id":"U15144Z1","name":"Rajhradice, váha","arrival_time":"23:06:00","departure_time":"23:06:00","lat":49.093623,"lon":16.63553,"is_passed":false},{"stop_id":"U15176Z1","name":"Rajhradice, obalovna","arrival_time":"23:08:00","departure_time":"23:08:00","lat":49.0964,"lon":16.651802,"is_passed":false},{"stop_id":"U15175Z1","name":"Otmarov","arrival_time":"23:10:00","departure_time":"23:10:00","lat":49.100468,"lon":16.672571,"is_passed":false},{"stop_id":"U15133Z1","name":"Otmarov, chaloupka","arrival_time":"23:11:00","departure_time":"23:11:00","lat":49.09991,"lon":16.681232,"is_passed":false},{"stop_id":"U15154Z1","name":"Měnín, ZD","arrival_time":"23:13:00","departure_time":"23:13:00","lat":49.091455,"lon":16.689825,"is_passed":false},{"stop_id":"U15128Z1","name":"Měnín, u mlýna","arrival_time":"23:14:00","departure_time":"23:14:00","lat":49.084102,"lon":16.694181,"is_passed":false},{"stop_id":"U15165Z1","name":"Měnín, obchodní středisko","arrival_time":"23:16:00","departure_time":"23:16:00","lat":49.079732,"lon":16.693543,"is_passed":false}],"13604":[{"stop_id":"U15165Z1","name":"Měnín, obchodní středisko","arrival_time":"23:16:00","departure_time":"23:16:00","lat":49.079732,"lon":16.693543,"is_passed":false},{"stop_id":"U15125Z1","name":"Měnín, Albrechtov","arrival_time":"23:18:00","departure_time":"23:18:00","lat":49.068535,"lon":16.682603,"is_passed":false},{"stop_id":"U15216Z1","name":"Blučina, hřbitov","arrival_time":"23:21:00","departure_time":"23:21:00","lat":49.052406,"lon":16.657125,"is_passed":false},{"stop_id":"U15214Z3","name":"Blučina, náměstí","arrival_time":"23:24:00","departure_time":"23:24:00","lat":49.054957,"lon":16.646473,"is_passed":false}],"13605":[{"stop_id":"U15214Z2","name":"Blučina, náměstí","arrival_time":"23:24:00","departure_time":"23:24:00","lat":49.054872,"lon":16.646478,"is_passed":false},{"stop_id":"U15216Z2","name":"Blučina, hřbitov","arrival_time":"23:26:00","departure_time":"23:26:00","lat":49.05241,"lon":16.656709,"is_passed":false},{"stop_id":"U15125Z2","name":"Měnín, Albrechtov","arrival_time":"23:29:00","departure_time":"23:29:00","lat":49.068523,"lon":16.682727,"is_passed":false},{"stop_id":"U15165Z2","name":"Měnín, obchodní středisko","arrival_time":"23:31:00","departure_time":"23:31:00","lat":49.079732,"lon":16.693543,"is_passed":false}],"13606":[{"stop_id":"U14213Z1","name":"Radostice, kostel","arrival_time":"4:30:00","departure_time":"4:30:00","lat":49.131522,"lon":16.477831,"is_passed":false},{"stop_id":"U14209Z2","name":"Prštice, u zámku","arrival_time":"4:33:00","departure_time":"4:33:00","lat":49.118063,"lon":16.473357,"is_passed":false},{"stop_id":"U14208Z2","name":"Prštice, rozcestí Hlína","arrival_time":"4:34:00","departure_time":"4:34:00","lat":49.113508,"lon":16.468452,"is_passed":false},{"stop_id":"U14210Z2","name":"Silůvky","arrival_time":"4:36:00","departure_time":"4:36:00","lat":49.105918,"lon":16.468362,"is_passed":false},{"stop_id":"U14203Z2","name":"Ořechov, kravín","arrival_time":"4:39:00","departure_time":"4:39:00","lat":49.10861,"lon":16.496173,"is_passed":false},{"stop_id":"U14201Z2","name":"Ořechov, Jeřábkova","arrival_time":"4:41:00","departure_time":"4:41:00","lat":49.108927,"lon":16.512613,"is_passed":false},{"stop_id":"U14204Z2","name":"Ořechov, obecní úřad","arrival_time":"4:43:00","departure_time":"4:43:00","lat":49.111497,"lon":16.51816,"is_passed":false},{"stop_id":"U14207Z2","name":"Ořechov, zdravotní středisko","arrival_time":"4:45:00","departure_time":"4:45:00","lat":49.11048,"lon":16.527158,"is_passed":false},{"stop_id":"U14206Z2","name":"Ořechov, tábor","arrival_time":"4:46:00","departure_time":"4:46:00","lat":49.11015,"lon":16.539909,"is_passed":false},{"stop_id":"U15101Z2","name":"Hajany","arrival_time":"4:48:00","departure_time":"4:48:00","lat":49.110659,"lon":16.554994,"is_passed":false},{"stop_id":"U15162Z2","name":"Želešice, u dálnice","arrival_time":"4:50:00","departure_time":"4:50:00","lat":49.115092,"lon":16.569087,"is_passed":false},{"stop_id":"U15180Z2","name":"Želešice, u Sulzrů","arrival_time":"4:52:00","departure_time":"4:52:00","lat":49.116762,"lon":16.577892,"is_passed":false},{"stop_id":"U15120Z2","name":"Želešice, hostinec","arrival_time":"4:53:00","departure_time":"4:53:00","lat":49.116718,"lon":16.581256,"is_passed":false},{"stop_id":"U15121Z2","name":"Želešice, na kopci","arrival_time":"4:54:00","departure_time":"4:54:00","lat":49.118595,"lon":16.593624,"is_passed":false},{"stop_id":"U15134Z1","name":"Modřice, smyčka","arrival_time":"4:58:00","departure_time":"4:58:00","lat":49.127138,"lon":16.604706,"is_passed":false},{"stop_id":"U15122Z2","name":"Modřice, Brněnská","arrival_time":"4:58:00","departure_time":"4:58:00","lat":49.129392,"lon":16.604987,"is_passed":false},{"stop_id":"U15140Z3","name":"Modřice, železniční stanice","arrival_time":"5:01:00","departure_time":"5:01:00","lat":49.133518,"lon":16.606731,"is_passed":false},{"stop_id":"U15126Z2","name":"Modřice, Husova","arrival_time":"5:02:00","departure_time":"5:02:00","lat":49.132153,"lon":16.612307,"is_passed":false},{"stop_id":"U15127Z1","name":"Modřice, Masarykova","arrival_time":"5:03:00","departure_time":"5:03:00","lat":49.130994,"lon":16.614563,"is_passed":false},{"stop_id":"U15129Z1","name":"Modřice, náměstí","arrival_time":"5:05:00","departure_time":"5:05:00","lat":49.127673,"lon":16.615841,"is_passed":false},{"stop_id":"U15139Z1","name":"Modřice, Za mlýnem","arrival_time":"5:06:00","departure_time":"5:06:00","lat":49.130699,"lon":16.624761,"is_passed":false},{"stop_id":"U15124Z1","name":"Modřice, Drůbežářské závody","arrival_time":"5:07:00","departure_time":"5:07:00","lat":49.133319,"lon":16.63039,"is_passed":false},{"stop_id":"U15130Z3","name":"Modřice, Olympia","arrival_time":"5:10:00","departure_time":"6:17:00","lat":49.139507,"lon":16.633749,"is_passed":false}],"13607":[{"stop_id":"U15130Z1","name":"Modřice, Olympia","arrival_time":"6:17:00","departure_time":"6:17:00","lat":49.139278,"lon":16.634036,"is_passed":false},{"stop_id":"U15132Z2","name":"Modřice, Olympia jih","arrival_time":"6:18:00","departure_time":"6:18:00","lat":49.135069,"lon":16.633864,"is_passed":false},{"stop_id":"U15124Z2","name":"Modřice, Drůbežářské závody","arrival_time":"6:19:00","departure_time":"6:19:00","lat":49.13409,"lon":16.631493,"is_passed":false},{"stop_id":"U15129Z2","name":"Modřice, náměstí","arrival_time":"6:21:00","departure_time":"6:21:00","lat":49.127756,"lon":16.616081,"is_passed":false},{"stop_id":"U15127Z2","name":"Modřice, Masarykova","arrival_time":"6:23:00","departure_time":"6:23:00","lat":49.131296,"lon":16.614624,"is_passed":false},{"stop_id":"U15126Z1","name":"Modřice, Husova","arrival_time":"6:24:00","departure_time":"6:24:00","lat":49.132247,"lon":16.61201,"is_passed":false},{"stop_id":"U15140Z4","name":"Modřice, železniční stanice","arrival_time":"6:26:00","departure_time":"6:26:00","lat":49.133918,"lon":16.606723,"is_passed":false},{"stop_id":"U15134Z2","name":"Modřice, smyčka","arrival_time":"6:31:00","departure_time":"6:31:00","lat":49.126517,"lon":16.604633,"is_passed":false},{"stop_id":"U15137Z4","name":"Modřice, Tyršova","arrival_time":"6:32:00","departure_time":"6:32:00","lat":49.129402,"lon":16.603203,"is_passed":false},{"stop_id":"U15121Z1","name":"Želešice, na kopci","arrival_time":"6:35:00","departure_time":"6:35:00","lat":49.118092,"lon":16.59048,"is_passed":false},{"stop_id":"U15120Z1","name":"Želešice, hostinec","arrival_time":"6:36:00","departure_time":"6:36:00","lat":49.1169,"lon":16.581776,"is_passed":false},{"stop_id":"U15180Z1","name":"Želešice, u Sulzrů","arrival_time":"6:37:00","departure_time":"6:37:00","lat":49.11668,"lon":16.577048,"is_passed":false},{"stop_id":"U15162Z1","name":"Želešice, u dálnice","arrival_time":"6:38:00","departure_time":"6:38:00","lat":49.115165,"lon":16.56894,"is_passed":false},{"stop_id":"U15101Z1","name":"Hajany","arrival_time":"6:40:00","departure_time":"6:40:00","lat":49.110681,"lon":16.55513,"is_passed":false},{"stop_id":"U14206Z1","name":"Ořechov, tábor","arrival_time":"6:42:00","departure_time":"6:42:00","lat":49.110213,"lon":16.539938,"is_passed":false},{"stop_id":"U14207Z1","name":"Ořechov, zdravotní středisko","arrival_time":"6:43:00","departure_time":"6:43:00","lat":49.110487,"lon":16.526989,"is_passed":false},{"stop_id":"U14204Z1","name":"Ořechov, obecní úřad","arrival_time":"6:44:00","departure_time":"6:44:00","lat":49.111535,"lon":16.518505,"is_passed":false},{"stop_id":"U14201Z1","name":"Ořechov, Jeřábkova","arrival_time":"6:46:00","departure_time":"6:46:00","lat":49.108887,"lon":16.512248,"is_passed":false},{"stop_id":"U14203Z1","name":"Ořechov, kravín","arrival_time":"6:47:00","departure_time":"6:47:00","lat":49.108683,"lon":16.49674,"is_passed":false},{"stop_id":"U14210Z1","name":"Silůvky","arrival_time":"6:50:00","departure_time":"6:50:00","lat":49.105977,"lon":16.468112,"is_passed":false},{"stop_id":"U14208Z1","name":"Prštice, rozcestí Hlína","arrival_time":"6:52:00","departure_time":"6:52:00","lat":49.113498,"lon":16.46853,"is_passed":false},{"stop_id":"U14209Z1","name":"Prštice, u zámku","arrival_time":"6:53:00","departure_time":"6:53:00","lat":49.117985,"lon":16.473368,"is_passed":false},{"stop_id":"U14213Z1","name":"Radostice, kostel","arrival_time":"6:57:00","departure_time":"7:00:00","lat":49.131522,"lon":16.477831,"is_passed":false}],"13608":[{"stop_id":"U14213Z1","name":"Radostice, kostel","arrival_time":"7:00:00","departure_time":"7:00:00","lat":49.131522,"lon":16.477831,"is_passed":false},{"stop_id":"U14209Z2","name":"Prštice, u zámku","arrival_time":"7:03:00","departure_time":"7:03:00","lat":49.118063,"lon":16.473357,"is_passed":false},{"stop_id":"U14208Z2","name":"Prštice, rozcestí Hlína","arrival_time":"7:04:00","departure_time":"7:04:00","lat":49.113508,"lon":16.468452,"is_passed":false},{"stop_id":"U14210Z2","name":"Silůvky","arrival_time":"7:06:00","departure_time":"7:06:00","lat":49.105918,"lon":16.468362,"is_passed":false},{"stop_id":"U14203Z2","name":"Ořechov, kravín","arrival_time":"7:09:00","departure_time":"7:09:00","lat":49.10861,"lon":16.496173,"is_passed":false},{"stop_id":"U14201Z2","name":"Ořechov, Jeřábkova","arrival_time":"7:11:00","departure_time":"7:11:00","lat":49.108927,"lon":16.512613,"is_passed":false},{"stop_id":"U14204Z2","name":"Ořechov, obecní úřad","arrival_time":"7:13:00","departure_time":"7:13:00","lat":49.111497,"lon":16.51816,"is_passed":false},{"stop_id":"U14207Z2","name":"Ořechov, zdravotní středisko","arrival_time":"7:15:00","departure_time":"7:15:00","lat":49.11048,"lon":16.527158,"is_passed":false},{"stop_id":"U14206Z2","name":"Ořechov, tábor","arrival_time":"7:16:00","departure_time":"7:16:00","lat":49.11015,"lon":16.539909,"is_passed":false},{"stop_id":"U15101Z2","name":"Hajany","arrival_time":"7:18:00","departure_time":"7:18:00","lat":49.110659,"lon":16.554994,"is_passed":false},{"stop_id":"U15162Z2","name":"Želešice, u dálnice","arrival_time":"7:20:00","departure_time":"7:20:00","lat":49.115092,"lon":16.569087,"is_passed":false},{"stop_id":"U15180Z2","name":"Želešice, u Sulzrů","arrival_time":"7:22:00","departure_time":"7:22:00","lat":49.116762,"lon":16.577892,"is_passed":false},{"stop_id":"U15120Z2","name":"Želešice, hostinec","arrival_time":"7:23:00","departure_time":"7:23:00","lat":49.116718,"lon":16.581256,"is_passed":false},{"stop_id":"U15121Z2","name":"Želešice, na kopci","arrival_time":"7:24:00","departure_time":"7:24:00","lat":49.118595,"lon":16.593624,"is_passed":false},{"stop_id":"U15134Z1","name":"Modřice, smyčka","arrival_time":"7:28:00","departure_time":"7:28:00","lat":49.127138,"lon":16.604706,"is_passed":false},{"stop_id":"U15122Z2","name":"Modřice, Brněnská","arrival_time":"7:28:00","departure_time":"7:28:00","lat":49.129392,"lon":16.604987,"is_passed":false},{"stop_id":"U15140Z3","name":"Modřice, železniční stanice","arrival_time":"7:31:00","departure_time":"7:31:00","lat":49.133518,"lon":16.606731,"is_passed":false},{"stop_id":"U15126Z2","name":"Modřice, Husova","arrival_time":"7:32:00","departure_time":"7:32:00","lat":49.132153,"lon":16.612307,"is_passed":false},{"stop_id":"U15127Z1","name":"Modřice, Masarykova","arrival_time":"7:33:00","departure_time":"7:33:00","lat":49.130994,"lon":16.614563,"is_passed":false},{"stop_id":"U15129Z1","name":"Modřice, náměstí","arrival_time":"7:35:00","departure_time":"7:35:00","lat":49.127673,"lon":16.615841,"is_passed":false},{"stop_id":"U15139Z1","name":"Modřice, Za mlýnem","arrival_time":"7:36:00","departure_time":"7:36:00","lat":49.130699,"lon":16.624761,"is_passed":false},{"stop_id":"U15124Z1","name":"Modřice, Drůbežářské závody","arrival_time":"7:37:00","departure_time":"7:37:00","lat":49.133319,"lon":16.63039,"is_passed":false},{"stop_id":"U15130Z3","name":"Modřice, Olympia","arrival_time":"7:40:00","departure_time":"8:17:00","lat":49.139507,"lon":16.633749,"is_passed":false}],"13609":[{"stop_id":"U15130Z1","name":"Modřice, Olympia","arrival_time":"8:17:00","departure_time":"8:17:00","lat":49.139278,"lon":16.634036,"is_passed":false},{"stop_id":"U15132Z2","name":"Modřice, Olympia jih","arrival_time":"8:18:00","departure_time":"8:18:00","lat":49.135069,"lon":16.633864,"is_passed":false},{"stop_id":"U15124Z2","name":"Modřice, Drůbežářské závody","arrival_time":"8:19:00","departure_time":"8:19:00","lat":49.13409,"lon":16.631493,"is_passed":false},{"stop_id":"U15129Z2","name":"Modřice, náměstí","arrival_time":"8:21:00","departure_time":"8:21:00","lat":49.127756,"lon":16.616081,"is_passed":false},{"stop_id":"U15127Z2","name":"Modřice, Masarykova","arrival_time":"8:23:00","departure_time":"8:23:00","lat":49.131296,"lon":16.614624,"is_passed":false},{"stop_id":"U15126Z1","name":"Modřice, Husova","arrival_time":"8:24:00","departure_time":"8:24:00","lat":49.132247,"lon":16.61201,"is_passed":false},{"stop_id":"U15140Z4","name":"Modřice, železniční stanice","arrival_time":"8:26:00","departure_time":"8:26:00","lat":49.133918,"lon":16.606723,"is_passed":false},{"stop_id":"U15134Z2","name":"Modřice, smyčka","arrival_time":"8:31:00","departure_time":"8:31:00","lat":49.126517,"lon":16.604633,"is_passed":false},{"stop_id":"U15137Z4","name":"Modřice, Tyršova","arrival_time":"8:32:00","departure_time":"8:32:00","lat":49.129402,"lon":16.603203,"is_passed":false},{"stop_id":"U15121Z1","name":"Želešice, na kopci","arrival_time":"8:35:00","departure_time":"8:35:00","lat":49.118092,"lon":16.59048,"is_passed":false},{"stop_id":"U15120Z1","name":"Želešice, hostinec","arrival_time":"8:36:00","departure_time":"8:36:00","lat":49.1169,"lon":16.581776,"is_passed":false},{"stop_id":"U15180Z1","name":"Želešice, u Sulzrů","arrival_time":"8:37:00","departure_time":"8:37:00","lat":49.11668,"lon":16.577048,"is_passed":false},{"stop_id":"U15162Z1","name":"Želešice, u dálnice","arrival_time":"8:38:00","departure_time":"8:38:00","lat":49.115165,"lon":16.56894,"is_passed":false},{"stop_id":"U15101Z1","name":"Hajany","arrival_time":"8:40:00","departure_time":"8:40:00","lat":49.110681,"lon":16.55513,"is_passed":false},{"stop_id":"U14206Z1","name":"Ořechov, tábor","arrival_time":"8:42:00","departure_time":"8:42:00","lat":49.110213,"lon":16.539938,"is_passed":false},{"stop_id":"U14207Z1","name":"Ořechov, zdravotní středisko","arrival_time":"8:43:00","departure_time":"8:43:00","lat":49.110487,"lon":16.526989,"is_passed":false},{"stop_id":"U14204Z1","name":"Ořechov, obecní úřad","arrival_time":"8:44:00","departure_time":"8:44:00","lat":49.111535,"lon":16.518505,"is_passed":false},{"stop_id":"U14201Z3","name":"Ořechov, Jeřábkova","arrival_time":"8:46:00","departure_time":"9:11:00","lat":49.108927,"lon":16.512613,"is_passed":false}],"13610":[{"stop_id":"U14201Z2","name":"Ořechov, Jeřábkova","arrival_time":"9:11:00","departure_time":"9:11:00","lat":49.108927,"lon":16.512613,"is_passed":false},{"stop_id":"U14204Z2","name":"Ořechov, obecní úřad","arrival_time":"9:13:00","departure_time":"9:13:00","lat":49.111497,"lon":16.51816,"is_passed":false},{"stop_id":"U14207Z2","name":"Ořechov, zdravotní středisko","arrival_time":"9:15:00","departure_time":"9:15:00","lat":49.11048,"lon":16.527158,"is_passed":false},{"stop_id":"U14206Z2","name":"Ořechov, tábor","arrival_time":"9:16:00","departure_time":"9:16:00","lat":49.11015,"lon":16.539909,"is_passed":false},{"stop_id":"U15101Z2","name":"Hajany","arrival_time":"9:18:00","departure_time":"9:18:00","lat":49.110659,"lon":16.554994,"is_passed":false},{"stop_id":"U15162Z2","name":"Želešice, u dálnice","arrival_time":"9:20:00","departure_time":"9:20:00","lat":49.115092,"lon":16.569087,"is_passed":false},{"stop_id":"U15180Z2","name":"Želešice, u Sulzrů","arrival_time":"9:22:00","departure_time":"9:22:00","lat":49.116762,"lon":16.577892,"is_passed":false},{"stop_id":"U15120Z2","name":"Želešice, hostinec","arrival_time":"9:23:00","departure_time":"9:23:00","lat":49.116718,"lon":16.581256,"is_passed":false},{"stop_id":"U15121Z2","name":"Želešice, na kopci","arrival_time":"9:24:00","departure_time":"9:24:00","lat":49.118595,"lon":16.593624,"is_passed":false},{"stop_id":"U15134Z1","name":"Modřice, smyčka","arrival_time":"9:28:00","departure_time":"9:28:00","lat":49.127138,"lon":16.604706,"is_passed":false},{"stop_id":"U15122Z2","name":"Modřice, Brněnská","arrival_time":"9:28:00","departure_time":"9:28:00","lat":49.129392,"lon":16.604987,"is_passed":false},{"stop_id":"U15140Z3","name":"Modřice, železniční stanice","arrival_time":"9:31:00","departure_time":"9:31:00","lat":49.133518,"lon":16.606731,"is_passed":false},{"stop_id":"U15126Z2","name":"Modřice, Husova","arrival_time":"9:32:00","departure_time":"9:32:00","lat":49.132153,"lon":16.612307,"is_passed":false},{"stop_id":"U15127Z1","name":"Modřice, Masarykova","arrival_time":"9:33:00","departure_time":"9:33:00","lat":49.130994,"lon":16.614563,"is_passed":false},{"stop_id":"U15129Z1","name":"Modřice, náměstí","arrival_time":"9:35:00","departure_time":"9:35:00","lat":49.127673,"lon":16.615841,"is_passed":false},{"stop_id":"U15139Z1","name":"Modřice, Za mlýnem","arrival_time":"9:36:00","departure_time":"9:36:00","lat":49.130699,"lon":16.624761,"is_passed":false},{"stop_id":"U15124Z1","name":"Modřice, Drůbežářské závody","arrival_time":"9:37:00","departure_time":"9:37:00","lat":49.133319,"lon":16.63039,"is_passed":false},{"stop_id":"U15130Z3","name":"Modřice, Olympia","arrival_time":"9:40:00","departure_time":"10:17:00","lat":49.139507,"lon":16.633749,"is_passed":false}],"13611":[{"stop_id":"U15130Z1","name":"Modřice, Olympia","arrival_time":"10:17:00","departure_time":"10:17:00","lat":49.139278,"lon":16.634036,"is_passed":false},{"stop_id":"U15132Z2","name":"Modřice, Olympia jih","arrival_time":"10:18:00","departure_time":"10:18:00","lat":49.135069,"lon":16.633864,"is_passed":false},{"stop_id":"U15124Z2","name":"Modřice, Drůbežářské závody","arrival_time":"10:19:00","departure_time":"10:19:00","lat":49.13409,"lon":16.631493,"is_passed":false},{"stop_id":"U15129Z2","name":"Modřice, náměstí","arrival_time":"10:21:00","departure_time":"10:21:00","lat":49.127756,"lon":16.616081,"is_passed":false},{"stop_id":"U15127Z2","name":"Modřice, Masarykova","arrival_time":"10:23:00","departure_time":"10:23:00","lat":49.131296,"lon":16.614624,"is_passed":false},{"stop_id":"U15126Z1","name":"Modřice, Husova","arrival_time":"10:24:00","departure_time":"10:24:00","lat":49.132247,"lon":16.61201,"is_passed":false},{"stop_id":"U15140Z4","name":"Modřice, železniční stanice","arrival_time":"10:26:00","departure_time":"10:26:00","lat":49.133918,"lon":16.606723,"is_passed":false},{"stop_id":"U15134Z2","name":"Modřice, smyčka","arrival_time":"10:31:00","departure_time":"10:31:00","lat":49.126517,"lon":16.604633,"is_passed":false},{"stop_id":"U15137Z4","name":"Modřice, Tyršova","arrival_time":"10:32:00","departure_time":"10:32:00","lat":49.129402,"lon":16.603203,"is_passed":false},{"stop_id":"U15121Z1","name":"Želešice, na kopci","arrival_time":"10:35:00","departure_time":"10:35:00","lat":49.118092,"lon":16.59048,"is_passed":false},{"stop_id":"U15120Z1","name":"Želešice, hostinec","arrival_time":"10:36:00","departure_time":"10:36:00","lat":49.1169,"lon":16.581776,"is_passed":false},{"stop_id":"U15180Z1","name":"Želešice, u Sulzrů","arrival_time":"10:37:00","departure_time":"10:37:00","lat":49.11668,"lon":16.577048,"is_passed":false},{"stop_id":"U15162Z1","name":"Želešice, u dálnice","arrival_time":"10:38:00","departure_time":"10:38:00","lat":49.115165,"lon":16.56894,"is_passed":false},{"stop_id":"U15101Z1","name":"Hajany","arrival_time":"10:40:00","departure_time":"10:40:00","lat":49.110681,"lon":16.55513,"is_passed":false},{"stop_id":"U14206Z1","name":"Ořechov, tábor","arrival_time":"10:42:00","departure_time":"10:42:00","lat":49.110213,"lon":16.539938,"is_passed":false},{"stop_id":"U14207Z1","name":"Ořechov, zdravotní středisko","arrival_time":"10:43:00","departure_time":"10:43:00","lat":49.110487,"lon":16.526989,"is_passed":false},{"stop_id":"U14204Z1","name":"Ořechov, obecní úřad","arrival_time":"10:44:00","departure_time":"10:44:00","lat":49.111535,"lon":16.518505,"is_passed":false},{"stop_id":"U14201Z3","name":"Ořechov, Jeřábkova","arrival_time":"10:46:00","departure_time":"11:11:00","lat":49.108927,"lon":16.512613,"is_passed":false}],"13612":[{"stop_id":"U14201Z2","name":"Ořechov, Jeřábkova","arrival_time":"11:11:00","departure_time":"11:11:00","lat":49.108927,"lon":16.512613,"is_passed":false},{"stop_id":"U14204Z2","name":"Ořechov, obecní úřad","arrival_time":"11:13:00","departure_time":"11:13:00","lat":49.111497,"lon":16.51816,"is_passed":false},{"stop_id":"U14207Z2","name":"Ořechov, zdravotní středisko","arrival_time":"11:15:00","departure_time":"11:15:00","lat":49.11048,"lon":16.527158,"is_passed":false},{"stop_id":"U14206Z2","name":"Ořechov, tábor","arrival_time":"11:16:00","departure_time":"11:16:00","lat":49.11015,"lon":16.539909,"is_passed":false},{"stop_id":"U15101Z2","name":"Hajany","arrival_time":"11:18:00","departure_time":"11:18:00","lat":49.110659,"lon":16.554994,"is_passed":false},{"stop_id":"U15162Z2","name":"Želešice, u dálnice","arrival_time":"11:20:00","departure_time":"11:20:00","lat":49.115092,"lon":16.569087,"is_passed":false},{"stop_id":"U15180Z2","name":"Želešice, u Sulzrů","arrival_time":"11:22:00","departure_time":"11:22:00","lat":49.116762,"lon":16.577892,"is_passed":false},{"stop_id":"U15120Z2","name":"Želešice, hostinec","arrival_time":"11:23:00","departure_time":"11:23:00","lat":49.116718,"lon":16.581256,"is_passed":false},{"stop_id":"U15121Z2","name":"Želešice, na kopci","arrival_time":"11:24:00","departure_time":"11:24:00","lat":49.118595,"lon":16.593624,"is_passed":false},{"stop_id":"U15134Z1","name":"Modřice, smyčka","arrival_time":"11:28:00","departure_time":"11:28:00","lat":49.127138,"lon":16.604706,"is_passed":false},{"stop_id":"U15122Z2","name":"Modřice, Brněnská","arrival_time":"11:28:00","departure_time":"11:28:00","lat":49.129392,"lon":16.604987,"is_passed":false},{"stop_id":"U15140Z3","name":"Modřice, železniční stanice","arrival_time":"11:31:00","departure_time":"11:31:00","lat":49.133518,"lon":16.606731,"is_passed":false},{"stop_id":"U15126Z2","name":"Modřice, Husova","arrival_time":"11:32:00","departure_time":"11:32:00","lat":49.132153,"lon":16.612307,"is_passed":false},{"stop_id":"U15127Z1","name":"Modřice, Masarykova","arrival_time":"11:33:00","departure_time":"11:33:00","lat":49.130994,"lon":16.614563,"is_passed":false},{"stop_id":"U15129Z1","name":"Modřice, náměstí","arrival_time":"11:35:00","departure_time":"11:35:00","lat":49.127673,"lon":16.615841,"is_passed":false},{"stop_id":"U15139Z1","name":"Modřice, Za mlýnem","arrival_time":"11:36:00","departure_time":"11:36:00","lat":49.130699,"lon":16.624761,"is_passed":false},{"stop_id":"U15124Z1","name":"Modřice, Drůbežářské závody","arrival_time":"11:37:00","departure_time":"11:37:00","lat":49.133319,"lon":16.63039,"is_passed":false},{"stop_id":"U15130Z3","name":"Modřice, Olympia","arrival_time":"11:40:00","departure_time":"12:17:00","lat":49.139507,"lon":16.633749,"is_passed":false}],"13613":[{"stop_id":"U15130Z1","name":"Modřice, Olympia","arrival_time":"12:17:00","departure_time":"12:17:00","lat":49.139278,"lon":16.634036,"is_passed":false},{"stop_id":"U15132Z2","name":"Modřice, Olympia jih","arrival_time":"12:18:00","departure_time":"12:18:00","lat":49.135069,"lon":16.633864,"is_passed":false},{"stop_id":"U15124Z2","name":"Modřice, Drůbežářské závody","arrival_time":"12:19:00","departure_time":"12:19:00","lat":49.13409,"lon":16.631493,"is_passed":false},{"stop_id":"U15129Z2","name":"Modřice, náměstí","arrival_time":"12:21:00","departure_time":"12:21:00","lat":49.127756,"lon":16.616081,"is_passed":false},{"stop_id":"U15127Z2","name":"Modřice, Masarykova","arrival_time":"12:23:00","departure_time":"12:23:00","lat":49.131296,"lon":16.614624,"is_passed":false},{"stop_id":"U15126Z1","name":"Modřice, Husova","arrival_time":"12:24:00","departure_time":"12:24:00","lat":49.132247,"lon":16.61201,"is_passed":false},{"stop_id":"U15140Z4","name":"Modřice, železniční stanice","arrival_time":"12:26:00","departure_time":"12:26:00","lat":49.133918,"lon":16.606723,"is_passed":false},{"stop_id":"U15134Z2","name":"Modřice, smyčka","arrival_time":"12:31:00","departure_time":"12:31:00","lat":49.126517,"lon":16.604633,"is_passed":false},{"stop_id":"U15137Z4","name":"Modřice, Tyršova","arrival_time":"12:32:00","departure_time":"12:32:00","lat":49.129402,"lon":16.603203,"is_passed":false},{"stop_id":"U15121Z1","name":"Želešice, na kopci","arrival_time":"12:35:00","departure_time":"12:35:00","lat":49.118092,"lon":16.59048,"is_passed":false},{"stop_id":"U15120Z1","name":"Želešice, hostinec","arrival_time":"12:36:00","departure_time":"12:36:00","lat":49.1169,"lon":16.581776,"is_passed":false},{"stop_id":"U15180Z1","name":"Želešice, u Sulzrů","arrival_time":"12:37:00","departure_time":"12:37:00","lat":49.11668,"lon":16.577048,"is_passed":false},{"stop_id":"U15162Z1","name":"Želešice, u dálnice","arrival_time":"12:38:00","departure_time":"12:38:00","lat":49.115165,"lon":16.56894,"is_passed":false},{"stop_id":"U15101Z1","name":"Hajany","arrival_time":"12:40:00","departure_time":"12:40:00","lat":49.110681,"lon":16.55513,"is_passed":false},{"stop_id":"U14206Z1","name":"Ořechov, tábor","arrival_time":"12:42:00","departure_time":"12:42:00","lat":49.110213,"lon":16.539938,"is_passed":false},{"stop_id":"U14207Z1","name":"Ořechov, zdravotní středisko","arrival_time":"12:43:00","departure_time":"12:43:00","lat":49.110487,"lon":16.526989,"is_passed":false},{"stop_id":"U14204Z1","name":"Ořechov, obecní úřad","arrival_time":"12:44:00","departure_time":"12:44:00","lat":49.111535,"lon":16.518505,"is_passed":false},{"stop_id":"U14201Z1","name":"Ořechov, Jeřábkova","arrival_time":"12:46:00","departure_time":"12:46:00","lat":49.108887,"lon":16.512248,"is_passed":false},{"stop_id":"U14203Z1","name":"Ořechov, kravín","arrival_time":"12:47:00","departure_time":"12:47:00","lat":49.108683,"lon":16.49674,"is_passed":false},{"stop_id":"U14210Z1","name":"Silůvky","arrival_time":"12:50:00","departure_time":"12:50:00","lat":49.105977,"lon":16.468112,"is_passed":false},{"stop_id":"U14208Z1","name":"Prštice, rozcestí Hlína","arrival_time":"12:52:00","departure_time":"12:52:00","lat":49.113498,"lon":16.46853,"is_passed":false},{"stop_id":"U14209Z1","name":"Prštice, u zámku","arrival_time":"12:53:00","departure_time":"12:53:00","lat":49.117985,"lon":16.473368,"is_passed":false},{"stop_id":"U14213Z1","name":"Radostice, kostel","arrival_time":"12:57:00","departure_time":"13:00:00","lat":49.131522,"lon":16.477831,"is_passed":false}],"13614":[{"stop_id":"U14213Z1","name":"Radostice, kostel","arrival_time":"13:00:00","departure_time":"13:00:00","lat":49.131522,"lon":16.477831,"is_passed":false},{"stop_id":"U14209Z2","name":"Prštice, u zámku","arrival_time":"13:03:00","departure_time":"13:03:00","lat":49.118063,"lon":16.473357,"is_passed":false},{"stop_id":"U14208Z2","name":"Prštice, rozcestí Hlína","arrival_time":"13:04:00","departure_time":"13:04:00","lat":49.113508,"lon":16.468452,"is_passed":false},{"stop_id":"U14210Z2","name":"Silůvky","arrival_time":"13:06:00","departure_time":"13:06:00","lat":49.105918,"lon":16.468362,"is_passed":false},{"stop_id":"U14203Z2","name":"Ořechov, kravín","arrival_time":"13:09:00","departure_time":"13:09:00","lat":49.10861,"lon":16.496173,"is_passed":false},{"stop_id":"U14201Z2","name":"Ořechov, Jeřábkova","arrival_time":"13:11:00","departure_time":"13:11:00","lat":49.108927,"lon":16.512613,"is_passed":false},{"stop_id":"U14204Z2","name":"Ořechov, obecní úřad","arrival_time":"13:13:00","departure_time":"13:13:00","lat":49.111497,"lon":16.51816,"is_passed":false},{"stop_id":"U14207Z2","name":"Ořechov, zdravotní středisko","arrival_time":"13:15:00","departure_time":"13:15:00","lat":49.11048,"lon":16.527158,"is_passed":false},{"stop_id":"U14206Z2","name":"Ořechov, tábor","arrival_time":"13:16:00","departure_time":"13:16:00","lat":49.11015,"lon":16.539909,"is_passed":false},{"stop_id":"U15101Z2","name":"Hajany","arrival_time":"13:18:00","departure_time":"13:18:00","lat":49.110659,"lon":16.554994,"is_passed":false},{"stop_id":"U15162Z2","name":"Želešice, u dálnice","arrival_time":"13:20:00","departure_time":"13:20:00","lat":49.115092,"lon":16.569087,"is_passed":false},{"stop_id":"U15180Z2","name":"Želešice, u Sulzrů","arrival_time":"13:22:00","departure_time":"13:22:00","lat":49.116762,"lon":16.577892,"is_passed":false},{"stop_id":"U15120Z2","name":"Želešice, hostinec","arrival_time":"13:23:00","departure_time":"13:23:00","lat":49.116718,"lon":16.581256,"is_passed":false},{"stop_id":"U15121Z2","name":"Želešice, na kopci","arrival_time":"13:24:00","departure_time":"13:24:00","lat":49.118595,"lon":16.593624,"is_passed":false},{"stop_id":"U15134Z1","name":"Modřice, smyčka","arrival_time":"13:28:00","departure_time":"13:28:00","lat":49.127138,"lon":16.604706,"is_passed":false},{"stop_id":"U15122Z2","name":"Modřice, Brněnská","arrival_time":"13:28:00","departure_time":"13:28:00","lat":49.129392,"lon":16.604987,"is_passed":false},{"stop_id":"U15140Z3","name":"Modřice, železniční stanice","arrival_time":"13:31:00","departure_time":"13:31:00","lat":49.133518,"lon":16.606731,"is_passed":false},{"stop_id":"U15126Z2","name":"Modřice, Husova","arrival_time":"13:32:00","departure_time":"13:32:00","lat":49.132153,"lon":16.612307,"is_passed":false},{"stop_id":"U15127Z1","name":"Modřice, Masarykova","arrival_time":"13:33:00","departure_time":"13:33:00","lat":49.130994,"lon":16.614563,"is_passed":false},{"stop_id":"U15129Z1","name":"Modřice, náměstí","arrival_time":"13:35:00","departure_time":"13:35:00","lat":49.127673,"lon":16.615841,"is_passed":false},{"stop_id":"U15139Z1","name":"Modřice, Za mlýnem","arrival_time":"13:36:00","departure_time":"13:36:00","lat":49.130699,"lon":16.624761,"is_passed":false},{"stop_id":"U15124Z1","name":"Modřice, Drůbežářské závody","arrival_time":"13:37:00","departure_time":"13:37:00","lat":49.133319,"lon":16.63039,"is_passed":false},{"stop_id":"U15130Z3","name":"Modřice, Olympia","arrival_time":"13:40:00","departure_time":"14:17:00","lat":49.139507,"lon":16.633749,"is_passed":false}],"13615":[{"stop_id":"U15130Z1","name":"Modřice, Olympia","arrival_time":"14:17:00","departure_time":"14:17:00","lat":49.139278,"lon":16.634036,"is_passed":false},{"stop_id":"U15132Z2","name":"Modřice, Olympia jih","arrival_time":"14:18:00","departure_time":"14:18:00","lat":49.135069,"lon":16.633864,"is_passed":false},{"stop_id":"U15124Z2","name":"Modřice, Drůbežářské závody","arrival_time":"14:19:00","departure_time":"14:19:00","lat":49.13409,"lon":16.631493,"is_passed":false},{"stop_id":"U15129Z2","name":"Modřice, náměstí","arrival_time":"14:21:00","departure_time":"14:21:00","lat":49.127756,"lon":16.616081,"is_passed":false},{"stop_id":"U15127Z2","name":"Modřice, Masarykova","arrival_time":"14:23:00","departure_time":"14:23:00","lat":49.131296,"lon":16.614624,"is_passed":false},{"stop_id":"U15126Z1","name":"Modřice, Husova","arrival_time":"14:24:00","departure_time":"14:24:00","lat":49.132247,"lon":16.61201,"is_passed":false},{"stop_id":"U15140Z4","name":"Modřice, železniční stanice","arrival_time":"14:26:00","departure_time":"14:26:00","lat":49.133918,"lon":16.606723,"is_passed":false},{"stop_id":"U15134Z2","name":"Modřice, smyčka","arrival_time":"14:31:00","departure_time":"14:31:00","lat":49.126517,"lon":16.604633,"is_passed":false},{"stop_id":"U15137Z4","name":"Modřice, Tyršova","arrival_time":"14:32:00","departure_time":"14:32:00","lat":49.129402,"lon":16.603203,"is_passed":false},{"stop_id":"U15121Z1","name":"Želešice, na kopci","arrival_time":"14:35:00","departure_time":"14:35:00","lat":49.118092,"lon":16.59048,"is_passed":false},{"stop_id":"U15120Z1","name":"Želešice, hostinec","arrival_time":"14:36:00","departure_time":"14:36:00","lat":49.1169,"lon":16.581776,"is_passed":false},{"stop_id":"U15180Z1","name":"Želešice, u Sulzrů","arrival_time":"14:37:00","departure_time":"14:37:00","lat":49.11668,"lon":16.577048,"is_passed":false},{"stop_id":"U15162Z1","name":"Želešice, u dálnice","arrival_time":"14:38:00","departure_time":"14:38:00","lat":49.115165,"lon":16.56894,"is_passed":false},{"stop_id":"U15101Z1","name":"Hajany","arrival_time":"14:40:00","departure_time":"14:40:00","lat":49.110681,"lon":16.55513,"is_passed":false},{"stop_id":"U14206Z1","name":"Ořechov, tábor","arrival_time":"14:42:00","departure_time":"14:42:00","lat":49.110213,"lon":16.539938,"is_passed":false},{"stop_id":"U14207Z1","name":"Ořechov, zdravotní středisko","arrival_time":"14:43:00","departure_time":"14:43:00","lat":49.110487,"lon":16.526989,"is_passed":false},{"stop_id":"U14204Z1","name":"Ořechov, obecní úřad","arrival_time":"14:44:00","departure_time":"14:44:00","lat":49.111535,"lon":16.518505,"is_passed":false},{"stop_id":"U14201Z3","name":"Ořechov, Jeřábkova","arrival_time":"14:46:00","departure_time":"15:11:00","lat":49.108927,"lon":16.512613,"is_passed":false}],"13616":[{"stop_id":"U14201Z2","name":"Ořechov, Jeřábkova","arrival_time":"15:11:00","departure_time":"15:11:00","lat":49.108927,"lon":16.512613,"is_passed":false},{"stop_id":"U14204Z2","name":"Ořechov, obecní úřad","arrival_time":"15:13:00","departure_time":"15:13:00","lat":49.111497,"lon":16.51816,"is_passed":false},{"stop_id":"U14207Z2","name":"Ořechov, zdravotní středisko","arrival_time":"15:15:00","departure_time":"15:15:00","lat":49.11048,"lon":16.527158,"is_passed":false},{"stop_id":"U14206Z2","name":"Ořechov, tábor","arrival_time":"15:16:00","departure_time":"15:16:00","lat":49.11015,"lon":16.539909,"is_passed":false},{"stop_id":"U15101Z2","name":"Hajany","arrival_time":"15:18:00","departure_time":"15:18:00","lat":49.110659,"lon":16.554994,"is_passed":false},{"stop_id":"U15162Z2","name":"Želešice, u dálnice","arrival_time":"15:20:00","departure_time":"15:20:00","lat":49.115092,"lon":16.569087,"is_passed":false},{"stop_id":"U15180Z2","name":"Želešice, u Sulzrů","arrival_time":"15:22:00","departure_time":"15:22:00","lat":49.116762,"lon":16.577892,"is_passed":false},{"stop_id":"U15120Z2","name":"Želešice, hostinec","arrival_time":"15:23:00","departure_time":"15:23:00","lat":49.116718,"lon":16.581256,"is_passed":false},{"stop_id":"U15121Z2","name":"Želešice, na kopci","arrival_time":"15:24:00","departure_time":"15:24:00","lat":49.118595,"lon":16.593624,"is_passed":false},{"stop_id":"U15134Z1","name":"Modřice, smyčka","arrival_time":"15:28:00","departure_time":"15:28:00","lat":49.127138,"lon":16.604706,"is_passed":false},{"stop_id":"U15122Z2","name":"Modřice, Brněnská","arrival_time":"15:28:00","departure_time":"15:28:00","lat":49.129392,"lon":16.604987,"is_passed":false},{"stop_id":"U15140Z3","name":"Modřice, železniční stanice","arrival_time":"15:31:00","departure_time":"15:31:00","lat":49.133518,"lon":16.606731,"is_passed":false},{"stop_id":"U15126Z2","name":"Modřice, Husova","arrival_time":"15:32:00","departure_time":"15:32:00","lat":49.132153,"lon":16.612307,"is_passed":false},{"stop_id":"U15127Z1","name":"Modřice, Masarykova","arrival_time":"15:33:00","departure_time":"15:33:00","lat":49.130994,"lon":16.614563,"is_passed":false},{"stop_id":"U15129Z1","name":"Modřice, náměstí","arrival_time":"15:35:00","departure_time":"15:35:00","lat":49.127673,"lon":16.615841,"is_passed":false},{"stop_id":"U15139Z1","name":"Modřice, Za mlýnem","arrival_time":"15:36:00","departure_time":"15:36:00","lat":49.130699,"lon":16.624761,"is_passed":false},{"stop_id":"U15124Z1","name":"Modřice, Drůbežářské závody","arrival_time":"15:37:00","departure_time":"15:37:00","lat":49.133319,"lon":16.63039,"is_passed":false},{"stop_id":"U15130Z3","name":"Modřice, Olympia","arrival_time":"15:40:00","departure_time":"16:17:00","lat":49.139507,"lon":16.633749,"is_passed":false}],"13617":[{"stop_id":"U15130Z1","name":"Modřice, Olympia","arrival_time":"16:17:00","departure_time":"16:17:00","lat":49.139278,"lon":16.634036,"is_passed":false},{"stop_id":"U15132Z2","name":"Modřice, Olympia jih","arrival_time":"16:18:00","departure_time":"16:18:00","lat":49.135069,"lon":16.633864,"is_passed":false},{"stop_id":"U15124Z2","name":"Modřice, Drůbežářské závody","arrival_time":"16:19:00","departure_time":"16:19:00","lat":49.13409,"lon":16.631493,"is_passed":false},{"stop_id":"U15129Z2","name":"Modřice, náměstí","arrival_time":"16:21:00","departure_time":"16:21:00","lat":49.127756,"lon":16.616081,"is_passed":false},{"stop_id":"U15127Z2","name":"Modřice, Masarykova","arrival_time":"16:23:00","departure_time":"16:23:00","lat":49.131296,"lon":16.614624,"is_passed":false},{"stop_id":"U15126Z1","name":"Modřice, Husova","arrival_time":"16:24:00","departure_time":"16:24:00","lat":49.132247,"lon":16.61201,"is_passed":false},{"stop_id":"U15140Z4","name":"Modřice, železniční stanice","arrival_time":"16:26:00","departure_time":"16:26:00","lat":49.133918,"lon":16.606723,"is_passed":false},{"stop_id":"U15134Z2","name":"Modřice, smyčka","arrival_time":"16:31:00","departure_time":"16:31:00","lat":49.126517,"lon":16.604633,"is_passed":false},{"stop_id":"U15137Z4","name":"Modřice, Tyršova","arrival_time":"16:32:00","departure_time":"16:32:00","lat":49.129402,"lon":16.603203,"is_passed":false},{"stop_id":"U15121Z1","name":"Želešice, na kopci","arrival_time":"16:35:00","departure_time":"16:35:00","lat":49.118092,"lon":16.59048,"is_passed":false},{"stop_id":"U15120Z1","name":"Želešice, hostinec","arrival_time":"16:36:00","departure_time":"16:36:00","lat":49.1169,"lon":16.581776,"is_passed":false},{"stop_id":"U15180Z1","name":"Želešice, u Sulzrů","arrival_time":"16:37:00","departure_time":"16:37:00","lat":49.11668,"lon":16.577048,"is_passed":false},{"stop_id":"U15162Z1","name":"Želešice, u dálnice","arrival_time":"16:38:00","departure_time":"16:38:00","lat":49.115165,"lon":16.56894,"is_passed":false},{"stop_id":"U15101Z1","name":"Hajany","arrival_time":"16:40:00","departure_time":"16:40:00","lat":49.110681,"lon":16.55513,"is_passed":false},{"stop_id":"U14206Z1","name":"Ořechov, tábor","arrival_time":"16:42:00","departure_time":"16:42:00","lat":49.110213,"lon":16.539938,"is_passed":false},{"stop_id":"U14207Z1","name":"Ořechov, zdravotní středisko","arrival_time":"16:43:00","departure_time":"16:43:00","lat":49.110487,"lon":16.526989,"is_passed":false},{"stop_id":"U14204Z1","name":"Ořechov, obecní úřad","arrival_time":"16:44:00","departure_time":"16:44:00","lat":49.111535,"lon":16.518505,"is_passed":false},{"stop_id":"U14201Z3","name":"Ořechov, Jeřábkova","arrival_time":"16:46:00","departure_time":"17:11:00","lat":49.108927,"lon":16.512613,"is_passed":false}],"13618":[{"stop_id":"U14201Z2","name":"Ořechov, Jeřábkova","arrival_time":"17:11:00","departure_time":"17:11:00","lat":49.108927,"lon":16.512613,"is_passed":false},{"stop_id":"U14204Z2","name":"Ořechov, obecní úřad","arrival_time":"17:13:00","departure_time":"17:13:00","lat":49.111497,"lon":16.51816,"is_passed":false},{"stop_id":"U14207Z2","name":"Ořechov, zdravotní středisko","arrival_time":"17:15:00","departure_time":"17:15:00","lat":49.11048,"lon":16.527158,"is_passed":false},{"stop_id":"U14206Z2","name":"Ořechov, tábor","arrival_time":"17:16:00","departure_time":"17:16:00","lat":49.11015,"lon":16.539909,"is_passed":false},{"stop_id":"U15101Z2","name":"Hajany","arrival_time":"17:18:00","departure_time":"17:18:00","lat":49.110659,"lon":16.554994,"is_passed":false},{"stop_id":"U15162Z2","name":"Želešice, u dálnice","arrival_time":"17:20:00","departure_time":"17:20:00","lat":49.115092,"lon":16.569087,"is_passed":false},{"stop_id":"U15180Z2","name":"Želešice, u Sulzrů","arrival_time":"17:22:00","departure_time":"17:22:00","lat":49.116762,"lon":16.577892,"is_passed":false},{"stop_id":"U15120Z2","name":"Želešice, hostinec","arrival_time":"17:23:00","departure_time":"17:23:00","lat":49.116718,"lon":16.581256,"is_passed":false},{"stop_id":"U15121Z2","name":"Želešice, na kopci","arrival_time":"17:24:00","departure_time":"17:24:00","lat":49.118595,"lon":16.593624,"is_passed":false},{"stop_id":"U15134Z1","name":"Modřice, smyčka","arrival_time":"17:28:00","departure_time":"17:28:00","lat":49.127138,"lon":16.604706,"is_passed":false},{"stop_id":"U15122Z2","name":"Modřice, Brněnská","arrival_time":"17:28:00","departure_time":"17:28:00","lat":49.129392,"lon":16.604987,"is_passed":false},{"stop_id":"U15140Z3","name":"Modřice, železniční stanice","arrival_time":"17:31:00","departure_time":"17:31:00","lat":49.133518,"lon":16.606731,"is_passed":false},{"stop_id":"U15126Z2","name":"Modřice, Husova","arrival_time":"17:32:00","departure_time":"17:32:00","lat":49.132153,"lon":16.612307,"is_passed":false},{"stop_id":"U15127Z1","name":"Modřice, Masarykova","arrival_time":"17:33:00","departure_time":"17:33:00","lat":49.130994,"lon":16.614563,"is_passed":false},{"stop_id":"U15129Z1","name":"Modřice, náměstí","arrival_time":"17:35:00","departure_time":"17:35:00","lat":49.127673,"lon":16.615841,"is_passed":false},{"stop_id":"U15139Z1","name":"Modřice, Za mlýnem","arrival_time":"17:36:00","departure_time":"17:36:00","lat":49.130699,"lon":16.624761,"is_passed":false},{"stop_id":"U15124Z1","name":"Modřice, Drůbežářské závody","arrival_time":"17:37:00","departure_time":"17:37:00","lat":49.133319,"lon":16.63039,"is_passed":false},{"stop_id":"U15130Z3","name":"Modřice, Olympia","arrival_time":"17:40:00","departure_time":"18:17:00","lat":49.139507,"lon":16.633749,"is_passed":false}],"13619":[{"stop_id":"U15130Z1","name":"Modřice, Olympia","arrival_time":"18:17:00","departure_time":"18:17:00","lat":49.139278,"lon":16.634036,"is_passed":false},{"stop_id":"U15132Z2","name":"Modřice, Olympia jih","arrival_time":"18:18:00","departure_time":"18:18:00","lat":49.135069,"lon":16.633864,"is_passed":false},{"stop_id":"U15124Z2","name":"Modřice, Drůbežářské závody","arrival_time":"18:19:00","departure_time":"18:19:00","lat":49.13409,"lon":16.631493,"is_passed":false},{"stop_id":"U15129Z2","name":"Modřice, náměstí","arrival_time":"18:21:00","departure_time":"18:21:00","lat":49.127756,"lon":16.616081,"is_passed":false},{"stop_id":"U15127Z2","name":"Modřice, Masarykova","arrival_time":"18:23:00","departure_time":"18:23:00","lat":49.131296,"lon":16.614624,"is_passed":false},{"stop_id":"U15126Z1","name":"Modřice, Husova","arrival_time":"18:24:00","departure_time":"18:24:00","lat":49.132247,"lon":16.61201,"is_passed":false},{"stop_id":"U15140Z4","name":"Modřice, železniční stanice","arrival_time":"18:26:00","departure_time":"18:26:00","lat":49.133918,"lon":16.606723,"is_passed":false},{"stop_id":"U15134Z2","name":"Modřice, smyčka","arrival_time":"18:31:00","departure_time":"18:31:00","lat":49.126517,"lon":16.604633,"is_passed":false},{"stop_id":"U15137Z4","name":"Modřice, Tyršova","arrival_time":"18:32:00","departure_time":"18:32:00","lat":49.129402,"lon":16.603203,"is_passed":false},{"stop_id":"U15121Z1","name":"Želešice, na kopci","arrival_time":"18:35:00","departure_time":"18:35:00","lat":49.118092,"lon":16.59048,"is_passed":false},{"stop_id":"U15120Z1","name":"Želešice, hostinec","arrival_time":"18:36:00","departure_time":"18:36:00","lat":49.1169,"lon":16.581776,"is_passed":false},{"stop_id":"U15180Z1","name":"Želešice, u Sulzrů","arrival_time":"18:37:00","departure_time":"18:37:00","lat":49.11668,"lon":16.577048,"is_passed":false},{"stop_id":"U15162Z1","name":"Želešice, u dálnice","arrival_time":"18:38:00","departure_time":"18:38:00","lat":49.115165,"lon":16.56894,"is_passed":false},{"stop_id":"U15101Z1","name":"Hajany","arrival_time":"18:40:00","departure_time":"18:40:00","lat":49.110681,"lon":16.55513,"is_passed":false},{"stop_id":"U14206Z1","name":"Ořechov, tábor","arrival_time":"18:42:00","departure_time":"18:42:00","lat":49.110213,"lon":16.539938,"is_passed":false},{"stop_id":"U14207Z1","name":"Ořechov, zdravotní středisko","arrival_time":"18:43:00","departure_time":"18:43:00","lat":49.110487,"lon":16.526989,"is_passed":false},{"stop_id":"U14204Z1","name":"Ořechov, obecní úřad","arrival_time":"18:44:00","departure_time":"18:44:00","lat":49.111535,"lon":16.518505,"is_passed":false},{"stop_id":"U14201Z1","name":"Ořechov, Jeřábkova","arrival_time":"18:46:00","departure_time":"18:46:00","lat":49.108887,"lon":16.512248,"is_passed":false},{"stop_id":"U14203Z1","name":"Ořechov, kravín","arrival_time":"18:47:00","departure_time":"18:47:00","lat":49.108683,"lon":16.49674,"is_passed":false},{"stop_id":"U14210Z1","name":"Silůvky","arrival_time":"18:50:00","departure_time":"18:50:00","lat":49.105977,"lon":16.468112,"is_passed":false},{"stop_id":"U14208Z1","name":"Prštice, rozcestí Hlína","arrival_time":"18:52:00","departure_time":"18:52:00","lat":49.113498,"lon":16.46853,"is_passed":false},{"stop_id":"U14209Z1","name":"Prštice, u zámku","arrival_time":"18:53:00","departure_time":"18:53:00","lat":49.117985,"lon":16.473368,"is_passed":false},{"stop_id":"U14213Z1","name":"Radostice, kostel","arrival_time":"18:57:00","departure_time":"19:00:00","lat":49.131522,"lon":16.477831,"is_passed":false}],"13620":[{"stop_id":"U14213Z1","name":"Radostice, kostel","arrival_time":"19:00:00","departure_time":"19:00:00","lat":49.131522,"lon":16.477831,"is_passed":false},{"stop_id":"U14209Z2","name":"Prštice, u zámku","arrival_time":"19:03:00","departure_time":"19:03:00","lat":49.118063,"lon":16.473357,"is_passed":false},{"stop_id":"U14208Z2","name":"Prštice, rozcestí Hlína","arrival_time":"19:04:00","departure_time":"19:04:00","lat":49.113508,"lon":16.468452,"is_passed":false},{"stop_id":"U14210Z2","name":"Silůvky","arrival_time":"19:06:00","departure_time":"19:06:00","lat":49.105918,"lon":16.468362,"is_passed":false},{"stop_id":"U14203Z2","name":"Ořechov, kravín","arrival_time":"19:09:00","departure_time":"19:09:00","lat":49.10861,"lon":16.496173,"is_passed":false},{"stop_id":"U14201Z2","name":"Ořechov, Jeřábkova","arrival_time":"19:11:00","departure_time":"19:11:00","lat":49.108927,"lon":16.512613,"is_passed":false},{"stop_id":"U14204Z2","name":"Ořechov, obecní úřad","arrival_time":"19:13:00","departure_time":"19:13:00","lat":49.111497,"lon":16.51816,"is_passed":false},{"stop_id":"U14207Z2","name":"Ořechov, zdravotní středisko","arrival_time":"19:15:00","departure_time":"19:15:00","lat":49.11048,"lon":16.527158,"is_passed":false},{"stop_id":"U14206Z2","name":"Ořechov, tábor","arrival_time":"19:16:00","departure_time":"19:16:00","lat":49.11015,"lon":16.539909,"is_passed":false},{"stop_id":"U15101Z2","name":"Hajany","arrival_time":"19:18:00","departure_time":"19:18:00","lat":49.110659,"lon":16.554994,"is_passed":false},{"stop_id":"U15162Z2","name":"Želešice, u dálnice","arrival_time":"19:20:00","departure_time":"19:20:00","lat":49.115092,"lon":16.569087,"is_passed":false},{"stop_id":"U15180Z2","name":"Želešice, u Sulzrů","arrival_time":"19:22:00","departure_time":"19:22:00","lat":49.116762,"lon":16.577892,"is_passed":false},{"stop_id":"U15120Z2","name":"Želešice, hostinec","arrival_time":"19:23:00","departure_time":"19:23:00","lat":49.116718,"lon":16.581256,"is_passed":false},{"stop_id":"U15121Z2","name":"Želešice, na kopci","arrival_time":"19:24:00","departure_time":"19:24:00","lat":49.118595,"lon":16.593624,"is_passed":false},{"stop_id":"U15134Z1","name":"Modřice, smyčka","arrival_time":"19:28:00","departure_time":"19:28:00","lat":49.127138,"lon":16.604706,"is_passed":false},{"stop_id":"U15122Z2","name":"Modřice, Brněnská","arrival_time":"19:28:00","departure_time":"19:28:00","lat":49.129392,"lon":16.604987,"is_passed":false},{"stop_id":"U15140Z3","name":"Modřice, železniční stanice","arrival_time":"19:31:00","departure_time":"19:31:00","lat":49.133518,"lon":16.606731,"is_passed":false},{"stop_id":"U15126Z2","name":"Modřice, Husova","arrival_time":"19:32:00","departure_time":"19:32:00","lat":49.132153,"lon":16.612307,"is_passed":false},{"stop_id":"U15127Z1","name":"Modřice, Masarykova","arrival_time":"19:33:00","departure_time":"19:33:00","lat":49.130994,"lon":16.614563,"is_passed":false},{"stop_id":"U15129Z1","name":"Modřice, náměstí","arrival_time":"19:35:00","departure_time":"19:35:00","lat":49.127673,"lon":16.615841,"is_passed":false},{"stop_id":"U15139Z1","name":"Modřice, Za mlýnem","arrival_time":"19:36:00","departure_time":"19:36:00","lat":49.130699,"lon":16.624761,"is_passed":false},{"stop_id":"U15124Z1","name":"Modřice, Drůbežářské závody","arrival_time":"19:37:00","departure_time":"19:37:00","lat":49.133319,"lon":16.63039,"is_passed":false},{"stop_id":"U15130Z3","name":"Modřice, Olympia","arrival_time":"19:40:00","departure_time":"20:17:00","lat":49.139507,"lon":16.633749,"is_passed":false}],"13621":[{"stop_id":"U15130Z1","name":"Modřice, Olympia","arrival_time":"20:17:00","departure_time":"20:17:00","lat":49.139278,"lon":16.634036,"is_passed":false},{"stop_id":"U15132Z2","name":"Modřice, Olympia jih","arrival_time":"20:18:00","departure_time":"20:18:00","lat":49.135069,"lon":16.633864,"is_passed":false},{"stop_id":"U15124Z2","name":"Modřice, Drůbežářské závody","arrival_time":"20:19:00","departure_time":"20:19:00","lat":49.13409,"lon":16.631493,"is_passed":false},{"stop_id":"U15129Z2","name":"Modřice, náměstí","arrival_time":"20:21:00","departure_time":"20:21:00","lat":49.127756,"lon":16.616081,"is_passed":false},{"stop_id":"U15127Z2","name":"Modřice, Masarykova","arrival_time":"20:23:00","departure_time":"20:23:00","lat":49.131296,"lon":16.614624,"is_passed":false},{"stop_id":"U15126Z1","name":"Modřice, Husova","arrival_time":"20:24:00","departure_time":"20:24:00","lat":49.132247,"lon":16.61201,"is_passed":false},{"stop_id":"U15140Z4","name":"Modřice, železniční stanice","arrival_time":"20:26:00","departure_time":"20:26:00","lat":49.133918,"lon":16.606723,"is_passed":false},{"stop_id":"U15134Z2","name":"Modřice, smyčka","arrival_time":"20:31:00","departure_time":"20:31:00","lat":49.126517,"lon":16.604633,"is_passed":false},{"stop_id":"U15137Z4","name":"Modřice, Tyršova","arrival_time":"20:32:00","departure_time":"20:32:00","lat":49.129402,"lon":16.603203,"is_passed":false},{"stop_id":"U15121Z1","name":"Želešice, na kopci","arrival_time":"20:35:00","departure_time":"20:35:00","lat":49.118092,"lon":16.59048,"is_passed":false},{"stop_id":"U15120Z1","name":"Želešice, hostinec","arrival_time":"20:36:00","departure_time":"20:36:00","lat":49.1169,"lon":16.581776,"is_passed":false},{"stop_id":"U15180Z1","name":"Želešice, u Sulzrů","arrival_time":"20:37:00","departure_time":"20:37:00","lat":49.11668,"lon":16.577048,"is_passed":false},{"stop_id":"U15162Z1","name":"Želešice, u dálnice","arrival_time":"20:38:00","departure_time":"20:38:00","lat":49.115165,"lon":16.56894,"is_passed":false},{"stop_id":"U15101Z1","name":"Hajany","arrival_time":"20:40:00","departure_time":"20:40:00","lat":49.110681,"lon":16.55513,"is_passed":false},{"stop_id":"U14206Z1","name":"Ořechov, tábor","arrival_time":"20:42:00","departure_time":"20:42:00","lat":49.110213,"lon":16.539938,"is_passed":false},{"stop_id":"U14207Z1","name":"Ořechov, zdravotní středisko","arrival_time":"20:43:00","departure_time":"20:43:00","lat":49.110487,"lon":16.526989,"is_passed":false},{"stop_id":"U14204Z1","name":"Ořechov, obecní úřad","arrival_time":"20:44:00","departure_time":"20:44:00","lat":49.111535,"lon":16.518505,"is_passed":false},{"stop_id":"U14201Z3","name":"Ořechov, Jeřábkova","arrival_time":"20:46:00","departure_time":"21:12:00","lat":49.108927,"lon":16.512613,"is_passed":false}],"13622":[{"stop_id":"U14201Z2","name":"Ořechov, Jeřábkova","arrival_time":"21:12:00","departure_time":"21:12:00","lat":49.108927,"lon":16.512613,"is_passed":false},{"stop_id":"U14204Z2","name":"Ořechov, obecní úřad","arrival_time":"21:14:00","departure_time":"21:14:00","lat":49.111497,"lon":16.51816,"is_passed":false},{"stop_id":"U14207Z2","name":"Ořechov, zdravotní středisko","arrival_time":"21:15:00","departure_time":"21:15:00","lat":49.11048,"lon":16.527158,"is_passed":false},{"stop_id":"U14206Z2","name":"Ořechov, tábor","arrival_time":"21:16:00","departure_time":"21:16:00","lat":49.11015,"lon":16.539909,"is_passed":false},{"stop_id":"U15101Z2","name":"Hajany","arrival_time":"21:18:00","departure_time":"21:18:00","lat":49.110659,"lon":16.554994,"is_passed":false},{"stop_id":"U15162Z2","name":"Želešice, u dálnice","arrival_time":"21:20:00","departure_time":"21:20:00","lat":49.115092,"lon":16.569087,"is_passed":false},{"stop_id":"U15180Z2","name":"Želešice, u Sulzrů","arrival_time":"21:22:00","departure_time":"21:22:00","lat":49.116762,"lon":16.577892,"is_passed":false},{"stop_id":"U15120Z2","name":"Želešice, hostinec","arrival_time":"21:23:00","departure_time":"21:23:00","lat":49.116718,"lon":16.581256,"is_passed":false},{"stop_id":"U15121Z2","name":"Želešice, na kopci","arrival_time":"21:24:00","departure_time":"21:24:00","lat":49.118595,"lon":16.593624,"is_passed":false},{"stop_id":"U15134Z1","name":"Modřice, smyčka","arrival_time":"21:28:00","departure_time":"21:28:00","lat":49.127138,"lon":16.604706,"is_passed":false},{"stop_id":"U15122Z2","name":"Modřice, Brněnská","arrival_time":"21:28:00","departure_time":"21:28:00","lat":49.129392,"lon":16.604987,"is_passed":false},{"stop_id":"U15140Z3","name":"Modřice, železniční stanice","arrival_time":"21:31:00","departure_time":"21:31:00","lat":49.133518,"lon":16.606731,"is_passed":false},{"stop_id":"U15126Z2","name":"Modřice, Husova","arrival_time":"21:32:00","departure_time":"21:32:00","lat":49.132153,"lon":16.612307,"is_passed":false},{"stop_id":"U15127Z1","name":"Modřice, Masarykova","arrival_time":"21:33:00","departure_time":"21:33:00","lat":49.130994,"lon":16.614563,"is_passed":false},{"stop_id":"U15129Z1","name":"Modřice, náměstí","arrival_time":"21:35:00","departure_time":"21:35:00","lat":49.127673,"lon":16.615841,"is_passed":false},{"stop_id":"U15139Z1","name":"Modřice, Za mlýnem","arrival_time":"21:36:00","departure_time":"21:36:00","lat":49.130699,"lon":16.624761,"is_passed":false},{"stop_id":"U15124Z1","name":"Modřice, Drůbežářské závody","arrival_time":"21:37:00","departure_time":"21:37:00","lat":49.133319,"lon":16.63039,"is_passed":false},{"stop_id":"U15130Z3","name":"Modřice, Olympia","arrival_time":"21:40:00","departure_time":"22:47:00","lat":49.139507,"lon":16.633749,"is_passed":false}],"13623":[{"stop_id":"U15130Z1","name":"Modřice, Olympia","arrival_time":"22:47:00","departure_time":"22:47:00","lat":49.139278,"lon":16.634036,"is_passed":false},{"stop_id":"U15132Z2","name":"Modřice, Olympia jih","arrival_time":"22:48:00","departure_time":"22:48:00","lat":49.135069,"lon":16.633864,"is_passed":false},{"stop_id":"U15124Z2","name":"Modřice, Drůbežářské závody","arrival_time":"22:49:00","departure_time":"22:49:00","lat":49.13409,"lon":16.631493,"is_passed":false},{"stop_id":"U15129Z2","name":"Modřice, náměstí","arrival_time":"22:51:00","departure_time":"22:51:00","lat":49.127756,"lon":16.616081,"is_passed":false},{"stop_id":"U15127Z2","name":"Modřice, Masarykova","arrival_time":"22:53:00","departure_time":"22:53:00","lat":49.131296,"lon":16.614624,"is_passed":false},{"stop_id":"U15126Z1","name":"Modřice, Husova","arrival_time":"22:54:00","departure_time":"22:54:00","lat":49.132247,"lon":16.61201,"is_passed":false},{"stop_id":"U15140Z4","name":"Modřice, železniční stanice","arrival_time":"22:56:00","departure_time":"22:56:00","lat":49.133918,"lon":16.606723,"is_passed":false},{"stop_id":"U15134Z2","name":"Modřice, smyčka","arrival_time":"23:00:00","departure_time":"23:00:00","lat":49.126517,"lon":16.604633,"is_passed":false},{"stop_id":"U15137Z4","name":"Modřice, Tyršova","arrival_time":"23:01:00","departure_time":"23:01:00","lat":49.129402,"lon":16.603203,"is_passed":false},{"stop_id":"U15121Z1","name":"Želešice, na kopci","arrival_time":"23:04:00","departure_time":"23:04:00","lat":49.118092,"lon":16.59048,"is_passed":false},{"stop_id":"U15120Z1","name":"Želešice, hostinec","arrival_time":"23:05:00","departure_time":"23:05:00","lat":49.1169,"lon":16.581776,"is_passed":false},{"stop_id":"U15180Z1","name":"Želešice, u Sulzrů","arrival_time":"23:05:00","departure_time":"23:05:00","lat":49.11668,"lon":16.577048,"is_passed":false},{"stop_id":"U15162Z1","name":"Želešice, u dálnice","arrival_time":"23:06:00","departure_time":"23:06:00","lat":49.115165,"lon":16.56894,"is_passed":false},{"stop_id":"U15101Z1","name":"Hajany","arrival_time":"23:08:00","departure_time":"23:08:00","lat":49.110681,"lon":16.55513,"is_passed":false},