{"136":[{"stop_id":"U1696Z5","name":"ÚAN Zvonařka","arrival_time":"14:04:00","departure_time":"14:04:00","lat":49.185364,"lon":16.616151,"is_passed":false},{"stop_id":"U1677Z3","name":"Tržní","arrival_time":"14:08:00","departure_time":"14:08:00","lat":49.189342,"lon":16.630314,"is_passed":false},{"stop_id":"U17335Z2","name":"Rousínov, autobusová stanice","arrival_time":"14:28:00","departure_time":"14:29:00","lat":49.20291,"lon":16.88497,"is_passed":false},{"stop_id":"U17331Z1","name":"Rousínov, Čechyně, rozcestí","arrival_time":"14:31:00","departure_time":"14:31:00","lat":49.207062,"lon":16.891572,"is_passed":false},{"stop_id":"U17311Z3","name":"Komořany, EDP","arrival_time":"14:34:00","departure_time":"14:34:00","lat":49.220008,"lon":16.905058,"is_passed":false},{"stop_id":"U17344Z1","name":"Tučapy, rozcestí","arrival_time":"14:36:00","departure_time":"14:36:00","lat":49.227308,"lon":16.915917,"is_passed":false},{"stop_id":"U17328Z1","name":"Luleč, rozcestí","arrival_time":"14:38:00","departure_time":"14:38:00","lat":49.248113,"lon":16.944733,"is_passed":false},{"stop_id":"U17428Z1","name":"Vyškov, Drnovská Bioveta","arrival_time":"14:40:00","departure_time":"14:40:00","lat":49.254302,"lon":16.95682,"is_passed":false},{"stop_id":"U17435Z1","name":"Vyškov, Nouzka","arrival_time":"14:43:00","departure_time":"14:43:00","lat":49.267372,"lon":16.982268,"is_passed":false},{"stop_id":"U17429Z1","name":"Vyškov, garáže ČSAD","arrival_time":"14:44:00","departure_time":"14:44:00","lat":49.271332,"lon":16.989108,"is_passed":false},{"stop_id":"U17423Z21","name":"Vyškov, Autobusové nádraží","arrival_time":"14:46:00","departure_time":"15:16:00","lat":49.275819,"lon":16.992078,"is_passed":false}],"1360":[{"stop_id":"U1146Z98","name":"Hlavní nádraží","arrival_time":"10:15:00","departure_time":"10:15:00","lat":49.19035,"lon":16.612342,"is_passed":false},{"stop_id":"U1573Z11","name":"Slatina, nádraží","arrival_time":"10:26:00","departure_time":"10:27:00","lat":49.169478,"lon":16.682148,"is_passed":false},{"stop_id":"U16136Z12","name":"Šlapanice, železniční zastávka","arrival_time":"10:30:00","departure_time":"10:31:00","lat":49.163296,"lon":16.719903,"is_passed":false},{"stop_id":"U16137Z11","name":"Šlapanice, železniční stanice","arrival_time":"10:33:00","departure_time":"10:33:00","lat":49.156915,"lon":16.729568,"is_passed":false},{"stop_id":"U16121Z11","name":"Ponětovice, železniční stanice","arrival_time":"10:36:00","departure_time":"10:36:00","lat":49.154709,"lon":16.748578,"is_passed":false},{"stop_id":"U26103Z2","name":"Blažovice","arrival_time":"10:41:00","departure_time":"10:42:00","lat":49.163735,"lon":16.798179,"is_passed":false},{"stop_id":"U16211Z11","name":"Křenovice, dol. žel. st.","arrival_time":"10:46:00","departure_time":"10:47:00","lat":49.144304,"lon":16.834023,"is_passed":false},{"stop_id":"U16333Z11","name":"Slavkov u Brna, žel. st.","arrival_time":"10:50:00","departure_time":"10:52:00","lat":49.14495,"lon":16.873475,"is_passed":false},{"stop_id":"U16318Z11","name":"Křižanovice, žel. st.","arrival_time":"10:56:00","departure_time":"10:57:00","lat":49.144986,"lon":16.93419,"is_passed":false},{"stop_id":"U16406Z11","name":"Bučovice, Marefy, žel. st.","arrival_time":"11:00:00","departure_time":"11:00:00","lat":49.14914,"lon":16.972851,"is_passed":false},{"stop_id":"U16463Z51","name":"Bučovice, železniční stanice","arrival_time":"11:04:00","departure_time":"11:05:00","lat":49.145619,"lon":16.999658,"is_passed":false},{"stop_id":"U26501Z2","name":"Nevojice","arrival_time":"11:09:00","departure_time":"11:09:00","lat":49.136847,"lon":17.04775,"is_passed":false},{"stop_id":"U16509Z11","name":"Nesovice, železniční stanice","arrival_time":"11:12:00","departure_time":"11:13:00","lat":49.14916,"lon":17.079897,"is_passed":false},{"stop_id":"U16628Z11","name":"Brankovice, železniční stanice","arrival_time":"11:17:00","departure_time":"11:18:00","lat":49.150361,"lon":17.13375,"is_passed":false},{"stop_id":"U16503Z11","name":"Nemotice, železniční stanice","arrival_time":"11:22:00","departure_time":"11:22:00","lat":49.132992,"lon":17.114242,"is_passed":false},{"stop_id":"U26601Z2","name":"Jestřabice","arrival_time":"11:28:00","departure_time":"11:28:00","lat":49.088889,"lon":17.113333,"is_passed":false},{"stop_id":"U16604Z11","name":"Kyjov, Bohuslavice, železniční stanice","arrival_time":"11:33:00","departure_time":"11:33:00","lat":49.055833,"lon":17.118917,"is_passed":false},{"stop_id":"U16650Z51","name":"Kyjov, železniční stanice","arrival_time":"11:38:00","departure_time":"11:39:00","lat":49.016263,"lon":17.122856,"is_passed":false},{"stop_id":"U26603Z2","name":"Kyjov zastávka","arrival_time":"11:42:00","departure_time":"11:42:00","lat":49.003383,"lon":17.123528,"is_passed":false},{"stop_id":"U26801Z11","name":"Vlkoš","arrival_time":"11:47:00","departure_time":"11:47:00","lat":48.987902,"lon":17.166624,"is_passed":false},{"stop_id":"U26802Z11","name":"Vracov","arrival_time":"11:51:00","departure_time":"11:52:00","lat":48.976674,"lon":17.218698,"is_passed":false},{"stop_id":"U16908Z11","name":"Bzenec, železniční stanice","arrival_time":"11:56:00","departure_time":"11:57:00","lat":48.969173,"lon":17.263183,"is_passed":false},{"stop_id":"U19316Z13","name":"Veselí nad Moravou, železniční stanice","arrival_time":"12:05:00","departure_time":"12:07:00","lat":48.948694,"lon":17.382439,"is_passed":false},{"stop_id":"U19310Z12","name":"Veselí nad Moravou, Milokošť","arrival_time":"12:10:00","departure_time":"12:10:00","lat":48.967085,"lon":17.398881,"is_passed":false},{"stop_id":"U29404Z11","name":"Uherský Ostroh","arrival_time":"12:12:00","departure_time":"12:13:00","lat":48.981817,"lon":17.403441,"is_passed":false},{"stop_id":"U30314Z1","name":"Ostrožská Nová Ves","arrival_time":"12:17:00","departure_time":"12:18:00","lat":49.009594,"lon":17.436368,"is_passed":false},{"stop_id":"U31103Z1","name":"Ostrožská Nová Ves lázně","arrival_time":"12:20:00","departure_time":"12:20:00","lat":49.018181,"lon":17.446255,"is_passed":false},{"stop_id":"U31025Z2","name":"Kunovice zastávka","arrival_time":"12:23:00","departure_time":"12:23:00","lat":49.038039,"lon":17.461023,"is_passed":false},{"stop_id":"U31027Z2","name":"Uherské Hradiště","arrival_time":"12:27:00","departure_time":"13:35:00","lat":49.066825,"lon":17.457085,"is_passed":false}],"1361":[{"stop_id":"U31027Z1","name":"Uherské Hradiště","arrival_time":"13:35:00","departure_time":"13:35:00","lat":49.066881,"lon":17.457171,"is_passed":false},{"stop_id":"U31025Z1","name":"Kunovice zastávka","arrival_time":"13:39:00","departure_time":"13:39:00","lat":49.038454,"lon":17.46113,"is_passed":false},{"stop_id":"U31103Z2","name":"Ostrožská Nová Ves lázně","arrival_time":"13:42:00","departure_time":"13:42:00","lat":49.018181,"lon":17.446255,"is_passed":false},{"stop_id":"U30314Z2","name":"Ostrožská Nová Ves","arrival_time":"13:44:00","departure_time":"13:45:00","lat":49.009975,"lon":17.436797,"is_passed":false},{"stop_id":"U29404Z10","name":"Uherský Ostroh","arrival_time":"13:49:00","departure_time":"13:49:00","lat":48.982198,"lon":17.403538,"is_passed":false},{"stop_id":"U19310Z11","name":"Veselí nad Moravou, Milokošť","arrival_time":"13:52:00","departure_time":"13:52:00","lat":48.966999,"lon":17.398828,"is_passed":false},{"stop_id":"U19316Z12","name":"Veselí nad Moravou, železniční stanice","arrival_time":"13:56:00","departure_time":"13:57:00","lat":48.948694,"lon":17.382439,"is_passed":false},{"stop_id":"U16908Z10","name":"Bzenec, železniční stanice","arrival_time":"14:05:00","departure_time":"14:06:00","lat":48.969173,"lon":17.263183,"is_passed":false},{"stop_id":"U26802Z10","name":"Vracov","arrival_time":"14:09:00","departure_time":"14:10:00","lat":48.97657,"lon":17.220097,"is_passed":false},{"stop_id":"U26801Z10","name":"Vlkoš","arrival_time":"14:15:00","departure_time":"14:15:00","lat":48.98791,"lon":17.166472,"is_passed":false},{"stop_id":"U26603Z1","name":"Kyjov zastávka","arrival_time":"14:20:00","departure_time":"14:20:00","lat":49.003312,"lon":17.123835,"is_passed":false},{"stop_id":"U16650Z50","name":"Kyjov, železniční stanice","arrival_time":"14:23:00","departure_time":"14:25:00","lat":49.016226,"lon":17.122949,"is_passed":false},{"stop_id":"U16604Z10","name":"Kyjov, Bohuslavice, železniční stanice","arrival_time":"14:30:00","departure_time":"14:30:00","lat":49.055833,"lon":17.118917,"is_passed":false},{"stop_id":"U26601Z1","name":"Jestřabice","arrival_time":"14:35:00","departure_time":"14:35:00","lat":49.088889,"lon":17.113333,"is_passed":false},{"stop_id":"U16503Z10","name":"Nemotice, železniční stanice","arrival_time":"14:41:00","departure_time":"14:42:00","lat":49.133033,"lon":17.114422,"is_passed":false},{"stop_id":"U16628Z10","name":"Brankovice, železniční stanice","arrival_time":"14:46:00","departure_time":"14:47:00","lat":49.150361,"lon":17.13375,"is_passed":false},{"stop_id":"U16509Z10","name":"Nesovice, železniční stanice","arrival_time":"14:51:00","departure_time":"14:52:00","lat":49.149315,"lon":17.080192,"is_passed":false},{"stop_id":"U26501Z1","name":"Nevojice","arrival_time":"14:56:00","departure_time":"14:56:00","lat":49.136847,"lon":17.04775,"is_passed":false},{"stop_id":"U16463Z50","name":"Bučovice, železniční stanice","arrival_time":"15:00:00","departure_time":"15:01:00","lat":49.145619,"lon":16.999658,"is_passed":false},{"stop_id":"U16406Z10","name":"Bučovice, Marefy, žel. st.","arrival_time":"15:04:00","departure_time":"15:04:00","lat":49.149232,"lon":16.972808,"is_passed":false},{"stop_id":"U16318Z10","name":"Křižanovice, žel. st.","arrival_time":"15:07:00","departure_time":"15:07:00","lat":49.145047,"lon":16.935893,"is_passed":false},{"stop_id":"U16333Z10","name":"Slavkov u Brna, žel. st.","arrival_time":"15:12:00","departure_time":"15:13:00","lat":49.14495,"lon":16.873475,"is_passed":false},{"stop_id":"U16211Z10","name":"Křenovice, dol. žel. st.","arrival_time":"15:16:00","departure_time":"15:17:00","lat":49.143679,"lon":16.834698,"is_passed":false},{"stop_id":"U26103Z1","name":"Blažovice","arrival_time":"15:22:00","departure_time":"15:23:00","lat":49.163735,"lon":16.798179,"is_passed":false},{"stop_id":"U16121Z10","name":"Ponětovice, železniční stanice","arrival_time":"15:27:00","departure_time":"15:27:00","lat":49.154709,"lon":16.748578,"is_passed":false},{"stop_id":"U16136Z11","name":"Šlapanice, železniční zastávka","arrival_time":"15:32:00","departure_time":"15:32:00","lat":49.163384,"lon":16.719877,"is_passed":false},{"stop_id":"U1573Z10","name":"Slatina, nádraží","arrival_time":"15:36:00","departure_time":"15:37:00","lat":49.169478,"lon":16.682148,"is_passed":false},{"stop_id":"U1146Z99","name":"Hlavní nádraží","arrival_time":"15:50:00","departure_time":"16:14:00","lat":49.19035,"lon":16.612342,"is_passed":false}],"1362":[{"stop_id":"U1146Z98","name":"Hlavní nádraží","arrival_time":"16:14:00","departure_time":"16:14:00","lat":49.19035,"lon":16.612342,"is_passed":false},{"stop_id":"U11001Z2","name":"Brno-Černovice","arrival_time":"16:20:00","departure_time":"16:20:00","lat":49.188984,"lon":16.631233,"is_passed":false},{"stop_id":"U1573Z11","name":"Slatina, nádraží","arrival_time":"16:26:00","departure_time":"16:27:00","lat":49.169478,"lon":16.682148,"is_passed":false},{"stop_id":"U16136Z12","name":"Šlapanice, železniční zastávka","arrival_time":"16:30:00","departure_time":"16:31:00","lat":49.163296,"lon":16.719903,"is_passed":false},{"stop_id":"U16137Z11","name":"Šlapanice, železniční stanice","arrival_time":"16:33:00","departure_time":"16:33:00","lat":49.156915,"lon":16.729568,"is_passed":false},{"stop_id":"U16121Z11","name":"Ponětovice, železniční stanice","arrival_time":"16:36:00","departure_time":"16:36:00","lat":49.154709,"lon":16.748578,"is_passed":false},{"stop_id":"U26103Z2","name":"Blažovice","arrival_time":"16:41:00","departure_time":"16:42:00","lat":49.163735,"lon":16.798179,"is_passed":false},{"stop_id":"U16211Z11","name":"Křenovice, dol. žel. st.","arrival_time":"16:46:00","departure_time":"16:47:00","lat":49.144304,"lon":16.834023,"is_passed":false},{"stop_id":"U16333Z11","name":"Slavkov u Brna, žel. st.","arrival_time":"16:50:00","departure_time":"16:52:00","lat":49.14495,"lon":16.873475,"is_passed":false},{"stop_id":"U16318Z11","name":"Křižanovice, žel. st.","arrival_time":"16:56:00","departure_time":"16:57:00","lat":49.144986,"lon":16.93419,"is_passed":false},{"stop_id":"U16406Z11","name":"Bučovice, Marefy, žel. st.","arrival_time":"17:00:00","departure_time":"17:00:00","lat":49.14914,"lon":16.972851,"is_passed":false},{"stop_id":"U16463Z51","name":"Bučovice, železniční stanice","arrival_time":"17:04:00","departure_time":"17:05:00","lat":49.145619,"lon":16.999658,"is_passed":false},{"stop_id":"U26501Z2","name":"Nevojice","arrival_time":"17:09:00","departure_time":"17:09:00","lat":49.136847,"lon":17.04775,"is_passed":false},{"stop_id":"U16509Z11","name":"Nesovice, železniční stanice","arrival_time":"17:12:00","departure_time":"17:13:00","lat":49.14916,"lon":17.079897,"is_passed":false},{"stop_id":"U16628Z11","name":"Brankovice, železniční stanice","arrival_time":"17:17:00","departure_time":"17:18:00","lat":49.150361,"lon":17.13375,"is_passed":false},{"stop_id":"U16503Z11","name":"Nemotice, železniční stanice","arrival_time":"17:22:00","departure_time":"17:22:00","lat":49.132992,"lon":17.114242,"is_passed":false},{"stop_id":"U26601Z2","name":"Jestřabice","arrival_time":"17:28:00","departure_time":"17:28:00","lat":49.088889,"lon":17.113333,"is_passed":false},{"stop_id":"U16604Z11","name":"Kyjov, Bohuslavice, železniční stanice","arrival_time":"17:33:00","departure_time":"17:33:00","lat":49.055833,"lon":17.118917,"is_passed":false},{"stop_id":"U16650Z51","name":"Kyjov, železniční stanice","arrival_time":"17:38:00","departure_time":"17:39:00","lat":49.016263,"lon":17.122856,"is_passed":false},{"stop_id":"U26603Z2","name":"Kyjov zastávka","arrival_time":"17:42:00","departure_time":"17:42:00","lat":49.003383,"lon":17.123528,"is_passed":false},{"stop_id":"U26801Z11","name":"Vlkoš","arrival_time":"17:47:00","departure_time":"17:47:00","lat":48.987902,"lon":17.166624,"is_passed":false},{"stop_id":"U26802Z11","name":"Vracov","arrival_time":"17:51:00","departure_time":"17:52:00","lat":48.976674,"lon":17.218698,"is_passed":false},{"stop_id":"U16908Z11","name":"Bzenec, železniční stanice","arrival_time":"17:56:00","departure_time":"17:57:00","lat":48.969173,"lon":17.263183,"is_passed":false},{"stop_id":"U19316Z13","name":"Veselí nad Moravou, železniční stanice","arrival_time":"18:05:00","departure_time":"18:07:00","lat":48.948694,"lon":17.382439,"is_passed":false},{"stop_id":"U19310Z12","name":"Veselí nad Moravou, Milokošť","arrival_time":"18:10:00","departure_time":"18:10:00","lat":48.967085,"lon":17.398881,"is_passed":false},{"stop_id":"U29404Z11","name":"Uherský Ostroh","arrival_time":"18:12:00","departure_time":"18:13:00","lat":48.981817,"lon":17.403441,"is_passed":false},{"stop_id":"U30314Z1","name":"Ostrožská Nová Ves","arrival_time":"18:17:00","departure_time":"18:18:00","lat":49.009594,"lon":17.436368,"is_passed":false},{"stop_id":"U31103Z1","name":"Ostrožská Nová Ves lázně","arrival_time":"18:20:00","departure_time":"18:20:00","lat":49.018181,"lon":17.446255,"is_passed":false},{"stop_id":"U31025Z2","name":"Kunovice zastávka","arrival_time":"18:23:00","departure_time":"18:23:00","lat":49.038039,"lon":17.461023,"is_passed":false},{"stop_id":"U31027Z2","name":"Uherské Hradiště","arrival_time":"18:27:00","departure_time":"18:40:00","lat":49.066825,"lon":17.457085,"is_passed":false},{"stop_id":"U31028Z2","name":"Staré Město u Uherského Hradiště","arrival_time":"18:46:00","departure_time":"19:07:00","lat":49.076022,"lon":17.42271,"is_passed":false}],"1363":[{"stop_id":"U31028Z1","name":"Staré Město u Uherského Hradiště","arrival_time":"19:07:00","departure_time":"19:07:00","lat":49.076029,"lon":17.422624,"is_passed":false},{"stop_id":"U31027Z1","name":"Uherské Hradiště","arrival_time":"19:13:00","departure_time":"19:15:00","lat":49.066881,"lon":17.457171,"is_passed":false},{"stop_id":"U31026Z1","name":"Kunovice","arrival_time":"19:18:00","departure_time":"19:23:00","lat":49.051998,"lon":17.470067,"is_passed":false},{"stop_id":"U31025Z1","name":"Kunovice zastávka","arrival_time":"19:25:00","departure_time":"19:26:00","lat":49.038454,"lon":17.46113,"is_passed":false},{"stop_id":"U31103Z2","name":"Ostrožská Nová Ves lázně","arrival_time":"19:29:00","departure_time":"19:29:00","lat":49.018181,"lon":17.446255,"is_passed":false},{"stop_id":"U30314Z2","name":"Ostrožská Nová Ves","arrival_time":"19:31:00","departure_time":"19:31:00","lat":49.009975,"lon":17.436797,"is_passed":false},{"stop_id":"U29404Z10","name":"Uherský Ostroh","arrival_time":"19:35:00","departure_time":"19:36:00","lat":48.982198,"lon":17.403538,"is_passed":false},{"stop_id":"U19310Z11","name":"Veselí nad Moravou, Milokošť","arrival_time":"19:38:00","departure_time":"19:38:00","lat":48.966999,"lon":17.398828,"is_passed":false},{"stop_id":"U19316Z12","name":"Veselí nad Moravou, železniční stanice","arrival_time":"19:42:00","departure_time":"19:42:00","lat":48.948694,"lon":17.382439,"is_passed":false}],"1364":[{"stop_id":"U19316Z12","name":"Veselí nad Moravou, železniční stanice","arrival_time":"4:45:00","departure_time":"4:45:00","lat":48.948694,"lon":17.382439,"is_passed":false},{"stop_id":"U16908Z10","name":"Bzenec, železniční stanice","arrival_time":"4:53:00","departure_time":"4:54:00","lat":48.969173,"lon":17.263183,"is_passed":false},{"stop_id":"U26802Z10","name":"Vracov","arrival_time":"4:58:00","departure_time":"4:58:00","lat":48.97657,"lon":17.220097,"is_passed":false},{"stop_id":"U26801Z10","name":"Vlkoš","arrival_time":"5:03:00","departure_time":"5:03:00","lat":48.98791,"lon":17.166472,"is_passed":false},{"stop_id":"U26603Z1","name":"Kyjov zastávka","arrival_time":"5:07:00","departure_time":"5:08:00","lat":49.003312,"lon":17.123835,"is_passed":false},{"stop_id":"U16650Z50","name":"Kyjov, železniční stanice","arrival_time":"5:11:00","departure_time":"5:15:00","lat":49.016226,"lon":17.122949,"is_passed":false},{"stop_id":"U16604Z10","name":"Kyjov, Bohuslavice, železniční stanice","arrival_time":"5:20:00","departure_time":"5:20:00","lat":49.055833,"lon":17.118917,"is_passed":false},{"stop_id":"U26601Z1","name":"Jestřabice","arrival_time":"5:25:00","departure_time":"5:25:00","lat":49.088889,"lon":17.113333,"is_passed":false},{"stop_id":"U16503Z10","name":"Nemotice, železniční stanice","arrival_time":"5:31:00","departure_time":"5:32:00","lat":49.133033,"lon":17.114422,"is_passed":false},{"stop_id":"U16628Z10","name":"Brankovice, železniční stanice","arrival_time":"5:36:00","departure_time":"5:37:00","lat":49.150361,"lon":17.13375,"is_passed":false},{"stop_id":"U16509Z10","name":"Nesovice, železniční stanice","arrival_time":"5:41:00","departure_time":"5:42:00","lat":49.149315,"lon":17.080192,"is_passed":false},{"stop_id":"U16463Z50","name":"Bučovice, železniční stanice","arrival_time":"5:49:00","departure_time":"5:50:00","lat":49.145619,"lon":16.999658,"is_passed":false},{"stop_id":"U16333Z10","name":"Slavkov u Brna, žel. st.","arrival_time":"5:59:00","departure_time":"6:01:00","lat":49.14495,"lon":16.873475,"is_passed":false},{"stop_id":"U1573Z10","name":"Slatina, nádraží","arrival_time":"6:16:00","departure_time":"6:17:00","lat":49.169478,"lon":16.682148,"is_passed":false},{"stop_id":"U11001Z1","name":"Brno-Černovice","arrival_time":"6:22:00","departure_time":"6:22:00","lat":49.188984,"lon":16.631233,"is_passed":false},{"stop_id":"U1146Z99","name":"Hlavní nádraží","arrival_time":"6:33:00","departure_time":"6:43:00","lat":49.19035,"lon":16.612342,"is_passed":false}],"1365":[{"stop_id":"U1146Z98","name":"Hlavní nádraží","arrival_time":"6:43:00","departure_time":"6:43:00","lat":49.19035,"lon":16.612342,"is_passed":false},{"stop_id":"U1809Z10","name":"Židenice, nádraží","arrival_time":"6:47:00","departure_time":"6:51:00","lat":49.204282,"lon":16.636042,"is_passed":false},{"stop_id":"U1573Z11","name":"Slatina, nádraží","arrival_time":"6:57:00","departure_time":"6:58:00","lat":49.169478,"lon":16.682148,"is_passed":false},{"stop_id":"U16136Z12","name":"Šlapanice, železniční zastávka","arrival_time":"7:01:00","departure_time":"7:02:00","lat":49.163296,"lon":16.719903,"is_passed":false},{"stop_id":"U16137Z11","name":"Šlapanice, železniční stanice","arrival_time":"7:04:00","departure_time":"7:24:00","lat":49.156915,"lon":16.729568,"is_passed":false}],"1366":[{"stop_id":"U16137Z10","name":"Šlapanice, železniční stanice","arrival_time":"7:24:00","departure_time":"7:24:00","lat":49.156975,"lon":16.729526,"is_passed":false},{"stop_id":"U16136Z11","name":"Šlapanice, železniční zastávka","arrival_time":"7:26:00","departure_time":"7:26:00","lat":49.163384,"lon":16.719877,"is_passed":false},{"stop_id":"U1573Z10","name":"Slatina, nádraží","arrival_time":"7:30:00","departure_time":"7:31:00","lat":49.169478,"lon":16.682148,"is_passed":false},{"stop_id":"U1809Z10","name":"Židenice, nádraží","arrival_time":"7:37:00","departure_time":"7:41:00","lat":49.204282,"lon":16.636042,"is_passed":false},{"stop_id":"U1146Z99","name":"Hlavní nádraží","arrival_time":"7:45:00","departure_time":"8:10:00","lat":49.19035,"lon":16.612342,"is_passed":false}],"1367":[{"stop_id":"U1146Z98","name":"Hlavní nádraží","arrival_time":"8:10:00","departure_time":"8:10:00","lat":49.19035,"lon":16.612342,"is_passed":false},{"stop_id":"U1809Z10","name":"Židenice, nádraží","arrival_time":"8:14:00","departure_time":"8:19:00","lat":49.204282,"lon":16.636042,"is_passed":false},{"stop_id":"U1573Z11","name":"Slatina, nádraží","arrival_time":"8:25:00","departure_time":"8:27:00","lat":49.169478,"lon":16.682148,"is_passed":false},{"stop_id":"U16136Z12","name":"Šlapanice, železniční zastávka","arrival_time":"8:30:00","departure_time":"8:31:00","lat":49.163296,"lon":16.719903,"is_passed":false},{"stop_id":"U16137Z11","name":"Šlapanice, železniční stanice","arrival_time":"8:33:00","departure_time":"8:33:00","lat":49.156915,"lon":16.729568,"is_passed":false},{"stop_id":"U16121Z11","name":"Ponětovice, železniční stanice","arrival_time":"8:36:00","departure_time":"8:36:00","lat":49.154709,"lon":16.748578,"is_passed":false},{"stop_id":"U26103Z2","name":"Blažovice","arrival_time":"8:41:00","departure_time":"8:42:00","lat":49.163735,"lon":16.798179,"is_passed":false},{"stop_id":"U16211Z11","name":"Křenovice, dol. žel. st.","arrival_time":"8:46:00","departure_time":"8:47:00","lat":49.144304,"lon":16.834023,"is_passed":false},{"stop_id":"U16333Z11","name":"Slavkov u Brna, žel. st.","arrival_time":"8:50:00","departure_time":"8:52:00","lat":49.14495,"lon":16.873475,"is_passed":false},{"stop_id":"U16318Z11","name":"Křižanovice, žel. st.","arrival_time":"8:57:00","departure_time":"8:57:00","lat":49.144986,"lon":16.93419,"is_passed":false},{"stop_id":"U16406Z11","name":"Bučovice, Marefy, žel. st.","arrival_time":"9:01:00","departure_time":"9:01:00","lat":49.14914,"lon":16.972851,"is_passed":false},{"stop_id":"U16463Z51","name":"Bučovice, železniční stanice","arrival_time":"9:04:00","departure_time":"9:05:00","lat":49.145619,"lon":16.999658,"is_passed":false},{"stop_id":"U26501Z2","name":"Nevojice","arrival_time":"9:09:00","departure_time":"9:09:00","lat":49.136847,"lon":17.04775,"is_passed":false},{"stop_id":"U16509Z11","name":"Nesovice, železniční stanice","arrival_time":"9:12:00","departure_time":"9:13:00","lat":49.14916,"lon":17.079897,"is_passed":false},{"stop_id":"U16628Z11","name":"Brankovice, železniční stanice","arrival_time":"9:17:00","departure_time":"9:18:00","lat":49.150361,"lon":17.13375,"is_passed":false},{"stop_id":"U16503Z11","name":"Nemotice, železniční stanice","arrival_time":"9:22:00","departure_time":"9:22:00","lat":49.132992,"lon":17.114242,"is_passed":false},{"stop_id":"U26601Z2","name":"Jestřabice","arrival_time":"9:28:00","departure_time":"9:28:00","lat":49.088889,"lon":17.113333,"is_passed":false},{"stop_id":"U16604Z11","name":"Kyjov, Bohuslavice, železniční stanice","arrival_time":"9:33:00","departure_time":"9:33:00","lat":49.055833,"lon":17.118917,"is_passed":false},{"stop_id":"U16650Z51","name":"Kyjov, železniční stanice","arrival_time":"9:38:00","departure_time":"9:39:00","lat":49.016263,"lon":17.122856,"is_passed":false},{"stop_id":"U26603Z2","name":"Kyjov zastávka","arrival_time":"9:42:00","departure_time":"9:42:00","lat":49.003383,"lon":17.123528,"is_passed":false},{"stop_id":"U26801Z11","name":"Vlkoš","arrival_time":"9:47:00","departure_time":"9:47:00","lat":48.987902,"lon":17.166624,"is_passed":false},{"stop_id":"U26802Z11","name":"Vracov","arrival_time":"9:51:00","departure_time":"9:52:00","lat":48.976674,"lon":17.218698,"is_passed":false},{"stop_id":"U16908Z11","name":"Bzenec, železniční stanice","arrival_time":"9:56:00","departure_time":"9:57:00","lat":48.969173,"lon":17.263183,"is_passed":false},{"stop_id":"U19316Z13","name":"Veselí nad Moravou, železniční stanice","arrival_time":"10:05:00","departure_time":"10:07:00","lat":48.948694,"lon":17.382439,"is_passed":false},{"stop_id":"U19310Z12","name":"Veselí nad Moravou, Milokošť","arrival_time":"10:10:00","departure_time":"10:10:00","lat":48.967085,"lon":17.398881,"is_passed":false},{"stop_id":"U29404Z11","name":"Uherský Ostroh","arrival_time":"10:12:00","departure_time":"10:13:00","lat":48.981817,"lon":17.403441,"is_passed":false},{"stop_id":"U30314Z1","name":"Ostrožská Nová Ves","arrival_time":"10:17:00","departure_time":"10:18:00","lat":49.009594,"lon":17.436368,"is_passed":false},{"stop_id":"U31103Z1","name":"Ostrožská Nová Ves lázně","arrival_time":"10:20:00","departure_time":"10:20:00","lat":49.018181,"lon":17.446255,"is_passed":false},{"stop_id":"U31025Z2","name":"Kunovice zastávka","arrival_time":"10:23:00","departure_time":"10:23:00","lat":49.038039,"lon":17.461023,"is_passed":false},{"stop_id":"U31027Z2","name":"Uherské Hradiště","arrival_time":"10:27:00","departure_time":"11:35:00","lat":49.066825,"lon":17.457085,"is_passed":false}],"1368":[{"stop_id":"U31027Z1","name":"Uherské Hradiště","arrival_time":"11:35:00","departure_time":"11:35:00","lat":49.066881,"lon":17.457171,"is_passed":false},{"stop_id":"U31025Z1","name":"Kunovice zastávka","arrival_time":"11:39:00","departure_time":"11:39:00","lat":49.038454,"lon":17.46113,"is_passed":false},{"stop_id":"U31103Z2","name":"Ostrožská Nová Ves lázně","arrival_time":"11:42:00","departure_time":"11:42:00","lat":49.018181,"lon":17.446255,"is_passed":false},{"stop_id":"U30314Z2","name":"Ostrožská Nová Ves","arrival_time":"11:44:00","departure_time":"11:45:00","lat":49.009975,"lon":17.436797,"is_passed":false},{"stop_id":"U29404Z10","name":"Uherský Ostroh","arrival_time":"11:49:00","departure_time":"11:49:00","lat":48.982198,"lon":17.403538,"is_passed":false},{"stop_id":"U19310Z11","name":"Veselí nad Moravou, Milokošť","arrival_time":"11:52:00","departure_time":"11:52:00","lat":48.966999,"lon":17.398828,"is_passed":false},{"stop_id":"U19316Z12","name":"Veselí nad Moravou, železniční stanice","arrival_time":"11:56:00","departure_time":"11:57:00","lat":48.948694,"lon":17.382439,"is_passed":false},{"stop_id":"U16908Z10","name":"Bzenec, železniční stanice","arrival_time":"12:05:00","departure_time":"12:06:00","lat":48.969173,"lon":17.263183,"is_passed":false},{"stop_id":"U26802Z10","name":"Vracov","arrival_time":"12:09:00","departure_time":"12:10:00","lat":48.97657,"lon":17.220097,"is_passed":false},{"stop_id":"U26801Z10","name":"Vlkoš","arrival_time":"12:15:00","departure_time":"12:15:00","lat":48.98791,"lon":17.166472,"is_passed":false},{"stop_id":"U26603Z1","name":"Kyjov zastávka","arrival_time":"12:20:00","departure_time":"12:20:00","lat":49.003312,"lon":17.123835,"is_passed":false},{"stop_id":"U16650Z50","name":"Kyjov, železniční stanice","arrival_time":"12:23:00","departure_time":"12:25:00","lat":49.016226,"lon":17.122949,"is_passed":false},{"stop_id":"U16604Z10","name":"Kyjov, Bohuslavice, železniční stanice","arrival_time":"12:30:00","departure_time":"12:30:00","lat":49.055833,"lon":17.118917,"is_passed":false},{"stop_id":"U26601Z1","name":"Jestřabice","arrival_time":"12:35:00","departure_time":"12:35:00","lat":49.088889,"lon":17.113333,"is_passed":false},{"stop_id":"U16503Z10","name":"Nemotice, železniční stanice","arrival_time":"12:41:00","departure_time":"12:42:00","lat":49.133033,"lon":17.114422,"is_passed":false},{"stop_id":"U16628Z10","name":"Brankovice, železniční stanice","arrival_time":"12:46:00","departure_time":"12:47:00","lat":49.150361,"lon":17.13375,"is_passed":false},{"stop_id":"U16509Z10","name":"Nesovice, železniční stanice","arrival_time":"12:51:00","departure_time":"12:52:00","lat":49.149315,"lon":17.080192,"is_passed":false},{"stop_id":"U26501Z1","name":"Nevojice","arrival_time":"12:56:00","departure_time":"12:56:00","lat":49.136847,"lon":17.04775,"is_passed":false},{"stop_id":"U16463Z50","name":"Bučovice, železniční stanice","arrival_time":"13:00:00","departure_time":"13:01:00","lat":49.145619,"lon":16.999658,"is_passed":false},{"stop_id":"U16406Z10","name":"Bučovice, Marefy, žel. st.","arrival_time":"13:04:00","departure_time":"13:04:00","lat":49.149232,"lon":16.972808,"is_passed":false},{"stop_id":"U16318Z10","name":"Křižanovice, žel. st.","arrival_time":"13:07:00","departure_time":"13:07:00","lat":49.145047,"lon":16.935893,"is_passed":false},{"stop_id":"U16333Z10","name":"Slavkov u Brna, žel. st.","arrival_time":"13:12:00","departure_time":"13:13:00","lat":49.14495,"lon":16.873475,"is_passed":false},{"stop_id":"U16211Z10","name":"Křenovice, dol. žel. st.","arrival_time":"13:16:00","departure_time":"13:17:00","lat":49.143679,"lon":16.834698,"is_passed":false},{"stop_id":"U26103Z1","name":"Blažovice","arrival_time":"13:22:00","departure_time":"13:23:00","lat":49.163735,"lon":16.798179,"is_passed":false},{"stop_id":"U16121Z10","name":"Ponětovice, železniční stanice","arrival_time":"13:27:00","departure_time":"13:27:00","lat":49.154709,"lon":16.748578,"is_passed":false},{"stop_id":"U16137Z10","name":"Šlapanice, železniční stanice","arrival_time":"13:29:00","departure_time":"13:30:00","lat":49.156975,"lon":16.729526,"is_passed":false},{"stop_id":"U16136Z11","name":"Šlapanice, železniční zastávka","arrival_time":"13:32:00","departure_time":"13:32:00","lat":49.163384,"lon":16.719877,"is_passed":false},{"stop_id":"U1573Z10","name":"Slatina, nádraží","arrival_time":"13:36:00","departure_time":"13:37:00","lat":49.169478,"lon":16.682148,"is_passed":false},{"stop_id":"U1146Z99","name":"Hlavní nádraží","arrival_time":"13:48:00","departure_time":"14:14:00","lat":49.19035,"lon":16.612342,"is_passed":false}],"1369":[{"stop_id":"U1146Z98","name":"Hlavní nádraží","arrival_time":"14:14:00","departure_time":"14:14:00","lat":49.19035,"lon":16.612342,"is_passed":false},{"stop_id":"U11001Z2","name":"Brno-Černovice","arrival_time":"14:20:00","departure_time":"14:20:00","lat":49.188984,"lon":16.631233,"is_passed":false},{"stop_id":"U1573Z11","name":"Slatina, nádraží","arrival_time":"14:26:00","departure_time":"14:27:00","lat":49.169478,"lon":16.682148,"is_passed":false},{"stop_id":"U16136Z12","name":"Šlapanice, železniční zastávka","arrival_time":"14:30:00","departure_time":"14:31:00","lat":49.163296,"lon":16.719903,"is_passed":false},{"stop_id":"U16137Z11","name":"Šlapanice, železniční stanice","arrival_time":"14:33:00","departure_time":"14:33:00","lat":49.156915,"lon":16.729568,"is_passed":false},{"stop_id":"U16121Z11","name":"Ponětovice, železniční stanice","arrival_time":"14:36:00","departure_time":"14:36:00","lat":49.154709,"lon":16.748578,"is_passed":false},{"stop_id":"U26103Z2","name":"Blažovice","arrival_time":"14:41:00","departure_time":"14:42:00","lat":49.163735,"lon":16.798179,"is_passed":false},{"stop_id":"U16211Z11","name":"Křenovice, dol. žel. st.","arrival_time":"14:46:00","departure_time":"14:47:00","lat":49.144304,"lon":16.834023,"is_passed":false},{"stop_id":"U16333Z11","name":"Slavkov u Brna, žel. st.","arrival_time":"14:50:00","departure_time":"14:52:00","lat":49.14495,"lon":16.873475,"is_passed":false},{"stop_id":"U16318Z11","name":"Křižanovice, žel. st.","arrival_time":"14:56:00","departure_time":"14:57:00","lat":49.144986,"lon":16.93419,"is_passed":false},{"stop_id":"U16406Z11","name":"Bučovice, Marefy, žel. st.","arrival_time":"15:00:00","departure_time":"15:00:00","lat":49.14914,"lon":16.972851,"is_passed":false},{"stop_id":"U16463Z51","name":"Bučovice, železniční stanice","arrival_time":"15:04:00","departure_time":"15:05:00","lat":49.145619,"lon":16.999658,"is_passed":false},{"stop_id":"U26501Z2","name":"Nevojice","arrival_time":"15:09:00","departure_time":"15:09:00","lat":49.136847,"lon":17.04775,"is_passed":false},{"stop_id":"U16509Z11","name":"Nesovice, železniční stanice","arrival_time":"15:12:00","departure_time":"15:13:00","lat":49.14916,"lon":17.079897,"is_passed":false},{"stop_id":"U16628Z11","name":"Brankovice, železniční stanice","arrival_time":"15:17:00","departure_time":"15:18:00","lat":49.150361,"lon":17.13375,"is_passed":false},{"stop_id":"U16503Z11","name":"Nemotice, železniční stanice","arrival_time":"15:22:00","departure_time":"15:22:00","lat":49.132992,"lon":17.114242,"is_passed":false},{"stop_id":"U26601Z2","name":"Jestřabice","arrival_time":"15:28:00","departure_time":"15:28:00","lat":49.088889,"lon":17.113333,"is_passed":false},{"stop_id":"U16604Z11","name":"Kyjov, Bohuslavice, železniční stanice","arrival_time":"15:33:00","departure_time":"15:33:00","lat":49.055833,"lon":17.118917,"is_passed":false},{"stop_id":"U16650Z51","name":"Kyjov, železniční stanice","arrival_time":"15:38:00","departure_time":"15:39:00","lat":49.016263,"lon":17.122856,"is_passed":false},{"stop_id":"U26603Z2","name":"Kyjov zastávka","arrival_time":"15:42:00","departure_time":"15:42:00","lat":49.003383,"lon":17.123528,"is_passed":false},{"stop_id":"U26801Z11","name":"Vlkoš","arrival_time":"15:47:00","departure_time":"15:47:00","lat":48.987902,"lon":17.166624,"is_passed":false},{"stop_id":"U26802Z11","name":"Vracov","arrival_time":"15:51:00","departure_time":"15:52:00","lat":48.976674,"lon":17.218698,"is_passed":false},{"stop_id":"U16908Z11","name":"Bzenec, železniční stanice","arrival_time":"15:56:00","departure_time":"15:57:00","lat":48.969173,"lon":17.263183,"is_passed":false},{"stop_id":"U19316Z13","name":"Veselí nad Moravou, železniční stanice","arrival_time":"16:05:00","departure_time":"16:07:00","lat":48.948694,"lon":17.382439,"is_passed":false},{"stop_id":"U19310Z12","name":"Veselí nad Moravou, Milokošť","arrival_time":"16:10:00","departure_time":"16:10:00","lat":48.967085,"lon":17.398881,"is_passed":false},{"stop_id":"U29404Z11","name":"Uherský Ostroh","arrival_time":"16:12:00","departure_time":"16:13:00","lat":48.981817,"lon":17.403441,"is_passed":false},{"stop_id":"U30314Z1","name":"Ostrožská Nová Ves","arrival_time":"16:17:00","departure_time":"16:18:00","lat":49.009594,"lon":17.436368,"is_passed":false},{"stop_id":"U31103Z1","name":"Ostrožská Nová Ves lázně","arrival_time":"16:20:00","departure_time":"16:20:00","lat":49.018181,"lon":17.446255,"is_passed":false},{"stop_id":"U31025Z2","name":"Kunovice zastávka","arrival_time":"16:23:00","departure_time":"16:23:00","lat":49.038039,"lon":17.461023,"is_passed":false},{"stop_id":"U31027Z2","name":"Uherské Hradiště","arrival_time":"16:27:00","departure_time":"16:27:00","lat":49.066825,"lon":17.457085,"is_passed":false}],"13600":[{"stop_id":"U16301Z1","name":"Dambořice","arrival_time":"6:47:00","departure_time":"6:47:00","lat":49.040033,"lon":16.917283,"is_passed":false},{"stop_id":"U16302Z2","name":"Dambořice, u pomníku","arrival_time":"6:48:00","departure_time":"6:48:00","lat":49.036373,"lon":16.917647,"is_passed":false},{"stop_id":"U16339Z2","name":"Dambořice, Loučka","arrival_time":"6:49:00","departure_time":"6:49:00","lat":49.03465,"lon":16.924353,"is_passed":false},{"stop_id":"U16338Z2","name":"Dambořice, Šerůčky","arrival_time":"6:50:00","departure_time":"6:50:00","lat":49.028478,"lon":16.93612,"is_passed":false},{"stop_id":"U16440Z1","name":"Uhřice, Janův Dvůr","arrival_time":"6:54:00","departure_time":"6:54:00","lat":49.024478,"lon":16.96197,"is_passed":false},{"stop_id":"U16441Z2","name":"Uhřice, dolní zastávka","arrival_time":"6:59:00","departure_time":"6:59:00","lat":49.04766,"lon":16.949305,"is_passed":false},{"stop_id":"U16442Z2","name":"Uhřice, horní zastávka","arrival_time":"7:00:00","departure_time":"7:00:00","lat":49.050921,"lon":16.946287,"is_passed":false},{"stop_id":"U16444Z1","name":"Žarošice, Silničná, rozcestí Uhřice","arrival_time":"7:03:00","departure_time":"7:03:00","lat":49.051812,"lon":16.953006,"is_passed":false},{"stop_id":"U16448Z1","name":"Žarošice, škola","arrival_time":"7:06:00","departure_time":"7:06:00","lat":49.039337,"lon":16.96142,"is_passed":false},{"stop_id":"U16449Z1","name":"Žarošice","arrival_time":"7:07:00","departure_time":"7:07:00","lat":49.040617,"lon":16.967482,"is_passed":false},{"stop_id":"U16525Z1","name":"Archlebov","arrival_time":"7:12:00","departure_time":"7:12:00","lat":49.043113,"lon":17.00413,"is_passed":false},{"stop_id":"U16526Z1","name":"Dražůvky, rozcestí","arrival_time":"7:15:00","departure_time":"7:15:00","lat":49.039815,"lon":17.022695,"is_passed":false},{"stop_id":"U16531Z1","name":"Věteřov","arrival_time":"7:20:00","departure_time":"7:20:00","lat":49.02866,"lon":17.055782,"is_passed":false},{"stop_id":"U16620Z1","name":"Sobůlky","arrival_time":"7:25:00","departure_time":"7:25:00","lat":49.021408,"lon":17.078633,"is_passed":false},{"stop_id":"U16619Z1","name":"Sobůlky, škola","arrival_time":"7:26:00","departure_time":"7:26:00","lat":49.017792,"lon":17.080708,"is_passed":false},{"stop_id":"U16612Z1","name":"Kyjov, nemocnice","arrival_time":"7:31:00","departure_time":"7:31:00","lat":49.006845,"lon":17.11013,"is_passed":false},{"stop_id":"U16608Z16","name":"Kyjov, aut. st.","arrival_time":"7:33:00","departure_time":"12:36:00","lat":49.006873,"lon":17.123912,"is_passed":false}],"13601":[{"stop_id":"U16608Z14","name":"Kyjov, aut. st.","arrival_time":"12:36:00","departure_time":"12:36:00","lat":49.006415,"lon":17.124242,"is_passed":false},{"stop_id":"U16612Z2","name":"Kyjov, nemocnice","arrival_time":"12:38:00","departure_time":"12:38:00","lat":49.007061,"lon":17.111463,"is_passed":false},{"stop_id":"U16619Z2","name":"Sobůlky, škola","arrival_time":"12:43:00","departure_time":"12:43:00","lat":49.017682,"lon":17.080587,"is_passed":false},{"stop_id":"U16620Z2","name":"Sobůlky","arrival_time":"12:44:00","departure_time":"12:44:00","lat":49.02127,"lon":17.078505,"is_passed":false},{"stop_id":"U16655Z1","name":"Sobůlky, hřbitov","arrival_time":"12:45:00","departure_time":"12:45:00","lat":49.02425,"lon":17.071784,"is_passed":false},{"stop_id":"U16531Z2","name":"Věteřov","arrival_time":"12:49:00","departure_time":"12:49:00","lat":49.028368,"lon":17.056237,"is_passed":false},{"stop_id":"U16526Z2","name":"Dražůvky, rozcestí","arrival_time":"12:54:00","departure_time":"12:54:00","lat":49.039952,"lon":17.022837,"is_passed":false},{"stop_id":"U16525Z2","name":"Archlebov","arrival_time":"12:57:00","departure_time":"12:57:00","lat":49.043193,"lon":17.003877,"is_passed":false},{"stop_id":"U16449Z2","name":"Žarošice","arrival_time":"13:02:00","departure_time":"13:02:00","lat":49.040472,"lon":16.966415,"is_passed":false},{"stop_id":"U16448Z2","name":"Žarošice, škola","arrival_time":"13:03:00","departure_time":"13:03:00","lat":49.039435,"lon":16.9616,"is_passed":false},{"stop_id":"U16444Z4","name":"Žarošice, Silničná, rozcestí Uhřice","arrival_time":"13:06:00","departure_time":"13:06:00","lat":49.052104,"lon":16.952246,"is_passed":false},{"stop_id":"U16442Z1","name":"Uhřice, horní zastávka","arrival_time":"13:09:00","departure_time":"13:09:00","lat":49.051031,"lon":16.945709,"is_passed":false},{"stop_id":"U16441Z1","name":"Uhřice, dolní zastávka","arrival_time":"13:10:00","departure_time":"13:10:00","lat":49.047972,"lon":16.949093,"is_passed":false},{"stop_id":"U16440Z2","name":"Uhřice, Janův Dvůr","arrival_time":"13:15:00","departure_time":"13:15:00","lat":49.024595,"lon":16.961877,"is_passed":false},{"stop_id":"U16338Z1","name":"Dambořice, Šerůčky","arrival_time":"13:19:00","departure_time":"13:19:00","lat":49.028478,"lon":16.93612,"is_passed":false},{"stop_id":"U16339Z1","name":"Dambořice, Loučka","arrival_time":"13:20:00","departure_time":"13:20:00","lat":49.034688,"lon":16.924398,"is_passed":false},{"stop_id":"U16302Z1","name":"Dambořice, u pomníku","arrival_time":"13:21:00","departure_time":"13:21:00","lat":49.036475,"lon":16.917607,"is_passed":false},{"stop_id":"U16301Z1","name":"Dambořice","arrival_time":"13:22:00","departure_time":"13:22:00","lat":49.040033,"lon":16.917283,"is_passed":false}],"13602":[{"stop_id":"U16301Z1","name":"Dambořice","arrival_time":"4:17:00","departure_time":"4:17:00","lat":49.040033,"lon":16.917283,"is_passed":false},{"stop_id":"U16302Z2","name":"Dambořice, u pomníku","arrival_time":"4:18:00","departure_time":"4:18:00","lat":49.036373,"lon":16.917647,"is_passed":false},{"stop_id":"U16339Z2","name":"Dambořice, Loučka","arrival_time":"4:19:00","departure_time":"4:19:00","lat":49.03465,"lon":16.924353,"is_passed":false},{"stop_id":"U16338Z2","name":"Dambořice, Šerůčky","arrival_time":"4:20:00","departure_time":"4:20:00","lat":49.028478,"lon":16.93612,"is_passed":false},{"stop_id":"U16440Z1","name":"Uhřice, Janův Dvůr","arrival_time":"4:24:00","departure_time":"4:24:00","lat":49.024478,"lon":16.96197,"is_passed":false},{"stop_id":"U16441Z2","name":"Uhřice, dolní zastávka","arrival_time":"4:29:00","departure_time":"4:29:00","lat":49.04766,"lon":16.949305,"is_passed":false},{"stop_id":"U16442Z2","name":"Uhřice, horní zastávka","arrival_time":"4:30:00","departure_time":"4:30:00","lat":49.050921,"lon":16.946287,"is_passed":false},{"stop_id":"U16444Z1","name":"Žarošice, Silničná, rozcestí Uhřice","arrival_time":"4:33:00","departure_time":"4:33:00","lat":49.051812,"lon":16.953006,"is_passed":false},{"stop_id":"U16448Z1","name":"Žarošice, škola","arrival_time":"4:36:00","departure_time":"4:36:00","lat":49.039337,"lon":16.96142,"is_passed":false},{"stop_id":"U16449Z1","name":"Žarošice","arrival_time":"4:37:00","departure_time":"4:57:00","lat":49.040617,"lon":16.967482,"is_passed":false}],"13603":[{"stop_id":"U16449Z1","name":"Žarošice","arrival_time":"4:57:00","departure_time":"4:57:00","lat":49.040617,"lon":16.967482,"is_passed":false},{"stop_id":"U16525Z1","name":"Archlebov","arrival_time":"5:02:00","departure_time":"5:02:00","lat":49.043113,"lon":17.00413,"is_passed":false},{"stop_id":"U16527Z3","name":"Dražůvky","arrival_time":"5:06:00","departure_time":"5:06:00","lat":49.031967,"lon":17.020073,"is_passed":false},{"stop_id":"U16526Z1","name":"Dražůvky, rozcestí","arrival_time":"5:07:00","departure_time":"5:07:00","lat":49.039815,"lon":17.022695,"is_passed":false},{"stop_id":"U16531Z1","name":"Věteřov","arrival_time":"5:12:00","departure_time":"5:12:00","lat":49.02866,"lon":17.055782,"is_passed":false},{"stop_id":"U16620Z1","name":"Sobůlky","arrival_time":"5:17:00","departure_time":"5:17:00","lat":49.021408,"lon":17.078633,"is_passed":false},{"stop_id":"U16619Z1","name":"Sobůlky, škola","arrival_time":"5:18:00","departure_time":"5:18:00","lat":49.017792,"lon":17.080708,"is_passed":false},{"stop_id":"U16612Z1","name":"Kyjov, nemocnice","arrival_time":"5:23:00","departure_time":"5:23:00","lat":49.006845,"lon":17.11013,"is_passed":false},{"stop_id":"U16608Z16","name":"Kyjov, aut. st.","arrival_time":"5:25:00","departure_time":"6:36:00","lat":49.006873,"lon":17.123912,"is_passed":false}],"13604":[{"stop_id":"U16608Z14","name":"Kyjov, aut. st.","arrival_time":"6:36:00","departure_time":"6:36:00","lat":49.006415,"lon":17.124242,"is_passed":false},{"stop_id":"U16612Z2","name":"Kyjov, nemocnice","arrival_time":"6:38:00","departure_time":"6:38:00","lat":49.007061,"lon":17.111463,"is_passed":false},{"stop_id":"U16619Z2","name":"Sobůlky, škola","arrival_time":"6:43:00","departure_time":"6:43:00","lat":49.017682,"lon":17.080587,"is_passed":false},{"stop_id":"U16620Z2","name":"Sobůlky","arrival_time":"6:44:00","departure_time":"6:44:00","lat":49.02127,"lon":17.078505,"is_passed":false},{"stop_id":"U16655Z1","name":"Sobůlky, hřbitov","arrival_time":"6:45:00","departure_time":"6:45:00","lat":49.02425,"lon":17.071784,"is_passed":false},{"stop_id":"U16531Z2","name":"Věteřov","arrival_time":"6:49:00","departure_time":"6:49:00","lat":49.028368,"lon":17.056237,"is_passed":false},{"stop_id":"U16526Z2","name":"Dražůvky, rozcestí","arrival_time":"6:54:00","departure_time":"6:54:00","lat":49.039952,"lon":17.022837,"is_passed":false},{"stop_id":"U16525Z2","name":"Archlebov","arrival_time":"6:57:00","departure_time":"6:57:00","lat":49.043193,"lon":17.003877,"is_passed":false},{"stop_id":"U16449Z2","name":"Žarošice","arrival_time":"7:02:00","departure_time":"7:02:00","lat":49.040472,"lon":16.966415,"is_passed":false},{"stop_id":"U16448Z2","name":"Žarošice, škola","arrival_time":"7:03:00","departure_time":"7:03:00","lat":49.039435,"lon":16.9616,"is_passed":false},{"stop_id":"U16444Z4","name":"Žarošice, Silničná, rozcestí Uhřice","arrival_time":"7:06:00","departure_time":"7:06:00","lat":49.052104,"lon":16.952246,"is_passed":false},{"stop_id":"U16442Z1","name":"Uhřice, horní zastávka","arrival_time":"7:09:00","departure_time":"7:09:00","lat":49.051031,"lon":16.945709,"is_passed":false},{"stop_id":"U16441Z1","name":"Uhřice, dolní zastávka","arrival_time":"7:10:00","departure_time":"7:10:00","lat":49.047972,"lon":16.949093,"is_passed":false},{"stop_id":"U16440Z2","name":"Uhřice, Janův Dvůr","arrival_time":"7:15:00","departure_time":"7:15:00","lat":49.024595,"lon":16.961877,"is_passed":false},{"stop_id":"U16338Z1","name":"Dambořice, Šerůčky","arrival_time":"7:19:00","departure_time":"7:19:00","lat":49.028478,"lon":16.93612,"is_passed":false},{"stop_id":"U16339Z1","name":"Dambořice, Loučka","arrival_time":"7:20:00","departure_time":"7:20:00","lat":49.034688,"lon":16.924398,"is_passed":false},{"stop_id":"U16302Z1","name":"Dambořice, u pomníku","arrival_time":"7:21:00","departure_time":"7:21:00","lat":49.036475,"lon":16.917607,"is_passed":false},{"stop_id":"U16301Z1","name":"Dambořice","arrival_time":"7:22:00","departure_time":"12:37:00","lat":49.040033,"lon":16.917283,"is_passed":false}],"13605":[{"stop_id":"U16301Z1","name":"Dambořice","arrival_time":"12:37:00","departure_time":"12:37:00","lat":49.040033,"lon":16.917283,"is_passed":false},{"stop_id":"U16302Z2","name":"Dambořice, u pomníku","arrival_time":"12:38:00","departure_time":"12:38:00","lat":49.036373,"lon":16.917647,"is_passed":false},{"stop_id":"U16339Z2","name":"Dambořice, Loučka","arrival_time":"12:39:00","departure_time":"12:39:00","lat":49.03465,"lon":16.924353,"is_passed":false},{"stop_id":"U16338Z2","name":"Dambořice, Šerůčky","arrival_time":"12:40:00","departure_time":"12:40:00","lat":49.028478,"lon":16.93612,"is_passed":false},{"stop_id":"U16440Z1","name":"Uhřice, Janův Dvůr","arrival_time":"12:44:00","departure_time":"12:44:00","lat":49.024478,"lon":16.96197,"is_passed":false},{"stop_id":"U16441Z2","name":"Uhřice, dolní zastávka","arrival_time":"12:49:00","departure_time":"12:49:00","lat":49.04766,"lon":16.949305,"is_passed":false},{"stop_id":"U16442Z2","name":"Uhřice, horní zastávka","arrival_time":"12:50:00","departure_time":"12:50:00","lat":49.050921,"lon":16.946287,"is_passed":false},{"stop_id":"U16444Z1","name":"Žarošice, Silničná, rozcestí Uhřice","arrival_time":"12:53:00","departure_time":"12:53:00","lat":49.051812,"lon":16.953006,"is_passed":false},{"stop_id":"U16448Z1","name":"Žarošice, škola","arrival_time":"12:56:00","departure_time":"12:56:00","lat":49.039337,"lon":16.96142,"is_passed":false},{"stop_id":"U16449Z1","name":"Žarošice","arrival_time":"12:57:00","departure_time":"12:57:00","lat":49.040617,"lon":16.967482,"is_passed":false},{"stop_id":"U16525Z1","name":"Archlebov","arrival_time":"13:02:00","departure_time":"13:02:00","lat":49.043113,"lon":17.00413,"is_passed":false},{"stop_id":"U16526Z1","name":"Dražůvky, rozcestí","arrival_time":"13:05:00","departure_time":"13:05:00","lat":49.039815,"lon":17.022695,"is_passed":false},{"stop_id":"U16531Z1","name":"Věteřov","arrival_time":"13:10:00","departure_time":"13:10:00","lat":49.02866,"lon":17.055782,"is_passed":false},{"stop_id":"U16620Z1","name":"Sobůlky","arrival_time":"13:15:00","departure_time":"13:15:00","lat":49.021408,"lon":17.078633,"is_passed":false},{"stop_id":"U16619Z1","name":"Sobůlky, škola","arrival_time":"13:16:00","departure_time":"13:16:00","lat":49.017792,"lon":17.080708,"is_passed":false},{"stop_id":"U16612Z1","name":"Kyjov, nemocnice","arrival_time":"13:21:00","departure_time":"13:21:00","lat":49.006845,"lon":17.11013,"is_passed":false},{"stop_id":"U16608Z16","name":"Kyjov, aut. st.","arrival_time":"13:23:00","departure_time":"14:36:00","lat":49.006873,"lon":17.123912,"is_passed":false}],"13606":[{"stop_id":"U16608Z14","name":"Kyjov, aut. st.","arrival_time":"14:36:00","departure_time":"14:36:00","lat":49.006415,"lon":17.124242,"is_passed":false},{"stop_id":"U16612Z2","name":"Kyjov, nemocnice","arrival_time":"14:38:00","departure_time":"14:38:00","lat":49.007061,"lon":17.111463,"is_passed":false},{"stop_id":"U16619Z2","name":"Sobůlky, škola","arrival_time":"14:43:00","departure_time":"14:43:00","lat":49.017682,"lon":17.080587,"is_passed":false},{"stop_id":"U16620Z2","name":"Sobůlky","arrival_time":"14:44:00","departure_time":"14:44:00","lat":49.02127,"lon":17.078505,"is_passed":false},{"stop_id":"U16655Z1","name":"Sobůlky, hřbitov","arrival_time":"14:45:00","departure_time":"14:45:00","lat":49.02425,"lon":17.071784,"is_passed":false},{"stop_id":"U16531Z2","name":"Věteřov","arrival_time":"14:49:00","departure_time":"14:49:00","lat":49.028368,"lon":17.056237,"is_passed":false},{"stop_id":"U16526Z2","name":"Dražůvky, rozcestí","arrival_time":"14:54:00","departure_time":"14:54:00","lat":49.039952,"lon":17.022837,"is_passed":false},{"stop_id":"U16525Z2","name":"Archlebov","arrival_time":"14:57:00","departure_time":"14:57:00","lat":49.043193,"lon":17.003877,"is_passed":false},{"stop_id":"U16449Z2","name":"Žarošice","arrival_time":"15:02:00","departure_time":"15:02:00","lat":49.040472,"lon":16.966415,"is_passed":false},{"stop_id":"U16448Z2","name":"Žarošice, škola","arrival_time":"15:03:00","departure_time":"15:03:00","lat":49.039435,"lon":16.9616,"is_passed":false},{"stop_id":"U16444Z4","name":"Žarošice, Silničná, rozcestí Uhřice","arrival_time":"15:06:00","departure_time":"15:06:00","lat":49.052104,"lon":16.952246,"is_passed":false},{"stop_id":"U16442Z1","name":"Uhřice, horní zastávka","arrival_time":"15:09:00","departure_time":"15:09:00","lat":49.051031,"lon":16.945709,"is_passed":false},{"stop_id":"U16441Z1","name":"Uhřice, dolní zastávka","arrival_time":"15:10:00","departure_time":"15:10:00","lat":49.047972,"lon":16.949093,"is_passed":false},{"stop_id":"U16440Z2","name":"Uhřice, Janův Dvůr","arrival_time":"15:15:00","departure_time":"15:15:00","lat":49.024595,"lon":16.961877,"is_passed":false},{"stop_id":"U16338Z1","name":"Dambořice, Šerůčky","arrival_time":"15:19:00","departure_time":"15:19:00","lat":49.028478,"lon":16.93612,"is_passed":false},{"stop_id":"U16339Z1","name":"Dambořice, Loučka","arrival_time":"15:20:00","departure_time":"15:20:00","lat":49.034688,"lon":16.924398,"is_passed":false},{"stop_id":"U16302Z1","name":"Dambořice, u pomníku","arrival_time":"15:21:00","departure_time":"15:21:00","lat":49.036475,"lon":16.917607,"is_passed":false},{"stop_id":"U16301Z1","name":"Dambořice","arrival_time":"15:22:00","departure_time":"16:37:00","lat":49.040033,"lon":16.917283,"is_passed":false}],"13607":[{"stop_id":"U16301Z1","name":"Dambořice","arrival_time":"16:37:00","departure_time":"16:37:00","lat":49.040033,"lon":16.917283,"is_passed":false},{"stop_id":"U16302Z2","name":"Dambořice, u pomníku","arrival_time":"16:38:00","departure_time":"16:38:00","lat":49.036373,"lon":16.917647,"is_passed":false},{"stop_id":"U16339Z2","name":"Dambořice, Loučka","arrival_time":"16:39:00","departure_time":"16:39:00","lat":49.03465,"lon":16.924353,"is_passed":false},{"stop_id":"U16338Z2","name":"Dambořice, Šerůčky","arrival_time":"16:40:00","departure_time":"16:40:00","lat":49.028478,"lon":16.93612,"is_passed":false},{"stop_id":"U16440Z1","name":"Uhřice, Janův Dvůr","arrival_time":"16:44:00","departure_time":"16:44:00","lat":49.024478,"lon":16.96197,"is_passed":false},{"stop_id":"U16441Z2","name":"Uhřice, dolní zastávka","arrival_time":"16:49:00","departure_time":"16:49:00","lat":49.04766,"lon":16.949305,"is_passed":false},{"stop_id":"U16442Z2","name":"Uhřice, horní zastávka","arrival_time":"16:50:00","departure_time":"16:50:00","lat":49.050921,"lon":16.946287,"is_passed":false},{"stop_id":"U16444Z1","name":"Žarošice, Silničná, rozcestí Uhřice","arrival_time":"16:53:00","departure_time":"16:53:00","lat":49.051812,"lon":16.953006,"is_passed":false},{"stop_id":"U16448Z1","name":"Žarošice, škola","arrival_time":"16:56:00","departure_time":"16:56:00","lat":49.039337,"lon":16.96142,"is_passed":false},{"stop_id":"U16449Z1","name":"Žarošice","arrival_time":"16:57:00","departure_time":"16:57:00","lat":49.040617,"lon":16.967482,"is_passed":false},{"stop_id":"U16525Z1","name":"Archlebov","arrival_time":"17:02:00","departure_time":"17:02:00","lat":49.043113,"lon":17.00413,"is_passed":false},{"stop_id":"U16526Z1","name":"Dražůvky, rozcestí","arrival_time":"17:05:00","departure_time":"17:05:00","lat":49.039815,"lon":17.022695,"is_passed":false},{"stop_id":"U16531Z1","name":"Věteřov","arrival_time":"17:10:00","departure_time":"17:10:00","lat":49.02866,"lon":17.055782,"is_passed":false},{"stop_id":"U16620Z1","name":"Sobůlky","arrival_time":"17:15:00","departure_time":"17:15:00","lat":49.021408,"lon":17.078633,"is_passed":false},{"stop_id":"U16619Z1","name":"Sobůlky, škola","arrival_time":"17:16:00","departure_time":"17:16:00","lat":49.017792,"lon":17.080708,"is_passed":false},{"stop_id":"U16612Z1","name":"Kyjov, nemocnice","arrival_time":"17:21:00","departure_time":"17:21:00","lat":49.006845,"lon":17.11013,"is_passed":false},{"stop_id":"U16608Z16","name":"Kyjov, aut. st.","arrival_time":"17:23:00","departure_time":"18:36:00","lat":49.006873,"lon":17.123912,"is_passed":false}],"13608":[{"stop_id":"U16608Z14","name":"Kyjov, aut. st.","arrival_time":"18:36:00","departure_time":"18:36:00","lat":49.006415,"lon":17.124242,"is_passed":false},{"stop_id":"U16612Z2","name":"Kyjov, nemocnice","arrival_time":"18:38:00","departure_time":"18:38:00","lat":49.007061,"lon":17.111463,"is_passed":false},{"stop_id":"U16619Z2","name":"Sobůlky, škola","arrival_time":"18:43:00","departure_time":"18:43:00","lat":49.017682,"lon":17.080587,"is_passed":false},{"stop_id":"U16620Z2","name":"Sobůlky","arrival_time":"18:44:00","departure_time":"18:44:00","lat":49.02127,"lon":17.078505,"is_passed":false},{"stop_id":"U16655Z1","name":"Sobůlky, hřbitov","arrival_time":"18:45:00","departure_time":"18:45:00","lat":49.02425,"lon":17.071784,"is_passed":false},{"stop_id":"U16531Z2","name":"Věteřov","arrival_time":"18:49:00","departure_time":"18:49:00","lat":49.028368,"lon":17.056237,"is_passed":false},{"stop_id":"U16526Z2","name":"Dražůvky, rozcestí","arrival_time":"18:54:00","departure_time":"18:54:00","lat":49.039952,"lon":17.022837,"is_passed":false},{"stop_id":"U16525Z2","name":"Archlebov","arrival_time":"18:57:00","departure_time":"18:57:00","lat":49.043193,"lon":17.003877,"is_passed":false},{"stop_id":"U16449Z2","name":"Žarošice","arrival_time":"19:02:00","departure_time":"19:02:00","lat":49.040472,"lon":16.966415,"is_passed":false},{"stop_id":"U16448Z2","name":"Žarošice, škola","arrival_time":"19:03:00","departure_time":"19:03:00","lat":49.039435,"lon":16.9616,"is_passed":false},{"stop_id":"U16444Z4","name":"Žarošice, Silničná, rozcestí Uhřice","arrival_time":"19:06:00","departure_time":"19:06:00","lat":49.052104,"lon":16.952246,"is_passed":false},{"stop_id":"U16442Z1","name":"Uhřice, horní zastávka","arrival_time":"19:09:00","departure_time":"19:09:00","lat":49.051031,"lon":16.945709,"is_passed":false},{"stop_id":"U16441Z1","name":"Uhřice, dolní zastávka","arrival_time":"19:10:00","departure_time":"19:10:00","lat":49.047972,"lon":16.949093,"is_passed":false},{"stop_id":"U16440Z2","name":"Uhřice, Janův Dvůr","arrival_time":"19:15:00","departure_time":"19:15:00","lat":49.024595,"lon":16.961877,"is_passed":false},{"stop_id":"U16338Z1","name":"Dambořice, Šerůčky","arrival_time":"19:19:00","departure_time":"19:19:00","lat":49.028478,"lon":16.93612,"is_passed":false},{"stop_id":"U16339Z1","name":"Dambořice, Loučka","arrival_time":"19:20:00","departure_time":"19:20:00","lat":49.034688,"lon":16.924398,"is_passed":false},{"stop_id":"U16302Z1","name":"Dambořice, u pomníku","arrival_time":"19:21:00","departure_time":"19:21:00","lat":49.036475,"lon":16.917607,"is_passed":false},{"stop_id":"U16301Z1","name":"Dambořice","arrival_time":"19:22:00","departure_time":"20:37:00","lat":49.040033,"lon":16.917283,"is_passed":false}],"13609":[{"stop_id":"U16301Z1","name":"Dambořice","arrival_time":"20:37:00","departure_time":"20:37:00","lat":49.040033,"lon":16.917283,"is_passed":false},{"stop_id":"U16302Z2","name":"Dambořice, u pomníku","arrival_time":"20:38:00","departure_time":"20:38:00","lat":49.036373,"lon":16.917647,"is_passed":false},{"stop_id":"U16339Z2","name":"Dambořice, Loučka","arrival_time":"20:39:00","departure_time":"20:39:00","lat":49.03465,"lon":16.924353,"is_passed":false},{"stop_id":"U16338Z2","name":"Dambořice, Šerůčky","arrival_time":"20:40:00","departure_time":"20:40:00","lat":49.028478,"lon":16.93612,"is_passed":false},{"stop_id":"U16440Z1","name":"Uhřice, Janův Dvůr","arrival_time":"20:44:00","departure_time":"20:44:00","lat":49.024478,"lon":16.96197,"is_passed":false},{"stop_id":"U16441Z2","name":"Uhřice, dolní zastávka","arrival_time":"20:49:00","departure_time":"20:49:00","lat":49.04766,"lon":16.949305,"is_passed":false},{"stop_id":"U16442Z2","name":"Uhřice, horní zastávka","arrival_time":"20:50:00","departure_time":"20:50:00","lat":49.050921,"lon":16.946287,"is_passed":false},{"stop_id":"U16444Z1","name":"Žarošice, Silničná, rozcestí Uhřice","arrival_time":"20:53:00","departure_time":"20:53:00","lat":49.051812,"lon":16.953006,"is_passed":false},{"stop_id":"U16448Z1","name":"Žarošice, škola","arrival_time":"20:56:00","departure_time":"20:56:00","lat":49.039337,"lon":16.96142,"is_passed":false},{"stop_id":"U16449Z1","name":"Žarošice","arrival_time":"20:57:00","departure_time":"20:57:00","lat":49.040617,"lon":16.967482,"is_passed":false},{"stop_id":"U16525Z1","name":"Archlebov","arrival_time":"21:02:00","departure_time":"21:02:00","lat":49.043113,"lon":17.00413,"is_passed":false},{"stop_id":"U16526Z1","name":"Dražůvky, rozcestí","arrival_time":"21:05:00","departure_time":"21:05:00","lat":49.039815,"lon":17.022695,"is_passed":false},{"stop_id":"U16531Z1","name":"Věteřov","arrival_time":"21:10:00","departure_time":"21:10:00","lat":49.02866,"lon":17.055782,"is_passed":false},{"stop_id":"U16620Z1","name":"Sobůlky","arrival_time":"21:15:00","departure_time":"21:15:00","lat":49.021408,"lon":17.078633,"is_passed":false},{"stop_id":"U16619Z1","name":"Sobůlky, škola","arrival_time":"21:16:00","departure_time":"21:16:00","lat":49.017792,"lon":17.080708,"is_passed":false},{"stop_id":"U16612Z1","name":"Kyjov, nemocnice","arrival_time":"21:21:00","departure_time":"21:21:00","lat":49.006845,"lon":17.11013,"is_passed":false},{"stop_id":"U16608Z16","name":"Kyjov, aut. st.","arrival_time":"21:23:00","departure_time":"22:43:00","lat":49.006873,"lon":17.123912,"is_passed":false}],"13610":[{"stop_id":"U16608Z14","name":"Kyjov, aut. st.","arrival_time":"22:43:00","departure_time":"22:43:00","lat":49.006415,"lon":17.124242,"is_passed":false},{"stop_id":"U16612Z2","name":"Kyjov, nemocnice","arrival_time":"22:45:00","departure_time":"22:45:00","lat":49.007061,"lon":17.111463,"is_passed":false},{"stop_id":"U16619Z2","name":"Sobůlky, škola","arrival_time":"22:50:00","departure_time":"22:50:00","lat":49.017682,"lon":17.080587,"is_passed":false},{"stop_id":"U16620Z2","name":"Sobůlky","arrival_time":"22:51:00","departure_time":"22:51:00","lat":49.02127,"lon":17.078505,"is_passed":false},{"stop_id":"U16655Z1","name":"Sobůlky, hřbitov","arrival_time":"22:52:00","departure_time":"22:52:00","lat":49.02425,"lon":17.071784,"is_passed":false},{"stop_id":"U16531Z2","name":"Věteřov","arrival_time":"22:56:00","departure_time":"22:56:00","lat":49.028368,"lon":17.056237,"is_passed":false},{"stop_id":"U16526Z2","name":"Dražůvky, rozcestí","arrival_time":"23:01:00","departure_time":"23:01:00","lat":49.039952,"lon":17.022837,"is_passed":false},{"stop_id":"U16527Z3","name":"Dražůvky","arrival_time":"23:02:00","departure_time":"23:02:00","lat":49.031967,"lon":17.020073,"is_passed":false},{"stop_id":"U16525Z2","name":"Archlebov","arrival_time":"23:06:00","departure_time":"23:06:00","lat":49.043193,"lon":17.003877,"is_passed":false},{"stop_id":"U16449Z2","name":"Žarošice","arrival_time":"23:11:00","departure_time":"23:11:00","lat":49.040472,"lon":16.966415,"is_passed":false},{"stop_id":"U16448Z2","name":"Žarošice, škola","arrival_time":"23:12:00","departure_time":"23:12:00","lat":49.039435,"lon":16.9616,"is_passed":false},{"stop_id":"U16444Z4","name":"Žarošice, Silničná, rozcestí Uhřice","arrival_time":"23:15:00","departure_time":"23:23:00","lat":49.052104,"lon":16.952246,"is_passed":false},{"stop_id":"U16442Z1","name":"Uhřice, horní zastávka","arrival_time":"23:26:00","departure_time":"23:26:00","lat":49.051031,"lon":16.945709,"is_passed":false},{"stop_id":"U16441Z1","name":"Uhřice, dolní zastávka","arrival_time":"23:27:00","departure_time":"23:27:00","lat":49.047972,"lon":16.949093,"is_passed":false},{"stop_id":"U16440Z2","name":"Uhřice, Janův Dvůr","arrival_time":"23:32:00","departure_time":"23:32:00","lat":49.024595,"lon":16.961877,"is_passed":false},{"stop_id":"U16338Z1","name":"Dambořice, Šerůčky","arrival_time":"23:36:00","departure_time":"23:36:00","lat":49.028478,"lon":16.93612,"is_passed":false},{"stop_id":"U16339Z1","name":"Dambořice, Loučka","arrival_time":"23:37:00","departure_time":"23:37:00","lat":49.034688,"lon":16.924398,"is_passed":false},{"stop_id":"U16302Z1","name":"Dambořice, u pomníku","arrival_time":"23:38:00","departure_time":"23:38:00","lat":49.036475,"lon":16.917607,"is_passed":false},{"stop_id":"U16301Z1","name":"Dambořice","arrival_time":"23:39:00","departure_time":"23:39:00","lat":49.040033,"lon":16.917283,"is_passed":false}],"13611":[{"stop_id":"U16545Z1","name":"Čejč, náměstí","arrival_time":"5:00:00","departure_time":"5:00:00","lat":48.945868,"lon":16.966935,"is_passed":false},{"stop_id":"U16554Z1","name":"Hovorany, rozcestí","arrival_time":"5:02:00","departure_time":"5:02:00","lat":48.948342,"lon":16.979912,"is_passed":false},{"stop_id":"U16551Z1","name":"Hovorany, čerpací stanice","arrival_time":"5:03:00","departure_time":"5:03:00","lat":48.941702,"lon":16.986192,"is_passed":false},{"stop_id":"U19104Z1","name":"Mutěnice, škola","arrival_time":"5:07:00","departure_time":"5:07:00","lat":48.90752,"lon":17.019163,"is_passed":false},{"stop_id":"U19103Z1","name":"Mutěnice, křižovatka","arrival_time":"5:09:00","departure_time":"5:09:00","lat":48.904497,"lon":17.028817,"is_passed":false},{"stop_id":"U19015Z1","name":"Hodonín, Zbrod","arrival_time":"5:13:00","departure_time":"5:13:00","lat":48.887819,"lon":17.066033,"is_passed":false},{"stop_id":"U19012Z1","name":"Hodonín, STS","arrival_time":"5:18:00","departure_time":"5:18:00","lat":48.870733,"lon":17.116435,"is_passed":false},{"stop_id":"U19002Z1","name":"Hodonín, Brněnská","arrival_time":"5:20:00","departure_time":"5:20:00","lat":48.862476,"lon":17.118758,"is_passed":false},{"stop_id":"U19001Z50","name":"Hodonín, autobusové nádraží","arrival_time":"5:23:00","departure_time":"5:47:00","lat":48.853643,"lon":17.121537,"is_passed":false}],"13612":[{"stop_id":"U19001Z1","name":"Hodonín, autobusové nádraží","arrival_time":"5:47:00","departure_time":"5:47:00","lat":48.854398,"lon":17.121874,"is_passed":false},{"stop_id":"U19002Z2","name":"Hodonín, Brněnská","arrival_time":"5:50:00","departure_time":"5:50:00","lat":48.862608,"lon":17.118852,"is_passed":false},{"stop_id":"U19012Z2","name":"Hodonín, STS","arrival_time":"5:52:00","departure_time":"5:52:00","lat":48.871603,"lon":17.116652,"is_passed":false},{"stop_id":"U19015Z2","name":"Hodonín, Zbrod","arrival_time":"5:57:00","departure_time":"5:57:00","lat":48.887661,"lon":17.063292,"is_passed":false},{"stop_id":"U19103Z2","name":"Mutěnice, křižovatka","arrival_time":"6:01:00","departure_time":"6:01:00","lat":48.904657,"lon":17.028645,"is_passed":false},{"stop_id":"U19104Z2","name":"Mutěnice, škola","arrival_time":"6:03:00","departure_time":"6:03:00","lat":48.90765,"lon":17.018955,"is_passed":false},{"stop_id":"U16551Z2","name":"Hovorany, čerpací stanice","arrival_time":"6:07:00","departure_time":"6:07:00","lat":48.942828,"lon":16.985477,"is_passed":false},{"stop_id":"U16554Z2","name":"Hovorany, rozcestí","arrival_time":"6:08:00","departure_time":"6:08:00","lat":48.948843,"lon":16.979543,"is_passed":false},{"stop_id":"U16545Z2","name":"Čejč, náměstí","arrival_time":"6:10:00","departure_time":"6:10:00","lat":48.946227,"lon":16.966451,"is_passed":false}],"13613":[{"stop_id":"U16545Z4","name":"Čejč, náměstí","arrival_time":"6:42:00","departure_time":"6:42:00","lat":48.94568,"lon":16.967358,"is_passed":false},{"stop_id":"U16556Z2","name":"Hovorany, zdravotní středisko","arrival_time":"6:43:00","departure_time":"6:43:00","lat":48.949749,"lon":16.981078,"is_passed":false},{"stop_id":"U16555Z2","name":"Hovorany, škola","arrival_time":"6:45:00","departure_time":"6:45:00","lat":48.953908,"lon":16.984808,"is_passed":false},{"stop_id":"U16553Z2","name":"Hovorany, kostel","arrival_time":"6:47:00","departure_time":"6:47:00","lat":48.954573,"lon":16.99834,"is_passed":false},{"stop_id":"U16552Z2","name":"Hovorany, důl","arrival_time":"6:49:00","departure_time":"6:49:00","lat":48.956683,"lon":17.010608,"is_passed":false},{"stop_id":"U16813Z2","name":"Šardice","arrival_time":"6:52:00","departure_time":"6:52:00","lat":48.964017,"lon":17.028398,"is_passed":false},{"stop_id":"U16814Z2","name":"Šardice, u kapličky","arrival_time":"6:53:00","departure_time":"6:53:00","lat":48.961887,"lon":17.033457,"is_passed":false},{"stop_id":"U16816Z2","name":"Šardice, ZD","arrival_time":"6:54:00","departure_time":"6:54:00","lat":48.962023,"lon":17.043865,"is_passed":false},{"stop_id":"U16815Z2","name":"Šardice, Padělky","arrival_time":"6:55:00","departure_time":"6:55:00","lat":48.964032,"lon":17.051408,"is_passed":false},{"stop_id":"U16807Z2","name":"Svatobořice-Mistřín, Mistřín","arrival_time":"6:57:00","departure_time":"6:57:00","lat":48.971735,"lon":17.080763,"is_passed":false},{"stop_id":"U16810Z2","name":"Svatobořice-Mistřín, škola","arrival_time":"6:58:00","departure_time":"6:58:00","lat":48.974187,"lon":17.086079,"is_passed":false},{"stop_id":"U16806Z2","name":"Svatobořice-Mistřín, kulturní dům","arrival_time":"7:00:00","departure_time":"7:00:00","lat":48.977932,"lon":17.090462,"is_passed":false},{"stop_id":"U16809Z2","name":"Svatobořice-Mistřín, restaurace","arrival_time":"7:02:00","departure_time":"7:02:00","lat":48.983528,"lon":17.094782,"is_passed":false},{"stop_id":"U16811Z2","name":"Svatobořice-Mistřín, textilka","arrival_time":"7:04:00","departure_time":"7:04:00","lat":48.991569,"lon":17.101103,"is_passed":false},{"stop_id":"U16639Z2","name":"Kyjov, nemocnice, křižovatka","arrival_time":"7:07:00","departure_time":"7:07:00","lat":49.007137,"lon":17.113345,"is_passed":false},{"stop_id":"U16608Z16","name":"Kyjov, aut. st.","arrival_time":"7:10:00","departure_time":"7:10:00","lat":49.006873,"lon":17.123912,"is_passed":false}],"13614":[{"stop_id":"U16650Z2","name":"Kyjov, železniční stanice","arrival_time":"8:42:00","departure_time":"8:42:00","lat":49.015372,"lon":17.122685,"is_passed":false},{"stop_id":"U16613Z2","name":"Kyjov, pod nemocnicí","arrival_time":"8:45:00","departure_time":"8:45:00","lat":49.007606,"lon":17.114125,"is_passed":false},{"stop_id":"U16608Z5","name":"Kyjov, aut. st.","arrival_time":"8:49:00","departure_time":"8:49:00","lat":49.006748,"lon":17.124315,"is_passed":false}],"13615":[{"stop_id":"U16608Z10","name":"Kyjov, aut. st.","arrival_time":"8:49:00","departure_time":"8:49:00","lat":49.006523,"lon":17.124417,"is_passed":false},{"stop_id":"U16639Z1","name":"Kyjov, nemocnice, křižovatka","arrival_time":"8:51:00","departure_time":"8:51:00","lat":49.00725,"lon":17.113458,"is_passed":false},{"stop_id":"U16811Z1","name":"Svatobořice-Mistřín, textilka","arrival_time":"8:55:00","departure_time":"8:55:00","lat":48.991854,"lon":17.101184,"is_passed":false},{"stop_id":"U16809Z1","name":"Svatobořice-Mistřín, restaurace","arrival_time":"8:57:00","departure_time":"8:57:00","lat":48.98316,"lon":17.09427,"is_passed":false},{"stop_id":"U16806Z1","name":"Svatobořice-Mistřín, kulturní dům","arrival_time":"8:59:00","departure_time":"8:59:00","lat":48.977759,"lon":17.08999,"is_passed":false},{"stop_id":"U16810Z1","name":"Svatobořice-Mistřín, škola","arrival_time":"9:00:00","departure_time":"9:00:00","lat":48.973884,"lon":17.08519,"is_passed":false},{"stop_id":"U16807Z1","name":"Svatobořice-Mistřín, Mistřín","arrival_time":"9:02:00","departure_time":"9:02:00","lat":48.97174,"lon":17.080342,"is_passed":false},{"stop_id":"U16815Z1","name":"Šardice, Padělky","arrival_time":"9:04:00","departure_time":"9:04:00","lat":48.963713,"lon":17.049882,"is_passed":false},{"stop_id":"U16816Z1","name":"Šardice, ZD","arrival_time":"9:05:00","departure_time":"9:05:00","lat":48.962157,"lon":17.04396,"is_passed":false},{"stop_id":"U16814Z1","name":"Šardice, u kapličky","arrival_time":"9:06:00","departure_time":"9:06:00","lat":48.961947,"lon":17.03349,"is_passed":false},{"stop_id":"U16813Z1","name":"Šardice","arrival_time":"9:07:00","departure_time":"9:07:00","lat":48.963971,"lon":17.028606,"is_passed":false},{"stop_id":"U16552Z1","name":"Hovorany, důl","arrival_time":"9:10:00","departure_time":"9:10:00","lat":48.956725,"lon":17.010222,"is_passed":false},{"stop_id":"U16553Z1","name":"Hovorany, kostel","arrival_time":"9:12:00","departure_time":"9:12:00","lat":48.954818,"lon":16.998017,"is_passed":false},{"stop_id":"U16555Z1","name":"Hovorany, škola","arrival_time":"9:14:00","departure_time":"9:14:00","lat":48.953233,"lon":16.983643,"is_passed":false},{"stop_id":"U16556Z1","name":"Hovorany, zdravotní středisko","arrival_time":"9:15:00","departure_time":"9:15:00","lat":48.949956,"lon":16.981331,"is_passed":false},{"stop_id":"U16545Z3","name":"Čejč, náměstí","arrival_time":"9:17:00","departure_time":"10:42:00","lat":48.946403,"lon":16.965978,"is_passed":false}],"13616":[{"stop_id":"U16545Z4","name":"Čejč, náměstí","arrival_time":"10:42:00","departure_time":"10:42:00","lat":48.94568,"lon":16.967358,"is_passed":false},{"stop_id":"U16556Z2","name":"Hovorany, zdravotní středisko","arrival_time":"10:43:00","departure_time":"10:43:00","lat":48.949749,"lon":16.981078,"is_passed":false},{"stop_id":"U16555Z2","name":"Hovorany, škola","arrival_time":"10:45:00","departure_time":"10:45:00","lat":48.953908,"lon":16.984808,"is_passed":false},{"stop_id":"U16553Z2","name":"Hovorany, kostel","arrival_time":"10:47:00","departure_time":"10:47:00","lat":48.954573,"lon":16.99834,"is_passed":false},{"stop_id":"U16552Z2","name":"Hovorany, důl","arrival_time":"10:49:00","departure_time":"10:49:00","lat":48.956683,"lon":17.010608,"is_passed":false},{"stop_id":"U16813Z2","name":"Šardice","arrival_time":"10:52:00","departure_time":"10:52:00","lat":48.964017,"lon":17.028398,"is_passed":false},{"stop_id":"U16814Z2","name":"Šardice, u kapličky","arrival_time":"10:53:00","departure_time":"10:53:00","lat":48.961887,"lon":17.033457,"is_passed":false},{"stop_id":"U16816Z2","name":"Šardice, ZD","arrival_time":"10:54:00","departure_time":"10:54:00","lat":48.962023,"lon":17.043865,"is_passed":false},{"stop_id":"U16815Z2","name":"Šardice, Padělky","arrival_time":"10:55:00","departure_time":"10:55:00","lat":48.964032,"lon":17.051408,"is_passed":false},{"stop_id":"U16807Z2","name":"Svatobořice-Mistřín, Mistřín","arrival_time":"10:57:00","departure_time":"10:57:00","lat":48.971735,"lon":17.080763,"is_passed":false},{"stop_id":"U16810Z2","name":"Svatobořice-Mistřín, škola","arrival_time":"10:58:00","departure_time":"10:58:00","lat":48.974187,"lon":17.086079,"is_passed":false},{"stop_id":"U16806Z2","name":"Svatobořice-Mistřín, kulturní dům","arrival_time":"11:00:00","departure_time":"11:00:00","lat":48.977932,"lon":17.090462,"is_passed":false},{"stop_id":"U16809Z2","name":"Svatobořice-Mistřín, restaurace","arrival_time":"11:02:00","departure_time":"11:02:00","lat":48.983528,"lon":17.094782,"is_passed":false},{"stop_id":"U16811Z2","name":"Svatobořice-Mistřín, textilka","arrival_time":"11:04:00","departure_time":"11:04:00","lat":48.991569,"lon":17.101103,"is_passed":false},{"stop_id":"U16639Z2","name":"Kyjov, nemocnice, křižovatka","arrival_time":"11:07:00","departure_time":"11:07:00","lat":49.007137,"lon":17.113345,"is_passed":false},{"stop_id":"U16608Z16","name":"Kyjov, aut. st.","arrival_time":"11:10:00","departure_time":"12:49:00","lat":49.006873,"lon":17.123912,"is_passed":false}],"13617":[{"stop_id":"U16608Z10","name":"Kyjov, aut. st.","arrival_time":"12:49:00","departure_time":"12:49:00","lat":49.006523,"lon":17.124417,"is_passed":false},{"stop_id":"U16639Z1","name":"Kyjov, nemocnice, křižovatka","arrival_time":"12:51:00","departure_time":"12:51:00","lat":49.00725,"lon":17.113458,"is_passed":false},{"stop_id":"U16811Z1","name":"Svatobořice-Mistřín, textilka","arrival_time":"12:55:00","departure_time":"12:55:00","lat":48.991854,"lon":17.101184,"is_passed":false},{"stop_id":"U16809Z1","name":"Svatobořice-Mistřín, restaurace","arrival_time":"12:57:00","departure_time":"12:57:00","lat":48.98316,"lon":17.09427,"is_passed":false},{"stop_id":"U16806Z1","name":"Svatobořice-Mistřín, kulturní dům","arrival_time":"12:59:00","departure_time":"12:59:00","lat":48.977759,"lon":17.08999,"is_passed":false},{"stop_id":"U16810Z1","name":"Svatobořice-Mistřín, škola","arrival_time":"13:00:00","departure_time":"13:00:00","lat":48.973884,"lon":17.08519,"is_passed":false},{"stop_id":"U16807Z1","name":"Svatobořice-Mistřín, Mistřín","arrival_time":"13:02:00","departure_time":"13:02:00","lat":48.97174,"lon":17.080342,"is_passed":false},{"stop_id":"U16815Z1","name":"Šardice, Padělky","arrival_time":"13:04:00","departure_time":"13:04:00","lat":48.963713,"lon":17.049882,"is_passed":false},{"stop_id":"U16816Z1","name":"Šardice, ZD","arrival_time":"13:05:00","departure_time":"13:05:00","lat":48.962157,"lon":17.04396,"is_passed":false},{"stop_id":"U16814Z1","name":"Šardice, u kapličky","arrival_time":"13:06:00","departure_time":"13:06:00","lat":48.961947,"lon":17.03349,"is_passed":false},{"stop_id":"U16813Z1","name":"Šardice","arrival_time":"13:07:00","departure_time":"13:07:00","lat":48.963971,"lon":17.028606,"is_passed":false},{"stop_id":"U16552Z1","name":"Hovorany, důl","arrival_time":"13:10:00","departure_time":"13:10:00","lat":48.956725,"lon":17.010222,"is_passed":false},{"stop_id":"U16553Z1","name":"Hovorany, kostel","arrival_time":"13:12:00","departure_time":"13:12:00","lat":48.954818,"lon":16.998017,"is_passed":false},{"stop_id":"U16555Z1","name":"Hovorany, škola","arrival_time":"13:14:00","departure_time":"13:14:00","lat":48.953233,"lon":16.983643,"is_passed":false},{"stop_id":"U16556Z1","name":"Hovorany, zdravotní středisko","arrival_time":"13:15:00","departure_time":"13:15:00","lat":48.949956,"lon":16.981331,"is_passed":false},{"stop_id":"U16545Z3","name":"Čejč, náměstí","arrival_time":"13:17:00","departure_time":"14:42:00","lat":48.946403,"lon":16.965978,"is_passed":false}],"13618":[{"stop_id":"U16545Z4","name":"Čejč, náměstí","arrival_time":"14:42:00","departure_time":"14:42:00","lat":48.94568,"lon":16.967358,"is_passed":false},{"stop_id":"U16556Z2","name":"Hovorany, zdravotní středisko","arrival_time":"14:43:00","departure_time":"14:43:00","lat":48.949749,"lon":16.981078,"is_passed":false},{"stop_id":"U16555Z2","name":"Hovorany, škola","arrival_time":"14:45:00","departure_time":"14:45:00","lat":48.953908,"lon":16.984808,"is_passed":false},{"stop_id":"U16553Z2","name":"Hovorany, kostel","arrival_time":"14:47:00","departure_time":"14:47:00","lat":48.954573,"lon":16.99834,"is_passed":false},{"stop_id":"U16552Z2","name":"Hovorany, důl","arrival_time":"14:49:00","departure_time":"14:49:00","lat":48.956683,"lon":17.010608,"is_passed":false},{"stop_id":"U16813Z2","name":"Šardice","arrival_time":"14:52:00","departure_time":"14:52:00","lat":48.964017,"lon":17.028398,"is_passed":false},{"stop_id":"U16814Z2","name":"Šardice, u kapličky","arrival_time":"14:53:00","departure_time":"14:53:00","lat":48.961887,"lon":17.033457,"is_passed":false},{"stop_id":"U16816Z2","name":"Šardice, ZD","arrival_time":"14:54:00","departure_time":"14:54:00","lat":48.962023,"lon":17.043865,"is_passed":false},{"stop_id":"U16815Z2","name":"Šardice, Padělky","arrival_time":"14:55:00","departure_time":"14:55:00","lat":48.964032,"lon":17.051408,"is_passed":false},{"stop_id":"U16807Z2","name":"Svatobořice-Mistřín, Mistřín","arrival_time":"14:57:00","departure_time":"14:57:00","lat":48.971735,"lon":17.080763,"is_passed":false},{"stop_id":"U16810Z2","name":"Svatobořice-Mistřín, škola","arrival_time":"14:58:00","departure_time":"14:58:00","lat":48.974187,"lon":17.086079,"is_passed":false},{"stop_id":"U16806Z2","name":"Svatobořice-Mistřín, kulturní dům","arrival_time":"15:00:00","departure_time":"15:00:00","lat":48.977932,"lon":17.090462,"is_passed":false},{"stop_id":"U16809Z2","name":"Svatobořice-Mistřín, restaurace","arrival_time":"15:02:00","departure_time":"15:02:00","lat":48.983528,"lon":17.094782,"is_passed":false},{"stop_id":"U16811Z2","name":"Svatobořice-Mistřín, textilka","arrival_time":"15:04:00","departure_time":"15:04:00","lat":48.991569,"lon":17.101103,"is_passed":false},{"stop_id":"U16639Z2","name":"Kyjov, nemocnice, křižovatka","arrival_time":"15:07:00","departure_time":"15:07:00","lat":49.007137,"lon":17.113345,"is_passed":false},{"stop_id":"U16608Z16","name":"Kyjov, aut. st.","arrival_time":"15:10:00","departure_time":"16:49:00","lat":49.006873,"lon":17.123912,"is_passed":false}],"13619":[{"stop_id":"U16608Z10","name":"Kyjov, aut. st.","arrival_time":"16:49:00","departure_time":"16:49:00","lat":49.006523,"lon":17.124417,"is_passed":false},{"stop_id":"U16639Z1","name":"Kyjov, nemocnice, křižovatka","arrival_time":"16:51:00","departure_time":"16:51:00","lat":49.00725,"lon":17.113458,"is_passed":false},{"stop_id":"U16811Z1","name":"Svatobořice-Mistřín, textilka","arrival_time":"16:55:00","departure_time":"16:55:00","lat":48.991854,"lon":17.101184,"is_passed":false},{"stop_id":"U16809Z1","name":"Svatobořice-Mistřín, restaurace","arrival_time":"16:57:00","departure_time":"16:57:00","lat":48.98316,"lon":17.09427,"is_passed":false},{"stop_id":"U16806Z1","name":"Svatobořice-Mistřín, kulturní dům","arrival_time":"16:59:00","departure_time":"16:59:00","lat":48.977759,"lon":17.08999,"is_passed":false},{"stop_id":"U16810Z1","name":"Svatobořice-Mistřín, škola","arrival_time":"17:00:00","departure_time":"17:00:00","lat":48.973884,"lon":17.08519,"is_passed":false},{"stop_id":"U16807Z1","name":"Svatobořice-Mistřín, Mistřín","arrival_time":"17:02:00","departure_time":"17:02:00","lat":48.97174,"lon":17.080342,"is_passed":false},{"stop_id":"U16815Z1","name":"Šardice, Padělky","arrival_time":"17:04:00","departure_time":"17:04:00","lat":48.963713,"lon":17.049882,"is_passed":false},{"stop_id":"U16816Z1","name":"Šardice, ZD","arrival_time":"17:05:00","departure_time":"17:05:00","lat":48.962157,"lon":17.04396,"is_passed":false},{"stop_id":"U16814Z1","name":"Šardice, u kapličky","arrival_time":"17:06:00","departure_time":"17:06:00","lat":48.961947,"lon":17.03349,"is_passed":false},{"stop_id":"U16813Z1","name":"Šardice","arrival_time":"17:07:00","departure_time":"17:07:00","lat":48.963971,"lon":17.028606,"is_passed":false},{"stop_id":"U16552Z1","name":"Hovorany, důl","arrival_time":"17:10:00","departure_time":"17:10:00","lat":48.956725,"lon":17.010222,"is_passed":false},{"stop_id":"U16553Z1","name":"Hovorany, kostel","arrival_time":"17:12:00","departure_time":"17:12:00","lat":48.954818,"lon":16.998017,"is_passed":false},{"stop_id":"U16555Z1","name":"Hovorany, škola","arrival_time":"17:14:00","departure_time":"17:14:00","lat":48.953233,"lon":16.983643,"is_passed":false},{"stop_id":"U16556Z1","name":"Hovorany, zdravotní středisko","arrival_time":"17:15:00","departure_time":"17:15:00","lat":48.949956,"lon":16.981331,"is_passed":false},{"stop_id":"U16545Z3","name":"Čejč, náměstí","arrival_time":"17:17:00","departure_time":"17:17:00","lat":48.946403,"lon":16.965978,"is_passed":false}],"13620":[{"stop_id":"U16545Z4","name":"Čejč, náměstí","arrival_time":"12:42:00","departure_time":"12:42:00","lat":48.94568,"lon":16.967358,"is_passed":false},{"stop_id":"U16556Z2","name":"Hovorany, zdravotní středisko","arrival_time":"12:43:00","departure_time":"12:43:00","lat":48.949749,"lon":16.981078,"is_passed":false},{"stop_id":"U16555Z2","name":"Hovorany, škola","arrival_time":"12:45:00","departure_time":"12:45:00","lat":48.953908,"lon":16.984808,"is_passed":false},{"stop_id":"U16553Z2","name":"Hovorany, kostel","arrival_time":"12:47:00","departure_time":"12:47:00","lat":48.954573,"lon":16.99834,"is_passed":false},{"stop_id":"U16552Z2","name":"Hovorany, důl","arrival_time":"12:49:00","departure_time":"12:49:00","lat":48.956683,"lon":17.010608,"is_passed":false},{"stop_id":"U16813Z2","name":"Šardice","arrival_time":"12:52:00","departure_time":"12:52:00","lat":48.964017,"lon":17.028398,"is_passed":false},{"stop_id":"U16814Z2","name":"Šardice, u kapličky","arrival_time":"12:53:00","departure_time":"12:53:00","lat":48.961887,"lon":17.033457,"is_passed":false},{"stop_id":"U16816Z2","name":"Šardice, ZD","arrival_time":"12:54:00","departure_time":"12:54:00","lat":48.962023,"lon":17.043865,"is_passed":false},{"stop_id":"U16815Z2","name":"Šardice, Padělky","arrival_time":"12:55:00","departure_time":"12:55:00","lat":48.964032,"lon":17.051408,"is_passed":false},{"stop_id":"U16807Z2","name":"Svatobořice-Mistřín, Mistřín","arrival_time":"12:57:00","departure_time":"12:57:00","lat":48.971735,"lon":17.080763,"is_passed":false},{"stop_id":"U16810Z2","name":"Svatobořice-Mistřín, škola","arrival_time":"12:58:00","departure_time":"12:58:00","lat":48.974187,"lon":17.086079,"is_passed":false},{"stop_id":"U16806Z2","name":"Svatobořice-Mistřín, kulturní dům","arrival_time":"13:00:00","departure_time":"13:00:00","lat":48.977932,"lon":17.090462,"is_passed":false},{"stop_id":"U16809Z2","name":"Svatobořice-Mistřín, restaurace","arrival_time":"13:02:00","departure_time":"13:02:00","lat":48.983528,"lon":17.094782,"is_passed":false},{"stop_id":"U16811Z2","name":"Svatobořice-Mistřín, textilka","arrival_time":"13:04:00","departure_time":"13:04:00","lat":48.991569,"lon":17.101103,"is_passed":false},{"stop_id":"U16639Z2","name":"Kyjov, nemocnice, křižovatka","arrival_time":"13:07:00","departure_time":"13:07:00","lat":49.007137,"lon":17.113345,"is_passed":false},{"stop_id":"U16608Z16","name":"Kyjov, aut. st.","arrival_time":"13:10:00","departure_time":"14:49:00","lat":49.006873,"lon":17.123912,"is_passed":false}],"13621":[{"stop_id":"U16608Z10","name":"Kyjov, aut. st.","arrival_time":"14:49:00","departure_time":"14:49:00","lat":49.006523,"lon":17.124417,"is_passed":false},{"stop_id":"U16639Z1","name":"Kyjov, nemocnice, křižovatka","arrival_time":"14:51:00","departure_time":"14:51:00","lat":49.00725,"lon":17.113458,"is_passed":false},{"stop_id":"U16811Z1","name":"Svatobořice-Mistřín, textilka","arrival_time":"14:55:00","departure_time":"14:55:00","lat":48.991854,"lon":17.101184,"is_passed":false},{"stop_id":"U16809Z1","name":"Svatobořice-Mistřín, restaurace","arrival_time":"14:57:00","departure_time":"14:57:00","lat":48.98316,"lon":17.09427,"is_passed":false},{"stop_id":"U16806Z1","name":"Svatobořice-Mistřín, kulturní dům","arrival_time":"14:59:00","departure_time":"14:59:00","lat":48.977759,"lon":17.08999,"is_passed":false},{"stop_id":"U16810Z1","name":"Svatobořice-Mistřín, škola","arrival_time":"15:00:00","departure_time":"15:00:00","lat":48.973884,"lon":17.08519,"is_passed":false},{"stop_id":"U16807Z1","name":"Svatobořice-Mistřín, Mistřín","arrival_time":"15:02:00","departure_time":"15:02:00","lat":48.97174,"lon":17.080342,"is_passed":false},{"stop_id":"U16815Z1","name":"Šardice, Padělky","arrival_time":"15:04:00","departure_time":"15:04:00","lat":48.963713,"lon":17.049882,"is_passed":false},{"stop_id":"U16816Z1","name":"Šardice, ZD","arrival_time":"15:05:00","departure_time":"15:05:00","lat":48.962157,"lon":17.04396,"is_passed":false},{"stop_id":"U16814Z1","name":"Šardice, u kapličky","arrival_time":"15:06:00","departure_time":"15:06:00","lat":48.961947,"lon":17.03349,"is_passed":false},{"stop_id":"U16813Z1","name":"Šardice","arrival_time":"15:07:00","departure_time":"15:07:00","lat":48.963971,"lon":17.028606,"is_passed":false},{"stop_id":"U16552Z1","name":"Hovorany, důl","arrival_time":"15:10:00","departure_time":"15:10:00","lat":48.956725,"lon":17.010222,"is_passed":false},{"stop_id":"U16553Z1","name":"Hovorany, kostel","arrival_time":"15:12:00","departure_time":"15:12:00","lat":48.954818,"lon":16.998017,"is_passed":false},{"stop_id":"U16555Z1","name":"Hovorany, škola","arrival_time":"15:14:00","departure_time":"15:14:00","lat":48.953233,"lon":16.983643,"is_passed":false},{"stop_id":"U16556Z1","name":"Hovorany, zdravotní středisko","arrival_time":"15:15:00","departure_time":"15:15:00","lat":48.949956,"lon":16.981331,"is_passed":false},{"stop_id":"U16545Z3","name":"Čejč, náměstí","arrival_time":"15:17:00","departure_time":"16:42:00","lat":48.946403,"lon":16.965978,"is_passed":false}],"13622":[{"stop_id":"U16545Z4","name":"Čejč, náměstí","arrival_time":"16:42:00","departure_time":"16:42:00","lat":48.94568,"lon":16.967358,"is_passed":false},{"stop_id":"U16556Z2","name":"Hovorany, zdravotní středisko","arrival_time":"16:43:00","departure_time":"16:43:00","lat":48.949749,"lon":16.981078,"is_passed":false},{"stop_id":"U16555Z2","name":"Hovorany, škola","arrival_time":"16:45:00","departure_time":"16:45:00","lat":48.953908,"lon":16.984808,"is_passed":false},{"stop_id":"U16553Z2","name":"Hovorany, kostel","arrival_time":"16:47:00","departure_time":"16:47:00","lat":48.954573,"lon":16.99834,"is_passed":false},{"stop_id":"U16552Z2","name":"Hovorany, důl","arrival_time":"16:49:00","departure_time":"16:49:00","lat":48.956683,"lon":17.010608,"is_passed":false},{"stop_id":"U16813Z2","name":"Šardice","arrival_time":"16:52:00","departure_time":"16:52:00","lat":48.964017,"lon":17.028398,"is_passed":false},{"stop_id":"U16814Z2","name":"Šardice, u kapličky","arrival_time":"16:53:00","departure_time":"16:53:00","lat":48.961887,"lon":17.033457,"is_passed":false},{"stop_id":"U16816Z2","name":"Šardice, ZD","arrival_time":"16:54:00","departure_time":"16:54:00","lat":48.962023,"lon":17.043865,"is_passed":false},{"stop_id":"U16815Z2","name":"Šardice, Padělky","arrival_time":"16:55:00","departure_time":"16:55:00","lat":48.964032,"lon":17.051408,"is_passed":false},{"stop_id":"U16807Z2","name":"Svatobořice-Mistřín, Mistřín","arrival_time":"16:57:00","departure_time":"16:57:00","lat":48.971735,"lon":17.080763,"is_passed":false},{"stop_id":"U16810Z2","name":"Svatobořice-Mistřín, škola","arrival_time":"16:58:00","departure_time":"16:58:00","lat":48.974187,"lon":17.086079,"is_passed":false},{"stop_id":"U16806Z2","name":"Svatobořice-Mistřín, kulturní dům","arrival_time":"17:00:00","departure_time":"17:00:00","lat":48.977932,"lon":17.090462,"is_passed":false},{"stop_id":"U16809Z2","name":"Svatobořice-Mistřín, restaurace","arrival_time":"17:02:00","departure_time":"17:02:00","lat":48.983528,"lon":17.094782,"is_passed":false},{"stop_id":"U16811Z2","name":"Svatobořice-Mistřín, textilka","arrival_time":"17:04:00","departure_time":"17:04:00","lat":48.991569,"lon":17.101103,"is_passed":false},{"stop_id":"U16639Z2","name":"Kyjov, nemocnice, křižovatka","arrival_time":"17:07:00","departure_time":"17:07:00","lat":49.007137,"lon":17.113345,"is_passed":false},{"stop_id":"U16608Z16","name":"Kyjov, aut. st.","arrival_time":"17:10:00","departure_time":"18:49:00","lat":49.006873,"lon":17.123912,"is_passed":false}],"13623":[{"stop_id":"U16608Z10","name":"Kyjov, aut. st.","arrival_time":"18:49:00","departure_time":"18:49:00","lat":49.006523,"lon":17.124417,"is_passed":false},{"stop_id":"U16639Z1","name":"Kyjov, nemocnice, křižovatka","arrival_time":"18:51:00","departure_time":"18:51:00","lat":49.00725,"lon":17.113458,"is_passed":false},{"stop_id":"U16811Z1","name":"Svatobořice-Mistřín, textilka","arrival_time":"18:55:00","departure_time":"18:55:00","lat":48.991854,"lon":17.101184,"is_passed":false},{"stop_id":"U16809Z1","name":"Svatobořice-Mistřín, restaurace","arrival_time":"18:57:00","departure_time":"18:57:00","lat":48.98316,"lon":17.09427,"is_passed":false},{"stop_id":"U16806Z1","name":"Svatobořice-Mistřín, kulturní dům","arrival_time":"18:59:00","departure_time":"18:59:00","lat":48.977759,"lon":17.08999,"is_passed":false},{"stop_id":"U16810Z1","name":"Svatobořice-Mistřín, škola","arrival_time":"19:00:00","departure_time":"19:00:00","lat":48.973884,"lon":17.08519,"is_passed":false},{"stop_id":"U16807Z1","name":"Svatobořice-Mistřín, Mistřín","arrival_time":"19:02:00","departure_time":"19:02:00","lat":48.97174,"lon":17.080342,"is_passed":false},{"stop_id":"U16815Z1","name":"Šardice, Padělky","arrival_time":"19:04:00","departure_time":"19:04:00","lat":48.963713,"lon":17.049882,"is_passed":false},{"stop_id":"U16816Z1","name":"Šardice, ZD","arrival_time":"19:05:00","departure_time":"19:05:00","lat":48.962157,"lon":17.04396,"is_passed":false},{"stop_id":"U16814Z1","name":"Šardice, u kapličky","arrival_time":"19:06:00","departure_time":"19:06:00","lat":48.961947,"lon":17.03349,"is_passed":false},{"stop_id":"U16813Z1","name":"Šardice","arrival_time":"19:07:00","departure_time":"19:07:00","lat":48.963971,"lon":17.028606,"is_passed":false},{"stop_id":"U16552Z1","name":"Hovorany, důl","arrival_time":"19:10:00","departure_time":"19:10:00","lat":48.956725,"lon":17.010222,"is_passed":false},{"stop_id":"U16553Z1","name":"Hovorany, kostel","arrival_time":"19:12:00","departure_time":"19:12:00","lat":48.954818,"lon":16.998017,"is_passed":false},{"stop_id":"U16555Z1","name":"Hovorany, škola","arrival_time":"19:14:00","departure_time":"19:14:00","lat":48.953233,"lon":16.983643,"is_passed":false},{"stop_id":"U16556Z1","name":"Hovorany, zdravotní středisko","arrival_time":"19:15:00","departure_time":"19:15:00","lat":48.949956,"lon":16.981331,"is_passed":false},{"stop_id":"U16545Z3","name":"Čejč, náměstí","arrival_time":"19:17:00","departure_time":"20:48:00","lat":48.946403,"lon":16.965978,"is_passed":false}],"13624":[{"stop_id":"U16545Z4","name":"Čejč, náměstí","arrival_time":"20:48:00","departure_time":"20:48:00","lat":48.94568,"lon":16.967358,"is_passed":false},{"stop_id":"U16556Z2","name":"Hovorany, zdravotní středisko","arrival_time":"20:50:00","departure_time":"20:50:00","lat":48.949749,"lon":16.981078,"is_passed":false},{"stop_id":"U16555Z2","name":"Hovorany, škola","arrival_time":"20:52:00","departure_time":"20:52:00","lat":48.953908,"lon":16.984808,"is_passed":false},{"stop_id":"U16553Z2","name":"Hovorany, kostel","arrival_time":"20:54:00","departure_time":"20:54:00","lat":48.954573,"lon":16.99834,"is_passed":false},{"stop_id":"U16552Z2","name":"Hovorany, důl","arrival_time":"20:56:00","departure_time":"20:56:00","lat":48.956683,"lon":17.010608,"is_passed":false},{"stop_id":"U16813Z2","name":"Šardice","arrival_time":"20:59:00","departure_time":"20:59:00","lat":48.964017,"lon":17.028398,"is_passed":false},{"stop_id":"U16814Z2","name":"Šardice, u kapličky","arrival_time":"21:00:00","departure_time":"21:00:00","lat":48.961887,"lon":17.033457,"is_passed":false},{"stop_id":"U16816Z2","name":"Šardice, ZD","arrival_time":"21:01:00","departure_time":"21:01:00","lat":48.962023,"lon":17.043865,"is_passed":false},{"stop_id":"U16815Z2","name":"Šardice, Padělky","arrival_time":"21:02:00","departure_time":"21:02:00","lat":48.964032,"lon":17.051408,"is_passed":false},{"stop_id":"U16807Z2","name":"Svatobořice-Mistřín, Mistřín","arrival_time":"21:04:00","departure_time":"21:04:00","lat":48.971735,"lon":17.080763,"is_passed":false},{"stop_id":"U16810Z2","name":"Svatobořice-Mistřín, škola","arrival_time":"21:05:00","departure_time":"21:05:00","lat":48.974187,"lon":17.086079,"is_passed":false},{"stop_id":"U16806Z2","name":"Svatobořice-Mistřín, kulturní dům","arrival_time":"21:06:00","departure_time":"21:06:00","lat":48.977932,"lon":17.090462,"is_passed":false},{"stop_id":"U16809Z2","name":"Svatobořice-Mistřín, restaurace","arrival_time":"21:07:00","departure_time":"21:07:00","lat":48.983528,"lon":17.094782,"is_passed":false},{"stop_id":"U16811Z2","name":"Svatobořice-Mistřín, textilka","arrival_time":"21:09:00","departure_time":"21:09:00","lat":48.991569,"lon":17.101103,"is_passed":false},{"stop_id":"U16639Z2","name":"Kyjov, nemocnice, křižovatka","arrival_time":"21:12:00","departure_time":"21:12:00","lat":49.007137,"lon":17.113345,"is_passed":false},{"stop_id":"U16608Z16","name":"Kyjov, aut. st.","arrival_time":"21:15:00","departure_time":"22:37:00","lat":49.006873,"lon":17.123912,"is_passed":false}],"13625":[{"stop_id":"U16608Z10","name":"Kyjov, aut. st.","arrival_time":"22:37:00","departure_time":"22:37:00","lat":49.006523,"lon":17.124417,"is_passed":false},{"stop_id":"U16639Z1","name":"Kyjov, nemocnice, křižovatka","arrival_time":"22:38:00","departure_time":"22:38:00","lat":49.00725,"lon":17.113458,"is_passed":false},{"stop_id":"U16811Z1","name":"Svatobořice-Mistřín, textilka","arrival_time":"22:42:00","departure_time":"22:42:00","lat":48.991854,"lon":17.101184,"is_passed":false},{"stop_id":"U16809Z1","name":"Svatobořice-Mistřín, restaurace","arrival_time":"22:44:00","departure_time":"22:44:00","lat":48.98316,"lon":17.09427,"is_passed":false},{"stop_id":"U16806Z1","name":"Svatobořice-Mistřín, kulturní dům","arrival_time":"22:46:00","departure_time":"22:46:00","lat":48.977759,"lon":17.08999,"is_passed":false},{"stop_id":"U16810Z1","name":"Svatobořice-Mistřín, škola","arrival_time":"22:47:00","departure_time":"22:47:00","lat":48.973884,"lon":17.08519,"is_passed":false},{"stop_id":"U16807Z1","name":"Svatobořice-Mistřín, Mistřín","arrival_time":"22:49:00","departure_time":"22:49:00","lat":48.97174,"lon":17.080342,"is_passed":false},{"stop_id":"U16815Z1","name":"Šardice, Padělky","arrival_time":"22:51:00","departure_time":"22:51:00","lat":48.963713,"lon":17.049882,"is_passed":false},{"stop_id":"U16816Z1","name":"Šardice, ZD","arrival_time":"22:52:00","departure_time":"22:52:00","lat":48.962157,"lon":17.04396,"is_passed":false},{"stop_id":"U16814Z1","name":"Šardice, u kapličky","arrival_time":"22:53:00","departure_time":"22:53:00","lat":48.961947,"lon":17.03349,"is_passed":false},{"stop_id":"U16813Z1","name":"Šardice","arrival_time":"22:54:00","departure_time":"22:54:00","lat":48.963971,"lon":17.028606,"is_passed":false},{"stop_id":"U16552Z1","name":"Hovorany, důl","arrival_time":"22:57:00","departure_time":"22:57:00","lat":48.956725,"lon":17.010222,"is_passed":false},{"stop_id":"U16553Z1","name":"Hovorany, kostel","arrival_time":"22:59:00","departure_time":"22:59:00","lat":48.954818,"lon":16.998017,"is_passed":false},{"stop_id":"U16555Z1","name":"Hovorany, škola","arrival_time":"23:01:00","departure_time":"23:01:00","lat":48.953233,"lon":16.983643,"is_passed":false},{"stop_id":"U16556Z1","name":"Hovorany, zdravotní středisko","arrival_time":"23:02:00","departure_time":"23:02:00","lat":48.949956,"lon":16.981331,"is_passed":false},{"stop_id":"U16545Z3","name":"Čejč, náměstí","arrival_time":"23:04:00","departure_time":"23:04:00","lat":48.946403,"lon":16.965978,"is_passed":false}],"13626":[{"stop_id":"U16545Z4","name":"Čejč, náměstí","arrival_time":"4:42:00","departure_time":"4:42:00","lat":48.94568,"lon":16.967358,"is_passed":false},{"stop_id":"U16556Z2","name":"Hovorany, zdravotní středisko","arrival_time":"4:43:00","departure_time":"4:43:00","lat":48.949749,"lon":16.981078,"is_passed":false},{"stop_id":"U16555Z2","name":"Hovorany, škola","arrival_time":"4:45:00","departure_time":"4:45:00","lat":48.953908,"lon":16.984808,"is_passed":false},{"stop_id":"U16553Z2","name":"Hovorany, kostel","arrival_time":"4:47:00","departure_time":"4:47:00","lat":48.954573,"lon":16.99834,"is_passed":false},{"stop_id":"U16552Z2","name":"Hovorany, důl","arrival_time":"4:49:00","departure_time":"4:49:00","lat":48.956683,"lon":17.010608,"is_passed":false},{"stop_id":"U16813Z2","name":"Šardice","arrival_time":"4:52:00","departure_time":"4:52:00","lat":48.964017,"lon":17.028398,"is_passed":false},{"stop_id":"U16814Z2","name":"Šardice, u kapličky","arrival_time":"4:53:00","departure_time":"4:53:00","lat":48.961887,"lon":17.033457,"is_passed":false},{"stop_id":"U16816Z2","name":"Šardice, ZD","arrival_time":"4:54:00","departure_time":"4:54:00","lat":48.962023,"lon":17.043865,"is_passed":false},{"stop_id":"U16815Z2","name":"Šardice, Padělky","arrival_time":"4:55:00","departure_time":"4:55:00","lat":48.964032,"lon":17.051408,"is_passed":false},{"stop_id":"U16807Z2","name":"Svatobořice-Mistřín, Mistřín","arrival_time":"4:57:00","departure_time":"4:57:00","lat":48.971735,"lon":17.080763,"is_passed":false},{"stop_id":"U16810Z2","name":"Svatobořice-Mistřín, škola","arrival_time":"4:58:00","departure_time":"4:58:00","lat":48.974187,"lon":17.086079,"is_passed":false},{"stop_id":"U16806Z2","name":"Svatobořice-Mistřín, kulturní dům","arrival_time":"5:00:00","departure_time":"5:00:00","lat":48.977932,"lon":17.090462,"is_passed":false},{"stop_id":"U16809Z2","name":"Svatobořice-Mistřín, restaurace","arrival_time":"5:02:00","departure_time":"5:02:00","lat":48.983528,"lon":17.094782,"is_passed":false},{"stop_id":"U16811Z2","name":"Svatobořice-Mistřín, textilka","arrival_time":"5:04:00","departure_time":"5:04:00","lat":48.991569,"lon":17.101103,"is_passed":false},{"stop_id":"U16639Z2","name":"Kyjov, nemocnice, křižovatka","arrival_time":"5:07:00","departure_time":"5:07:00","lat":49.007137,"lon":17.113345,"is_passed":false},{"stop_id":"U16608Z16","name":"Kyjov, aut. st.","arrival_time":"5:10:00","departure_time":"6:49:00","lat":49.006873,"lon":17.123912,"is_passed":false}],"13627":[{"stop_id":"U16608Z10","name":"Kyjov, aut. st.","arrival_time":"6:49:00","departure_time":"6:49:00","lat":49.006523,"lon":17.124417,"is_passed":false},{"stop_id":"U16639Z1","name":"Kyjov, nemocnice, křižovatka","arrival_time":"6:51:00","departure_time":"6:51:00","lat":49.00725,"lon":17.113458,"is_passed":false},{"stop_id":"U16811Z1","name":"Svatobořice-Mistřín, textilka","arrival_time":"6:55:00","departure_time":"6:55:00","lat":48.991854,"lon":17.101184,"is_passed":false},{"stop_id":"U16809Z1","name":"Svatobořice-Mistřín, restaurace","arrival_time":"6:57:00","departure_time":"6:57:00","lat":48.98316,"lon":17.09427,"is_passed":false},{"stop_id":"U16806Z1","name":"Svatobořice-Mistřín, kulturní dům","arrival_time":"6:59:00","departure_time":"6:59:00","lat":48.977759,"lon":17.08999,"is_passed":false},{"stop_id":"U16810Z1","name":"Svatobořice-Mistřín, škola","arrival_time":"7:00:00","departure_time":"7:00:00","lat":48.973884,"lon":17.08519,"is_passed":false},{"stop_id":"U16807Z1","name":"Svatobořice-Mistřín, Mistřín","arrival_time":"7:02:00","departure_time":"7:02:00","lat":48.97174,"lon":17.080342,"is_passed":false},{"stop_id":"U16815Z1","name":"Šardice, Padělky","arrival_time":"7:04:00","departure_time":"7:04:00","lat":48.963713,"lon":17.049882,"is_passed":false},{"stop_id":"U16816Z1","name":"Šardice, ZD","arrival_time":"7:05:00","departure_time":"7:05:00","lat":48.962157,"lon":17.04396,"is_passed":false},