{"136":[{"stop_id":"U17423Z7","name":"Vyškov, Autobusové nádraží","arrival_time":"6:46:00","departure_time":"6:46:00","lat":49.275847,"lon":16.991949,"is_passed":false},{"stop_id":"U17429Z2","name":"Vyškov, garáže ČSAD","arrival_time":"6:48:00","departure_time":"6:48:00","lat":49.270982,"lon":16.988643,"is_passed":false},{"stop_id":"U17435Z2","name":"Vyškov, Nouzka","arrival_time":"6:49:00","departure_time":"6:49:00","lat":49.266834,"lon":16.980944,"is_passed":false},{"stop_id":"U17428Z2","name":"Vyškov, Drnovská Bioveta","arrival_time":"6:52:00","departure_time":"6:52:00","lat":49.25374,"lon":16.95539,"is_passed":false},{"stop_id":"U17328Z2","name":"Luleč, rozcestí","arrival_time":"6:54:00","departure_time":"6:54:00","lat":49.246772,"lon":16.941783,"is_passed":false},{"stop_id":"U17344Z2","name":"Tučapy, rozcestí","arrival_time":"6:56:00","departure_time":"6:56:00","lat":49.227053,"lon":16.915262,"is_passed":false},{"stop_id":"U17311Z4","name":"Komořany, EDP","arrival_time":"6:58:00","departure_time":"6:58:00","lat":49.219687,"lon":16.904328,"is_passed":false},{"stop_id":"U17331Z2","name":"Rousínov, Čechyně, rozcestí","arrival_time":"7:01:00","departure_time":"7:01:00","lat":49.207575,"lon":16.892772,"is_passed":false},{"stop_id":"U17335Z3","name":"Rousínov, autobusová stanice","arrival_time":"7:03:00","departure_time":"7:05:00","lat":49.203074,"lon":16.884769,"is_passed":false},{"stop_id":"U1677Z2","name":"Tržní","arrival_time":"7:24:00","departure_time":"7:24:00","lat":49.189407,"lon":16.629972,"is_passed":false},{"stop_id":"U1696Z5","name":"ÚAN Zvonařka","arrival_time":"7:28:00","departure_time":"11:04:00","lat":49.185364,"lon":16.616151,"is_passed":false}],"1360":[{"stop_id":"U1146Z98","name":"Hlavní nádraží","arrival_time":"7:35:00","departure_time":"7:35:00","lat":49.19035,"lon":16.612342,"is_passed":false},{"stop_id":"U16333Z11","name":"Slavkov u Brna, žel. st.","arrival_time":"7:58:00","departure_time":"7:59:00","lat":49.14495,"lon":16.873475,"is_passed":false},{"stop_id":"U16463Z51","name":"Bučovice, železniční stanice","arrival_time":"8:07:00","departure_time":"8:08:00","lat":49.145619,"lon":16.999658,"is_passed":false},{"stop_id":"U16509Z11","name":"Nesovice, železniční stanice","arrival_time":"8:14:00","departure_time":"8:14:00","lat":49.14916,"lon":17.079897,"is_passed":false},{"stop_id":"U16650Z51","name":"Kyjov, železniční stanice","arrival_time":"8:33:00","departure_time":"8:34:00","lat":49.016263,"lon":17.122856,"is_passed":false},{"stop_id":"U26802Z11","name":"Vracov","arrival_time":"8:44:00","departure_time":"8:45:00","lat":48.976674,"lon":17.218698,"is_passed":false},{"stop_id":"U16908Z11","name":"Bzenec, železniční stanice","arrival_time":"8:48:00","departure_time":"8:49:00","lat":48.969173,"lon":17.263183,"is_passed":false},{"stop_id":"U19316Z13","name":"Veselí nad Moravou, železniční stanice","arrival_time":"8:58:00","departure_time":"9:00:00","lat":48.948694,"lon":17.382439,"is_passed":false},{"stop_id":"U29404Z11","name":"Uherský Ostroh","arrival_time":"9:04:00","departure_time":"9:05:00","lat":48.981817,"lon":17.403441,"is_passed":false},{"stop_id":"U30314Z1","name":"Ostrožská Nová Ves","arrival_time":"9:09:00","departure_time":"9:09:00","lat":49.009594,"lon":17.436368,"is_passed":false},{"stop_id":"U31025Z2","name":"Kunovice zastávka","arrival_time":"9:13:00","departure_time":"9:14:00","lat":49.038039,"lon":17.461023,"is_passed":false},{"stop_id":"U31027Z2","name":"Uherské Hradiště","arrival_time":"9:18:00","departure_time":"9:20:00","lat":49.066825,"lon":17.457085,"is_passed":false},{"stop_id":"U31028Z2","name":"Staré Město u Uherského Hradiště","arrival_time":"9:26:00","departure_time":"10:27:00","lat":49.076022,"lon":17.42271,"is_passed":false}],"1361":[{"stop_id":"U31028Z1","name":"Staré Město u Uherského Hradiště","arrival_time":"10:27:00","departure_time":"10:27:00","lat":49.076029,"lon":17.422624,"is_passed":false},{"stop_id":"U31027Z1","name":"Uherské Hradiště","arrival_time":"10:33:00","departure_time":"10:36:00","lat":49.066881,"lon":17.457171,"is_passed":false},{"stop_id":"U31025Z1","name":"Kunovice zastávka","arrival_time":"10:40:00","departure_time":"10:40:00","lat":49.038454,"lon":17.46113,"is_passed":false},{"stop_id":"U30314Z2","name":"Ostrožská Nová Ves","arrival_time":"10:45:00","departure_time":"10:46:00","lat":49.009975,"lon":17.436797,"is_passed":false},{"stop_id":"U29404Z10","name":"Uherský Ostroh","arrival_time":"10:50:00","departure_time":"10:51:00","lat":48.982198,"lon":17.403538,"is_passed":false},{"stop_id":"U19316Z12","name":"Veselí nad Moravou, železniční stanice","arrival_time":"10:56:00","departure_time":"11:01:00","lat":48.948694,"lon":17.382439,"is_passed":false},{"stop_id":"U16908Z10","name":"Bzenec, železniční stanice","arrival_time":"11:09:00","departure_time":"11:10:00","lat":48.969173,"lon":17.263183,"is_passed":false},{"stop_id":"U26802Z10","name":"Vracov","arrival_time":"11:14:00","departure_time":"11:15:00","lat":48.97657,"lon":17.220097,"is_passed":false},{"stop_id":"U26603Z1","name":"Kyjov zastávka","arrival_time":"11:23:00","departure_time":"11:23:00","lat":49.003312,"lon":17.123835,"is_passed":false},{"stop_id":"U16650Z50","name":"Kyjov, železniční stanice","arrival_time":"11:27:00","departure_time":"11:28:00","lat":49.016226,"lon":17.122949,"is_passed":false},{"stop_id":"U16503Z10","name":"Nemotice, železniční stanice","arrival_time":"11:41:00","departure_time":"11:42:00","lat":49.133033,"lon":17.114422,"is_passed":false},{"stop_id":"U16509Z10","name":"Nesovice, železniční stanice","arrival_time":"11:50:00","departure_time":"11:50:00","lat":49.149315,"lon":17.080192,"is_passed":false},{"stop_id":"U16463Z50","name":"Bučovice, železniční stanice","arrival_time":"11:57:00","departure_time":"11:58:00","lat":49.145619,"lon":16.999658,"is_passed":false},{"stop_id":"U16333Z10","name":"Slavkov u Brna, žel. st.","arrival_time":"12:06:00","departure_time":"12:08:00","lat":49.14495,"lon":16.873475,"is_passed":false},{"stop_id":"U1146Z99","name":"Hlavní nádraží","arrival_time":"12:33:00","departure_time":"12:33:00","lat":49.19035,"lon":16.612342,"is_passed":false}],"1362":[{"stop_id":"U16509Z10","name":"Nesovice, železniční stanice","arrival_time":"4:22:00","departure_time":"4:22:00","lat":49.149315,"lon":17.080192,"is_passed":false},{"stop_id":"U26501Z1","name":"Nevojice","arrival_time":"4:25:00","departure_time":"4:26:00","lat":49.136847,"lon":17.04775,"is_passed":false},{"stop_id":"U16463Z50","name":"Bučovice, železniční stanice","arrival_time":"4:30:00","departure_time":"4:31:00","lat":49.145619,"lon":16.999658,"is_passed":false},{"stop_id":"U16406Z10","name":"Bučovice, Marefy, žel. st.","arrival_time":"4:33:00","departure_time":"4:34:00","lat":49.149232,"lon":16.972808,"is_passed":false},{"stop_id":"U16318Z10","name":"Křižanovice, žel. st.","arrival_time":"4:37:00","departure_time":"4:37:00","lat":49.145047,"lon":16.935893,"is_passed":false},{"stop_id":"U16333Z10","name":"Slavkov u Brna, žel. st.","arrival_time":"4:42:00","departure_time":"4:43:00","lat":49.14495,"lon":16.873475,"is_passed":false},{"stop_id":"U16211Z10","name":"Křenovice, dol. žel. st.","arrival_time":"4:46:00","departure_time":"4:47:00","lat":49.143679,"lon":16.834698,"is_passed":false},{"stop_id":"U26103Z1","name":"Blažovice","arrival_time":"4:52:00","departure_time":"4:53:00","lat":49.163735,"lon":16.798179,"is_passed":false},{"stop_id":"U16121Z10","name":"Ponětovice, železniční stanice","arrival_time":"4:56:00","departure_time":"4:56:00","lat":49.154709,"lon":16.748578,"is_passed":false},{"stop_id":"U16137Z10","name":"Šlapanice, železniční stanice","arrival_time":"4:59:00","departure_time":"5:00:00","lat":49.156975,"lon":16.729526,"is_passed":false},{"stop_id":"U16136Z11","name":"Šlapanice, železniční zastávka","arrival_time":"5:02:00","departure_time":"5:02:00","lat":49.163384,"lon":16.719877,"is_passed":false},{"stop_id":"U1573Z10","name":"Slatina, nádraží","arrival_time":"5:06:00","departure_time":"5:07:00","lat":49.169478,"lon":16.682148,"is_passed":false},{"stop_id":"U11001Z1","name":"Brno-Černovice","arrival_time":"5:12:00","departure_time":"5:12:00","lat":49.188984,"lon":16.631233,"is_passed":false},{"stop_id":"U1146Z99","name":"Hlavní nádraží","arrival_time":"5:20:00","departure_time":"23:05:00","lat":49.19035,"lon":16.612342,"is_passed":false}],"1363":[{"stop_id":"U1146Z98","name":"Hlavní nádraží","arrival_time":"23:05:00","departure_time":"23:05:00","lat":49.19035,"lon":16.612342,"is_passed":false},{"stop_id":"U1573Z11","name":"Slatina, nádraží","arrival_time":"23:15:00","departure_time":"23:16:00","lat":49.169478,"lon":16.682148,"is_passed":false},{"stop_id":"U16136Z12","name":"Šlapanice, železniční zastávka","arrival_time":"23:19:00","departure_time":"23:19:00","lat":49.163296,"lon":16.719903,"is_passed":false},{"stop_id":"U16137Z11","name":"Šlapanice, železniční stanice","arrival_time":"23:21:00","departure_time":"23:22:00","lat":49.156915,"lon":16.729568,"is_passed":false},{"stop_id":"U16121Z11","name":"Ponětovice, železniční stanice","arrival_time":"23:24:00","departure_time":"23:24:00","lat":49.154709,"lon":16.748578,"is_passed":false},{"stop_id":"U26103Z2","name":"Blažovice","arrival_time":"23:28:00","departure_time":"23:29:00","lat":49.163735,"lon":16.798179,"is_passed":false},{"stop_id":"U16211Z11","name":"Křenovice, dol. žel. st.","arrival_time":"23:33:00","departure_time":"23:33:00","lat":49.144304,"lon":16.834023,"is_passed":false},{"stop_id":"U16333Z11","name":"Slavkov u Brna, žel. st.","arrival_time":"23:37:00","departure_time":"23:38:00","lat":49.14495,"lon":16.873475,"is_passed":false},{"stop_id":"U16318Z11","name":"Křižanovice, žel. st.","arrival_time":"23:42:00","departure_time":"23:42:00","lat":49.144986,"lon":16.93419,"is_passed":false},{"stop_id":"U16406Z11","name":"Bučovice, Marefy, žel. st.","arrival_time":"23:45:00","departure_time":"23:45:00","lat":49.14914,"lon":16.972851,"is_passed":false},{"stop_id":"U16463Z51","name":"Bučovice, železniční stanice","arrival_time":"23:48:00","departure_time":"23:48:00","lat":49.145619,"lon":16.999658,"is_passed":false},{"stop_id":"U26501Z2","name":"Nevojice","arrival_time":"23:52:00","departure_time":"23:52:00","lat":49.136847,"lon":17.04775,"is_passed":false},{"stop_id":"U16509Z11","name":"Nesovice, železniční stanice","arrival_time":"23:56:00","departure_time":"23:56:00","lat":49.14916,"lon":17.079897,"is_passed":false}],"1364":[{"stop_id":"U19316Z13","name":"Veselí nad Moravou, železniční stanice","arrival_time":"5:09:00","departure_time":"5:09:00","lat":48.948694,"lon":17.382439,"is_passed":false},{"stop_id":"U19310Z12","name":"Veselí nad Moravou, Milokošť","arrival_time":"5:12:00","departure_time":"5:12:00","lat":48.967085,"lon":17.398881,"is_passed":false},{"stop_id":"U29404Z11","name":"Uherský Ostroh","arrival_time":"5:14:00","departure_time":"5:15:00","lat":48.981817,"lon":17.403441,"is_passed":false},{"stop_id":"U30314Z1","name":"Ostrožská Nová Ves","arrival_time":"5:19:00","departure_time":"5:19:00","lat":49.009594,"lon":17.436368,"is_passed":false},{"stop_id":"U31025Z2","name":"Kunovice zastávka","arrival_time":"5:23:00","departure_time":"5:23:00","lat":49.038039,"lon":17.461023,"is_passed":false},{"stop_id":"U31027Z2","name":"Uherské Hradiště","arrival_time":"5:28:00","departure_time":"5:34:00","lat":49.066825,"lon":17.457085,"is_passed":false}],"1365":[{"stop_id":"U31027Z1","name":"Uherské Hradiště","arrival_time":"5:34:00","departure_time":"5:34:00","lat":49.066881,"lon":17.457171,"is_passed":false},{"stop_id":"U31026Z1","name":"Kunovice","arrival_time":"5:37:00","departure_time":"5:43:00","lat":49.051998,"lon":17.470067,"is_passed":false},{"stop_id":"U31025Z1","name":"Kunovice zastávka","arrival_time":"5:45:00","departure_time":"5:46:00","lat":49.038454,"lon":17.46113,"is_passed":false},{"stop_id":"U30314Z2","name":"Ostrožská Nová Ves","arrival_time":"5:49:00","departure_time":"5:50:00","lat":49.009975,"lon":17.436797,"is_passed":false},{"stop_id":"U29404Z10","name":"Uherský Ostroh","arrival_time":"5:54:00","departure_time":"5:54:00","lat":48.982198,"lon":17.403538,"is_passed":false},{"stop_id":"U19316Z12","name":"Veselí nad Moravou, železniční stanice","arrival_time":"5:59:00","departure_time":"6:01:00","lat":48.948694,"lon":17.382439,"is_passed":false},{"stop_id":"U16908Z10","name":"Bzenec, železniční stanice","arrival_time":"6:09:00","departure_time":"6:10:00","lat":48.969173,"lon":17.263183,"is_passed":false},{"stop_id":"U26802Z10","name":"Vracov","arrival_time":"6:14:00","departure_time":"6:14:00","lat":48.97657,"lon":17.220097,"is_passed":false},{"stop_id":"U26603Z1","name":"Kyjov zastávka","arrival_time":"6:22:00","departure_time":"6:23:00","lat":49.003312,"lon":17.123835,"is_passed":false},{"stop_id":"U16650Z50","name":"Kyjov, železniční stanice","arrival_time":"6:26:00","departure_time":"6:28:00","lat":49.016226,"lon":17.122949,"is_passed":false},{"stop_id":"U16503Z10","name":"Nemotice, železniční stanice","arrival_time":"6:41:00","departure_time":"6:42:00","lat":49.133033,"lon":17.114422,"is_passed":false},{"stop_id":"U16509Z10","name":"Nesovice, železniční stanice","arrival_time":"6:50:00","departure_time":"6:50:00","lat":49.149315,"lon":17.080192,"is_passed":false},{"stop_id":"U16463Z50","name":"Bučovice, železniční stanice","arrival_time":"6:57:00","departure_time":"6:58:00","lat":49.145619,"lon":16.999658,"is_passed":false},{"stop_id":"U16333Z10","name":"Slavkov u Brna, žel. st.","arrival_time":"7:05:00","departure_time":"7:06:00","lat":49.14495,"lon":16.873475,"is_passed":false},{"stop_id":"U1573Z10","name":"Slatina, nádraží","arrival_time":"7:20:00","departure_time":"7:21:00","lat":49.169478,"lon":16.682148,"is_passed":false},{"stop_id":"U1146Z99","name":"Hlavní nádraží","arrival_time":"7:33:00","departure_time":"15:28:00","lat":49.19035,"lon":16.612342,"is_passed":false}],"1366":[{"stop_id":"U1146Z98","name":"Hlavní nádraží","arrival_time":"15:28:00","departure_time":"15:28:00","lat":49.19035,"lon":16.612342,"is_passed":false},{"stop_id":"U1573Z11","name":"Slatina, nádraží","arrival_time":"15:39:00","departure_time":"15:40:00","lat":49.169478,"lon":16.682148,"is_passed":false},{"stop_id":"U16333Z11","name":"Slavkov u Brna, žel. st.","arrival_time":"15:53:00","departure_time":"15:54:00","lat":49.14495,"lon":16.873475,"is_passed":false},{"stop_id":"U16463Z51","name":"Bučovice, železniční stanice","arrival_time":"16:02:00","departure_time":"16:03:00","lat":49.145619,"lon":16.999658,"is_passed":false},{"stop_id":"U16509Z11","name":"Nesovice, železniční stanice","arrival_time":"16:09:00","departure_time":"16:10:00","lat":49.14916,"lon":17.079897,"is_passed":false},{"stop_id":"U16503Z11","name":"Nemotice, železniční stanice","arrival_time":"16:17:00","departure_time":"16:18:00","lat":49.132992,"lon":17.114242,"is_passed":false},{"stop_id":"U16650Z51","name":"Kyjov, železniční stanice","arrival_time":"16:31:00","departure_time":"16:32:00","lat":49.016263,"lon":17.122856,"is_passed":false},{"stop_id":"U26603Z2","name":"Kyjov zastávka","arrival_time":"16:35:00","departure_time":"16:35:00","lat":49.003383,"lon":17.123528,"is_passed":false},{"stop_id":"U26802Z11","name":"Vracov","arrival_time":"16:43:00","departure_time":"16:44:00","lat":48.976674,"lon":17.218698,"is_passed":false},{"stop_id":"U16908Z11","name":"Bzenec, železniční stanice","arrival_time":"16:48:00","departure_time":"16:49:00","lat":48.969173,"lon":17.263183,"is_passed":false},{"stop_id":"U19316Z13","name":"Veselí nad Moravou, železniční stanice","arrival_time":"16:58:00","departure_time":"17:00:00","lat":48.948694,"lon":17.382439,"is_passed":false},{"stop_id":"U29404Z11","name":"Uherský Ostroh","arrival_time":"17:04:00","departure_time":"17:05:00","lat":48.981817,"lon":17.403441,"is_passed":false},{"stop_id":"U30314Z1","name":"Ostrožská Nová Ves","arrival_time":"17:09:00","departure_time":"17:09:00","lat":49.009594,"lon":17.436368,"is_passed":false},{"stop_id":"U31025Z2","name":"Kunovice zastávka","arrival_time":"17:13:00","departure_time":"17:14:00","lat":49.038039,"lon":17.461023,"is_passed":false},{"stop_id":"U31027Z2","name":"Uherské Hradiště","arrival_time":"17:18:00","departure_time":"17:20:00","lat":49.066825,"lon":17.457085,"is_passed":false},{"stop_id":"U31028Z2","name":"Staré Město u Uherského Hradiště","arrival_time":"17:26:00","departure_time":"18:27:00","lat":49.076022,"lon":17.42271,"is_passed":false}],"1367":[{"stop_id":"U31028Z1","name":"Staré Město u Uherského Hradiště","arrival_time":"18:27:00","departure_time":"18:27:00","lat":49.076029,"lon":17.422624,"is_passed":false},{"stop_id":"U31027Z1","name":"Uherské Hradiště","arrival_time":"18:33:00","departure_time":"18:36:00","lat":49.066881,"lon":17.457171,"is_passed":false},{"stop_id":"U31025Z1","name":"Kunovice zastávka","arrival_time":"18:40:00","departure_time":"18:40:00","lat":49.038454,"lon":17.46113,"is_passed":false},{"stop_id":"U30314Z2","name":"Ostrožská Nová Ves","arrival_time":"18:45:00","departure_time":"18:46:00","lat":49.009975,"lon":17.436797,"is_passed":false},{"stop_id":"U29404Z10","name":"Uherský Ostroh","arrival_time":"18:50:00","departure_time":"18:51:00","lat":48.982198,"lon":17.403538,"is_passed":false},{"stop_id":"U19316Z12","name":"Veselí nad Moravou, železniční stanice","arrival_time":"18:56:00","departure_time":"19:01:00","lat":48.948694,"lon":17.382439,"is_passed":false},{"stop_id":"U16908Z10","name":"Bzenec, železniční stanice","arrival_time":"19:09:00","departure_time":"19:10:00","lat":48.969173,"lon":17.263183,"is_passed":false},{"stop_id":"U26802Z10","name":"Vracov","arrival_time":"19:14:00","departure_time":"19:15:00","lat":48.97657,"lon":17.220097,"is_passed":false},{"stop_id":"U26603Z1","name":"Kyjov zastávka","arrival_time":"19:23:00","departure_time":"19:23:00","lat":49.003312,"lon":17.123835,"is_passed":false},{"stop_id":"U16650Z50","name":"Kyjov, železniční stanice","arrival_time":"19:27:00","departure_time":"19:28:00","lat":49.016226,"lon":17.122949,"is_passed":false},{"stop_id":"U16503Z10","name":"Nemotice, železniční stanice","arrival_time":"19:41:00","departure_time":"19:42:00","lat":49.133033,"lon":17.114422,"is_passed":false},{"stop_id":"U16509Z10","name":"Nesovice, železniční stanice","arrival_time":"19:50:00","departure_time":"19:50:00","lat":49.149315,"lon":17.080192,"is_passed":false},{"stop_id":"U16463Z50","name":"Bučovice, železniční stanice","arrival_time":"19:57:00","departure_time":"19:58:00","lat":49.145619,"lon":16.999658,"is_passed":false},{"stop_id":"U16333Z10","name":"Slavkov u Brna, žel. st.","arrival_time":"20:06:00","departure_time":"20:08:00","lat":49.14495,"lon":16.873475,"is_passed":false},{"stop_id":"U1146Z99","name":"Hlavní nádraží","arrival_time":"20:33:00","departure_time":"21:28:00","lat":49.19035,"lon":16.612342,"is_passed":false}],"1368":[{"stop_id":"U1146Z98","name":"Hlavní nádraží","arrival_time":"21:28:00","departure_time":"21:28:00","lat":49.19035,"lon":16.612342,"is_passed":false},{"stop_id":"U16333Z11","name":"Slavkov u Brna, žel. st.","arrival_time":"21:52:00","departure_time":"21:53:00","lat":49.14495,"lon":16.873475,"is_passed":false},{"stop_id":"U16463Z51","name":"Bučovice, železniční stanice","arrival_time":"22:01:00","departure_time":"22:02:00","lat":49.145619,"lon":16.999658,"is_passed":false},{"stop_id":"U16509Z11","name":"Nesovice, železniční stanice","arrival_time":"22:08:00","departure_time":"22:09:00","lat":49.14916,"lon":17.079897,"is_passed":false},{"stop_id":"U16503Z11","name":"Nemotice, železniční stanice","arrival_time":"22:16:00","departure_time":"22:17:00","lat":49.132992,"lon":17.114242,"is_passed":false},{"stop_id":"U16650Z51","name":"Kyjov, železniční stanice","arrival_time":"22:30:00","departure_time":"22:31:00","lat":49.016263,"lon":17.122856,"is_passed":false},{"stop_id":"U26603Z2","name":"Kyjov zastávka","arrival_time":"22:34:00","departure_time":"22:34:00","lat":49.003383,"lon":17.123528,"is_passed":false},{"stop_id":"U26801Z11","name":"Vlkoš","arrival_time":"22:39:00","departure_time":"22:39:00","lat":48.987902,"lon":17.166624,"is_passed":false},{"stop_id":"U26802Z11","name":"Vracov","arrival_time":"22:43:00","departure_time":"22:44:00","lat":48.976674,"lon":17.218698,"is_passed":false},{"stop_id":"U16908Z11","name":"Bzenec, železniční stanice","arrival_time":"22:48:00","departure_time":"22:49:00","lat":48.969173,"lon":17.263183,"is_passed":false},{"stop_id":"U19316Z13","name":"Veselí nad Moravou, železniční stanice","arrival_time":"22:57:00","departure_time":"22:57:00","lat":48.948694,"lon":17.382439,"is_passed":false}],"1369":[{"stop_id":"U31026Z1","name":"Kunovice","arrival_time":"6:36:00","departure_time":"6:36:00","lat":49.051998,"lon":17.470067,"is_passed":false},{"stop_id":"U31025Z1","name":"Kunovice zastávka","arrival_time":"6:38:00","departure_time":"6:39:00","lat":49.038454,"lon":17.46113,"is_passed":false},{"stop_id":"U30314Z2","name":"Ostrožská Nová Ves","arrival_time":"6:43:00","departure_time":"6:44:00","lat":49.009975,"lon":17.436797,"is_passed":false},{"stop_id":"U29404Z10","name":"Uherský Ostroh","arrival_time":"6:49:00","departure_time":"6:50:00","lat":48.982198,"lon":17.403538,"is_passed":false},{"stop_id":"U19316Z12","name":"Veselí nad Moravou, železniční stanice","arrival_time":"6:55:00","departure_time":"7:01:00","lat":48.948694,"lon":17.382439,"is_passed":false},{"stop_id":"U16908Z10","name":"Bzenec, železniční stanice","arrival_time":"7:09:00","departure_time":"7:10:00","lat":48.969173,"lon":17.263183,"is_passed":false},{"stop_id":"U26802Z10","name":"Vracov","arrival_time":"7:14:00","departure_time":"7:15:00","lat":48.97657,"lon":17.220097,"is_passed":false},{"stop_id":"U26603Z1","name":"Kyjov zastávka","arrival_time":"7:23:00","departure_time":"7:23:00","lat":49.003312,"lon":17.123835,"is_passed":false},{"stop_id":"U16650Z50","name":"Kyjov, železniční stanice","arrival_time":"7:27:00","departure_time":"7:28:00","lat":49.016226,"lon":17.122949,"is_passed":false},{"stop_id":"U16503Z10","name":"Nemotice, železniční stanice","arrival_time":"7:41:00","departure_time":"7:42:00","lat":49.133033,"lon":17.114422,"is_passed":false},{"stop_id":"U16509Z10","name":"Nesovice, železniční stanice","arrival_time":"7:50:00","departure_time":"7:50:00","lat":49.149315,"lon":17.080192,"is_passed":false},{"stop_id":"U16463Z50","name":"Bučovice, železniční stanice","arrival_time":"7:57:00","departure_time":"7:58:00","lat":49.145619,"lon":16.999658,"is_passed":false},{"stop_id":"U16333Z10","name":"Slavkov u Brna, žel. st.","arrival_time":"8:06:00","departure_time":"8:08:00","lat":49.14495,"lon":16.873475,"is_passed":false},{"stop_id":"U1146Z99","name":"Hlavní nádraží","arrival_time":"8:33:00","departure_time":"17:28:00","lat":49.19035,"lon":16.612342,"is_passed":false}],"13600":[{"stop_id":"U16908Z13","name":"Bzenec, železniční stanice","arrival_time":"17:39:00","departure_time":"17:39:00","lat":48.969173,"lon":17.263183,"is_passed":false},{"stop_id":"U26901Z11","name":"Bzenec-Olšovec","arrival_time":"17:42:00","departure_time":"17:42:00","lat":48.970217,"lon":17.293339,"is_passed":false},{"stop_id":"U19302Z11","name":"Moravský Písek, Kolonie, žel. stanice","arrival_time":"17:45:00","departure_time":"18:07:00","lat":48.977119,"lon":17.314582,"is_passed":false}],"13601":[{"stop_id":"U19302Z12","name":"Moravský Písek, Kolonie, žel. stanice","arrival_time":"18:07:00","departure_time":"18:07:00","lat":48.977119,"lon":17.314582,"is_passed":false},{"stop_id":"U26901Z10","name":"Bzenec-Olšovec","arrival_time":"18:10:00","departure_time":"18:10:00","lat":48.970217,"lon":17.293339,"is_passed":false},{"stop_id":"U16908Z10","name":"Bzenec, železniční stanice","arrival_time":"18:13:00","departure_time":"18:42:00","lat":48.969173,"lon":17.263183,"is_passed":false}],"13602":[{"stop_id":"U16908Z13","name":"Bzenec, železniční stanice","arrival_time":"18:42:00","departure_time":"18:42:00","lat":48.969173,"lon":17.263183,"is_passed":false},{"stop_id":"U26901Z11","name":"Bzenec-Olšovec","arrival_time":"18:45:00","departure_time":"18:45:00","lat":48.970217,"lon":17.293339,"is_passed":false},{"stop_id":"U19302Z11","name":"Moravský Písek, Kolonie, žel. stanice","arrival_time":"18:48:00","departure_time":"18:51:00","lat":48.977119,"lon":17.314582,"is_passed":false}],"13603":[{"stop_id":"U19302Z12","name":"Moravský Písek, Kolonie, žel. stanice","arrival_time":"18:51:00","departure_time":"18:51:00","lat":48.977119,"lon":17.314582,"is_passed":false},{"stop_id":"U26901Z10","name":"Bzenec-Olšovec","arrival_time":"18:54:00","departure_time":"18:54:00","lat":48.970217,"lon":17.293339,"is_passed":false},{"stop_id":"U16908Z10","name":"Bzenec, železniční stanice","arrival_time":"18:57:00","departure_time":"19:01:00","lat":48.969173,"lon":17.263183,"is_passed":false}],"13604":[{"stop_id":"U16908Z13","name":"Bzenec, železniční stanice","arrival_time":"19:01:00","departure_time":"19:01:00","lat":48.969173,"lon":17.263183,"is_passed":false},{"stop_id":"U26901Z11","name":"Bzenec-Olšovec","arrival_time":"19:04:00","departure_time":"19:04:00","lat":48.970217,"lon":17.293339,"is_passed":false},{"stop_id":"U19302Z11","name":"Moravský Písek, Kolonie, žel. stanice","arrival_time":"19:07:00","departure_time":"19:14:00","lat":48.977119,"lon":17.314582,"is_passed":false}],"13605":[{"stop_id":"U19302Z12","name":"Moravský Písek, Kolonie, žel. stanice","arrival_time":"19:14:00","departure_time":"19:14:00","lat":48.977119,"lon":17.314582,"is_passed":false},{"stop_id":"U26901Z10","name":"Bzenec-Olšovec","arrival_time":"19:17:00","departure_time":"19:17:00","lat":48.970217,"lon":17.293339,"is_passed":false},{"stop_id":"U16908Z10","name":"Bzenec, železniční stanice","arrival_time":"19:20:00","departure_time":"19:37:00","lat":48.969173,"lon":17.263183,"is_passed":false}],"13606":[{"stop_id":"U16908Z13","name":"Bzenec, železniční stanice","arrival_time":"19:37:00","departure_time":"19:37:00","lat":48.969173,"lon":17.263183,"is_passed":false},{"stop_id":"U26901Z11","name":"Bzenec-Olšovec","arrival_time":"19:40:00","departure_time":"19:40:00","lat":48.970217,"lon":17.293339,"is_passed":false},{"stop_id":"U19302Z11","name":"Moravský Písek, Kolonie, žel. stanice","arrival_time":"19:43:00","departure_time":"20:07:00","lat":48.977119,"lon":17.314582,"is_passed":false}],"13607":[{"stop_id":"U19302Z12","name":"Moravský Písek, Kolonie, žel. stanice","arrival_time":"20:07:00","departure_time":"20:07:00","lat":48.977119,"lon":17.314582,"is_passed":false},{"stop_id":"U26901Z10","name":"Bzenec-Olšovec","arrival_time":"20:10:00","departure_time":"20:10:00","lat":48.970217,"lon":17.293339,"is_passed":false},{"stop_id":"U16908Z10","name":"Bzenec, železniční stanice","arrival_time":"20:13:00","departure_time":"20:42:00","lat":48.969173,"lon":17.263183,"is_passed":false}],"13608":[{"stop_id":"U16908Z13","name":"Bzenec, železniční stanice","arrival_time":"20:42:00","departure_time":"20:42:00","lat":48.969173,"lon":17.263183,"is_passed":false},{"stop_id":"U26901Z11","name":"Bzenec-Olšovec","arrival_time":"20:45:00","departure_time":"20:45:00","lat":48.970217,"lon":17.293339,"is_passed":false},{"stop_id":"U19302Z11","name":"Moravský Písek, Kolonie, žel. stanice","arrival_time":"20:48:00","departure_time":"20:51:00","lat":48.977119,"lon":17.314582,"is_passed":false}],"13609":[{"stop_id":"U19302Z12","name":"Moravský Písek, Kolonie, žel. stanice","arrival_time":"20:51:00","departure_time":"20:51:00","lat":48.977119,"lon":17.314582,"is_passed":false},{"stop_id":"U26901Z10","name":"Bzenec-Olšovec","arrival_time":"20:54:00","departure_time":"20:54:00","lat":48.970217,"lon":17.293339,"is_passed":false},{"stop_id":"U16908Z10","name":"Bzenec, železniční stanice","arrival_time":"20:57:00","departure_time":"21:01:00","lat":48.969173,"lon":17.263183,"is_passed":false}],"13610":[{"stop_id":"U16908Z13","name":"Bzenec, železniční stanice","arrival_time":"21:01:00","departure_time":"21:01:00","lat":48.969173,"lon":17.263183,"is_passed":false},{"stop_id":"U26901Z11","name":"Bzenec-Olšovec","arrival_time":"21:04:00","departure_time":"21:04:00","lat":48.970217,"lon":17.293339,"is_passed":false},{"stop_id":"U19302Z11","name":"Moravský Písek, Kolonie, žel. stanice","arrival_time":"21:07:00","departure_time":"21:14:00","lat":48.977119,"lon":17.314582,"is_passed":false}],"13611":[{"stop_id":"U19302Z12","name":"Moravský Písek, Kolonie, žel. stanice","arrival_time":"21:14:00","departure_time":"21:14:00","lat":48.977119,"lon":17.314582,"is_passed":false},{"stop_id":"U26901Z10","name":"Bzenec-Olšovec","arrival_time":"21:17:00","departure_time":"21:17:00","lat":48.970217,"lon":17.293339,"is_passed":false},{"stop_id":"U16908Z10","name":"Bzenec, železniční stanice","arrival_time":"21:20:00","departure_time":"21:24:00","lat":48.969173,"lon":17.263183,"is_passed":false}],"13612":[{"stop_id":"U16908Z11","name":"Bzenec, železniční stanice","arrival_time":"21:24:00","departure_time":"21:24:00","lat":48.969173,"lon":17.263183,"is_passed":false},{"stop_id":"U19316Z13","name":"Veselí nad Moravou, železniční stanice","arrival_time":"21:33:00","departure_time":"21:33:00","lat":48.948694,"lon":17.382439,"is_passed":false}],"13613":[{"stop_id":"U19001Z21","name":"Hodonín, autobusové nádraží","arrival_time":"6:22:00","departure_time":"6:22:00","lat":48.85575,"lon":17.12069,"is_passed":false},{"stop_id":"U29102Z11","name":"Rohatec zastávka","arrival_time":"6:26:00","departure_time":"6:27:00","lat":48.88309,"lon":17.178111,"is_passed":false},{"stop_id":"U29103Z11","name":"Rohatec","arrival_time":"6:29:00","departure_time":"6:30:00","lat":48.892515,"lon":17.197852,"is_passed":false},{"stop_id":"U29104Z11","name":"Rohatec kolonie","arrival_time":"6:33:00","departure_time":"6:33:00","lat":48.892642,"lon":17.212111,"is_passed":false},{"stop_id":"U29202Z11","name":"Sudoměřice nad Moravou","arrival_time":"6:38:00","departure_time":"6:39:00","lat":48.871653,"lon":17.243039,"is_passed":false},{"stop_id":"U29201Z11","name":"Petrov","arrival_time":"6:42:00","departure_time":"6:42:00","lat":48.878911,"lon":17.273703,"is_passed":false},{"stop_id":"U19205Z11","name":"Strážnice, aut. st.","arrival_time":"6:46:00","departure_time":"6:47:00","lat":48.897385,"lon":17.317688,"is_passed":false},{"stop_id":"U29303Z11","name":"Vnorovy","arrival_time":"6:51:00","departure_time":"6:52:00","lat":48.931508,"lon":17.348464,"is_passed":false},{"stop_id":"U29302Z11","name":"Veselí nad Moravou-Zarazice","arrival_time":"6:54:00","departure_time":"6:54:00","lat":48.937236,"lon":17.361306,"is_passed":false},{"stop_id":"U19316Z11","name":"Veselí nad Moravou, železniční stanice","arrival_time":"6:57:00","departure_time":"7:03:00","lat":48.948694,"lon":17.382439,"is_passed":false},{"stop_id":"U29403Z11","name":"Blatnice pod Sv. Antonínkem","arrival_time":"7:07:00","departure_time":"7:07:00","lat":48.941163,"lon":17.437706,"is_passed":false},{"stop_id":"U29402Z11","name":"Lipov","arrival_time":"7:12:00","departure_time":"7:13:00","lat":48.909806,"lon":17.457953,"is_passed":false},{"stop_id":"U29401Z11","name":"Louka u Ostrohu","arrival_time":"7:15:00","departure_time":"7:16:00","lat":48.912234,"lon":17.484226,"is_passed":false},{"stop_id":"U19530Z11","name":"Velká nad Veličkou, železniční stanice","arrival_time":"7:21:00","departure_time":"7:23:00","lat":48.878631,"lon":17.51092,"is_passed":false},{"stop_id":"U29502Z11","name":"Javorník nad Veličkou zastávka","arrival_time":"7:26:00","departure_time":"7:26:00","lat":48.860802,"lon":17.520722,"is_passed":false},{"stop_id":"U29501Z11","name":"Vrbovce","arrival_time":"7:31:00","departure_time":"7:40:00","lat":48.824439,"lon":17.516352,"is_passed":false},{"stop_id":"U29504Z2","name":"Vrbovce zastávka","arrival_time":"7:43:00","departure_time":"7:44:00","lat":48.804784,"lon":17.52869,"is_passed":false},{"stop_id":"U29601Z2","name":"Brestovec","arrival_time":"7:47:00","departure_time":"7:47:00","lat":48.786012,"lon":17.557593,"is_passed":false},{"stop_id":"U29602Z2","name":"Myjava","arrival_time":"7:51:00","departure_time":"7:51:00","lat":48.763641,"lon":17.570897,"is_passed":false}],"13614":[{"stop_id":"U16116Z1","name":"Podolí","arrival_time":"4:52:00","departure_time":"4:52:00","lat":49.189832,"lon":16.725978,"is_passed":false},{"stop_id":"U16130Z3","name":"Šlapanice, Bedřichovice, rozc.","arrival_time":"4:54:00","departure_time":"4:57:00","lat":49.18336,"lon":16.722373,"is_passed":false},{"stop_id":"U16129Z1","name":"Šlapanice, Bedřichovice","arrival_time":"4:58:00","departure_time":"4:58:00","lat":49.17982,"lon":16.721481,"is_passed":false},{"stop_id":"U16163Z3","name":"Šlapanice, Riegrova","arrival_time":"5:01:00","departure_time":"5:01:00","lat":49.168445,"lon":16.726032,"is_passed":false}],"13615":[{"stop_id":"U16163Z1","name":"Šlapanice, Riegrova","arrival_time":"6:12:00","departure_time":"6:12:00","lat":49.168445,"lon":16.726032,"is_passed":false},{"stop_id":"U16159Z3","name":"Šlapanice, Kalvodova","arrival_time":"6:13:00","departure_time":"6:13:00","lat":49.165936,"lon":16.726067,"is_passed":false},{"stop_id":"U16120Z1","name":"Ponětovice","arrival_time":"6:16:00","departure_time":"6:16:00","lat":49.152352,"lon":16.740815,"is_passed":false},{"stop_id":"U16121Z1","name":"Ponětovice, železniční stanice","arrival_time":"6:17:00","departure_time":"6:17:00","lat":49.154645,"lon":16.747738,"is_passed":false},{"stop_id":"U16104Z1","name":"Jiříkovice","arrival_time":"6:21:00","departure_time":"6:21:00","lat":49.16632,"lon":16.757892,"is_passed":false},{"stop_id":"U16102Z1","name":"Blažovice, pod kostelem","arrival_time":"6:25:00","departure_time":"6:25:00","lat":49.162833,"lon":16.78274,"is_passed":false},{"stop_id":"U16101Z1","name":"Blažovice, hostinec","arrival_time":"6:26:00","departure_time":"6:28:00","lat":49.166001,"lon":16.786446,"is_passed":false}],"13616":[{"stop_id":"U16101Z2","name":"Blažovice, hostinec","arrival_time":"6:28:00","departure_time":"6:28:00","lat":49.166001,"lon":16.786446,"is_passed":false},{"stop_id":"U16102Z2","name":"Blažovice, pod kostelem","arrival_time":"6:29:00","departure_time":"6:29:00","lat":49.162842,"lon":16.783037,"is_passed":false},{"stop_id":"U16104Z2","name":"Jiříkovice","arrival_time":"6:33:00","departure_time":"6:33:00","lat":49.166323,"lon":16.757805,"is_passed":false},{"stop_id":"U16121Z2","name":"Ponětovice, železniční stanice","arrival_time":"6:36:00","departure_time":"6:36:00","lat":49.154698,"lon":16.747757,"is_passed":false},{"stop_id":"U16120Z2","name":"Ponětovice","arrival_time":"6:37:00","departure_time":"6:37:00","lat":49.152307,"lon":16.742117,"is_passed":false},{"stop_id":"U16159Z4","name":"Šlapanice, Kalvodova","arrival_time":"6:41:00","departure_time":"6:41:00","lat":49.166805,"lon":16.72634,"is_passed":false},{"stop_id":"U16163Z2","name":"Šlapanice, Riegrova","arrival_time":"6:42:00","departure_time":"6:42:00","lat":49.168445,"lon":16.726032,"is_passed":false}],"13617":[{"stop_id":"U16163Z2","name":"Šlapanice, Riegrova","arrival_time":"6:51:00","departure_time":"6:51:00","lat":49.168445,"lon":16.726032,"is_passed":false},{"stop_id":"U16129Z2","name":"Šlapanice, Bedřichovice","arrival_time":"6:54:00","departure_time":"6:54:00","lat":49.179845,"lon":16.721551,"is_passed":false},{"stop_id":"U16130Z4","name":"Šlapanice, Bedřichovice, rozc.","arrival_time":"6:55:00","departure_time":"6:57:00","lat":49.183532,"lon":16.722542,"is_passed":false},{"stop_id":"U16116Z2","name":"Podolí","arrival_time":"6:59:00","departure_time":"6:59:00","lat":49.189822,"lon":16.726255,"is_passed":false},{"stop_id":"U16118Z2","name":"Podolí, Líšeňská","arrival_time":"7:00:00","departure_time":"7:00:00","lat":49.191807,"lon":16.71978,"is_passed":false},{"stop_id":"U1497Z2","name":"Podolská","arrival_time":"7:04:00","departure_time":"7:04:00","lat":49.20311,"lon":16.713363,"is_passed":false},{"stop_id":"U1726Z2","name":"Velatická","arrival_time":"7:05:00","departure_time":"7:05:00","lat":49.204666,"lon":16.707253,"is_passed":false},{"stop_id":"U1350Z2","name":"Macháčkova","arrival_time":"7:06:00","departure_time":"7:06:00","lat":49.206174,"lon":16.701931,"is_passed":false},{"stop_id":"U1421Z4","name":"Náměstí Karla IV.","arrival_time":"7:08:00","departure_time":"7:08:00","lat":49.206991,"lon":16.695508,"is_passed":false},{"stop_id":"U1384Z3","name":"Mifkova","arrival_time":"7:09:00","departure_time":"7:09:00","lat":49.20716,"lon":16.692152,"is_passed":false},{"stop_id":"U1208Z6","name":"Jírova","arrival_time":"7:11:00","departure_time":"7:15:00","lat":49.209179,"lon":16.688685,"is_passed":false}],"13618":[{"stop_id":"U1208Z4","name":"Jírova","arrival_time":"7:15:00","departure_time":"7:15:00","lat":49.209099,"lon":16.688056,"is_passed":false},{"stop_id":"U1421Z3","name":"Náměstí Karla IV.","arrival_time":"7:16:00","departure_time":"7:16:00","lat":49.206713,"lon":16.694241,"is_passed":false},{"stop_id":"U1350Z1","name":"Macháčkova","arrival_time":"7:17:00","departure_time":"7:17:00","lat":49.206052,"lon":16.70193,"is_passed":false},{"stop_id":"U1726Z1","name":"Velatická","arrival_time":"7:18:00","departure_time":"7:18:00","lat":49.204129,"lon":16.708116,"is_passed":false},{"stop_id":"U1497Z1","name":"Podolská","arrival_time":"7:19:00","departure_time":"7:19:00","lat":49.203029,"lon":16.714223,"is_passed":false},{"stop_id":"U16118Z1","name":"Podolí, Líšeňská","arrival_time":"7:22:00","departure_time":"7:22:00","lat":49.191843,"lon":16.719825,"is_passed":false},{"stop_id":"U16116Z1","name":"Podolí","arrival_time":"7:24:00","departure_time":"7:24:00","lat":49.189832,"lon":16.725978,"is_passed":false},{"stop_id":"U16130Z3","name":"Šlapanice, Bedřichovice, rozc.","arrival_time":"7:27:00","departure_time":"7:29:00","lat":49.18336,"lon":16.722373,"is_passed":false},{"stop_id":"U16129Z1","name":"Šlapanice, Bedřichovice","arrival_time":"7:30:00","departure_time":"7:30:00","lat":49.17982,"lon":16.721481,"is_passed":false},{"stop_id":"U16163Z3","name":"Šlapanice, Riegrova","arrival_time":"7:33:00","departure_time":"7:33:00","lat":49.168445,"lon":16.726032,"is_passed":false}],"13619":[{"stop_id":"U16163Z3","name":"Šlapanice, Riegrova","arrival_time":"7:33:00","departure_time":"7:33:00","lat":49.168445,"lon":16.726032,"is_passed":false},{"stop_id":"U16159Z3","name":"Šlapanice, Kalvodova","arrival_time":"7:34:00","departure_time":"7:34:00","lat":49.165936,"lon":16.726067,"is_passed":false},{"stop_id":"U16137Z1","name":"Šlapanice, železniční stanice","arrival_time":"7:36:00","departure_time":"7:36:00","lat":49.15865,"lon":16.729037,"is_passed":false},{"stop_id":"U16111Z1","name":"Kobylnice","arrival_time":"7:41:00","departure_time":"7:41:00","lat":49.140325,"lon":16.731953,"is_passed":false},{"stop_id":"U16115Z1","name":"Kobylnice, obecní úřad","arrival_time":"7:42:00","departure_time":"7:59:00","lat":49.137533,"lon":16.732766,"is_passed":false}],"13620":[{"stop_id":"U16115Z2","name":"Kobylnice, obecní úřad","arrival_time":"7:59:00","departure_time":"7:59:00","lat":49.137579,"lon":16.732781,"is_passed":false},{"stop_id":"U16111Z2","name":"Kobylnice","arrival_time":"8:00:00","departure_time":"8:00:00","lat":49.140187,"lon":16.731883,"is_passed":false},{"stop_id":"U16137Z2","name":"Šlapanice, železniční stanice","arrival_time":"8:04:00","departure_time":"8:04:00","lat":49.159177,"lon":16.728893,"is_passed":false},{"stop_id":"U16159Z4","name":"Šlapanice, Kalvodova","arrival_time":"8:07:00","departure_time":"8:07:00","lat":49.166805,"lon":16.72634,"is_passed":false},{"stop_id":"U16163Z2","name":"Šlapanice, Riegrova","arrival_time":"8:08:00","departure_time":"8:08:00","lat":49.168445,"lon":16.726032,"is_passed":false}],"13621":[{"stop_id":"U16163Z1","name":"Šlapanice, Riegrova","arrival_time":"8:09:00","departure_time":"8:09:00","lat":49.168445,"lon":16.726032,"is_passed":false},{"stop_id":"U16159Z3","name":"Šlapanice, Kalvodova","arrival_time":"8:10:00","departure_time":"8:10:00","lat":49.165936,"lon":16.726067,"is_passed":false},{"stop_id":"U16104Z1","name":"Jiříkovice","arrival_time":"8:14:00","departure_time":"8:14:00","lat":49.16632,"lon":16.757892,"is_passed":false},{"stop_id":"U16102Z1","name":"Blažovice, pod kostelem","arrival_time":"8:18:00","departure_time":"8:18:00","lat":49.162833,"lon":16.78274,"is_passed":false},{"stop_id":"U16101Z1","name":"Blažovice, hostinec","arrival_time":"8:19:00","departure_time":"8:20:00","lat":49.166001,"lon":16.786446,"is_passed":false}],"13622":[{"stop_id":"U16101Z2","name":"Blažovice, hostinec","arrival_time":"8:20:00","departure_time":"8:20:00","lat":49.166001,"lon":16.786446,"is_passed":false},{"stop_id":"U16102Z2","name":"Blažovice, pod kostelem","arrival_time":"8:21:00","departure_time":"8:21:00","lat":49.162842,"lon":16.783037,"is_passed":false},{"stop_id":"U16104Z2","name":"Jiříkovice","arrival_time":"8:25:00","departure_time":"8:25:00","lat":49.166323,"lon":16.757805,"is_passed":false},{"stop_id":"U16121Z2","name":"Ponětovice, železniční stanice","arrival_time":"8:28:00","departure_time":"8:28:00","lat":49.154698,"lon":16.747757,"is_passed":false},{"stop_id":"U16120Z2","name":"Ponětovice","arrival_time":"8:29:00","departure_time":"8:29:00","lat":49.152307,"lon":16.742117,"is_passed":false},{"stop_id":"U16159Z4","name":"Šlapanice, Kalvodova","arrival_time":"8:33:00","departure_time":"8:33:00","lat":49.166805,"lon":16.72634,"is_passed":false},{"stop_id":"U16163Z2","name":"Šlapanice, Riegrova","arrival_time":"8:34:00","departure_time":"8:34:00","lat":49.168445,"lon":16.726032,"is_passed":false}],"13623":[{"stop_id":"U16163Z2","name":"Šlapanice, Riegrova","arrival_time":"8:51:00","departure_time":"8:51:00","lat":49.168445,"lon":16.726032,"is_passed":false},{"stop_id":"U16129Z2","name":"Šlapanice, Bedřichovice","arrival_time":"8:54:00","departure_time":"8:54:00","lat":49.179845,"lon":16.721551,"is_passed":false},{"stop_id":"U16130Z4","name":"Šlapanice, Bedřichovice, rozc.","arrival_time":"8:55:00","departure_time":"8:57:00","lat":49.183532,"lon":16.722542,"is_passed":false},{"stop_id":"U16116Z2","name":"Podolí","arrival_time":"8:59:00","departure_time":"8:59:00","lat":49.189822,"lon":16.726255,"is_passed":false},{"stop_id":"U16118Z2","name":"Podolí, Líšeňská","arrival_time":"9:00:00","departure_time":"9:00:00","lat":49.191807,"lon":16.71978,"is_passed":false},{"stop_id":"U1497Z2","name":"Podolská","arrival_time":"9:04:00","departure_time":"9:04:00","lat":49.20311,"lon":16.713363,"is_passed":false},{"stop_id":"U1726Z2","name":"Velatická","arrival_time":"9:05:00","departure_time":"9:05:00","lat":49.204666,"lon":16.707253,"is_passed":false},{"stop_id":"U1350Z2","name":"Macháčkova","arrival_time":"9:06:00","departure_time":"9:06:00","lat":49.206174,"lon":16.701931,"is_passed":false},{"stop_id":"U1421Z4","name":"Náměstí Karla IV.","arrival_time":"9:08:00","departure_time":"9:08:00","lat":49.206991,"lon":16.695508,"is_passed":false},{"stop_id":"U1384Z3","name":"Mifkova","arrival_time":"9:09:00","departure_time":"9:09:00","lat":49.20716,"lon":16.692152,"is_passed":false},{"stop_id":"U1208Z6","name":"Jírova","arrival_time":"9:11:00","departure_time":"9:15:00","lat":49.209179,"lon":16.688685,"is_passed":false}],"13624":[{"stop_id":"U1208Z4","name":"Jírova","arrival_time":"9:15:00","departure_time":"9:15:00","lat":49.209099,"lon":16.688056,"is_passed":false},{"stop_id":"U1421Z3","name":"Náměstí Karla IV.","arrival_time":"9:16:00","departure_time":"9:16:00","lat":49.206713,"lon":16.694241,"is_passed":false},{"stop_id":"U1350Z1","name":"Macháčkova","arrival_time":"9:17:00","departure_time":"9:17:00","lat":49.206052,"lon":16.70193,"is_passed":false},{"stop_id":"U1726Z1","name":"Velatická","arrival_time":"9:18:00","departure_time":"9:18:00","lat":49.204129,"lon":16.708116,"is_passed":false},{"stop_id":"U1497Z1","name":"Podolská","arrival_time":"9:19:00","departure_time":"9:19:00","lat":49.203029,"lon":16.714223,"is_passed":false},{"stop_id":"U16118Z1","name":"Podolí, Líšeňská","arrival_time":"9:22:00","departure_time":"9:22:00","lat":49.191843,"lon":16.719825,"is_passed":false},{"stop_id":"U16116Z1","name":"Podolí","arrival_time":"9:24:00","departure_time":"9:24:00","lat":49.189832,"lon":16.725978,"is_passed":false},{"stop_id":"U16130Z3","name":"Šlapanice, Bedřichovice, rozc.","arrival_time":"9:27:00","departure_time":"9:29:00","lat":49.18336,"lon":16.722373,"is_passed":false},{"stop_id":"U16129Z1","name":"Šlapanice, Bedřichovice","arrival_time":"9:30:00","departure_time":"9:30:00","lat":49.17982,"lon":16.721481,"is_passed":false},{"stop_id":"U16163Z3","name":"Šlapanice, Riegrova","arrival_time":"9:33:00","departure_time":"9:33:00","lat":49.168445,"lon":16.726032,"is_passed":false}],"13625":[{"stop_id":"U16163Z1","name":"Šlapanice, Riegrova","arrival_time":"10:02:00","departure_time":"10:02:00","lat":49.168445,"lon":16.726032,"is_passed":false},{"stop_id":"U16159Z3","name":"Šlapanice, Kalvodova","arrival_time":"10:03:00","departure_time":"10:03:00","lat":49.165936,"lon":16.726067,"is_passed":false},{"stop_id":"U16120Z1","name":"Ponětovice","arrival_time":"10:06:00","departure_time":"10:06:00","lat":49.152352,"lon":16.740815,"is_passed":false},{"stop_id":"U16121Z1","name":"Ponětovice, železniční stanice","arrival_time":"10:07:00","departure_time":"10:07:00","lat":49.154645,"lon":16.747738,"is_passed":false},{"stop_id":"U16104Z1","name":"Jiříkovice","arrival_time":"10:11:00","departure_time":"10:11:00","lat":49.16632,"lon":16.757892,"is_passed":false},{"stop_id":"U16102Z1","name":"Blažovice, pod kostelem","arrival_time":"10:15:00","departure_time":"10:15:00","lat":49.162833,"lon":16.78274,"is_passed":false},{"stop_id":"U16101Z1","name":"Blažovice, hostinec","arrival_time":"10:16:00","departure_time":"10:20:00","lat":49.166001,"lon":16.786446,"is_passed":false}],"13626":[{"stop_id":"U16101Z2","name":"Blažovice, hostinec","arrival_time":"10:20:00","departure_time":"10:20:00","lat":49.166001,"lon":16.786446,"is_passed":false},{"stop_id":"U16102Z2","name":"Blažovice, pod kostelem","arrival_time":"10:21:00","departure_time":"10:21:00","lat":49.162842,"lon":16.783037,"is_passed":false},{"stop_id":"U16104Z2","name":"Jiříkovice","arrival_time":"10:25:00","departure_time":"10:25:00","lat":49.166323,"lon":16.757805,"is_passed":false},{"stop_id":"U16121Z2","name":"Ponětovice, železniční stanice","arrival_time":"10:28:00","departure_time":"10:28:00","lat":49.154698,"lon":16.747757,"is_passed":false},{"stop_id":"U16120Z2","name":"Ponětovice","arrival_time":"10:29:00","departure_time":"10:29:00","lat":49.152307,"lon":16.742117,"is_passed":false},{"stop_id":"U16159Z4","name":"Šlapanice, Kalvodova","arrival_time":"10:33:00","departure_time":"10:33:00","lat":49.166805,"lon":16.72634,"is_passed":false},{"stop_id":"U16163Z2","name":"Šlapanice, Riegrova","arrival_time":"10:34:00","departure_time":"10:34:00","lat":49.168445,"lon":16.726032,"is_passed":false}],"13627":[{"stop_id":"U16163Z3","name":"Šlapanice, Riegrova","arrival_time":"10:29:00","departure_time":"10:29:00","lat":49.168445,"lon":16.726032,"is_passed":false},{"stop_id":"U16159Z3","name":"Šlapanice, Kalvodova","arrival_time":"10:30:00","departure_time":"10:30:00","lat":49.165936,"lon":16.726067,"is_passed":false},{"stop_id":"U16137Z1","name":"Šlapanice, železniční stanice","arrival_time":"10:32:00","departure_time":"10:32:00","lat":49.15865,"lon":16.729037,"is_passed":false},{"stop_id":"U16111Z1","name":"Kobylnice","arrival_time":"10:37:00","departure_time":"10:37:00","lat":49.140325,"lon":16.731953,"is_passed":false},{"stop_id":"U16115Z1","name":"Kobylnice, obecní úřad","arrival_time":"10:38:00","departure_time":"10:40:00","lat":49.137533,"lon":16.732766,"is_passed":false}],"13628":[{"stop_id":"U16115Z2","name":"Kobylnice, obecní úřad","arrival_time":"10:40:00","departure_time":"10:40:00","lat":49.137579,"lon":16.732781,"is_passed":false},{"stop_id":"U16111Z2","name":"Kobylnice","arrival_time":"10:41:00","departure_time":"10:41:00","lat":49.140187,"lon":16.731883,"is_passed":false},{"stop_id":"U16137Z2","name":"Šlapanice, železniční stanice","arrival_time":"10:45:00","departure_time":"10:45:00","lat":49.159177,"lon":16.728893,"is_passed":false},{"stop_id":"U16159Z4","name":"Šlapanice, Kalvodova","arrival_time":"10:48:00","departure_time":"10:48:00","lat":49.166805,"lon":16.72634,"is_passed":false},{"stop_id":"U16163Z2","name":"Šlapanice, Riegrova","arrival_time":"10:49:00","departure_time":"10:51:00","lat":49.168445,"lon":16.726032,"is_passed":false}],"13629":[{"stop_id":"U16163Z2","name":"Šlapanice, Riegrova","arrival_time":"10:51:00","departure_time":"10:51:00","lat":49.168445,"lon":16.726032,"is_passed":false},{"stop_id":"U16129Z2","name":"Šlapanice, Bedřichovice","arrival_time":"10:54:00","departure_time":"10:54:00","lat":49.179845,"lon":16.721551,"is_passed":false},{"stop_id":"U16130Z4","name":"Šlapanice, Bedřichovice, rozc.","arrival_time":"10:55:00","departure_time":"10:57:00","lat":49.183532,"lon":16.722542,"is_passed":false},{"stop_id":"U16116Z2","name":"Podolí","arrival_time":"10:59:00","departure_time":"10:59:00","lat":49.189822,"lon":16.726255,"is_passed":false},{"stop_id":"U16118Z2","name":"Podolí, Líšeňská","arrival_time":"11:00:00","departure_time":"11:00:00","lat":49.191807,"lon":16.71978,"is_passed":false},{"stop_id":"U1497Z2","name":"Podolská","arrival_time":"11:04:00","departure_time":"11:04:00","lat":49.20311,"lon":16.713363,"is_passed":false},{"stop_id":"U1726Z2","name":"Velatická","arrival_time":"11:05:00","departure_time":"11:05:00","lat":49.204666,"lon":16.707253,"is_passed":false},{"stop_id":"U1350Z2","name":"Macháčkova","arrival_time":"11:06:00","departure_time":"11:06:00","lat":49.206174,"lon":16.701931,"is_passed":false},{"stop_id":"U1421Z4","name":"Náměstí Karla IV.","arrival_time":"11:08:00","departure_time":"11:08:00","lat":49.206991,"lon":16.695508,"is_passed":false},{"stop_id":"U1384Z3","name":"Mifkova","arrival_time":"11:09:00","departure_time":"11:09:00","lat":49.20716,"lon":16.692152,"is_passed":false},{"stop_id":"U1208Z6","name":"Jírova","arrival_time":"11:11:00","departure_time":"12:15:00","lat":49.209179,"lon":16.688685,"is_passed":false}],"13630":[{"stop_id":"U1208Z4","name":"Jírova","arrival_time":"12:15:00","departure_time":"12:15:00","lat":49.209099,"lon":16.688056,"is_passed":false},{"stop_id":"U1421Z3","name":"Náměstí Karla IV.","arrival_time":"12:16:00","departure_time":"12:16:00","lat":49.206713,"lon":16.694241,"is_passed":false},{"stop_id":"U1350Z1","name":"Macháčkova","arrival_time":"12:17:00","departure_time":"12:17:00","lat":49.206052,"lon":16.70193,"is_passed":false},{"stop_id":"U1726Z1","name":"Velatická","arrival_time":"12:18:00","departure_time":"12:18:00","lat":49.204129,"lon":16.708116,"is_passed":false},{"stop_id":"U1497Z1","name":"Podolská","arrival_time":"12:19:00","departure_time":"12:19:00","lat":49.203029,"lon":16.714223,"is_passed":false},{"stop_id":"U16118Z1","name":"Podolí, Líšeňská","arrival_time":"12:22:00","departure_time":"12:22:00","lat":49.191843,"lon":16.719825,"is_passed":false},{"stop_id":"U16116Z1","name":"Podolí","arrival_time":"12:24:00","departure_time":"12:24:00","lat":49.189832,"lon":16.725978,"is_passed":false},{"stop_id":"U16130Z3","name":"Šlapanice, Bedřichovice, rozc.","arrival_time":"12:27:00","departure_time":"12:29:00","lat":49.18336,"lon":16.722373,"is_passed":false},{"stop_id":"U16129Z1","name":"Šlapanice, Bedřichovice","arrival_time":"12:30:00","departure_time":"12:30:00","lat":49.17982,"lon":16.721481,"is_passed":false},{"stop_id":"U16163Z3","name":"Šlapanice, Riegrova","arrival_time":"12:33:00","departure_time":"12:33:00","lat":49.168445,"lon":16.726032,"is_passed":false}],"13631":[{"stop_id":"U16163Z1","name":"Šlapanice, Riegrova","arrival_time":"12:39:00","departure_time":"12:39:00","lat":49.168445,"lon":16.726032,"is_passed":false},{"stop_id":"U16159Z3","name":"Šlapanice, Kalvodova","arrival_time":"12:40:00","departure_time":"12:40:00","lat":49.165936,"lon":16.726067,"is_passed":false},{"stop_id":"U16120Z1","name":"Ponětovice","arrival_time":"12:43:00","departure_time":"12:43:00","lat":49.152352,"lon":16.740815,"is_passed":false},{"stop_id":"U16121Z1","name":"Ponětovice, železniční stanice","arrival_time":"12:44:00","departure_time":"12:44:00","lat":49.154645,"lon":16.747738,"is_passed":false},{"stop_id":"U16104Z1","name":"Jiříkovice","arrival_time":"12:48:00","departure_time":"12:48:00","lat":49.16632,"lon":16.757892,"is_passed":false},{"stop_id":"U16102Z1","name":"Blažovice, pod kostelem","arrival_time":"12:52:00","departure_time":"12:52:00","lat":49.162833,"lon":16.78274,"is_passed":false},{"stop_id":"U16101Z1","name":"Blažovice, hostinec","arrival_time":"12:53:00","departure_time":"13:15:00","lat":49.166001,"lon":16.786446,"is_passed":false}],"13632":[{"stop_id":"U16101Z2","name":"Blažovice, hostinec","arrival_time":"13:15:00","departure_time":"13:15:00","lat":49.166001,"lon":16.786446,"is_passed":false},{"stop_id":"U16102Z2","name":"Blažovice, pod kostelem","arrival_time":"13:16:00","departure_time":"13:16:00","lat":49.162842,"lon":16.783037,"is_passed":false},{"stop_id":"U16104Z2","name":"Jiříkovice","arrival_time":"13:20:00","departure_time":"13:20:00","lat":49.166323,"lon":16.757805,"is_passed":false},{"stop_id":"U16121Z2","name":"Ponětovice, železniční stanice","arrival_time":"13:23:00","departure_time":"13:23:00","lat":49.154698,"lon":16.747757,"is_passed":false},{"stop_id":"U16120Z2","name":"Ponětovice","arrival_time":"13:24:00","departure_time":"13:24:00","lat":49.152307,"lon":16.742117,"is_passed":false},{"stop_id":"U16159Z4","name":"Šlapanice, Kalvodova","arrival_time":"13:28:00","departure_time":"13:28:00","lat":49.166805,"lon":16.72634,"is_passed":false},{"stop_id":"U16163Z2","name":"Šlapanice, Riegrova","arrival_time":"13:29:00","departure_time":"13:29:00","lat":49.168445,"lon":16.726032,"is_passed":false}],"13633":[{"stop_id":"U16163Z2","name":"Šlapanice, Riegrova","arrival_time":"13:51:00","departure_time":"13:51:00","lat":49.168445,"lon":16.726032,"is_passed":false},{"stop_id":"U16129Z2","name":"Šlapanice, Bedřichovice","arrival_time":"13:54:00","departure_time":"13:54:00","lat":49.179845,"lon":16.721551,"is_passed":false},{"stop_id":"U16130Z4","name":"Šlapanice, Bedřichovice, rozc.","arrival_time":"13:55:00","departure_time":"13:57:00","lat":49.183532,"lon":16.722542,"is_passed":false},{"stop_id":"U16116Z2","name":"Podolí","arrival_time":"13:59:00","departure_time":"13:59:00","lat":49.189822,"lon":16.726255,"is_passed":false},{"stop_id":"U16118Z2","name":"Podolí, Líšeňská","arrival_time":"14:00:00","departure_time":"14:00:00","lat":49.191807,"lon":16.71978,"is_passed":false},{"stop_id":"U1497Z2","name":"Podolská","arrival_time":"14:04:00","departure_time":"14:04:00","lat":49.20311,"lon":16.713363,"is_passed":false},{"stop_id":"U1726Z2","name":"Velatická","arrival_time":"14:05:00","departure_time":"14:05:00","lat":49.204666,"lon":16.707253,"is_passed":false},{"stop_id":"U1350Z2","name":"Macháčkova","arrival_time":"14:06:00","departure_time":"14:06:00","lat":49.206174,"lon":16.701931,"is_passed":false},{"stop_id":"U1421Z4","name":"Náměstí Karla IV.","arrival_time":"14:08:00","departure_time":"14:08:00","lat":49.206991,"lon":16.695508,"is_passed":false},{"stop_id":"U1384Z3","name":"Mifkova","arrival_time":"14:09:00","departure_time":"14:09:00","lat":49.20716,"lon":16.692152,"is_passed":false},{"stop_id":"U1208Z6","name":"Jírova","arrival_time":"14:11:00","departure_time":"14:15:00","lat":49.209179,"lon":16.688685,"is_passed":false}],"13634":[{"stop_id":"U1208Z4","name":"Jírova","arrival_time":"14:15:00","departure_time":"14:15:00","lat":49.209099,"lon":16.688056,"is_passed":false},{"stop_id":"U1421Z3","name":"Náměstí Karla IV.","arrival_time":"14:16:00","departure_time":"14:16:00","lat":49.206713,"lon":16.694241,"is_passed":false},{"stop_id":"U1350Z1","name":"Macháčkova","arrival_time":"14:17:00","departure_time":"14:17:00","lat":49.206052,"lon":16.70193,"is_passed":false},{"stop_id":"U1726Z1","name":"Velatická","arrival_time":"14:18:00","departure_time":"14:18:00","lat":49.204129,"lon":16.708116,"is_passed":false},{"stop_id":"U1497Z1","name":"Podolská","arrival_time":"14:19:00","departure_time":"14:19:00","lat":49.203029,"lon":16.714223,"is_passed":false},{"stop_id":"U16118Z1","name":"Podolí, Líšeňská","arrival_time":"14:22:00","departure_time":"14:22:00","lat":49.191843,"lon":16.719825,"is_passed":false},{"stop_id":"U16116Z1","name":"Podolí","arrival_time":"14:24:00","departure_time":"14:24:00","lat":49.189832,"lon":16.725978,"is_passed":false},{"stop_id":"U16130Z3","name":"Šlapanice, Bedřichovice, rozc.","arrival_time":"14:27:00","departure_time":"14:29:00","lat":49.18336,"lon":16.722373,"is_passed":false},{"stop_id":"U16129Z1","name":"Šlapanice, Bedřichovice","arrival_time":"14:30:00","departure_time":"14:30:00","lat":49.17982,"lon":16.721481,"is_passed":false},{"stop_id":"U16163Z3","name":"Šlapanice, Riegrova","arrival_time":"14:33:00","departure_time":"14:33:00","lat":49.168445,"lon":16.726032,"is_passed":false}],"13635":[{"stop_id":"U16163Z1","name":"Šlapanice, Riegrova","arrival_time":"14:39:00","departure_time":"14:39:00","lat":49.168445,"lon":16.726032,"is_passed":false},{"stop_id":"U16159Z3","name":"Šlapanice, Kalvodova","arrival_time":"14:40:00","departure_time":"14:40:00","lat":49.165936,"lon":16.726067,"is_passed":false},{"stop_id":"U16120Z1","name":"Ponětovice","arrival_time":"14:43:00","departure_time":"14:43:00","lat":49.152352,"lon":16.740815,"is_passed":false},{"stop_id":"U16121Z1","name":"Ponětovice, železniční stanice","arrival_time":"14:44:00","departure_time":"14:44:00","lat":49.154645,"lon":16.747738,"is_passed":false},{"stop_id":"U16104Z1","name":"Jiříkovice","arrival_time":"14:48:00","departure_time":"14:48:00","lat":49.16632,"lon":16.757892,"is_passed":false},{"stop_id":"U16102Z1","name":"Blažovice, pod kostelem","arrival_time":"14:52:00","departure_time":"14:52:00","lat":49.162833,"lon":16.78274,"is_passed":false},{"stop_id":"U16101Z1","name":"Blažovice, hostinec","arrival_time":"14:53:00","departure_time":"15:15:00","lat":49.166001,"lon":16.786446,"is_passed":false}],"13636":[{"stop_id":"U16101Z2","name":"Blažovice, hostinec","arrival_time":"15:15:00","departure_time":"15:15:00","lat":49.166001,"lon":16.786446,"is_passed":false},{"stop_id":"U16102Z2","name":"Blažovice, pod kostelem","arrival_time":"15:16:00","departure_time":"15:16:00","lat":49.162842,"lon":16.783037,"is_passed":false},{"stop_id":"U16104Z2","name":"Jiříkovice","arrival_time":"15:20:00","departure_time":"15:20:00","lat":49.166323,"lon":16.757805,"is_passed":false},{"stop_id":"U16121Z2","name":"Ponětovice, železniční stanice","arrival_time":"15:23:00","departure_time":"15:23:00","lat":49.154698,"lon":16.747757,"is_passed":false},{"stop_id":"U16120Z2","name":"Ponětovice","arrival_time":"15:24:00","departure_time":"15:24:00","lat":49.152307,"lon":16.742117,"is_passed":false},{"stop_id":"U16159Z4","name":"Šlapanice, Kalvodova","arrival_time":"15:28:00","departure_time":"15:28:00","lat":49.166805,"lon":16.72634,"is_passed":false},{"stop_id":"U16163Z2","name":"Šlapanice, Riegrova","arrival_time":"15:29:00","departure_time":"15:29:00","lat":49.168445,"lon":16.726032,"is_passed":false}],"13637":[{"stop_id":"U16163Z2","name":"Šlapanice, Riegrova","arrival_time":"15:51:00","departure_time":"15:51:00","lat":49.168445,"lon":16.726032,"is_passed":false},{"stop_id":"U16129Z2","name":"Šlapanice, Bedřichovice","arrival_time":"15:54:00","departure_time":"15:54:00","lat":49.179845,"lon":16.721551,"is_passed":false},{"stop_id":"U16130Z4","name":"Šlapanice, Bedřichovice, rozc.","arrival_time":"15:55:00","departure_time":"15:57:00","lat":49.183532,"lon":16.722542,"is_passed":false},{"stop_id":"U16116Z2","name":"Podolí","arrival_time":"15:59:00","departure_time":"15:59:00","lat":49.189822,"lon":16.726255,"is_passed":false},{"stop_id":"U16118Z2","name":"Podolí, Líšeňská","arrival_time":"16:00:00","departure_time":"16:00:00","lat":49.191807,"lon":16.71978,"is_passed":false},{"stop_id":"U1497Z2","name":"Podolská","arrival_time":"16:04:00","departure_time":"16:04:00","lat":49.20311,"lon":16.713363,"is_passed":false},{"stop_id":"U1726Z2","name":"Velatická","arrival_time":"16:05:00","departure_time":"16:05:00","lat":49.204666,"lon":16.707253,"is_passed":false},{"stop_id":"U1350Z2","name":"Macháčkova","arrival_time":"16:06:00","departure_time":"16:06:00","lat":49.206174,"lon":16.701931,"is_passed":false},{"stop_id":"U1421Z4","name":"Náměstí Karla IV.","arrival_time":"16:08:00","departure_time":"16:08:00","lat":49.206991,"lon":16.695508,"is_passed":false},{"stop_id":"U1384Z3","name":"Mifkova","arrival_time":"16:09:00","departure_time":"16:09:00","lat":49.20716,"lon":16.692152,"is_passed":false},{"stop_id":"U1208Z6","name":"Jírova","arrival_time":"16:11:00","departure_time":"16:15:00","lat":49.209179,"lon":16.688685,"is_passed":false}],"13638":[{"stop_id":"U1208Z4","name":"Jírova","arrival_time":"16:15:00","departure_time":"16:15:00","lat":49.209099,"lon":16.688056,"is_passed":false},{"stop_id":"U1421Z3","name":"Náměstí Karla IV.","arrival_time":"16:16:00","departure_time":"16:16:00","lat":49.206713,"lon":16.694241,"is_passed":false},{"stop_id":"U1350Z1","name":"Macháčkova","arrival_time":"16:17:00","departure_time":"16:17:00","lat":49.206052,"lon":16.70193,"is_passed":false},{"stop_id":"U1726Z1","name":"Velatická","arrival_time":"16:18:00","departure_time":"16:18:00","lat":49.204129,"lon":16.708116,"is_passed":false},{"stop_id":"U1497Z1","name":"Podolská","arrival_time":"16:19:00","departure_time":"16:19:00","lat":49.203029,"lon":16.714223,"is_passed":false},{"stop_id":"U16118Z1","name":"Podolí, Líšeňská","arrival_time":"16:22:00","departure_time":"16:22:00","lat":49.191843,"lon":16.719825,"is_passed":false},{"stop_id":"U16116Z1","name":"Podolí","arrival_time":"16:24:00","departure_time":"16:24:00","lat":49.189832,"lon":16.725978,"is_passed":false},{"stop_id":"U16130Z3","name":"Šlapanice, Bedřichovice, rozc.","arrival_time":"16:27:00","departure_time":"16:29:00","lat":49.18336,"lon":16.722373,"is_passed":false},{"stop_id":"U16129Z1","name":"Šlapanice, Bedřichovice","arrival_time":"16:30:00","departure_time":"16:30:00","lat":49.17982,"lon":16.721481,"is_passed":false},{"stop_id":"U16163Z3","name":"Šlapanice, Riegrova","arrival_time":"16:33:00","departure_time":"16:33:00","lat":49.168445,"lon":16.726032,"is_passed":false}],"13639":[{"stop_id":"U16163Z1","name":"Šlapanice, Riegrova","arrival_time":"16:39:00","departure_time":"16:39:00","lat":49.168445,"lon":16.726032,"is_passed":false},{"stop_id":"U16159Z3","name":"Šlapanice, Kalvodova","arrival_time":"16:40:00","departure_time":"16:40:00","lat":49.165936,"lon":16.726067,"is_passed":false},{"stop_id":"U16120Z1","name":"Ponětovice","arrival_time":"16:43:00","departure_time":"16:43:00","lat":49.152352,"lon":16.740815,"is_passed":false},{"stop_id":"U16121Z1","name":"Ponětovice, železniční stanice","arrival_time":"16:44:00","departure_time":"16:44:00","lat":49.154645,"lon":16.747738,"is_passed":false},{"stop_id":"U16104Z1","name":"Jiříkovice","arrival_time":"16:48:00","departure_time":"16:48:00","lat":49.16632,"lon":16.757892,"is_passed":false},{"stop_id":"U16102Z1","name":"Blažovice, pod kostelem","arrival_time":"16:52:00","departure_time":"16:52:00","lat":49.162833,"lon":16.78274,"is_passed":false},{"stop_id":"U16101Z1","name":"Blažovice, hostinec","arrival_time":"16:53:00","departure_time":"17:15:00","lat":49.166001,"lon":16.786446,"is_passed":false}],"13640":[{"stop_id":"U16101Z2","name":"Blažovice, hostinec","arrival_time":"17:15:00","departure_time":"17:15:00","lat":49.166001,"lon":16.786446,"is_passed":false},{"stop_id":"U16102Z2","name":"Blažovice, pod kostelem","arrival_time":"17:16:00","departure_time":"17:16:00","lat":49.162842,"lon":16.783037,"is_passed":false},{"stop_id":"U16104Z2","name":"Jiříkovice","arrival_time":"17:20:00","departure_time":"17:20:00","lat":49.166323,"lon":16.757805,"is_passed":false},{"stop_id":"U16121Z2","name":"Ponětovice, železniční stanice","arrival_time":"17:23:00","departure_time":"17:23:00","lat":49.154698,"lon":16.747757,"is_passed":false},{"stop_id":"U16120Z2","name":"Ponětovice","arrival_time":"17:24:00","departure_time":"17:24:00","lat":49.152307,"lon":16.742117,"is_passed":false},{"stop_id":"U16159Z4","name":"Šlapanice, Kalvodova","arrival_time":"17:28:00","departure_time":"17:28:00","lat":49.166805,"lon":16.72634,"is_passed":false},{"stop_id":"U16163Z2","name":"Šlapanice, Riegrova","arrival_time":"17:29:00","departure_time":"17:29:00","lat":49.168445,"lon":16.726032,"is_passed":false}],"13641":[{"stop_id":"U16163Z2","name":"Šlapanice, Riegrova","arrival_time":"17:55:00","departure_time":"17:55:00","lat":49.168445,"lon":16.726032,"is_passed":false},{"stop_id":"U16129Z2","name":"Šlapanice, Bedřichovice","arrival_time":"17:58:00","departure_time":"17:58:00","lat":49.179845,"lon":16.721551,"is_passed":false},{"stop_id":"U16130Z4","name":"Šlapanice, Bedřichovice, rozc.","arrival_time":"17:59:00","departure_time":"18:01:00","lat":49.183532,"lon":16.722542,"is_passed":false},{"stop_id":"U16116Z2","name":"Podolí","arrival_time":"18:03:00","departure_time":"18:03:00","lat":49.189822,"lon":16.726255,"is_passed":false},{"stop_id":"U16118Z2","name":"Podolí, Líšeňská","arrival_time":"18:04:00","departure_time":"18:04:00","lat":49.191807,"lon":16.71978,"is_passed":false},{"stop_id":"U1362Z1","name":"Mariánské údolí","arrival_time":"18:08:00","departure_time":"18:19:00","lat":49.203331,"lon":16.716449,"is_passed":false}],"13642":[{"stop_id":"U1362Z4","name":"Mariánské údolí","arrival_time":"18:19:00","departure_time":"18:19:00","lat":49.20332,"lon":16.71587,"is_passed":false},{"stop_id":"U16118Z1","name":"Podolí, Líšeňská","arrival_time":"18:22:00","departure_time":"18:22:00","lat":49.191843,"lon":16.719825,"is_passed":false},{"stop_id":"U16116Z1","name":"Podolí","arrival_time":"18:24:00","departure_time":"18:24:00","lat":49.189832,"lon":16.725978,"is_passed":false},{"stop_id":"U16130Z3","name":"Šlapanice, Bedřichovice, rozc.","arrival_time":"18:27:00","departure_time":"18:29:00","lat":49.18336,"lon":16.722373,"is_passed":false},{"stop_id":"U16129Z1","name":"Šlapanice, Bedřichovice","arrival_time":"18:30:00","departure_time":"18:30:00","lat":49.17982,"lon":16.721481,"is_passed":false},{"stop_id":"U16163Z3","name":"Šlapanice, Riegrova","arrival_time":"18:33:00","departure_time":"18:33:00","lat":49.168445,"lon":16.726032,"is_passed":false}],"13643":[{"stop_id":"U16163Z1","name":"Šlapanice, Riegrova","arrival_time":"18:39:00","departure_time":"18:39:00","lat":49.168445,"lon":16.726032,"is_passed":false},{"stop_id":"U16159Z3","name":"Šlapanice, Kalvodova","arrival_time":"18:40:00","departure_time":"18:40:00","lat":49.165936,"lon":16.726067,"is_passed":false},{"stop_id":"U16120Z1","name":"Ponětovice","arrival_time":"18:43:00","departure_time":"18:43:00","lat":49.152352,"lon":16.740815,"is_passed":false},{"stop_id":"U16121Z1","name":"Ponětovice, železniční stanice","arrival_time":"18:44:00","departure_time":"18:44:00","lat":49.154645,"lon":16.747738,"is_passed":false},{"stop_id":"U16104Z1","name":"Jiříkovice","arrival_time":"18:48:00","departure_time":"18:48:00","lat":49.16632,"lon":16.757892,"is_passed":false},{"stop_id":"U16102Z1","name":"Blažovice, pod kostelem","arrival_time":"18:52:00","departure_time":"18:52:00","lat":49.162833,"lon":16.78274,"is_passed":false},{"stop_id":"U16101Z1","name":"Blažovice, hostinec","arrival_time":"18:53:00","departure_time":"19:15:00","lat":49.166001,"lon":16.786446,"is_passed":false}],"13644":[{"stop_id":"U16101Z2","name":"Blažovice, hostinec","arrival_time":"19:15:00","departure_time":"19:15:00","lat":49.166001,"lon":16.786446,"is_passed":false},{"stop_id":"U16102Z2","name":"Blažovice, pod kostelem","arrival_time":"19:16:00","departure_time":"19:16:00","lat":49.162842,"lon":16.783037,"is_passed":false},{"stop_id":"U16104Z2","name":"Jiříkovice","arrival_time":"19:20:00","departure_time":"19:20:00","lat":49.166323,"lon":16.757805,"is_passed":false},{"stop_id":"U16121Z2","name":"Ponětovice, železniční stanice","arrival_time":"19:23:00","departure_time":"19:23:00","lat":49.154698,"lon":16.747757,"is_passed":false},{"stop_id":"U16120Z2","name":"Ponětovice","arrival_time":"19:24:00","departure_time":"19:24:00","lat":49.152307,"lon":16.742117,"is_passed":false},{"stop_id":"U16159Z4","name":"Šlapanice, Kalvodova","arrival_time":"19:28:00","departure_time":"19:28:00","lat":49.166805,"lon":16.72634,"is_passed":false},{"stop_id":"U16163Z2","name":"Šlapanice, Riegrova","arrival_time":"19:29:00","departure_time":"19:29:00","lat":49.168445,"lon":16.726032,"is_passed":false}],"13645":[{"stop_id":"U16163Z2","name":"Šlapanice, Riegrova","arrival_time":"19:55:00","departure_time":"19:55:00","lat":49.168445,"lon":16.726032,"is_passed":false},{"stop_id":"U16129Z2","name":"Šlapanice, Bedřichovice","arrival_time":"19:58:00","departure_time":"19:58:00","lat":49.179845,"lon":16.721551,"is_passed":false},{"stop_id":"U16130Z4","name":"Šlapanice, Bedřichovice, rozc.","arrival_time":"19:59:00","departure_time":"20:01:00","lat":49.183532,"lon":16.722542,"is_passed":false},{"stop_id":"U16116Z2","name":"Podolí","arrival_time":"20:03:00","departure_time":"20:03:00","lat":49.189822,"lon":16.726255,"is_passed":false},{"stop_id":"U16118Z2","name":"Podolí, Líšeňská","arrival_time":"20:04:00","departure_time":"20:04:00","lat":49.191807,"lon":16.71978,"is_passed":false},{"stop_id":"U1362Z1","name":"Mariánské údolí","arrival_time":"20:08:00","departure_time":"20:19:00","lat":49.203331,"lon":16.716449,"is_passed":false}],"13646":[{"stop_id":"U1362Z4","name":"Mariánské údolí","arrival_time":"20:19:00","departure_time":"20:19:00","lat":49.20332,"lon":16.71587,"is_passed":false},{"stop_id":"U16118Z1","name":"Podolí, Líšeňská","arrival_time":"20:22:00","departure_time":"20:22:00","lat":49.191843,"lon":16.719825,"is_passed":false},{"stop_id":"U16116Z1","name":"Podolí","arrival_time":"20:24:00","departure_time":"20:24:00","lat":49.189832,"lon":16.725978,"is_passed":false},{"stop_id":"U16130Z3","name":"Šlapanice, Bedřichovice, rozc.","arrival_time":"20:27:00","departure_time":"20:29:00","lat":49.18336,"lon":16.722373,"is_passed":false},{"stop_id":"U16129Z1","name":"Šlapanice, Bedřichovice","arrival_time":"20:30:00","departure_time":"20:30:00","lat":49.17982,"lon":16.721481,"is_passed":false},{"stop_id":"U16163Z3","name":"Šlapanice, Riegrova","arrival_time":"20:33:00","departure_time":"20:33:00","lat":49.168445,"lon":16.726032,"is_passed":false}],"13647":[{"stop_id":"U16163Z1","name":"Šlapanice, Riegrova","arrival_time":"21:42:00","departure_time":"21:42:00","lat":49.168445,"lon":16.726032,"is_passed":false},{"stop_id":"U16159Z3","name":"Šlapanice, Kalvodova","arrival_time":"21:43:00","departure_time":"21:43:00","lat":49.165936,"lon":16.726067,"is_passed":false},{"stop_id":"U16120Z1","name":"Ponětovice","arrival_time":"21:46:00","departure_time":"21:46:00","lat":49.152352,"lon":16.740815,"is_passed":false},{"stop_id":"U16121Z1","name":"Ponětovice, železniční stanice","arrival_time":"21:47:00","departure_time":"21:47:00","lat":49.154645,"lon":16.747738,"is_passed":false},{"stop_id":"U16104Z1","name":"Jiříkovice","arrival_time":"21:51:00","departure_time":"21:51:00","lat":49.16632,"lon":16.757892,"is_passed":false},{"stop_id":"U16102Z1","name":"Blažovice, pod kostelem","arrival_time":"21:55:00","departure_time":"21:55:00","lat":49.162833,"lon":16.78274,"is_passed":false},{"stop_id":"U16101Z1","name":"Blažovice, hostinec","arrival_time":"21:56:00","departure_time":"21:59:00","lat":49.166001,"lon":16.786446,"is_passed":false}],"13648":[{"stop_id":"U16101Z2","name":"Blažovice, hostinec","arrival_time":"21:59:00","departure_time":"21:59:00","lat":49.166001,"lon":16.786446,"is_passed":false},{"stop_id":"U16102Z2","name":"Blažovice, pod kostelem","arrival_time":"22:00:00","departure_time":"22:00:00","lat":49.162842,"lon":16.783037,"is_passed":false},{"stop_id":"U16104Z2","name":"Jiříkovice","arrival_time":"22:04:00","departure_time":"22:04:00","lat":49.166323,"lon":16.757805,"is_passed":false},{"stop_id":"U16121Z2","name":"Ponětovice, železniční stanice","arrival_time":"22:07:00","departure_time":"22:07:00","lat":49.154698,"lon":16.747757,"is_passed":false},{"stop_id":"U16120Z2","name":"Ponětovice","arrival_time":"22:08:00","departure_time":"22:08:00","lat":49.152307,"lon":16.742117,"is_passed":false},{"stop_id":"U16159Z4","name":"Šlapanice, Kalvodova","arrival_time":"22:12:00","departure_time":"22:12:00","lat":49.166805,"lon":16.72634,"is_passed":false},{"stop_id":"U16163Z2","name":"Šlapanice, Riegrova","arrival_time":"22:13:00","departure_time":"22:13:00","lat":49.168445,"lon":16.726032,"is_passed":false}],"13649":[{"stop_id":"U16163Z2","name":"Šlapanice, Riegrova","arrival_time":"22:55:00","departure_time":"22:55:00","lat":49.168445,"lon":16.726032,"is_passed":false},{"stop_id":"U16129Z2","name":"Šlapanice, Bedřichovice","arrival_time":"22:58:00","departure_time":"22:58:00","lat":49.179845,"lon":16.721551,"is_passed":false},{"stop_id":"U16130Z4","name":"Šlapanice, Bedřichovice, rozc.","arrival_time":"22:59:00","departure_time":"23:01:00","lat":49.183532,"lon":16.722542,"is_passed":false},{"stop_id":"U16116Z2","name":"Podolí","arrival_time":"23:03:00","departure_time":"23:24:00","lat":49.189822,"lon":16.726255,"is_passed":false}],"13650":[{"stop_id":"U16116Z1","name":"Podolí","arrival_time":"23:24:00","departure_time":"23:24:00","lat":49.189832,"lon":16.725978,"is_passed":false},{"stop_id":"U16130Z3","name":"Šlapanice, Bedřichovice, rozc.","arrival_time":"23:27:00","departure_time":"23:29:00","lat":49.18336,"lon":16.722373,"is_passed":false},{"stop_id":"U16129Z1","name":"Šlapanice, Bedřichovice","arrival_time":"23:30:00","departure_time":"23:30:00","lat":49.17982,"lon":16.721481,"is_passed":false},{"stop_id":"U16163Z3","name":"Šlapanice, Riegrova","arrival_time":"23:33:00","departure_time":"23:33:00","lat":49.168445,"lon":16.726032,"is_passed":false},{"stop_id":"U16159Z1","name":"Šlapanice, Kalvodova","arrival_time":"23:34:00","departure_time":"23:51:00","lat":49.166442,"lon":16.726521,"is_passed":false}],"13651":[{"stop_id":"U16159Z2","name":"Šlapanice, Kalvodova","arrival_time":"23:51:00","departure_time":"23:51:00","lat":49.166539,"lon":16.726218,"is_passed":false},{"stop_id":"U16163Z2","name":"Šlapanice, Riegrova","arrival_time":"23:52:00","departure_time":"23:52:00","lat":49.168445,"lon":16.726032,"is_passed":false},{"stop_id":"U16129Z2","name":"Šlapanice, Bedřichovice","arrival_time":"23:55:00","departure_time":"23:55:00","lat":49.179845,"lon":16.721551,"is_passed":false},{"stop_id":"U16130Z4","name":"Šlapanice, Bedřichovice, rozc.","arrival_time":"23:56:00","departure_time":"23:56:00","lat":49.183532,"lon":16.722542,"is_passed":false},{"stop_id":"U16116Z2","name":"Podolí","arrival_time":"23:58:00","departure_time":"23:58:00","lat":49.189822,"lon":16.726255,"is_passed":false}],"13652":[{"stop_id":"U1429Z6","name":"Nemocnice Bohunice","arrival_time":"8:17:00","departure_time":"8:17:00","lat":49.175872,"lon":16.566969,"is_passed":false},{"stop_id":"U1632Z1","name":"Svážná","arrival_time":"8:19:00","departure_time":"8:19:00","lat":49.173544,"lon":16.553381,"is_passed":false},{"stop_id":"U1202Z1","name":"Jemelkova","arrival_time":"8:19:00","departure_time":"8:19:00","lat":49.173333,"lon":16.548692,"is_passed":false},{"stop_id":"U1568Z1","name":"Skalní","arrival_time":"8:21:00","departure_time":"8:21:00","lat":49.174278,"lon":16.534362,"is_passed":false},{"stop_id":"U1161Z3","name":"Hoštická","arrival_time":"8:22:00","departure_time":"8:22:00","lat":49.173743,"lon":16.529523,"is_passed":false},{"stop_id":"U14126Z1","name":"Troubsko, Nová","arrival_time":"8:24:00","departure_time":"8:24:00","lat":49.166982,"lon":16.518167,"is_passed":false},{"stop_id":"U14106Z1","name":"Troubsko, kaplička","arrival_time":"8:25:00","departure_time":"8:25:00","lat":49.169013,"lon":16.511465,"is_passed":false},{"stop_id":"U14109Z1","name":"Troubsko, obecní úřad","arrival_time":"8:26:00","departure_time":"8:26:00","lat":49.171013,"lon":16.506845,"is_passed":false},{"stop_id":"U14117Z1","name":"Popůvky, Náves","arrival_time":"8:29:00","departure_time":"8:29:00","lat":49.178255,"lon":16.487923,"is_passed":false},{"stop_id":"U14133Z4","name":"Popůvky, Vintrovna","arrival_time":"8:30:00","departure_time":"8:30:00","lat":49.181384,"lon":16.491014,"is_passed":false},{"stop_id":"U14160Z2","name":"Troubsko, Veselka","arrival_time":"8:32:00","departure_time":"8:32:00","lat":49.176834,"lon":16.503674,"is_passed":false},{"stop_id":"U1034Z2","name":"Borovník","arrival_time":"8:36:00","departure_time":"8:36:00","lat":49.198533,"lon":16.499685,"is_passed":false},{"stop_id":"U1015Z2","name":"Bartolomějská","arrival_time":"8:38:00","departure_time":"8:39:00","lat":49.203579,"lon":16.489347,"is_passed":false}],"13653":[{"stop_id":"U1015Z2","name":"Bartolomějská","arrival_time":"8:39:00","departure_time":"8:39:00","lat":49.203579,"lon":16.489347,"is_passed":false},{"stop_id":"U1034Z1","name":"Borovník","arrival_time":"8:40:00","departure_time":"8:40:00","lat":49.198437,"lon":16.49979,"is_passed":false},{"stop_id":"U14160Z1","name":"Troubsko, Veselka","arrival_time":"8:43:00","departure_time":"8:43:00","lat":49.176905,"lon":16.503284,"is_passed":false},{"stop_id":"U14133Z3","name":"Popůvky, Vintrovna","arrival_time":"8:45:00","departure_time":"8:45:00","lat":49.181101,"lon":16.490808,"is_passed":false},{"stop_id":"U14117Z2","name":"Popůvky, Náves","arrival_time":"8:46:00","departure_time":"8:46:00","lat":49.178112,"lon":16.487969,"is_passed":false},{"stop_id":"U14109Z3","name":"Troubsko, obecní úřad","arrival_time":"8:49:00","departure_time":"8:49:00","lat":49.170364,"lon":16.505743,"is_passed":false},{"stop_id":"U14106Z2","name":"Troubsko, kaplička","arrival_time":"8:50:00","departure_time":"8:50:00","lat":49.168923,"lon":16.511588,"is_passed":false},{"stop_id":"U14126Z4","name":"Troubsko, Nová","arrival_time":"8:51:00","departure_time":"8:51:00","lat":49.166839,"lon":16.518385,"is_passed":false},{"stop_id":"U1516Z1","name":"Pražská","arrival_time":"8:53:00","departure_time":"8:53:00","lat":49.173478,"lon":16.531543,"is_passed":false},{"stop_id":"U1568Z2","name":"Skalní","arrival_time":"8:54:00","departure_time":"8:54:00","lat":49.174201,"lon":16.537903,"is_passed":false},{"stop_id":"U1202Z2","name":"Jemelkova","arrival_time":"8:55:00","departure_time":"8:55:00","lat":49.173163,"lon":16.54872,"is_passed":false},{"stop_id":"U1632Z2","name":"Svážná","arrival_time":"8:56:00","departure_time":"8:56:00","lat":49.173409,"lon":16.553508,"is_passed":false},{"stop_id":"U1429Z7","name":"Nemocnice Bohunice","arrival_time":"8:59:00","departure_time":"8:59:00","lat":49.176176,"lon":16.567045,"is_passed":false}],"13654":[{"stop_id":"U1429Z6","name":"Nemocnice Bohunice","arrival_time":"9:04:00","departure_time":"9:04:00","lat":49.175872,"lon":16.566969,"is_passed":false},{"stop_id":"U1632Z1","name":"Svážná","arrival_time":"9:06:00","departure_time":"9:06:00","lat":49.173544,"lon":16.553381,"is_passed":false},{"stop_id":"U1202Z1","name":"Jemelkova","arrival_time":"9:07:00","departure_time":"9:07:00","lat":49.173333,"lon":16.548692,"is_passed":false},{"stop_id":"U1568Z1","name":"Skalní","arrival_time":"9:09:00","departure_time":"9:09:00","lat":49.174278,"lon":16.534362,"is_passed":false},{"stop_id":"U1161Z3","name":"Hoštická","arrival_time":"9:10:00","departure_time":"9:10:00","lat":49.173743,"lon":16.529523,"is_passed":false},{"stop_id":"U14126Z1","name":"Troubsko, Nová","arrival_time":"9:12:00","departure_time":"9:12:00","lat":49.166982,"lon":16.518167,"is_passed":false},{"stop_id":"U14106Z1","name":"Troubsko, kaplička","arrival_time":"9:13:00","departure_time":"9:13:00","lat":49.169013,"lon":16.511465,"is_passed":false},{"stop_id":"U14109Z1","name":"Troubsko, obecní úřad","arrival_time":"9:14:00","departure_time":"9:14:00","lat":49.171013,"lon":16.506845,"is_passed":false},{"stop_id":"U14119Z1","name":"Střelice, dolní železniční stanice","arrival_time":"9:16:00","departure_time":"9:16:00","lat":49.155987,"lon":16.50456,"is_passed":false},{"stop_id":"U14121Z1","name":"Střelice, obecní úřad","arrival_time":"9:17:00","departure_time":"9:17:00","lat":49.152682,"lon":16.50322,"is_passed":false},{"stop_id":"U14120Z1","name":"Střelice, nákupní středisko","arrival_time":"9:19:00","departure_time":"9:19:00","lat":49.152835,"lon":16.493768,"is_passed":false}],"13655":[{"stop_id":"U14120Z1","name":"Střelice, nákupní středisko","arrival_time":"9:19:00","departure_time":"9:19:00","lat":49.152835,"lon":16.493768,"is_passed":false},{"stop_id":"U14124Z1","name":"Střelice, Vršovice","arrival_time":"9:21:00","departure_time":"9:21:00","lat":49.15349,"lon":16.480352,"is_passed":false},{"stop_id":"U14113Z1","name":"Omice, samoobsluha","arrival_time":"9:29:00","departure_time":"9:30:00","lat":49.16998,"lon":16.451412,"is_passed":false}],"13656":[{"stop_id":"U14113Z2","name":"Omice, samoobsluha","arrival_time":"9:30:00","departure_time":"9:30:00","lat":49.16998,"lon":16.451412,"is_passed":false},{"stop_id":"U14124Z2","name":"Střelice, Vršovice","arrival_time":"9:38:00","departure_time":"9:38:00","lat":49.153397,"lon":16.480075,"is_passed":false},{"stop_id":"U14120Z2","name":"Střelice, nákupní středisko","arrival_time":"9:40:00","departure_time":"9:40:00","lat":49.152702,"lon":16.494152,"is_passed":false}],"13657":[{"stop_id":"U14120Z2","name":"Střelice, nákupní středisko","arrival_time":"9:40:00","departure_time":"9:40:00","lat":49.152702,"lon":16.494152,"is_passed":false},{"stop_id":"U14121Z2","name":"Střelice, obecní úřad","arrival_time":"9:42:00","departure_time":"9:42:00","lat":49.152613,"lon":16.502885,"is_passed":false},{"stop_id":"U14119Z2","name":"Střelice, dolní železniční stanice","arrival_time":"9:43:00","departure_time":"9:43:00","lat":49.156018,"lon":16.50473,"is_passed":false},{"stop_id":"U14109Z3","name":"Troubsko, obecní úřad","arrival_time":"9:46:00","departure_time":"9:46:00","lat":49.170364,"lon":16.505743,"is_passed":false},{"stop_id":"U14106Z2","name":"Troubsko, kaplička","arrival_time":"9:47:00","departure_time":"9:47:00","lat":49.168923,"lon":16.511588,"is_passed":false},{"stop_id":"U14126Z4","name":"Troubsko, Nová","arrival_time":"9:48:00","departure_time":"9:48:00","lat":49.166839,"lon":16.518385,"is_passed":false},{"stop_id":"U1516Z1","name":"Pražská","arrival_time":"9:50:00","departure_time":"9:50:00","lat":49.173478,"lon":16.531543,"is_passed":false},{"stop_id":"U1568Z2","name":"Skalní","arrival_time":"9:51:00","departure_time":"9:51:00","lat":49.174201,"lon":16.537903,"is_passed":false},{"stop_id":"U1202Z2","name":"Jemelkova","arrival_time":"9:52:00","departure_time":"9:52:00","lat":49.173163,"lon":16.54872,"is_passed":false},{"stop_id":"U1632Z2","name":"Svážná","arrival_time":"9:53:00","departure_time":"9:53:00","lat":49.173409,"lon":16.553508,"is_passed":false},{"stop_id":"U1429Z7","name":"Nemocnice Bohunice","arrival_time":"9:56:00","departure_time":"9:56:00","lat":49.176176,"lon":16.567045,"is_passed":false}],"13658":[{"stop_id":"U1429Z6","name":"Nemocnice Bohunice","arrival_time":"10:17:00","departure_time":"10:17:00","lat":49.175872,"lon":16.566969,"is_passed":false},{"stop_id":"U1632Z1","name":"Svážná","arrival_time":"10:19:00","departure_time":"10:19:00","lat":49.173544,"lon":16.553381,"is_passed":false},{"stop_id":"U1202Z1","name":"Jemelkova","arrival_time":"10:19:00","departure_time":"10:19:00","lat":49.173333,"lon":16.548692,"is_passed":false},{"stop_id":"U1568Z1","name":"Skalní","arrival_time":"10:21:00","departure_time":"10:21:00","lat":49.174278,"lon":16.534362,"is_passed":false},{"stop_id":"U1161Z3","name":"Hoštická","arrival_time":"10:22:00","departure_time":"10:22:00","lat":49.173743,"lon":16.529523,"is_passed":false},{"stop_id":"U14126Z1","name":"Troubsko, Nová","arrival_time":"10:24:00","departure_time":"10:24:00","lat":49.166982,"lon":16.518167,"is_passed":false},{"stop_id":"U14106Z1","name":"Troubsko, kaplička","arrival_time":"10:25:00","departure_time":"10:25:00","lat":49.169013,"lon":16.511465,"is_passed":false},{"stop_id":"U14109Z1","name":"Troubsko, obecní úřad","arrival_time":"10:26:00","departure_time":"10:26:00","lat":49.171013,"lon":16.506845,"is_passed":false},{"stop_id":"U14117Z1","name":"Popůvky, Náves","arrival_time":"10:29:00","departure_time":"10:29:00","lat":49.178255,"lon":16.487923,"is_passed":false},{"stop_id":"U14133Z4","name":"Popůvky, Vintrovna","arrival_time":"10:30:00","departure_time":"10:30:00","lat":49.181384,"lon":16.491014,"is_passed":false},{"stop_id":"U14160Z2","name":"Troubsko, Veselka","arrival_time":"10:32:00","departure_time":"10:32:00","lat":49.176834,"lon":16.503674,"is_passed":false},{"stop_id":"U1034Z2","name":"Borovník","arrival_time":"10:36:00","departure_time":"10:36:00","lat":49.198533,"lon":16.499685,"is_passed":false},{"stop_id":"U1015Z2","name":"Bartolomějská","arrival_time":"10:38:00","departure_time":"10:39:00","lat":49.203579,"lon":16.489347,"is_passed":false}],"13659":[{"stop_id":"U1015Z2","name":"Bartolomějská","arrival_time":"10:39:00","departure_time":"10:39:00","lat":49.203579,"lon":16.489347,"is_passed":false},{"stop_id":"U1034Z1","name":"Borovník","arrival_time":"10:40:00","departure_time":"10:40:00","lat":49.198437,"lon":16.49979,"is_passed":false},{"stop_id":"U14160Z1","name":"Troubsko, Veselka","arrival_time":"10:43:00","departure_time":"10:43:00","lat":49.176905,"lon":16.503284,"is_passed":false},{"stop_id":"U14133Z3","name":"Popůvky, Vintrovna","arrival_time":"10:45:00","departure_time":"10:45:00","lat":49.181101,"lon":16.490808,"is_passed":false},{"stop_id":"U14117Z2","name":"Popůvky, Náves","arrival_time":"10:46:00","departure_time":"10:46:00","lat":49.178112,"lon":16.487969,"is_passed":false},{"stop_id":"U14109Z3","name":"Troubsko, obecní úřad","arrival_time":"10:49:00","departure_time":"10:49:00","lat":49.170364,"lon":16.505743,"is_passed":false},{"stop_id":"U14106Z2","name":"Troubsko, kaplička","arrival_time":"10:50:00","departure_time":"10:50:00","lat":49.168923,"lon":16.511588,"is_passed":false},{"stop_id":"U14126Z4","name":"Troubsko, Nová","arrival_time":"10:51:00","departure_time":"10:51:00","lat":49.166839,"lon":16.518385,"is_passed":false},{"stop_id":"U1516Z1","name":"Pražská","arrival_time":"10:53:00","departure_time":"10:53:00","lat":49.173478,"lon":16.531543,"is_passed":false},{"stop_id":"U1568Z2","name":"Skalní","arrival_time":"10:54:00","departure_time":"10:54:00","lat":49.174201,"lon":16.537903,"is_passed":false},{"stop_id":"U1202Z2","name":"Jemelkova","arrival_time":"10:55:00","departure_time":"10:55:00","lat":49.173163,"lon":16.54872,"is_passed":false},{"stop_id":"U1632Z2","name":"Svážná","arrival_time":"10:56:00","departure_time":"10:56:00","lat":49.173409,"lon":16.553508,"is_passed":false},{"stop_id":"U1429Z7","name":"Nemocnice Bohunice","arrival_time":"10:59:00","departure_time":"12:17:00","lat":49.176176,"lon":16.567045,"is_passed":false}],"13660":[{"stop_id":"U1429Z6","name":"Nemocnice Bohunice","arrival_time":"12:17:00","departure_time":"12:17:00","lat":49.175872,"lon":16.566969,"is_passed":false},{"stop_id":"U1632Z1","name":"Svážná","arrival_time":"12:19:00","departure_time":"12:19:00","lat":49.173544,"lon":16.553381,"is_passed":false},{"stop_id":"U1202Z1","name":"Jemelkova","arrival_time":"12:19:00","departure_time":"12:19:00","lat":49.173333,"lon":16.548692,"is_passed":false},{"stop_id":"U1568Z1","name":"Skalní","arrival_time":"12:21:00","departure_time":"12:21:00","lat":49.174278,"lon":16.534362,"is_passed":false},{"stop_id":"U1161Z3","name":"Hoštická","arrival_time":"12:22:00","departure_time":"12:22:00","lat":49.173743,"lon":16.529523,"is_passed":false},{"stop_id":"U14126Z1","name":"Troubsko, Nová","arrival_time":"12:24:00","departure_time":"12:24:00","lat":49.166982,"lon":16.518167,"is_passed":false},{"stop_id":"U14106Z1","name":"Troubsko, kaplička","arrival_time":"12:25:00","departure_time":"12:25:00","lat":49.169013,"lon":16.511465,"is_passed":false},{"stop_id":"U14109Z1","name":"Troubsko, obecní úřad","arrival_time":"12:26:00","departure_time":"12:26:00","lat":49.171013,"lon":16.506845,"is_passed":false},{"stop_id":"U14117Z1","name":"Popůvky, Náves","arrival_time":"12:29:00","departure_time":"12:29:00","lat":49.178255,"lon":16.487923,"is_passed":false},{"stop_id":"U14133Z4","name":"Popůvky, Vintrovna","arrival_time":"12:30:00","departure_time":"12:30:00","lat":49.181384,"lon":16.491014,"is_passed":false},{"stop_id":"U14160Z2","name":"Troubsko, Veselka","arrival_time":"12:32:00","departure_time":"12:32:00","lat":49.176834,"lon":16.503674,"is_passed":false},{"stop_id":"U1034Z2","name":"Borovník","arrival_time":"12:36:00","departure_time":"12:36:00","lat":49.198533,"lon":16.499685,"is_passed":false},{"stop_id":"U1015Z2","name":"Bartolomějská","arrival_time":"12:38:00","departure_time":"12:39:00","lat":49.203579,"lon":16.489347,"is_passed":false}],"13661":[{"stop_id":"U1015Z2","name":"Bartolomějská","arrival_time":"12:39:00","departure_time":"12:39:00","lat":49.203579,"lon":16.489347,"is_passed":false},{"stop_id":"U1034Z1","name":"Borovník","arrival_time":"12:40:00","departure_time":"12:40:00","lat":49.198437,"lon":16.49979,"is_passed":false},{"stop_id":"U14160Z1","name":"Troubsko, Veselka","arrival_time":"12:43:00","departure_time":"12:43:00","lat":49.176905,"lon":16.503284,"is_passed":false},{"stop_id":"U14133Z3","name":"Popůvky, Vintrovna","arrival_time":"12:45:00","departure_time":"12:45:00","lat":49.181101,"lon":16.490808,"is_passed":false},{"stop_id":"U14117Z2","name":"Popůvky, Náves","arrival_time":"12:46:00","departure_time":"12:46:00","lat":49.178112,"lon":16.487969,"is_passed":false},{"stop_id":"U14109Z3","name":"Troubsko, obecní úřad","arrival_time":"12:49:00","departure_time":"12:49:00","lat":49.170364,"lon":16.505743,"is_passed":false},{"stop_id":"U14106Z2","name":"Troubsko, kaplička","arrival_time":"12:50:00","departure_time":"12:50:00","lat":49.168923,"lon":16.511588,"is_passed":false},{"stop_id":"U14126Z4","name":"Troubsko, Nová","arrival_time":"12:51:00","departure_time":"12:51:00","lat":49.166839,"lon":16.518385,"is_passed":false},{"stop_id":"U1516Z1","name":"Pražská","arrival_time":"12:53:00","departure_time":"12:53:00","lat":49.173478,"lon":16.531543,"is_passed":false},{"stop_id":"U1568Z2","name":"Skalní","arrival_time":"12:54:00","departure_time":"12:54:00","lat":49.174201,"lon":16.537903,"is_passed":false},{"stop_id":"U1202Z2","name":"Jemelkova","arrival_time":"12:55:00","departure_time":"12:55:00","lat":49.173163,"lon":16.54872,"is_passed":false},{"stop_id":"U1632Z2","name":"Svážná","arrival_time":"12:56:00","departure_time":"12:56:00","lat":49.173409,"lon":16.553508,"is_passed":false},{"stop_id":"U1429Z7","name":"Nemocnice Bohunice","arrival_time":"12:59:00","departure_time":"12:59:00","lat":49.176176,"lon":16.567045,"is_passed":false}],"13662":[{"stop_id":"U1429Z6","name":"Nemocnice Bohunice","arrival_time":"13:04:00","departure_time":"13:04:00","lat":49.175872,"lon":16.566969,"is_passed":false},{"stop_id":"U1632Z1","name":"Svážná","arrival_time":"13:06:00","departure_time":"13:06:00","lat":49.173544,"lon":16.553381,"is_passed":false},{"stop_id":"U1202Z1","name":"Jemelkova","arrival_time":"13:07:00","departure_time":"13:07:00","lat":49.173333,"lon":16.548692,"is_passed":false},{"stop_id":"U1568Z1","name":"Skalní","arrival_time":"13:09:00","departure_time":"13:09:00","lat":49.174278,"lon":16.534362,"is_passed":false},{"stop_id":"U1161Z3","name":"Hoštická","arrival_time":"13:10:00","departure_time":"13:10:00","lat":49.173743,"lon":16.529523,"is_passed":false},{"stop_id":"U14126Z1","name":"Troubsko, Nová","arrival_time":"13:12:00","departure_time":"13:12:00","lat":49.166982,"lon":16.518167,"is_passed":false},{"stop_id":"U14106Z1","name":"Troubsko, kaplička","arrival_time":"13:13:00","departure_time":"13:13:00","lat":49.169013,"lon":16.511465,"is_passed":false},{"stop_id":"U14109Z1","name":"Troubsko, obecní úřad","arrival_time":"13:14:00","departure_time":"13:14:00","lat":49.171013,"lon":16.506845,"is_passed":false},{"stop_id":"U14119Z1","name":"Střelice, dolní železniční stanice","arrival_time":"13:16:00","departure_time":"13:16:00","lat":49.155987,"lon":16.50456,"is_passed":false},{"stop_id":"U14121Z1","name":"Střelice, obecní úřad","arrival_time":"13:17:00","departure_time":"13:17:00","lat":49.152682,"lon":16.50322,"is_passed":false},{"stop_id":"U14120Z1","name":"Střelice, nákupní středisko","arrival_time":"13:19:00","departure_time":"13:19:00","lat":49.152835,"lon":16.493768,"is_passed":false}],"13663":[{"stop_id":"U14120Z1","name":"Střelice, nákupní středisko","arrival_time":"13:19:00","departure_time":"13:19:00","lat":49.152835,"lon":16.493768,"is_passed":false},{"stop_id":"U14124Z1","name":"Střelice, Vršovice","arrival_time":"13:21:00","departure_time":"13:21:00","lat":49.15349,"lon":16.480352,"is_passed":false},{"stop_id":"U14113Z1","name":"Omice, samoobsluha","arrival_time":"13:29:00","departure_time":"13:30:00","lat":49.16998,"lon":16.451412,"is_passed":false}],"13664":[{"stop_id":"U14113Z2","name":"Omice, samoobsluha","arrival_time":"13:30:00","departure_time":"13:30:00","lat":49.16998,"lon":16.451412,"is_passed":false},{"stop_id":"U14124Z2","name":"Střelice, Vršovice","arrival_time":"13:38:00","departure_time":"13:38:00","lat":49.153397,"lon":16.480075,"is_passed":false},{"stop_id":"U14120Z2","name":"Střelice, nákupní středisko","arrival_time":"13:40:00","departure_time":"13:40:00","lat":49.152702,"lon":16.494152,"is_passed":false}],"13665":[{"stop_id":"U14120Z2","name":"Střelice, nákupní středisko","arrival_time":"13:40:00","departure_time":"13:40:00","lat":49.152702,"lon":16.494152,"is_passed":false},{"stop_id":"U14121Z2","name":"Střelice, obecní úřad","arrival_time":"13:42:00","departure_time":"13:42:00","lat":49.152613,"lon":16.502885,"is_passed":false},{"stop_id":"U14119Z2","name":"Střelice, dolní železniční stanice","arrival_time":"13:43:00","departure_time":"13:43:00","lat":49.156018,"lon":16.50473,"is_passed":false},{"stop_id":"U14109Z3","name":"Troubsko, obecní úřad","arrival_time":"13:46:00","departure_time":"13:46:00","lat":49.170364,"lon":16.505743,"is_passed":false},{"stop_id":"U14106Z2","name":"Troubsko, kaplička","arrival_time":"13:47:00","departure_time":"13:47:00","lat":49.168923,"lon":16.511588,"is_passed":false},{"stop_id":"U14126Z4","name":"Troubsko, Nová","arrival_time":"13:48:00","departure_time":"13:48:00","lat":49.166839,"lon":16.518385,"is_passed":false},{"stop_id":"U1516Z1","name":"Pražská","arrival_time":"13:50:00","departure_time":"13:50:00","lat":49.173478,"lon":16.531543,"is_passed":false},{"stop_id":"U1568Z2","name":"Skalní","arrival_time":"13:51:00","departure_time":"13:51:00","lat":49.174201,"lon":16.537903,"is_passed":false},{"stop_id":"U1202Z2","name":"Jemelkova","arrival_time":"13:52:00","departure_time":"13:52:00","lat":49.173163,"lon":16.54872,"is_passed":false},{"stop_id":"U1632Z2","name":"Svážná","arrival_time":"13:53:00","departure_time":"13:53:00","lat":49.173409,"lon":16.553508,"is_passed":false},{"stop_id":"U1429Z7","name":"Nemocnice Bohunice","arrival_time":"13:56:00","departure_time":"13:56:00","lat":49.176176,"lon":16.567045,"is_passed":false}],"13666":[{"stop_id":"U1429Z6","name":"Nemocnice Bohunice","arrival_time":"14:17:00","departure_time":"14:17:00","lat":49.175872,"lon":16.566969,"is_passed":false},{"stop_id":"U1632Z1","name":"Svážná","arrival_time":"14:19:00","departure_time":"14:19:00","lat":49.173544,"lon":16.553381,"is_passed":false},{"stop_id":"U1202Z1","name":"Jemelkova","arrival_time":"14:19:00","departure_time":"14:19:00","lat":49.173333,"lon":16.548692,"is_passed":false},{"stop_id":"U1568Z1","name":"Skalní","arrival_time":"14:21:00","departure_time":"14:21:00","lat":49.174278,"lon":16.534362,"is_passed":false},{"stop_id":"U1161Z3","name":"Hoštická","arrival_time":"14:22:00","departure_time":"14:22:00","lat":49.173743,"lon":16.529523,"is_passed":false},{"stop_id":"U14126Z1","name":"Troubsko, Nová","arrival_time":"14:24:00","departure_time":"14:24:00","lat":49.166982,"lon":16.518167,"is_passed":false},{"stop_id":"U14106Z1","name":"Troubsko, kaplička","arrival_time":"14:25:00","departure_time":"14:25:00","lat":49.169013,"lon":16.511465,"is_passed":false},{"stop_id":"U14109Z1","name":"Troubsko, obecní úřad","arrival_time":"14:26:00","departure_time":"14:26:00","lat":49.171013,"lon":16.506845,"is_passed":false},{"stop_id":"U14117Z1","name":"Popůvky, Náves","arrival_time":"14:29:00","departure_time":"14:29:00","lat":49.178255,"lon":16.487923,"is_passed":false},{"stop_id":"U14133Z4","name":"Popůvky, Vintrovna","arrival_time":"14:30:00","departure_time":"14:30:00","lat":49.181384,"lon":16.491014,"is_passed":false},{"stop_id":"U14160Z2","name":"Troubsko, Veselka","arrival_time":"14:32:00","departure_time":"14:32:00","lat":49.176834,"lon":16.503674,"is_passed":false},{"stop_id":"U1034Z2","name":"Borovník","arrival_time":"14:36:00","departure_time":"14:36:00","lat":49.198533,"lon":16.499685,"is_passed":false},{"stop_id":"U1015Z2","name":"Bartolomějská","arrival_time":"14:38:00","departure_time":"14:39:00","lat":49.203579,"lon":16.489347,"is_passed":false}],"13667":[{"stop_id":"U1015Z2","name":"Bartolomějská","arrival_time":"14:39:00","departure_time":"14:39:00","lat":49.203579,"lon":16.489347,"is_passed":false},{"stop_id":"U1034Z1","name":"Borovník","arrival_time":"14:40:00","departure_time":"14:40:00","lat":49.198437,"lon":16.49979,"is_passed":false},{"stop_id":"U14160Z1","name":"Troubsko, Veselka","arrival_time":"14:43:00","departure_time":"14:43:00","lat":49.176905,"lon":16.503284,"is_passed":false},{"stop_id":"U14133Z3","name":"Popůvky, Vintrovna","arrival_time":"14:45:00","departure_time":"14:45:00","lat":49.181101,"lon":16.490808,"is_passed":false},{"stop_id":"U14117Z2","name":"Popůvky, Náves","arrival_time":"14:46:00","departure_time":"14:46:00","lat":49.178112,"lon":16.487969,"is_passed":false},{"stop_id":"U14109Z3","name":"Troubsko, obecní úřad","arrival_time":"14:49:00","departure_time":"14:49:00","lat":49.170364,"lon":16.505743,"is_passed":false},{"stop_id":"U14106Z2","name":"Troubsko, kaplička","arrival_time":"14:50:00","departure_time":"14:50:00","lat":49.168923,"lon":16.511588,"is_passed":false},{"stop_id":"U14126Z4","name":"Troubsko, Nová","arrival_time":"14:51:00","departure_time":"14:51:00","lat":49.166839,"lon":16.518385,"is_passed":false},{"stop_id":"U1516Z1","name":"Pražská","arrival_time":"14:53:00","departure_time":"14:53:00","lat":49.173478,"lon":16.531543,"is_passed":false},{"stop_id":"U1568Z2","name":"Skalní","arrival_time":"14:54:00","departure_time":"14:54:00","lat":49.174201,"lon":16.537903,"is_passed":false},{"stop_id":"U1202Z2","name":"Jemelkova","arrival_time":"14:55:00","departure_time":"14:55:00","lat":49.173163,"lon":16.54872,"is_passed":false},{"stop_id":"U1632Z2","name":"Svážná","arrival_time":"14:56:00","departure_time":"14:56:00","lat":49.173409,"lon":16.553508,"is_passed":false},{"stop_id":"U1429Z7","name":"Nemocnice Bohunice","arrival_time":"14:59:00","departure_time":"16:17:00","lat":49.176176,"lon":16.567045,"is_passed":false}],"13668":[{"stop_id":"U1429Z6","name":"Nemocnice Bohunice","arrival_time":"16:17:00","departure_time":"16:17:00","lat":49.175872,"lon":16.566969,"is_passed":false},{"stop_id":"U1632Z1","name":"Svážná","arrival_time":"16:19:00","departure_time":"16:19:00","lat":49.173544,"lon":16.553381,"is_passed":false},{"stop_id":"U1202Z1","name":"Jemelkova","arrival_time":"16:19:00","departure_time":"16:19:00","lat":49.173333,"lon":16.548692,"is_passed":false},{"stop_id":"U1568Z1","name":"Skalní","arrival_time":"16:21:00","departure_time":"16:21:00","lat":49.174278,"lon":16.534362,"is_passed":false},{"stop_id":"U1161Z3","name":"Hoštická","arrival_time":"16:22:00","departure_time":"16:22:00","lat":49.173743,"lon":16.529523,"is_passed":false},{"stop_id":"U14126Z1","name":"Troubsko, Nová","arrival_time":"16:24:00","departure_time":"16:24:00","lat":49.166982,"lon":16.518167,"is_passed":false},