[{"stop_id":"U1716Z11","name":"Úzká","arrival_time":"8:08:00","departure_time":"8:08:00","lat":49.188931,"lon":16.612782,"is_passed":false},{"stop_id":"U1463Z2","name":"Opuštěná","arrival_time":"8:11:00","departure_time":"8:11:00","lat":49.185245,"lon":16.613024,"is_passed":false},{"stop_id":"U1677Z1","name":"Tržní","arrival_time":"8:13:00","departure_time":"8:13:00","lat":49.189973,"lon":16.632193,"is_passed":false},{"stop_id":"U1068Z3","name":"Černovičky","arrival_time":"8:17:00","departure_time":"8:17:00","lat":49.183143,"lon":16.669108,"is_passed":false},{"stop_id":"U1577Z5","name":"Slatina, sídliště","arrival_time":"8:19:00","departure_time":"8:19:00","lat":49.182195,"lon":16.690725,"is_passed":false},{"stop_id":"U16130Z1","name":"Šlapanice, Bedřichovice, rozc.","arrival_time":"8:22:00","departure_time":"8:22:00","lat":49.182882,"lon":16.723572,"is_passed":false},{"stop_id":"U16105Z1","name":"Jiříkovice, motorest Rohlenka","arrival_time":"8:25:00","departure_time":"8:25:00","lat":49.183436,"lon":16.761042,"is_passed":false},{"stop_id":"U16142Z1","name":"Tvarožná, zemědělské družstvo","arrival_time":"8:26:00","departure_time":"8:26:00","lat":49.185906,"lon":16.765089,"is_passed":false},{"stop_id":"U16153Z1","name":"Tvarožná","arrival_time":"8:27:00","departure_time":"8:27:00","lat":49.190736,"lon":16.770347,"is_passed":false},{"stop_id":"U16140Z1","name":"Tvarožná, sokolovna","arrival_time":"8:29:00","departure_time":"8:29:00","lat":49.193053,"lon":16.776292,"is_passed":false},{"stop_id":"U17215Z1","name":"Sivice","arrival_time":"8:32:00","departure_time":"8:32:00","lat":49.201394,"lon":16.783639,"is_passed":false},{"stop_id":"U17212Z1","name":"Pozořice, náměstí","arrival_time":"8:35:00","departure_time":"8:35:00","lat":49.208924,"lon":16.790865,"is_passed":false},{"stop_id":"U17211Z1","name":"Pozořice, Jezera","arrival_time":"8:38:00","departure_time":"8:38:00","lat":49.215403,"lon":16.795607,"is_passed":false},{"stop_id":"U17212Z3","name":"Pozořice, náměstí","arrival_time":"8:39:00","departure_time":"8:39:00","lat":49.209464,"lon":16.791047,"is_passed":false},{"stop_id":"U17210Z1","name":"Pozořice, Velké Lipky","arrival_time":"8:40:00","departure_time":"8:40:00","lat":49.209336,"lon":16.79656,"is_passed":false},{"stop_id":"U17207Z1","name":"Kovalovice, na kopci","arrival_time":"8:41:00","departure_time":"8:41:00","lat":49.206132,"lon":16.807718,"is_passed":false},{"stop_id":"U17208Z1","name":"Kovalovice, obecní úřad","arrival_time":"8:42:00","departure_time":"8:42:00","lat":49.204735,"lon":16.81897,"is_passed":false},{"stop_id":"U17206Z1","name":"Kovalovice, Dražka","arrival_time":"8:43:00","departure_time":"8:43:00","lat":49.206533,"lon":16.824383,"is_passed":false},{"stop_id":"U17217Z1","name":"Viničné Šumice, obecní úřad","arrival_time":"8:45:00","departure_time":"8:45:00","lat":49.212478,"lon":16.825983,"is_passed":false},{"stop_id":"U17216Z1","name":"Viničné Šumice, Hradská","arrival_time":"8:46:00","departure_time":"8:46:00","lat":49.21438,"lon":16.821803,"is_passed":false},{"stop_id":"U17218Z1","name":"Viničné Šumice, Psénky","arrival_time":"8:47:00","departure_time":"8:47:00","lat":49.213833,"lon":16.817523,"is_passed":false},{"stop_id":"U17220Z1","name":"Viničné Šumice, točna","arrival_time":"8:48:00","departure_time":"8:48:00","lat":49.212718,"lon":16.8107,"is_passed":false}]