[{"stop_id":"U16328Z10","name":"Slavkov u Brna, aut. st.","arrival_time":"8:13:00","departure_time":"8:13:00","lat":49.148898,"lon":16.876145,"is_passed":false},{"stop_id":"U17347Z1","name":"Velešovice, u hřiště","arrival_time":"8:19:00","departure_time":"8:19:00","lat":49.175896,"lon":16.846738,"is_passed":false},{"stop_id":"U17346Z1","name":"Velešovice, obecní úřad","arrival_time":"8:20:00","departure_time":"8:20:00","lat":49.179481,"lon":16.847315,"is_passed":false},{"stop_id":"U17348Z1","name":"Velešovice, u mostu","arrival_time":"8:21:00","departure_time":"8:21:00","lat":49.186447,"lon":16.84118,"is_passed":false},{"stop_id":"U17337Z1","name":"Rousínov, rozc. k žel. st.","arrival_time":"8:25:00","departure_time":"8:25:00","lat":49.200012,"lon":16.873039,"is_passed":false},{"stop_id":"U17335Z9","name":"Rousínov, autobusová stanice","arrival_time":"8:27:00","departure_time":"8:29:00","lat":49.203043,"lon":16.885015,"is_passed":false},{"stop_id":"U17331Z1","name":"Rousínov, Čechyně, rozcestí","arrival_time":"8:31:00","departure_time":"8:31:00","lat":49.207062,"lon":16.891572,"is_passed":false},{"stop_id":"U17311Z3","name":"Komořany, EDP","arrival_time":"8:34:00","departure_time":"8:34:00","lat":49.220008,"lon":16.905058,"is_passed":false},{"stop_id":"U17344Z1","name":"Tučapy, rozcestí","arrival_time":"8:36:00","departure_time":"8:36:00","lat":49.227308,"lon":16.915917,"is_passed":false},{"stop_id":"U17328Z1","name":"Luleč, rozcestí","arrival_time":"8:38:00","departure_time":"8:38:00","lat":49.248113,"lon":16.944733,"is_passed":false},{"stop_id":"U17428Z1","name":"Vyškov, Drnovská Bioveta","arrival_time":"8:40:00","departure_time":"8:40:00","lat":49.254302,"lon":16.95682,"is_passed":false},{"stop_id":"U17434Z2","name":"Vyškov, nemocnice","arrival_time":"8:44:00","departure_time":"8:44:00","lat":49.276242,"lon":16.98279,"is_passed":false},{"stop_id":"U17423Z21","name":"Vyškov, Autobusové nádraží","arrival_time":"8:46:00","departure_time":"9:14:00","lat":49.275819,"lon":16.992078,"is_passed":false}]