[{"stop_id":"U17335Z7","name":"Rousínov, autobusová stanice","arrival_time":"5:35:00","departure_time":"5:35:00","lat":49.203201,"lon":16.885042,"is_passed":false},{"stop_id":"U17337Z2","name":"Rousínov, rozc. k žel. st.","arrival_time":"5:37:00","departure_time":"5:37:00","lat":49.198975,"lon":16.870335,"is_passed":false},{"stop_id":"U17348Z2","name":"Velešovice, u mostu","arrival_time":"5:41:00","departure_time":"5:41:00","lat":49.186552,"lon":16.841008,"is_passed":false},{"stop_id":"U17345Z1","name":"Velešovice","arrival_time":"5:43:00","departure_time":"5:43:00","lat":49.180494,"lon":16.847836,"is_passed":false},{"stop_id":"U17348Z1","name":"Velešovice, u mostu","arrival_time":"5:45:00","departure_time":"5:45:00","lat":49.186447,"lon":16.84118,"is_passed":false},{"stop_id":"U16210Z2","name":"Kovalovice, Stará pošta","arrival_time":"5:47:00","departure_time":"5:47:00","lat":49.184841,"lon":16.825092,"is_passed":false},{"stop_id":"U16205Z2","name":"Holubice, kruh","arrival_time":"5:50:00","departure_time":"5:50:00","lat":49.184597,"lon":16.799528,"is_passed":false},{"stop_id":"U16105Z2","name":"Jiříkovice, motorest Rohlenka","arrival_time":"5:53:00","departure_time":"5:53:00","lat":49.183667,"lon":16.760583,"is_passed":false},{"stop_id":"U16130Z2","name":"Šlapanice, Bedřichovice, rozc.","arrival_time":"5:56:00","departure_time":"5:56:00","lat":49.182977,"lon":16.72308,"is_passed":false},{"stop_id":"U1577Z6","name":"Slatina, sídliště","arrival_time":"5:59:00","departure_time":"5:59:00","lat":49.18229,"lon":16.690089,"is_passed":false},{"stop_id":"U1068Z2","name":"Černovičky","arrival_time":"6:01:00","departure_time":"6:01:00","lat":49.183555,"lon":16.666764,"is_passed":false},{"stop_id":"U1677Z2","name":"Tržní","arrival_time":"6:06:00","departure_time":"6:06:00","lat":49.189407,"lon":16.629972,"is_passed":false},{"stop_id":"U1696Z4","name":"ÚAN Zvonařka","arrival_time":"6:10:00","departure_time":"6:51:00","lat":49.185364,"lon":16.616151,"is_passed":false}]