[{"stop_id":"U1146Z98","name":"Hlavní nádraží","arrival_time":"12:15:00","departure_time":"12:15:00","lat":49.19035,"lon":16.612342,"is_passed":false},{"stop_id":"U1573Z11","name":"Slatina, nádraží","arrival_time":"12:26:00","departure_time":"12:27:00","lat":49.169478,"lon":16.682148,"is_passed":false},{"stop_id":"U16136Z12","name":"Šlapanice, železniční zastávka","arrival_time":"12:30:00","departure_time":"12:31:00","lat":49.163296,"lon":16.719903,"is_passed":false},{"stop_id":"U16137Z11","name":"Šlapanice, železniční stanice","arrival_time":"12:33:00","departure_time":"12:33:00","lat":49.156915,"lon":16.729568,"is_passed":false},{"stop_id":"U16121Z11","name":"Ponětovice, železniční stanice","arrival_time":"12:36:00","departure_time":"12:36:00","lat":49.154709,"lon":16.748578,"is_passed":false},{"stop_id":"U26103Z2","name":"Blažovice","arrival_time":"12:41:00","departure_time":"12:42:00","lat":49.163735,"lon":16.798179,"is_passed":false},{"stop_id":"U16211Z11","name":"Křenovice, dol. žel. st.","arrival_time":"12:46:00","departure_time":"12:47:00","lat":49.144304,"lon":16.834023,"is_passed":false},{"stop_id":"U16333Z11","name":"Slavkov u Brna, žel. st.","arrival_time":"12:50:00","departure_time":"12:52:00","lat":49.14495,"lon":16.873475,"is_passed":false},{"stop_id":"U16318Z11","name":"Křižanovice, žel. st.","arrival_time":"12:56:00","departure_time":"12:57:00","lat":49.144986,"lon":16.93419,"is_passed":false},{"stop_id":"U16406Z11","name":"Bučovice, Marefy, žel. st.","arrival_time":"13:00:00","departure_time":"13:00:00","lat":49.14914,"lon":16.972851,"is_passed":false},{"stop_id":"U16463Z51","name":"Bučovice, železniční stanice","arrival_time":"13:04:00","departure_time":"13:05:00","lat":49.145619,"lon":16.999658,"is_passed":false},{"stop_id":"U26501Z2","name":"Nevojice","arrival_time":"13:09:00","departure_time":"13:09:00","lat":49.136847,"lon":17.04775,"is_passed":false},{"stop_id":"U16509Z11","name":"Nesovice, železniční stanice","arrival_time":"13:12:00","departure_time":"13:13:00","lat":49.14916,"lon":17.079897,"is_passed":false},{"stop_id":"U16628Z11","name":"Brankovice, železniční stanice","arrival_time":"13:17:00","departure_time":"13:18:00","lat":49.150361,"lon":17.13375,"is_passed":false},{"stop_id":"U16503Z11","name":"Nemotice, železniční stanice","arrival_time":"13:22:00","departure_time":"13:22:00","lat":49.132992,"lon":17.114242,"is_passed":false},{"stop_id":"U26601Z2","name":"Jestřabice","arrival_time":"13:28:00","departure_time":"13:28:00","lat":49.088889,"lon":17.113333,"is_passed":false},{"stop_id":"U16604Z11","name":"Kyjov, Bohuslavice, železniční stanice","arrival_time":"13:33:00","departure_time":"13:33:00","lat":49.055833,"lon":17.118917,"is_passed":false},{"stop_id":"U16650Z51","name":"Kyjov, železniční stanice","arrival_time":"13:38:00","departure_time":"13:39:00","lat":49.016263,"lon":17.122856,"is_passed":false},{"stop_id":"U26603Z2","name":"Kyjov zastávka","arrival_time":"13:42:00","departure_time":"13:42:00","lat":49.003383,"lon":17.123528,"is_passed":false},{"stop_id":"U26801Z11","name":"Vlkoš","arrival_time":"13:47:00","departure_time":"13:47:00","lat":48.987902,"lon":17.166624,"is_passed":false},{"stop_id":"U26802Z11","name":"Vracov","arrival_time":"13:51:00","departure_time":"13:52:00","lat":48.976674,"lon":17.218698,"is_passed":false},{"stop_id":"U16908Z11","name":"Bzenec, železniční stanice","arrival_time":"13:56:00","departure_time":"13:57:00","lat":48.969173,"lon":17.263183,"is_passed":false},{"stop_id":"U19316Z13","name":"Veselí nad Moravou, železniční stanice","arrival_time":"14:05:00","departure_time":"14:07:00","lat":48.948694,"lon":17.382439,"is_passed":false},{"stop_id":"U19310Z12","name":"Veselí nad Moravou, Milokošť","arrival_time":"14:10:00","departure_time":"14:10:00","lat":48.967085,"lon":17.398881,"is_passed":false},{"stop_id":"U29404Z11","name":"Uherský Ostroh","arrival_time":"14:12:00","departure_time":"14:13:00","lat":48.981817,"lon":17.403441,"is_passed":false},{"stop_id":"U30314Z1","name":"Ostrožská Nová Ves","arrival_time":"14:17:00","departure_time":"14:18:00","lat":49.009594,"lon":17.436368,"is_passed":false},{"stop_id":"U31103Z1","name":"Ostrožská Nová Ves lázně","arrival_time":"14:20:00","departure_time":"14:20:00","lat":49.018181,"lon":17.446255,"is_passed":false},{"stop_id":"U31025Z2","name":"Kunovice zastávka","arrival_time":"14:23:00","departure_time":"14:23:00","lat":49.038039,"lon":17.461023,"is_passed":false},{"stop_id":"U31027Z2","name":"Uherské Hradiště","arrival_time":"14:27:00","departure_time":"14:27:00","lat":49.066825,"lon":17.457085,"is_passed":false}]