[{"stop_id":"U16650Z51","name":"Kyjov, železniční stanice","arrival_time":"4:39:00","departure_time":"4:39:00","lat":49.016263,"lon":17.122856,"is_passed":false},{"stop_id":"U26603Z2","name":"Kyjov zastávka","arrival_time":"4:42:00","departure_time":"4:42:00","lat":49.003383,"lon":17.123528,"is_passed":false},{"stop_id":"U26801Z11","name":"Vlkoš","arrival_time":"4:47:00","departure_time":"4:48:00","lat":48.987902,"lon":17.166624,"is_passed":false},{"stop_id":"U26802Z11","name":"Vracov","arrival_time":"4:52:00","departure_time":"4:53:00","lat":48.976674,"lon":17.218698,"is_passed":false},{"stop_id":"U16908Z11","name":"Bzenec, železniční stanice","arrival_time":"4:57:00","departure_time":"4:58:00","lat":48.969173,"lon":17.263183,"is_passed":false},{"stop_id":"U19316Z13","name":"Veselí nad Moravou, železniční stanice","arrival_time":"5:07:00","departure_time":"5:25:00","lat":48.948694,"lon":17.382439,"is_passed":false}]