[{"stop_id":"U14546Z5","name":"Miroslav, autobusové nádraží","arrival_time":"5:35:00","departure_time":"5:35:00","lat":48.947248,"lon":16.312927,"is_passed":false},{"stop_id":"U14548Z2","name":"Miroslav, jesle","arrival_time":"5:38:00","departure_time":"5:38:00","lat":48.945453,"lon":16.308063,"is_passed":false},{"stop_id":"U14542Z2","name":"Hostěradice, lom","arrival_time":"5:42:00","departure_time":"5:42:00","lat":48.947002,"lon":16.264753,"is_passed":false},{"stop_id":"U14543Z5","name":"Hostěradice, náměstí","arrival_time":"5:43:00","departure_time":"5:43:00","lat":48.950642,"lon":16.259606,"is_passed":false},{"stop_id":"U14542Z1","name":"Hostěradice, lom","arrival_time":"5:44:00","departure_time":"5:44:00","lat":48.94687,"lon":16.265652,"is_passed":false},{"stop_id":"U18216Z1","name":"Oleksovice, hostinec","arrival_time":"5:53:00","departure_time":"5:53:00","lat":48.901862,"lon":16.25005,"is_passed":false},{"stop_id":"U18218Z1","name":"Oleksovice, u potoka","arrival_time":"5:54:00","departure_time":"5:54:00","lat":48.904674,"lon":16.243663,"is_passed":false},{"stop_id":"U18224Z1","name":"Vítonice","arrival_time":"6:01:00","departure_time":"6:01:00","lat":48.916498,"lon":16.20106,"is_passed":false},{"stop_id":"U18219Z1","name":"Prosiměřice, hostinec","arrival_time":"6:04:00","departure_time":"6:04:00","lat":48.902423,"lon":16.192625,"is_passed":false},{"stop_id":"U18222Z2","name":"Stošíkovice na Louce","arrival_time":"6:09:00","departure_time":"6:09:00","lat":48.89529,"lon":16.214773,"is_passed":false},{"stop_id":"U18223Z2","name":"Stošíkovice na Louce, rozcestí","arrival_time":"6:11:00","departure_time":"6:11:00","lat":48.889731,"lon":16.196426,"is_passed":false},{"stop_id":"U18117Z2","name":"Bantice","arrival_time":"6:14:00","departure_time":"6:14:00","lat":48.88313,"lon":16.184438,"is_passed":false},{"stop_id":"U18135Z1","name":"Těšetice, na hlavní","arrival_time":"6:17:00","departure_time":"6:17:00","lat":48.887956,"lon":16.157624,"is_passed":false},{"stop_id":"U18116Z1","name":"Suchohrdly, Purkrábka","arrival_time":"6:22:00","departure_time":"6:22:00","lat":48.868878,"lon":16.106653,"is_passed":false},{"stop_id":"U18115Z1","name":"Suchohrdly, kurty","arrival_time":"6:24:00","departure_time":"6:24:00","lat":48.868297,"lon":16.096222,"is_passed":false},{"stop_id":"U18110Z2","name":"Suchohrdly, prodejna","arrival_time":"6:25:00","departure_time":"6:25:00","lat":48.866425,"lon":16.089202,"is_passed":false},{"stop_id":"U18002Z2","name":"Znojmo, Suchohrdelská, hřbitov","arrival_time":"6:28:00","departure_time":"6:28:00","lat":48.857448,"lon":16.066435,"is_passed":false},{"stop_id":"U18009Z51","name":"Znojmo, autobusové nádraží","arrival_time":"6:30:00","departure_time":"6:30:00","lat":48.851908,"lon":16.056983,"is_passed":false}]