[{"stop_id":"U18009Z9","name":"Znojmo, autobusové nádraží","arrival_time":"9:02:00","departure_time":"9:02:00","lat":48.851967,"lon":16.057217,"is_passed":false},{"stop_id":"U18011Z4","name":"Znojmo, nám.Svobody, lázně","arrival_time":"9:07:00","departure_time":"9:07:00","lat":48.860867,"lon":16.049582,"is_passed":false},{"stop_id":"U18012Z2","name":"Znojmo, Pražská, Kolonka","arrival_time":"9:08:00","departure_time":"9:08:00","lat":48.863104,"lon":16.042081,"is_passed":false},{"stop_id":"U18075Z1","name":"Znojmo, Pražská, sídliště","arrival_time":"9:10:00","departure_time":"9:10:00","lat":48.866939,"lon":16.035432,"is_passed":false},{"stop_id":"U18141Z1","name":"Citonice","arrival_time":"9:16:00","departure_time":"9:16:00","lat":48.88119,"lon":15.968185,"is_passed":false},{"stop_id":"U18155Z1","name":"Milíčovice, na státní","arrival_time":"9:19:00","departure_time":"9:19:00","lat":48.888693,"lon":15.933052,"is_passed":false},{"stop_id":"U18260Z1","name":"Vracovice","arrival_time":"9:22:00","departure_time":"9:22:00","lat":48.899932,"lon":15.899868,"is_passed":false},{"stop_id":"U18253Z1","name":"Lesná, penzion","arrival_time":"9:25:00","departure_time":"9:25:00","lat":48.907588,"lon":15.867275,"is_passed":false},{"stop_id":"U18252Z1","name":"Lesná, hájenka","arrival_time":"9:26:00","departure_time":"9:26:00","lat":48.90843,"lon":15.853668,"is_passed":false},{"stop_id":"U18344Z1","name":"Onšov, rozcestí","arrival_time":"9:28:00","departure_time":"9:28:00","lat":48.902333,"lon":15.837655,"is_passed":false},{"stop_id":"U18350Z1","name":"Vranov nad Dyjí, náměstí","arrival_time":"9:32:00","departure_time":"9:32:00","lat":48.894573,"lon":15.813027,"is_passed":false},{"stop_id":"U18355Z1","name":"Vranov nad Dyjí, Zámecký hotel","arrival_time":"9:34:00","departure_time":"9:35:00","lat":48.896127,"lon":15.812002,"is_passed":false},{"stop_id":"U18412Z1","name":"Lančov, kaplička","arrival_time":"9:39:00","departure_time":"9:39:00","lat":48.906492,"lon":15.79892,"is_passed":false},{"stop_id":"U18411Z1","name":"Lančov, hostinec","arrival_time":"9:42:00","departure_time":"9:42:00","lat":48.906823,"lon":15.766732,"is_passed":false},{"stop_id":"U18418Z1","name":"Starý Petřín, Jazovice","arrival_time":"9:45:00","departure_time":"9:45:00","lat":48.89802,"lon":15.743685,"is_passed":false},{"stop_id":"U18417Z3","name":"Starý Petřín","arrival_time":"9:48:00","departure_time":"9:48:00","lat":48.890268,"lon":15.734752,"is_passed":false},{"stop_id":"U18421Z1","name":"Šafov","arrival_time":"9:52:00","departure_time":"9:52:00","lat":48.866865,"lon":15.734686,"is_passed":false},{"stop_id":"U18519Z1","name":"Stálky","arrival_time":"9:58:00","departure_time":"9:58:00","lat":48.870653,"lon":15.684302,"is_passed":false},{"stop_id":"U18518Z1","name":"Podhradí nad Dyjí, rozcestí","arrival_time":"10:03:00","departure_time":"10:03:00","lat":48.890948,"lon":15.662092,"is_passed":false},{"stop_id":"U18607Z1","name":"Uherčice, statek Mitrov","arrival_time":"10:07:00","departure_time":"10:07:00","lat":48.902808,"lon":15.64658,"is_passed":false},{"stop_id":"U18606Z1","name":"Uherčice, u parku","arrival_time":"10:10:00","departure_time":"10:10:00","lat":48.914381,"lon":15.631452,"is_passed":false},{"stop_id":"U18609Z1","name":"Uherčice, Mešovice","arrival_time":"10:15:00","departure_time":"10:15:00","lat":48.924211,"lon":15.593261,"is_passed":false},{"stop_id":"U18610Z1","name":"Vratěnín","arrival_time":"10:20:00","departure_time":"10:20:00","lat":48.903727,"lon":15.597175,"is_passed":false},{"stop_id":"U18709Z1","name":"Drosendorf, Altstadt","arrival_time":"10:28:00","departure_time":"10:28:00","lat":48.868018,"lon":15.627482,"is_passed":false},{"stop_id":"U18710Z1","name":"Drosendorf, Schulen","arrival_time":"10:30:00","departure_time":"11:15:00","lat":48.864752,"lon":15.622558,"is_passed":false}]