[{"stop_id":"U18009Z1","name":"Znojmo, autobusové nádraží","arrival_time":"22:12:00","departure_time":"22:12:00","lat":48.851886,"lon":16.057356,"is_passed":false},{"stop_id":"U18214Z2","name":"Lechovice, obecní úřad","arrival_time":"22:26:00","departure_time":"22:26:00","lat":48.872568,"lon":16.221965,"is_passed":false},{"stop_id":"U18215Z2","name":"Lechovice, zámek","arrival_time":"22:28:00","departure_time":"22:28:00","lat":48.875885,"lon":16.236996,"is_passed":false},{"stop_id":"U18217Z2","name":"Oleksovice, rozcestí","arrival_time":"22:31:00","departure_time":"22:31:00","lat":48.887523,"lon":16.260499,"is_passed":false},{"stop_id":"U15557Z2","name":"Mackovice, rozcestí","arrival_time":"22:34:00","departure_time":"22:34:00","lat":48.901053,"lon":16.294054,"is_passed":false},{"stop_id":"U14557Z2","name":"Miroslav, Kašenec, státní silnice","arrival_time":"22:37:00","departure_time":"22:37:00","lat":48.91853,"lon":16.33381,"is_passed":false},{"stop_id":"U14552Z2","name":"Miroslav, rozcestí","arrival_time":"22:40:00","departure_time":"22:40:00","lat":48.933616,"lon":16.362524,"is_passed":false},{"stop_id":"U14024Z2","name":"Trnové Pole, rozcestí","arrival_time":"22:45:00","departure_time":"22:45:00","lat":48.955186,"lon":16.413722,"is_passed":false},{"stop_id":"U14011Z2","name":"Branišovice, státní silnice","arrival_time":"22:47:00","departure_time":"22:47:00","lat":48.959163,"lon":16.430035,"is_passed":false},{"stop_id":"U15320Z2","name":"Pohořelice, obchodní akademie","arrival_time":"22:53:00","departure_time":"22:53:00","lat":48.978585,"lon":16.505427,"is_passed":false},{"stop_id":"U15317Z3","name":"Pohořelice, náměstí","arrival_time":"22:55:00","departure_time":"22:55:00","lat":48.980878,"lon":16.522413,"is_passed":false},{"stop_id":"U15315Z2","name":"Pohořelice, Brněnská","arrival_time":"22:57:00","departure_time":"22:57:00","lat":48.984956,"lon":16.530513,"is_passed":false},{"stop_id":"U15379Z2","name":"Pohořelice, průmyslová zóna východ","arrival_time":"22:58:00","departure_time":"22:58:00","lat":48.990539,"lon":16.540751,"is_passed":false},{"stop_id":"U15122Z4","name":"Modřice, Brněnská","arrival_time":"23:12:00","departure_time":"23:12:00","lat":49.130132,"lon":16.604936,"is_passed":false},{"stop_id":"U1703Z7","name":"Ústřední hřbitov","arrival_time":"23:18:00","departure_time":"23:18:00","lat":49.170741,"lon":16.597834,"is_passed":false},{"stop_id":"U1622Z1","name":"Strážní","arrival_time":"23:21:00","departure_time":"23:21:00","lat":49.178207,"lon":16.603976,"is_passed":false},{"stop_id":"U1146Z7","name":"Hlavní nádraží","arrival_time":"23:25:00","departure_time":"23:25:00","lat":49.19213,"lon":16.613467,"is_passed":false}]