[{"stop_id":"U18009Z14","name":"Znojmo, autobusové nádraží","arrival_time":"7:10:00","departure_time":"7:10:00","lat":48.851564,"lon":16.05657,"is_passed":false},{"stop_id":"U18022Z1","name":"Znojmo, Vídeňská, u školy","arrival_time":"7:13:00","departure_time":"7:13:00","lat":48.843183,"lon":16.060932,"is_passed":false},{"stop_id":"U18107Z2","name":"Dobšice, rest.","arrival_time":"7:16:00","departure_time":"7:16:00","lat":48.84842,"lon":16.085268,"is_passed":false},{"stop_id":"U18119Z1","name":"Dyje, cihelna","arrival_time":"7:19:00","departure_time":"7:19:00","lat":48.852592,"lon":16.113313,"is_passed":false},{"stop_id":"U18121Z1","name":"Dyje, u železničního přejezdu","arrival_time":"7:20:00","departure_time":"7:20:00","lat":48.849413,"lon":16.12016,"is_passed":false},{"stop_id":"U18186Z1","name":"Tasovice, u hřbitova","arrival_time":"7:23:00","departure_time":"7:23:00","lat":48.836051,"lon":16.15051,"is_passed":false},{"stop_id":"U18133Z1","name":"Tasovice, u prodejen","arrival_time":"7:24:00","departure_time":"7:24:00","lat":48.83599,"lon":16.156078,"is_passed":false},{"stop_id":"U18122Z1","name":"Hodonice, střed","arrival_time":"7:26:00","departure_time":"7:26:00","lat":48.835833,"lon":16.164223,"is_passed":false},{"stop_id":"U18123Z1","name":"Krhovice","arrival_time":"7:29:00","departure_time":"7:29:00","lat":48.817342,"lon":16.174398,"is_passed":false},{"stop_id":"U18130Z1","name":"Strachotice, rozcestí","arrival_time":"7:32:00","departure_time":"7:32:00","lat":48.806187,"lon":16.202127,"is_passed":false},{"stop_id":"U18281Z1","name":"Valtrovice, obecní úřad","arrival_time":"7:34:00","departure_time":"7:34:00","lat":48.794367,"lon":16.222445,"is_passed":false},{"stop_id":"U18276Z1","name":"Křídlůvky, rozcestí","arrival_time":"7:37:00","departure_time":"7:37:00","lat":48.784937,"lon":16.242362,"is_passed":false},{"stop_id":"U18361Z2","name":"Hrádek, zahradnictví","arrival_time":"7:38:00","departure_time":"7:38:00","lat":48.782305,"lon":16.255478,"is_passed":false},{"stop_id":"U18359Z2","name":"Hrádek, kulturní dům","arrival_time":"7:39:00","departure_time":"7:39:00","lat":48.775425,"lon":16.269938,"is_passed":false},{"stop_id":"U18363Z2","name":"Hrádek, u mlýna","arrival_time":"7:40:00","departure_time":"7:40:00","lat":48.773192,"lon":16.278031,"is_passed":false},{"stop_id":"U18357Z2","name":"Dyjákovice, nad hostincem","arrival_time":"7:43:00","departure_time":"7:43:00","lat":48.772632,"lon":16.29921,"is_passed":false},{"stop_id":"U18358Z1","name":"Dyjákovice, škola","arrival_time":"7:44:00","departure_time":"7:44:00","lat":48.772805,"lon":16.303553,"is_passed":false},{"stop_id":"U18362Z1","name":"Velký Karlov","arrival_time":"7:49:00","departure_time":"8:00:00","lat":48.803731,"lon":16.305717,"is_passed":false}]