[{"stop_id":"U31027Z1","name":"Uherské Hradiště","arrival_time":"5:34:00","departure_time":"5:34:00","lat":49.066881,"lon":17.457171,"is_passed":false},{"stop_id":"U31026Z1","name":"Kunovice","arrival_time":"5:37:00","departure_time":"5:43:00","lat":49.051998,"lon":17.470067,"is_passed":false},{"stop_id":"U31025Z1","name":"Kunovice zastávka","arrival_time":"5:45:00","departure_time":"5:46:00","lat":49.038454,"lon":17.46113,"is_passed":false},{"stop_id":"U30314Z2","name":"Ostrožská Nová Ves","arrival_time":"5:49:00","departure_time":"5:50:00","lat":49.009975,"lon":17.436797,"is_passed":false},{"stop_id":"U29404Z10","name":"Uherský Ostroh","arrival_time":"5:54:00","departure_time":"5:54:00","lat":48.982198,"lon":17.403538,"is_passed":false},{"stop_id":"U19316Z12","name":"Veselí nad Moravou, železniční stanice","arrival_time":"5:59:00","departure_time":"6:01:00","lat":48.948694,"lon":17.382439,"is_passed":false},{"stop_id":"U16908Z10","name":"Bzenec, železniční stanice","arrival_time":"6:09:00","departure_time":"6:10:00","lat":48.969173,"lon":17.263183,"is_passed":false},{"stop_id":"U26802Z10","name":"Vracov","arrival_time":"6:14:00","departure_time":"6:14:00","lat":48.97657,"lon":17.220097,"is_passed":false},{"stop_id":"U26603Z1","name":"Kyjov zastávka","arrival_time":"6:22:00","departure_time":"6:23:00","lat":49.003312,"lon":17.123835,"is_passed":false},{"stop_id":"U16650Z50","name":"Kyjov, železniční stanice","arrival_time":"6:26:00","departure_time":"6:28:00","lat":49.016226,"lon":17.122949,"is_passed":false},{"stop_id":"U16503Z10","name":"Nemotice, železniční stanice","arrival_time":"6:41:00","departure_time":"6:42:00","lat":49.133033,"lon":17.114422,"is_passed":false},{"stop_id":"U16509Z10","name":"Nesovice, železniční stanice","arrival_time":"6:50:00","departure_time":"6:50:00","lat":49.149315,"lon":17.080192,"is_passed":false},{"stop_id":"U16463Z50","name":"Bučovice, železniční stanice","arrival_time":"6:57:00","departure_time":"6:58:00","lat":49.145619,"lon":16.999658,"is_passed":false},{"stop_id":"U16333Z10","name":"Slavkov u Brna, žel. st.","arrival_time":"7:05:00","departure_time":"7:06:00","lat":49.14495,"lon":16.873475,"is_passed":false},{"stop_id":"U1573Z10","name":"Slatina, nádraží","arrival_time":"7:20:00","departure_time":"7:21:00","lat":49.169478,"lon":16.682148,"is_passed":false},{"stop_id":"U1146Z99","name":"Hlavní nádraží","arrival_time":"7:33:00","departure_time":"15:28:00","lat":49.19035,"lon":16.612342,"is_passed":false}]