[{"stop_id":"U16650Z51","name":"Kyjov, železniční stanice","arrival_time":"13:04:00","departure_time":"13:04:00","lat":49.016263,"lon":17.122856,"is_passed":false},{"stop_id":"U26603Z2","name":"Kyjov zastávka","arrival_time":"13:07:00","departure_time":"13:07:00","lat":49.003383,"lon":17.123528,"is_passed":false},{"stop_id":"U26801Z11","name":"Vlkoš","arrival_time":"13:12:00","departure_time":"13:12:00","lat":48.987902,"lon":17.166624,"is_passed":false},{"stop_id":"U26802Z11","name":"Vracov","arrival_time":"13:16:00","departure_time":"13:17:00","lat":48.976674,"lon":17.218698,"is_passed":false},{"stop_id":"U16908Z11","name":"Bzenec, železniční stanice","arrival_time":"13:21:00","departure_time":"13:22:00","lat":48.969173,"lon":17.263183,"is_passed":false},{"stop_id":"U19316Z13","name":"Veselí nad Moravou, železniční stanice","arrival_time":"13:31:00","departure_time":"13:34:00","lat":48.948694,"lon":17.382439,"is_passed":false}]