[{"stop_id":"U19316Z12","name":"Veselí nad Moravou, železniční stanice","arrival_time":"16:29:00","departure_time":"16:29:00","lat":48.948694,"lon":17.382439,"is_passed":false},{"stop_id":"U16908Z10","name":"Bzenec, železniční stanice","arrival_time":"16:37:00","departure_time":"16:38:00","lat":48.969173,"lon":17.263183,"is_passed":false},{"stop_id":"U26802Z10","name":"Vracov","arrival_time":"16:42:00","departure_time":"16:43:00","lat":48.97657,"lon":17.220097,"is_passed":false},{"stop_id":"U26801Z10","name":"Vlkoš","arrival_time":"16:47:00","departure_time":"16:47:00","lat":48.98791,"lon":17.166472,"is_passed":false},{"stop_id":"U26603Z1","name":"Kyjov zastávka","arrival_time":"16:51:00","departure_time":"16:52:00","lat":49.003312,"lon":17.123835,"is_passed":false},{"stop_id":"U16650Z50","name":"Kyjov, železniční stanice","arrival_time":"16:55:00","departure_time":"17:04:00","lat":49.016226,"lon":17.122949,"is_passed":false}]