[{"stop_id":"U31028Z1","name":"Staré Město u Uherského Hradiště","arrival_time":"7:59:00","departure_time":"7:59:00","lat":49.076029,"lon":17.422624,"is_passed":false},{"stop_id":"U31027Z1","name":"Uherské Hradiště","arrival_time":"8:05:00","departure_time":"8:07:00","lat":49.066881,"lon":17.457171,"is_passed":false},{"stop_id":"U31026Z1","name":"Kunovice","arrival_time":"8:10:00","departure_time":"8:14:00","lat":49.051998,"lon":17.470067,"is_passed":false},{"stop_id":"U31025Z1","name":"Kunovice zastávka","arrival_time":"8:16:00","departure_time":"8:16:00","lat":49.038454,"lon":17.46113,"is_passed":false},{"stop_id":"U30314Z2","name":"Ostrožská Nová Ves","arrival_time":"8:19:00","departure_time":"8:20:00","lat":49.009975,"lon":17.436797,"is_passed":false},{"stop_id":"U29404Z10","name":"Uherský Ostroh","arrival_time":"8:23:00","departure_time":"8:24:00","lat":48.982198,"lon":17.403538,"is_passed":false},{"stop_id":"U19316Z12","name":"Veselí nad Moravou, železniční stanice","arrival_time":"8:28:00","departure_time":"8:28:00","lat":48.948694,"lon":17.382439,"is_passed":false}]