[{"stop_id":"U19316Z13","name":"Veselí nad Moravou, železniční stanice","arrival_time":"14:34:00","departure_time":"14:34:00","lat":48.948694,"lon":17.382439,"is_passed":false},{"stop_id":"U19310Z12","name":"Veselí nad Moravou, Milokošť","arrival_time":"14:36:00","departure_time":"14:36:00","lat":48.967085,"lon":17.398881,"is_passed":false},{"stop_id":"U29404Z11","name":"Uherský Ostroh","arrival_time":"14:38:00","departure_time":"14:39:00","lat":48.981817,"lon":17.403441,"is_passed":false},{"stop_id":"U30314Z1","name":"Ostrožská Nová Ves","arrival_time":"14:43:00","departure_time":"14:46:00","lat":49.009594,"lon":17.436368,"is_passed":false},{"stop_id":"U31103Z1","name":"Ostrožská Nová Ves lázně","arrival_time":"14:48:00","departure_time":"14:48:00","lat":49.018181,"lon":17.446255,"is_passed":false},{"stop_id":"U31025Z2","name":"Kunovice zastávka","arrival_time":"14:51:00","departure_time":"14:51:00","lat":49.038039,"lon":17.461023,"is_passed":false},{"stop_id":"U31027Z2","name":"Uherské Hradiště","arrival_time":"14:55:00","departure_time":"14:59:00","lat":49.066825,"lon":17.457085,"is_passed":false}]