[{"stop_id":"U1146Z98","name":"Hlavní nádraží","arrival_time":"21:35:00","departure_time":"21:35:00","lat":49.19035,"lon":16.612342,"is_passed":false},{"stop_id":"U15425Z11","name":"Šakvice, železniční stanice","arrival_time":"21:56:00","departure_time":"21:57:00","lat":48.912883,"lon":16.70557,"is_passed":false},{"stop_id":"U15537Z11","name":"Zaječí, železniční stanice","arrival_time":"22:01:00","departure_time":"22:02:00","lat":48.889637,"lon":16.781831,"is_passed":false},{"stop_id":"U25501Z11","name":"Rakvice","arrival_time":"22:06:00","departure_time":"22:06:00","lat":48.866893,"lon":16.821444,"is_passed":false},{"stop_id":"U15619Z11","name":"Podivín, železniční stanice","arrival_time":"22:10:00","departure_time":"22:11:00","lat":48.837726,"lon":16.853526,"is_passed":false},{"stop_id":"U15729Z11","name":"Břeclav, autobusové nádraží","arrival_time":"22:20:00","departure_time":"22:20:00","lat":48.753851,"lon":16.893169,"is_passed":false}]