[{"stop_id":"U13334Z20","name":"Tišnov, železniční stanice","arrival_time":"9:33:00","departure_time":"9:33:00","lat":49.3475,"lon":16.41725,"is_passed":false},{"stop_id":"U13462Z1","name":"Štěpánovice","arrival_time":"9:37:00","departure_time":"9:37:00","lat":49.373141,"lon":16.389854,"is_passed":false},{"stop_id":"U13463Z1","name":"Borač, žel. st.","arrival_time":"9:42:00","departure_time":"9:43:00","lat":49.400768,"lon":16.366252,"is_passed":false},{"stop_id":"U13464Z1","name":"Prudká zastávka","arrival_time":"9:46:00","departure_time":"9:46:00","lat":49.419195,"lon":16.367361,"is_passed":false},{"stop_id":"U13506Z10","name":"Doubravník, železniční stanice","arrival_time":"9:50:00","departure_time":"9:50:00","lat":49.426945,"lon":16.352389,"is_passed":false},{"stop_id":"U13520Z1","name":"Nedvědice, železniční stanice","arrival_time":"9:56:00","departure_time":"10:01:00","lat":49.454167,"lon":16.338333,"is_passed":false},{"stop_id":"U23601Z2","name":"Věžná","arrival_time":"10:09:00","departure_time":"10:09:00","lat":49.451547,"lon":16.270316,"is_passed":false},{"stop_id":"U13605Z12","name":"Rožná, železniční stanice","arrival_time":"10:13:00","departure_time":"10:14:00","lat":49.472143,"lon":16.245416,"is_passed":false},{"stop_id":"U13701Z12","name":"Bystřice nad Pern., železniční stanice","arrival_time":"10:25:00","departure_time":"10:32:00","lat":49.513611,"lon":16.246667,"is_passed":false},{"stop_id":"U13801Z12","name":"Rozsochy, železniční stanice","arrival_time":"10:39:00","departure_time":"10:39:00","lat":49.537385,"lon":16.195122,"is_passed":false},{"stop_id":"U23801Z2","name":"Rovné-Divišov","arrival_time":"10:42:00","departure_time":"10:42:00","lat":49.547632,"lon":16.172826,"is_passed":false}]