{"147":[{"stop_id":"U1696Z5","name":"ÚAN Zvonařka","arrival_time":"15:04:00","departure_time":"15:04:00","lat":49.185364,"lon":16.616151,"is_passed":false},{"stop_id":"U1677Z3","name":"Tržní","arrival_time":"15:08:00","departure_time":"15:08:00","lat":49.189342,"lon":16.630314,"is_passed":false},{"stop_id":"U17335Z2","name":"Rousínov, autobusová stanice","arrival_time":"15:28:00","departure_time":"15:29:00","lat":49.20291,"lon":16.88497,"is_passed":false},{"stop_id":"U17331Z1","name":"Rousínov, Čechyně, rozcestí","arrival_time":"15:31:00","departure_time":"15:31:00","lat":49.207062,"lon":16.891572,"is_passed":false},{"stop_id":"U17311Z3","name":"Komořany, EDP","arrival_time":"15:34:00","departure_time":"15:34:00","lat":49.220008,"lon":16.905058,"is_passed":false},{"stop_id":"U17344Z1","name":"Tučapy, rozcestí","arrival_time":"15:36:00","departure_time":"15:36:00","lat":49.227308,"lon":16.915917,"is_passed":false},{"stop_id":"U17328Z1","name":"Luleč, rozcestí","arrival_time":"15:38:00","departure_time":"15:38:00","lat":49.248113,"lon":16.944733,"is_passed":false},{"stop_id":"U17428Z1","name":"Vyškov, Drnovská Bioveta","arrival_time":"15:40:00","departure_time":"15:40:00","lat":49.254302,"lon":16.95682,"is_passed":false},{"stop_id":"U17435Z1","name":"Vyškov, Nouzka","arrival_time":"15:43:00","departure_time":"15:43:00","lat":49.267372,"lon":16.982268,"is_passed":false},{"stop_id":"U17429Z1","name":"Vyškov, garáže ČSAD","arrival_time":"15:44:00","departure_time":"15:44:00","lat":49.271332,"lon":16.989108,"is_passed":false},{"stop_id":"U17423Z21","name":"Vyškov, Autobusové nádraží","arrival_time":"15:46:00","departure_time":"16:16:00","lat":49.275819,"lon":16.992078,"is_passed":false}],"1470":[{"stop_id":"U17446Z10","name":"Vyškov, železniční stanice","arrival_time":"8:21:00","departure_time":"8:21:00","lat":49.277222,"lon":16.990833,"is_passed":false},{"stop_id":"U1146Z99","name":"Hlavní nádraží","arrival_time":"8:57:00","departure_time":"8:57:00","lat":49.19035,"lon":16.612342,"is_passed":false},{"stop_id":"U1286Z10","name":"Královo Pole, nádraží","arrival_time":"9:14:00","departure_time":"9:14:00","lat":49.231051,"lon":16.596651,"is_passed":false}],"1471":[{"stop_id":"U1286Z11","name":"Královo Pole, nádraží","arrival_time":"6:45:00","departure_time":"6:45:00","lat":49.231051,"lon":16.596651,"is_passed":false},{"stop_id":"U1146Z98","name":"Hlavní nádraží","arrival_time":"6:56:00","departure_time":"7:02:00","lat":49.19035,"lon":16.612342,"is_passed":false},{"stop_id":"U17446Z11","name":"Vyškov, železniční stanice","arrival_time":"7:39:00","departure_time":"7:40:00","lat":49.277222,"lon":16.990833,"is_passed":false}],"1472":[{"stop_id":"U17446Z10","name":"Vyškov, železniční stanice","arrival_time":"9:21:00","departure_time":"9:21:00","lat":49.277222,"lon":16.990833,"is_passed":false},{"stop_id":"U1146Z99","name":"Hlavní nádraží","arrival_time":"9:59:00","departure_time":"9:59:00","lat":49.19035,"lon":16.612342,"is_passed":false},{"stop_id":"U1286Z10","name":"Královo Pole, nádraží","arrival_time":"10:14:00","departure_time":"10:14:00","lat":49.231051,"lon":16.596651,"is_passed":false}],"1473":[{"stop_id":"U1286Z11","name":"Královo Pole, nádraží","arrival_time":"7:45:00","departure_time":"7:45:00","lat":49.231051,"lon":16.596651,"is_passed":false},{"stop_id":"U1146Z98","name":"Hlavní nádraží","arrival_time":"7:56:00","departure_time":"8:02:00","lat":49.19035,"lon":16.612342,"is_passed":false},{"stop_id":"U17446Z11","name":"Vyškov, železniční stanice","arrival_time":"8:39:00","departure_time":"8:40:00","lat":49.277222,"lon":16.990833,"is_passed":false}],"1474":[{"stop_id":"U17446Z10","name":"Vyškov, železniční stanice","arrival_time":"10:21:00","departure_time":"10:21:00","lat":49.277222,"lon":16.990833,"is_passed":false},{"stop_id":"U1146Z99","name":"Hlavní nádraží","arrival_time":"10:59:00","departure_time":"10:59:00","lat":49.19035,"lon":16.612342,"is_passed":false},{"stop_id":"U1286Z10","name":"Královo Pole, nádraží","arrival_time":"11:14:00","departure_time":"11:14:00","lat":49.231051,"lon":16.596651,"is_passed":false}],"1475":[{"stop_id":"U1286Z11","name":"Královo Pole, nádraží","arrival_time":"8:45:00","departure_time":"8:45:00","lat":49.231051,"lon":16.596651,"is_passed":false},{"stop_id":"U1146Z98","name":"Hlavní nádraží","arrival_time":"8:56:00","departure_time":"9:02:00","lat":49.19035,"lon":16.612342,"is_passed":false},{"stop_id":"U17446Z11","name":"Vyškov, železniční stanice","arrival_time":"9:39:00","departure_time":"9:40:00","lat":49.277222,"lon":16.990833,"is_passed":false}],"1476":[{"stop_id":"U17446Z10","name":"Vyškov, železniční stanice","arrival_time":"11:21:00","departure_time":"11:21:00","lat":49.277222,"lon":16.990833,"is_passed":false},{"stop_id":"U1146Z99","name":"Hlavní nádraží","arrival_time":"11:59:00","departure_time":"11:59:00","lat":49.19035,"lon":16.612342,"is_passed":false},{"stop_id":"U1286Z10","name":"Královo Pole, nádraží","arrival_time":"12:14:00","departure_time":"12:14:00","lat":49.231051,"lon":16.596651,"is_passed":false}],"1477":[{"stop_id":"U1286Z11","name":"Královo Pole, nádraží","arrival_time":"9:45:00","departure_time":"9:45:00","lat":49.231051,"lon":16.596651,"is_passed":false},{"stop_id":"U1146Z98","name":"Hlavní nádraží","arrival_time":"9:56:00","departure_time":"10:02:00","lat":49.19035,"lon":16.612342,"is_passed":false},{"stop_id":"U17446Z11","name":"Vyškov, železniční stanice","arrival_time":"10:39:00","departure_time":"10:40:00","lat":49.277222,"lon":16.990833,"is_passed":false}],"1478":[{"stop_id":"U17446Z10","name":"Vyškov, železniční stanice","arrival_time":"12:21:00","departure_time":"12:21:00","lat":49.277222,"lon":16.990833,"is_passed":false},{"stop_id":"U1146Z99","name":"Hlavní nádraží","arrival_time":"12:59:00","departure_time":"12:59:00","lat":49.19035,"lon":16.612342,"is_passed":false},{"stop_id":"U1286Z10","name":"Královo Pole, nádraží","arrival_time":"13:14:00","departure_time":"13:14:00","lat":49.231051,"lon":16.596651,"is_passed":false}],"1479":[{"stop_id":"U1286Z11","name":"Královo Pole, nádraží","arrival_time":"10:45:00","departure_time":"10:45:00","lat":49.231051,"lon":16.596651,"is_passed":false},{"stop_id":"U1146Z98","name":"Hlavní nádraží","arrival_time":"10:56:00","departure_time":"11:02:00","lat":49.19035,"lon":16.612342,"is_passed":false},{"stop_id":"U17446Z11","name":"Vyškov, železniční stanice","arrival_time":"11:39:00","departure_time":"11:40:00","lat":49.277222,"lon":16.990833,"is_passed":false}],"14700":[{"stop_id":"U15241Z21","name":"Židlochovice, železniční stanice","arrival_time":"4:51:00","departure_time":"4:51:00","lat":49.033113,"lon":16.617218,"is_passed":false},{"stop_id":"U15222Z10","name":"Hrušovany u Brna, žel. st.","arrival_time":"4:54:00","departure_time":"4:55:00","lat":49.034228,"lon":16.591501,"is_passed":false},{"stop_id":"U25201Z10","name":"Vojkovice nad Svratkou, žel. st.","arrival_time":"4:58:00","departure_time":"4:58:00","lat":49.056208,"lon":16.597445,"is_passed":false},{"stop_id":"U15181Z10","name":"Rajhrad, železniční stanice","arrival_time":"5:01:00","departure_time":"5:02:00","lat":49.084966,"lon":16.60532,"is_passed":false},{"stop_id":"U15135Z10","name":"Popovice, u tratě","arrival_time":"5:04:00","departure_time":"5:04:00","lat":49.103463,"lon":16.605647,"is_passed":false},{"stop_id":"U15140Z10","name":"Modřice, železniční stanice","arrival_time":"5:08:00","departure_time":"5:09:00","lat":49.133256,"lon":16.606209,"is_passed":false},{"stop_id":"U11002Z10","name":"Brno-Horní Heršpice","arrival_time":"5:12:00","departure_time":"5:13:00","lat":49.167404,"lon":16.60686,"is_passed":false},{"stop_id":"U1146Z99","name":"Hlavní nádraží","arrival_time":"5:17:00","departure_time":"7:39:00","lat":49.19035,"lon":16.612342,"is_passed":false}],"14701":[{"stop_id":"U1146Z98","name":"Hlavní nádraží","arrival_time":"7:39:00","departure_time":"7:39:00","lat":49.19035,"lon":16.612342,"is_passed":false},{"stop_id":"U15140Z11","name":"Modřice, železniční stanice","arrival_time":"7:45:00","departure_time":"7:46:00","lat":49.133256,"lon":16.606209,"is_passed":false},{"stop_id":"U15135Z11","name":"Popovice, u tratě","arrival_time":"7:48:00","departure_time":"7:49:00","lat":49.103463,"lon":16.605647,"is_passed":false},{"stop_id":"U15181Z11","name":"Rajhrad, železniční stanice","arrival_time":"7:51:00","departure_time":"7:51:00","lat":49.084966,"lon":16.60532,"is_passed":false},{"stop_id":"U25201Z11","name":"Vojkovice nad Svratkou, žel. st.","arrival_time":"7:54:00","departure_time":"7:55:00","lat":49.056208,"lon":16.597445,"is_passed":false},{"stop_id":"U15222Z11","name":"Hrušovany u Brna, žel. st.","arrival_time":"7:57:00","departure_time":"8:00:00","lat":49.034228,"lon":16.591501,"is_passed":false},{"stop_id":"U15241Z22","name":"Židlochovice, železniční stanice","arrival_time":"8:04:00","departure_time":"8:04:00","lat":49.033178,"lon":16.617165,"is_passed":false}],"14702":[{"stop_id":"U15241Z21","name":"Židlochovice, železniční stanice","arrival_time":"5:54:00","departure_time":"5:54:00","lat":49.033113,"lon":16.617218,"is_passed":false},{"stop_id":"U15222Z10","name":"Hrušovany u Brna, žel. st.","arrival_time":"5:57:00","departure_time":"5:59:00","lat":49.034228,"lon":16.591501,"is_passed":false},{"stop_id":"U25201Z10","name":"Vojkovice nad Svratkou, žel. st.","arrival_time":"6:01:00","departure_time":"6:02:00","lat":49.056208,"lon":16.597445,"is_passed":false},{"stop_id":"U15181Z10","name":"Rajhrad, železniční stanice","arrival_time":"6:04:00","departure_time":"6:05:00","lat":49.084966,"lon":16.60532,"is_passed":false},{"stop_id":"U15135Z10","name":"Popovice, u tratě","arrival_time":"6:07:00","departure_time":"6:07:00","lat":49.103463,"lon":16.605647,"is_passed":false},{"stop_id":"U15140Z10","name":"Modřice, železniční stanice","arrival_time":"6:10:00","departure_time":"6:11:00","lat":49.133256,"lon":16.606209,"is_passed":false},{"stop_id":"U1146Z99","name":"Hlavní nádraží","arrival_time":"6:18:00","departure_time":"6:18:00","lat":49.19035,"lon":16.612342,"is_passed":false}],"14703":[{"stop_id":"U1146Z98","name":"Hlavní nádraží","arrival_time":"6:39:00","departure_time":"6:39:00","lat":49.19035,"lon":16.612342,"is_passed":false},{"stop_id":"U15140Z11","name":"Modřice, železniční stanice","arrival_time":"6:45:00","departure_time":"6:46:00","lat":49.133256,"lon":16.606209,"is_passed":false},{"stop_id":"U15135Z11","name":"Popovice, u tratě","arrival_time":"6:48:00","departure_time":"6:49:00","lat":49.103463,"lon":16.605647,"is_passed":false},{"stop_id":"U15181Z11","name":"Rajhrad, železniční stanice","arrival_time":"6:51:00","departure_time":"6:52:00","lat":49.084966,"lon":16.60532,"is_passed":false},{"stop_id":"U25201Z11","name":"Vojkovice nad Svratkou, žel. st.","arrival_time":"6:55:00","departure_time":"6:55:00","lat":49.056208,"lon":16.597445,"is_passed":false},{"stop_id":"U15222Z11","name":"Hrušovany u Brna, žel. st.","arrival_time":"6:58:00","departure_time":"7:00:00","lat":49.034228,"lon":16.591501,"is_passed":false},{"stop_id":"U15241Z22","name":"Židlochovice, železniční stanice","arrival_time":"7:04:00","departure_time":"7:04:00","lat":49.033178,"lon":16.617165,"is_passed":false}],"14704":[{"stop_id":"U1146Z98","name":"Hlavní nádraží","arrival_time":"0:05:00","departure_time":"0:05:00","lat":49.19035,"lon":16.612342,"is_passed":false},{"stop_id":"U15140Z11","name":"Modřice, železniční stanice","arrival_time":"0:12:00","departure_time":"0:12:00","lat":49.133256,"lon":16.606209,"is_passed":false},{"stop_id":"U15135Z11","name":"Popovice, u tratě","arrival_time":"0:15:00","departure_time":"0:16:00","lat":49.103463,"lon":16.605647,"is_passed":false},{"stop_id":"U15181Z11","name":"Rajhrad, železniční stanice","arrival_time":"0:18:00","departure_time":"0:18:00","lat":49.084966,"lon":16.60532,"is_passed":false},{"stop_id":"U25201Z11","name":"Vojkovice nad Svratkou, žel. st.","arrival_time":"0:21:00","departure_time":"0:22:00","lat":49.056208,"lon":16.597445,"is_passed":false},{"stop_id":"U15222Z11","name":"Hrušovany u Brna, žel. st.","arrival_time":"0:24:00","departure_time":"0:25:00","lat":49.034228,"lon":16.591501,"is_passed":false},{"stop_id":"U15306Z11","name":"Žabčice, žel. st.","arrival_time":"0:27:00","departure_time":"0:27:00","lat":49.010857,"lon":16.594833,"is_passed":false},{"stop_id":"U15307Z11","name":"Vranovice, žel.st.","arrival_time":"0:31:00","departure_time":"0:32:00","lat":48.964528,"lon":16.604187,"is_passed":false},{"stop_id":"U25401Z11","name":"Pouzdřany","arrival_time":"0:34:00","departure_time":"0:35:00","lat":48.942025,"lon":16.630527,"is_passed":false},{"stop_id":"U25402Z11","name":"Popice","arrival_time":"0:38:00","departure_time":"0:38:00","lat":48.924332,"lon":16.668084,"is_passed":false},{"stop_id":"U15425Z11","name":"Šakvice, železniční stanice","arrival_time":"0:41:00","departure_time":"0:42:00","lat":48.912883,"lon":16.70557,"is_passed":false}],"14705":[{"stop_id":"U15425Z11","name":"Šakvice, železniční stanice","arrival_time":"0:42:00","departure_time":"0:42:00","lat":48.912883,"lon":16.70557,"is_passed":false},{"stop_id":"U15537Z11","name":"Zaječí, železniční stanice","arrival_time":"0:46:00","departure_time":"0:46:00","lat":48.889637,"lon":16.781831,"is_passed":false},{"stop_id":"U25501Z11","name":"Rakvice","arrival_time":"0:49:00","departure_time":"0:50:00","lat":48.866893,"lon":16.821444,"is_passed":false},{"stop_id":"U15619Z11","name":"Podivín, železniční stanice","arrival_time":"0:53:00","departure_time":"0:53:00","lat":48.837726,"lon":16.853526,"is_passed":false},{"stop_id":"U15609Z11","name":"Ladná, železniční stanice","arrival_time":"0:56:00","departure_time":"0:56:00","lat":48.813095,"lon":16.880976,"is_passed":false},{"stop_id":"U15729Z11","name":"Břeclav, autobusové nádraží","arrival_time":"1:02:00","departure_time":"1:10:00","lat":48.753851,"lon":16.893169,"is_passed":false}],"14706":[{"stop_id":"U15729Z11","name":"Břeclav, autobusové nádraží","arrival_time":"1:10:00","departure_time":"1:10:00","lat":48.753851,"lon":16.893169,"is_passed":false},{"stop_id":"U29101Z11","name":"Hrušky zastávka","arrival_time":"1:16:00","departure_time":"1:16:00","lat":48.787328,"lon":16.982583,"is_passed":false},{"stop_id":"U19129Z11","name":"Moravská Nová Ves, železniční stanice","arrival_time":"1:19:00","departure_time":"1:20:00","lat":48.799493,"lon":17.021674,"is_passed":false},{"stop_id":"U19119Z11","name":"Lužice, železniční stanice","arrival_time":"1:23:00","departure_time":"1:23:00","lat":48.827619,"lon":17.061961,"is_passed":false},{"stop_id":"U19001Z21","name":"Hodonín, autobusové nádraží","arrival_time":"1:28:00","departure_time":"1:28:00","lat":48.85575,"lon":17.12069,"is_passed":false}],"14707":[{"stop_id":"U1146Z99","name":"Hlavní nádraží","arrival_time":"8:07:00","departure_time":"8:07:00","lat":49.19035,"lon":16.612342,"is_passed":false},{"stop_id":"U1809Z10","name":"Židenice, nádraží","arrival_time":"8:10:00","departure_time":"8:11:00","lat":49.204282,"lon":16.636042,"is_passed":false},{"stop_id":"U1331Z10","name":"Lesná, nádraží","arrival_time":"8:16:00","departure_time":"8:17:00","lat":49.220432,"lon":16.627505,"is_passed":false},{"stop_id":"U1286Z10","name":"Královo Pole, nádraží","arrival_time":"8:20:00","departure_time":"8:21:00","lat":49.231051,"lon":16.596651,"is_passed":false},{"stop_id":"U13143Z10","name":"Kuřim, železniční stanice","arrival_time":"8:30:00","departure_time":"8:33:00","lat":49.301,"lon":16.534523,"is_passed":false},{"stop_id":"U13334Z20","name":"Tišnov, železniční stanice","arrival_time":"8:43:00","departure_time":"8:45:00","lat":49.3475,"lon":16.41725,"is_passed":false}],"14708":[{"stop_id":"U13334Z20","name":"Tišnov, železniční stanice","arrival_time":"8:45:00","departure_time":"8:45:00","lat":49.3475,"lon":16.41725,"is_passed":false},{"stop_id":"U13506Z10","name":"Doubravník, železniční stanice","arrival_time":"9:00:00","departure_time":"9:01:00","lat":49.426945,"lon":16.352389,"is_passed":false},{"stop_id":"U13520Z1","name":"Nedvědice, železniční stanice","arrival_time":"9:06:00","departure_time":"9:08:00","lat":49.454167,"lon":16.338333,"is_passed":false},{"stop_id":"U13605Z12","name":"Rožná, železniční stanice","arrival_time":"9:20:00","departure_time":"9:20:00","lat":49.472143,"lon":16.245416,"is_passed":false},{"stop_id":"U13701Z12","name":"Bystřice nad Pern., železniční stanice","arrival_time":"9:31:00","departure_time":"9:32:00","lat":49.513611,"lon":16.246667,"is_passed":false},{"stop_id":"U13801Z12","name":"Rozsochy, železniční stanice","arrival_time":"9:39:00","departure_time":"9:39:00","lat":49.537385,"lon":16.195122,"is_passed":false},{"stop_id":"U23801Z2","name":"Rovné-Divišov","arrival_time":"9:42:00","departure_time":"9:43:00","lat":49.547632,"lon":16.172826,"is_passed":false}],"14709":[{"stop_id":"U23801Z1","name":"Rovné-Divišov","arrival_time":"18:14:00","departure_time":"18:14:00","lat":49.547632,"lon":16.172826,"is_passed":false},{"stop_id":"U13801Z11","name":"Rozsochy, železniční stanice","arrival_time":"18:17:00","departure_time":"18:17:00","lat":49.537385,"lon":16.195122,"is_passed":false},{"stop_id":"U13701Z11","name":"Bystřice nad Pern., železniční stanice","arrival_time":"18:25:00","departure_time":"18:26:00","lat":49.513611,"lon":16.246667,"is_passed":false},{"stop_id":"U13605Z11","name":"Rožná, železniční stanice","arrival_time":"18:35:00","departure_time":"18:36:00","lat":49.472143,"lon":16.245416,"is_passed":false},{"stop_id":"U13520Z2","name":"Nedvědice, železniční stanice","arrival_time":"18:48:00","departure_time":"18:49:00","lat":49.454167,"lon":16.338333,"is_passed":false},{"stop_id":"U13506Z11","name":"Doubravník, železniční stanice","arrival_time":"18:54:00","departure_time":"18:55:00","lat":49.426945,"lon":16.352389,"is_passed":false},{"stop_id":"U13334Z21","name":"Tišnov, železniční stanice","arrival_time":"19:11:00","departure_time":"19:12:00","lat":49.3475,"lon":16.41725,"is_passed":false}],"14710":[{"stop_id":"U13334Z21","name":"Tišnov, železniční stanice","arrival_time":"19:12:00","departure_time":"19:12:00","lat":49.3475,"lon":16.41725,"is_passed":false},{"stop_id":"U13143Z11","name":"Kuřim, železniční stanice","arrival_time":"19:22:00","departure_time":"19:23:00","lat":49.301,"lon":16.534523,"is_passed":false},{"stop_id":"U1286Z11","name":"Královo Pole, nádraží","arrival_time":"19:32:00","departure_time":"19:34:00","lat":49.231051,"lon":16.596651,"is_passed":false},{"stop_id":"U1331Z11","name":"Lesná, nádraží","arrival_time":"19:37:00","departure_time":"19:37:00","lat":49.220432,"lon":16.627505,"is_passed":false},{"stop_id":"U1809Z11","name":"Židenice, nádraží","arrival_time":"19:43:00","departure_time":"19:43:00","lat":49.204282,"lon":16.636042,"is_passed":false},{"stop_id":"U1146Z98","name":"Hlavní nádraží","arrival_time":"19:49:00","departure_time":"19:49:00","lat":49.19035,"lon":16.612342,"is_passed":false}],"14711":[{"stop_id":"U13701Z12","name":"Bystřice nad Pern., železniční stanice","arrival_time":"6:32:00","departure_time":"6:32:00","lat":49.513611,"lon":16.246667,"is_passed":false},{"stop_id":"U13801Z12","name":"Rozsochy, železniční stanice","arrival_time":"6:39:00","departure_time":"6:39:00","lat":49.537385,"lon":16.195122,"is_passed":false},{"stop_id":"U23801Z2","name":"Rovné-Divišov","arrival_time":"6:42:00","departure_time":"6:42:00","lat":49.547632,"lon":16.172826,"is_passed":false}],"14712":[{"stop_id":"U23801Z1","name":"Rovné-Divišov","arrival_time":"9:13:00","departure_time":"9:13:00","lat":49.547632,"lon":16.172826,"is_passed":false},{"stop_id":"U13801Z11","name":"Rozsochy, železniční stanice","arrival_time":"9:16:00","departure_time":"9:16:00","lat":49.537385,"lon":16.195122,"is_passed":false},{"stop_id":"U13701Z11","name":"Bystřice nad Pern., železniční stanice","arrival_time":"9:24:00","departure_time":"9:35:00","lat":49.513611,"lon":16.246667,"is_passed":false},{"stop_id":"U13605Z11","name":"Rožná, železniční stanice","arrival_time":"9:44:00","departure_time":"9:45:00","lat":49.472143,"lon":16.245416,"is_passed":false},{"stop_id":"U23601Z1","name":"Věžná","arrival_time":"9:49:00","departure_time":"9:49:00","lat":49.451547,"lon":16.270316,"is_passed":false},{"stop_id":"U13520Z2","name":"Nedvědice, železniční stanice","arrival_time":"9:58:00","departure_time":"10:01:00","lat":49.454167,"lon":16.338333,"is_passed":false},{"stop_id":"U13506Z11","name":"Doubravník, železniční stanice","arrival_time":"10:06:00","departure_time":"10:07:00","lat":49.426945,"lon":16.352389,"is_passed":false},{"stop_id":"U13464Z2","name":"Prudká zastávka","arrival_time":"10:10:00","departure_time":"10:10:00","lat":49.419195,"lon":16.367361,"is_passed":false},{"stop_id":"U13463Z2","name":"Borač, žel. st.","arrival_time":"10:14:00","departure_time":"10:14:00","lat":49.400689,"lon":16.366288,"is_passed":false},{"stop_id":"U13462Z2","name":"Štěpánovice","arrival_time":"10:19:00","departure_time":"10:19:00","lat":49.373054,"lon":16.389952,"is_passed":false},{"stop_id":"U13334Z21","name":"Tišnov, železniční stanice","arrival_time":"10:25:00","departure_time":"10:25:00","lat":49.3475,"lon":16.41725,"is_passed":false}],"14713":[{"stop_id":"U23801Z1","name":"Rovné-Divišov","arrival_time":"7:13:00","departure_time":"7:13:00","lat":49.547632,"lon":16.172826,"is_passed":false},{"stop_id":"U13801Z11","name":"Rozsochy, železniční stanice","arrival_time":"7:16:00","departure_time":"7:16:00","lat":49.537385,"lon":16.195122,"is_passed":false},{"stop_id":"U13701Z11","name":"Bystřice nad Pern., železniční stanice","arrival_time":"7:24:00","departure_time":"7:35:00","lat":49.513611,"lon":16.246667,"is_passed":false},{"stop_id":"U13605Z11","name":"Rožná, železniční stanice","arrival_time":"7:44:00","departure_time":"7:45:00","lat":49.472143,"lon":16.245416,"is_passed":false},{"stop_id":"U23601Z1","name":"Věžná","arrival_time":"7:49:00","departure_time":"7:49:00","lat":49.451547,"lon":16.270316,"is_passed":false},{"stop_id":"U13520Z2","name":"Nedvědice, železniční stanice","arrival_time":"7:58:00","departure_time":"8:01:00","lat":49.454167,"lon":16.338333,"is_passed":false},{"stop_id":"U13506Z11","name":"Doubravník, železniční stanice","arrival_time":"8:06:00","departure_time":"8:07:00","lat":49.426945,"lon":16.352389,"is_passed":false},{"stop_id":"U13464Z2","name":"Prudká zastávka","arrival_time":"8:10:00","departure_time":"8:10:00","lat":49.419195,"lon":16.367361,"is_passed":false},{"stop_id":"U13463Z2","name":"Borač, žel. st.","arrival_time":"8:14:00","departure_time":"8:14:00","lat":49.400689,"lon":16.366288,"is_passed":false},{"stop_id":"U13462Z2","name":"Štěpánovice","arrival_time":"8:19:00","departure_time":"8:19:00","lat":49.373054,"lon":16.389952,"is_passed":false},{"stop_id":"U13334Z21","name":"Tišnov, železniční stanice","arrival_time":"8:25:00","departure_time":"9:33:00","lat":49.3475,"lon":16.41725,"is_passed":false}],"14714":[{"stop_id":"U13334Z20","name":"Tišnov, železniční stanice","arrival_time":"9:33:00","departure_time":"9:33:00","lat":49.3475,"lon":16.41725,"is_passed":false},{"stop_id":"U13462Z1","name":"Štěpánovice","arrival_time":"9:37:00","departure_time":"9:37:00","lat":49.373141,"lon":16.389854,"is_passed":false},{"stop_id":"U13463Z1","name":"Borač, žel. st.","arrival_time":"9:42:00","departure_time":"9:43:00","lat":49.400768,"lon":16.366252,"is_passed":false},{"stop_id":"U13464Z1","name":"Prudká zastávka","arrival_time":"9:46:00","departure_time":"9:46:00","lat":49.419195,"lon":16.367361,"is_passed":false},{"stop_id":"U13506Z10","name":"Doubravník, železniční stanice","arrival_time":"9:50:00","departure_time":"9:50:00","lat":49.426945,"lon":16.352389,"is_passed":false},{"stop_id":"U13520Z1","name":"Nedvědice, železniční stanice","arrival_time":"9:56:00","departure_time":"10:01:00","lat":49.454167,"lon":16.338333,"is_passed":false},{"stop_id":"U23601Z2","name":"Věžná","arrival_time":"10:09:00","departure_time":"10:09:00","lat":49.451547,"lon":16.270316,"is_passed":false},{"stop_id":"U13605Z12","name":"Rožná, železniční stanice","arrival_time":"10:13:00","departure_time":"10:14:00","lat":49.472143,"lon":16.245416,"is_passed":false},{"stop_id":"U13701Z12","name":"Bystřice nad Pern., železniční stanice","arrival_time":"10:25:00","departure_time":"10:32:00","lat":49.513611,"lon":16.246667,"is_passed":false},{"stop_id":"U13801Z12","name":"Rozsochy, železniční stanice","arrival_time":"10:39:00","departure_time":"10:39:00","lat":49.537385,"lon":16.195122,"is_passed":false},{"stop_id":"U23801Z2","name":"Rovné-Divišov","arrival_time":"10:42:00","departure_time":"10:42:00","lat":49.547632,"lon":16.172826,"is_passed":false}],"14715":[{"stop_id":"U23801Z1","name":"Rovné-Divišov","arrival_time":"13:13:00","departure_time":"13:13:00","lat":49.547632,"lon":16.172826,"is_passed":false},{"stop_id":"U13801Z11","name":"Rozsochy, železniční stanice","arrival_time":"13:16:00","departure_time":"13:16:00","lat":49.537385,"lon":16.195122,"is_passed":false},{"stop_id":"U13701Z11","name":"Bystřice nad Pern., železniční stanice","arrival_time":"13:24:00","departure_time":"13:35:00","lat":49.513611,"lon":16.246667,"is_passed":false},{"stop_id":"U13605Z11","name":"Rožná, železniční stanice","arrival_time":"13:44:00","departure_time":"13:45:00","lat":49.472143,"lon":16.245416,"is_passed":false},{"stop_id":"U23601Z1","name":"Věžná","arrival_time":"13:49:00","departure_time":"13:49:00","lat":49.451547,"lon":16.270316,"is_passed":false},{"stop_id":"U13520Z2","name":"Nedvědice, železniční stanice","arrival_time":"13:58:00","departure_time":"14:01:00","lat":49.454167,"lon":16.338333,"is_passed":false},{"stop_id":"U13506Z11","name":"Doubravník, železniční stanice","arrival_time":"14:06:00","departure_time":"14:07:00","lat":49.426945,"lon":16.352389,"is_passed":false},{"stop_id":"U13464Z2","name":"Prudká zastávka","arrival_time":"14:10:00","departure_time":"14:10:00","lat":49.419195,"lon":16.367361,"is_passed":false},{"stop_id":"U13463Z2","name":"Borač, žel. st.","arrival_time":"14:14:00","departure_time":"14:14:00","lat":49.400689,"lon":16.366288,"is_passed":false},{"stop_id":"U13462Z2","name":"Štěpánovice","arrival_time":"14:19:00","departure_time":"14:19:00","lat":49.373054,"lon":16.389952,"is_passed":false},{"stop_id":"U13334Z21","name":"Tišnov, železniční stanice","arrival_time":"14:25:00","departure_time":"14:33:00","lat":49.3475,"lon":16.41725,"is_passed":false}],"14716":[{"stop_id":"U13334Z20","name":"Tišnov, železniční stanice","arrival_time":"14:33:00","departure_time":"14:33:00","lat":49.3475,"lon":16.41725,"is_passed":false},{"stop_id":"U13462Z1","name":"Štěpánovice","arrival_time":"14:37:00","departure_time":"14:37:00","lat":49.373141,"lon":16.389854,"is_passed":false},{"stop_id":"U13463Z1","name":"Borač, žel. st.","arrival_time":"14:42:00","departure_time":"14:43:00","lat":49.400768,"lon":16.366252,"is_passed":false},{"stop_id":"U13464Z1","name":"Prudká zastávka","arrival_time":"14:46:00","departure_time":"14:46:00","lat":49.419195,"lon":16.367361,"is_passed":false},{"stop_id":"U13506Z10","name":"Doubravník, železniční stanice","arrival_time":"14:50:00","departure_time":"14:50:00","lat":49.426945,"lon":16.352389,"is_passed":false},{"stop_id":"U13520Z1","name":"Nedvědice, železniční stanice","arrival_time":"14:56:00","departure_time":"15:01:00","lat":49.454167,"lon":16.338333,"is_passed":false}],"14717":[{"stop_id":"U13520Z2","name":"Nedvědice, železniční stanice","arrival_time":"15:01:00","departure_time":"15:01:00","lat":49.454167,"lon":16.338333,"is_passed":false},{"stop_id":"U13506Z11","name":"Doubravník, železniční stanice","arrival_time":"15:06:00","departure_time":"15:07:00","lat":49.426945,"lon":16.352389,"is_passed":false},{"stop_id":"U13464Z2","name":"Prudká zastávka","arrival_time":"15:10:00","departure_time":"15:10:00","lat":49.419195,"lon":16.367361,"is_passed":false},{"stop_id":"U13463Z2","name":"Borač, žel. st.","arrival_time":"15:14:00","departure_time":"15:14:00","lat":49.400689,"lon":16.366288,"is_passed":false},{"stop_id":"U13462Z2","name":"Štěpánovice","arrival_time":"15:19:00","departure_time":"15:19:00","lat":49.373054,"lon":16.389952,"is_passed":false},{"stop_id":"U13334Z21","name":"Tišnov, železniční stanice","arrival_time":"15:25:00","departure_time":"15:33:00","lat":49.3475,"lon":16.41725,"is_passed":false}],"14718":[{"stop_id":"U13334Z20","name":"Tišnov, železniční stanice","arrival_time":"15:33:00","departure_time":"15:33:00","lat":49.3475,"lon":16.41725,"is_passed":false},{"stop_id":"U13462Z1","name":"Štěpánovice","arrival_time":"15:37:00","departure_time":"15:37:00","lat":49.373141,"lon":16.389854,"is_passed":false},{"stop_id":"U13463Z1","name":"Borač, žel. st.","arrival_time":"15:42:00","departure_time":"15:43:00","lat":49.400768,"lon":16.366252,"is_passed":false},{"stop_id":"U13464Z1","name":"Prudká zastávka","arrival_time":"15:46:00","departure_time":"15:46:00","lat":49.419195,"lon":16.367361,"is_passed":false},{"stop_id":"U13506Z10","name":"Doubravník, železniční stanice","arrival_time":"15:50:00","departure_time":"15:50:00","lat":49.426945,"lon":16.352389,"is_passed":false},{"stop_id":"U13520Z1","name":"Nedvědice, železniční stanice","arrival_time":"15:56:00","departure_time":"16:01:00","lat":49.454167,"lon":16.338333,"is_passed":false},{"stop_id":"U23601Z2","name":"Věžná","arrival_time":"16:09:00","departure_time":"16:09:00","lat":49.451547,"lon":16.270316,"is_passed":false},{"stop_id":"U13605Z12","name":"Rožná, železniční stanice","arrival_time":"16:13:00","departure_time":"16:14:00","lat":49.472143,"lon":16.245416,"is_passed":false},{"stop_id":"U13701Z12","name":"Bystřice nad Pern., železniční stanice","arrival_time":"16:25:00","departure_time":"16:32:00","lat":49.513611,"lon":16.246667,"is_passed":false},{"stop_id":"U13801Z12","name":"Rozsochy, železniční stanice","arrival_time":"16:39:00","departure_time":"16:39:00","lat":49.537385,"lon":16.195122,"is_passed":false},{"stop_id":"U23801Z2","name":"Rovné-Divišov","arrival_time":"16:42:00","departure_time":"16:42:00","lat":49.547632,"lon":16.172826,"is_passed":false}],"14719":[{"stop_id":"U23801Z1","name":"Rovné-Divišov","arrival_time":"19:13:00","departure_time":"19:13:00","lat":49.547632,"lon":16.172826,"is_passed":false},{"stop_id":"U13801Z11","name":"Rozsochy, železniční stanice","arrival_time":"19:16:00","departure_time":"19:16:00","lat":49.537385,"lon":16.195122,"is_passed":false},{"stop_id":"U13701Z11","name":"Bystřice nad Pern., železniční stanice","arrival_time":"19:24:00","departure_time":"19:35:00","lat":49.513611,"lon":16.246667,"is_passed":false}],"14720":[{"stop_id":"U13701Z11","name":"Bystřice nad Pern., železniční stanice","arrival_time":"19:35:00","departure_time":"19:35:00","lat":49.513611,"lon":16.246667,"is_passed":false},{"stop_id":"U13605Z11","name":"Rožná, železniční stanice","arrival_time":"19:44:00","departure_time":"19:45:00","lat":49.472143,"lon":16.245416,"is_passed":false},{"stop_id":"U23601Z1","name":"Věžná","arrival_time":"19:49:00","departure_time":"19:49:00","lat":49.451547,"lon":16.270316,"is_passed":false},{"stop_id":"U13520Z2","name":"Nedvědice, železniční stanice","arrival_time":"19:58:00","departure_time":"20:01:00","lat":49.454167,"lon":16.338333,"is_passed":false},{"stop_id":"U13506Z11","name":"Doubravník, železniční stanice","arrival_time":"20:06:00","departure_time":"20:07:00","lat":49.426945,"lon":16.352389,"is_passed":false},{"stop_id":"U13464Z2","name":"Prudká zastávka","arrival_time":"20:10:00","departure_time":"20:10:00","lat":49.419195,"lon":16.367361,"is_passed":false},{"stop_id":"U13463Z2","name":"Borač, žel. st.","arrival_time":"20:14:00","departure_time":"20:14:00","lat":49.400689,"lon":16.366288,"is_passed":false},{"stop_id":"U13462Z2","name":"Štěpánovice","arrival_time":"20:19:00","departure_time":"20:19:00","lat":49.373054,"lon":16.389952,"is_passed":false},{"stop_id":"U13334Z21","name":"Tišnov, železniční stanice","arrival_time":"20:26:00","departure_time":"21:33:00","lat":49.3475,"lon":16.41725,"is_passed":false}],"14721":[{"stop_id":"U13334Z20","name":"Tišnov, železniční stanice","arrival_time":"21:33:00","departure_time":"21:33:00","lat":49.3475,"lon":16.41725,"is_passed":false},{"stop_id":"U13462Z1","name":"Štěpánovice","arrival_time":"21:37:00","departure_time":"21:37:00","lat":49.373141,"lon":16.389854,"is_passed":false},{"stop_id":"U13463Z1","name":"Borač, žel. st.","arrival_time":"21:42:00","departure_time":"21:43:00","lat":49.400768,"lon":16.366252,"is_passed":false},{"stop_id":"U13464Z1","name":"Prudká zastávka","arrival_time":"21:46:00","departure_time":"21:46:00","lat":49.419195,"lon":16.367361,"is_passed":false},{"stop_id":"U13506Z10","name":"Doubravník, železniční stanice","arrival_time":"21:50:00","departure_time":"21:50:00","lat":49.426945,"lon":16.352389,"is_passed":false},{"stop_id":"U13520Z1","name":"Nedvědice, železniční stanice","arrival_time":"21:56:00","departure_time":"21:56:00","lat":49.454167,"lon":16.338333,"is_passed":false}],"14722":[{"stop_id":"U1146Z98","name":"Hlavní nádraží","arrival_time":"4:20:00","departure_time":"4:20:00","lat":49.19035,"lon":16.612342,"is_passed":false},{"stop_id":"U11002Z11","name":"Brno-Horní Heršpice","arrival_time":"4:24:00","departure_time":"4:24:00","lat":49.167404,"lon":16.60686,"is_passed":false},{"stop_id":"U15140Z11","name":"Modřice, železniční stanice","arrival_time":"4:27:00","departure_time":"4:28:00","lat":49.133256,"lon":16.606209,"is_passed":false},{"stop_id":"U15135Z11","name":"Popovice, u tratě","arrival_time":"4:31:00","departure_time":"4:32:00","lat":49.103463,"lon":16.605647,"is_passed":false},{"stop_id":"U15181Z11","name":"Rajhrad, železniční stanice","arrival_time":"4:34:00","departure_time":"4:35:00","lat":49.084966,"lon":16.60532,"is_passed":false},{"stop_id":"U25201Z11","name":"Vojkovice nad Svratkou, žel. st.","arrival_time":"4:38:00","departure_time":"4:38:00","lat":49.056208,"lon":16.597445,"is_passed":false},{"stop_id":"U15222Z11","name":"Hrušovany u Brna, žel. st.","arrival_time":"4:41:00","departure_time":"4:42:00","lat":49.034228,"lon":16.591501,"is_passed":false},{"stop_id":"U15306Z11","name":"Žabčice, žel. st.","arrival_time":"4:44:00","departure_time":"4:44:00","lat":49.010857,"lon":16.594833,"is_passed":false},{"stop_id":"U15307Z11","name":"Vranovice, žel.st.","arrival_time":"4:48:00","departure_time":"4:49:00","lat":48.964528,"lon":16.604187,"is_passed":false},{"stop_id":"U25401Z11","name":"Pouzdřany","arrival_time":"4:51:00","departure_time":"4:52:00","lat":48.942025,"lon":16.630527,"is_passed":false},{"stop_id":"U25402Z11","name":"Popice","arrival_time":"4:55:00","departure_time":"4:55:00","lat":48.924332,"lon":16.668084,"is_passed":false},{"stop_id":"U15425Z11","name":"Šakvice, železniční stanice","arrival_time":"4:58:00","departure_time":"4:59:00","lat":48.912883,"lon":16.70557,"is_passed":false}],"14723":[{"stop_id":"U15425Z11","name":"Šakvice, železniční stanice","arrival_time":"4:59:00","departure_time":"4:59:00","lat":48.912883,"lon":16.70557,"is_passed":false},{"stop_id":"U15537Z11","name":"Zaječí, železniční stanice","arrival_time":"5:03:00","departure_time":"5:04:00","lat":48.889637,"lon":16.781831,"is_passed":false},{"stop_id":"U25501Z11","name":"Rakvice","arrival_time":"5:07:00","departure_time":"5:07:00","lat":48.866893,"lon":16.821444,"is_passed":false},{"stop_id":"U15619Z11","name":"Podivín, železniční stanice","arrival_time":"5:10:00","departure_time":"5:11:00","lat":48.837726,"lon":16.853526,"is_passed":false},{"stop_id":"U15609Z11","name":"Ladná, železniční stanice","arrival_time":"5:14:00","departure_time":"5:14:00","lat":48.813095,"lon":16.880976,"is_passed":false},{"stop_id":"U15729Z11","name":"Břeclav, autobusové nádraží","arrival_time":"5:20:00","departure_time":"5:45:00","lat":48.753851,"lon":16.893169,"is_passed":false}],"14724":[{"stop_id":"U15729Z10","name":"Břeclav, autobusové nádraží","arrival_time":"5:45:00","departure_time":"5:45:00","lat":48.753851,"lon":16.893169,"is_passed":false},{"stop_id":"U15609Z10","name":"Ladná, železniční stanice","arrival_time":"5:50:00","departure_time":"5:50:00","lat":48.813095,"lon":16.880976,"is_passed":false},{"stop_id":"U15619Z10","name":"Podivín, železniční stanice","arrival_time":"5:54:00","departure_time":"5:55:00","lat":48.837726,"lon":16.853526,"is_passed":false},{"stop_id":"U25501Z10","name":"Rakvice","arrival_time":"5:58:00","departure_time":"5:58:00","lat":48.866893,"lon":16.821444,"is_passed":false},{"stop_id":"U15537Z10","name":"Zaječí, železniční stanice","arrival_time":"6:01:00","departure_time":"6:02:00","lat":48.889637,"lon":16.781831,"is_passed":false},{"stop_id":"U15425Z10","name":"Šakvice, železniční stanice","arrival_time":"6:06:00","departure_time":"7:03:00","lat":48.912883,"lon":16.70557,"is_passed":false}],"14725":[{"stop_id":"U15425Z11","name":"Šakvice, železniční stanice","arrival_time":"7:03:00","departure_time":"7:03:00","lat":48.912883,"lon":16.70557,"is_passed":false},{"stop_id":"U15537Z11","name":"Zaječí, železniční stanice","arrival_time":"7:07:00","departure_time":"7:07:00","lat":48.889637,"lon":16.781831,"is_passed":false},{"stop_id":"U25501Z11","name":"Rakvice","arrival_time":"7:10:00","departure_time":"7:11:00","lat":48.866893,"lon":16.821444,"is_passed":false},{"stop_id":"U15619Z11","name":"Podivín, železniční stanice","arrival_time":"7:14:00","departure_time":"7:15:00","lat":48.837726,"lon":16.853526,"is_passed":false},{"stop_id":"U15609Z11","name":"Ladná, železniční stanice","arrival_time":"7:18:00","departure_time":"7:18:00","lat":48.813095,"lon":16.880976,"is_passed":false},{"stop_id":"U15729Z11","name":"Břeclav, autobusové nádraží","arrival_time":"7:24:00","departure_time":"8:33:00","lat":48.753851,"lon":16.893169,"is_passed":false}],"14726":[{"stop_id":"U15729Z10","name":"Břeclav, autobusové nádraží","arrival_time":"8:33:00","departure_time":"8:33:00","lat":48.753851,"lon":16.893169,"is_passed":false},{"stop_id":"U15609Z10","name":"Ladná, železniční stanice","arrival_time":"8:38:00","departure_time":"8:38:00","lat":48.813095,"lon":16.880976,"is_passed":false},{"stop_id":"U15619Z10","name":"Podivín, železniční stanice","arrival_time":"8:42:00","departure_time":"8:43:00","lat":48.837726,"lon":16.853526,"is_passed":false},{"stop_id":"U25501Z10","name":"Rakvice","arrival_time":"8:46:00","departure_time":"8:46:00","lat":48.866893,"lon":16.821444,"is_passed":false},{"stop_id":"U15537Z10","name":"Zaječí, železniční stanice","arrival_time":"8:49:00","departure_time":"8:50:00","lat":48.889637,"lon":16.781831,"is_passed":false},{"stop_id":"U15425Z10","name":"Šakvice, železniční stanice","arrival_time":"8:54:00","departure_time":"9:02:00","lat":48.912883,"lon":16.70557,"is_passed":false}],"14727":[{"stop_id":"U15425Z11","name":"Šakvice, železniční stanice","arrival_time":"9:02:00","departure_time":"9:02:00","lat":48.912883,"lon":16.70557,"is_passed":false},{"stop_id":"U15537Z11","name":"Zaječí, železniční stanice","arrival_time":"9:06:00","departure_time":"9:10:00","lat":48.889637,"lon":16.781831,"is_passed":false},{"stop_id":"U25501Z11","name":"Rakvice","arrival_time":"9:13:00","departure_time":"9:14:00","lat":48.866893,"lon":16.821444,"is_passed":false},{"stop_id":"U15619Z11","name":"Podivín, železniční stanice","arrival_time":"9:17:00","departure_time":"9:18:00","lat":48.837726,"lon":16.853526,"is_passed":false},{"stop_id":"U15609Z11","name":"Ladná, železniční stanice","arrival_time":"9:21:00","departure_time":"9:21:00","lat":48.813095,"lon":16.880976,"is_passed":false},{"stop_id":"U15729Z11","name":"Břeclav, autobusové nádraží","arrival_time":"9:27:00","departure_time":"9:27:00","lat":48.753851,"lon":16.893169,"is_passed":false}],"14728":[{"stop_id":"U15729Z11","name":"Břeclav, autobusové nádraží","arrival_time":"9:35:00","departure_time":"9:35:00","lat":48.753851,"lon":16.893169,"is_passed":false},{"stop_id":"U29101Z11","name":"Hrušky zastávka","arrival_time":"9:41:00","departure_time":"9:41:00","lat":48.787328,"lon":16.982583,"is_passed":false},{"stop_id":"U19129Z11","name":"Moravská Nová Ves, železniční stanice","arrival_time":"9:44:00","departure_time":"9:45:00","lat":48.799493,"lon":17.021674,"is_passed":false},{"stop_id":"U19119Z11","name":"Lužice, železniční stanice","arrival_time":"9:48:00","departure_time":"9:48:00","lat":48.827619,"lon":17.061961,"is_passed":false},{"stop_id":"U19001Z21","name":"Hodonín, autobusové nádraží","arrival_time":"9:53:00","departure_time":"10:07:00","lat":48.85575,"lon":17.12069,"is_passed":false}],"14729":[{"stop_id":"U19001Z20","name":"Hodonín, autobusové nádraží","arrival_time":"10:07:00","departure_time":"10:07:00","lat":48.85575,"lon":17.12069,"is_passed":false},{"stop_id":"U19119Z10","name":"Lužice, železniční stanice","arrival_time":"10:11:00","departure_time":"10:12:00","lat":48.827619,"lon":17.061961,"is_passed":false},{"stop_id":"U19129Z10","name":"Moravská Nová Ves, železniční stanice","arrival_time":"10:15:00","departure_time":"10:16:00","lat":48.799493,"lon":17.021674,"is_passed":false},{"stop_id":"U29101Z10","name":"Hrušky zastávka","arrival_time":"10:19:00","departure_time":"10:19:00","lat":48.786692,"lon":16.980171,"is_passed":false},{"stop_id":"U15729Z10","name":"Břeclav, autobusové nádraží","arrival_time":"10:25:00","departure_time":"10:25:00","lat":48.753851,"lon":16.893169,"is_passed":false}],"14730":[{"stop_id":"U15729Z10","name":"Břeclav, autobusové nádraží","arrival_time":"10:33:00","departure_time":"10:33:00","lat":48.753851,"lon":16.893169,"is_passed":false},{"stop_id":"U15609Z10","name":"Ladná, železniční stanice","arrival_time":"10:38:00","departure_time":"10:38:00","lat":48.813095,"lon":16.880976,"is_passed":false},{"stop_id":"U15619Z10","name":"Podivín, železniční stanice","arrival_time":"10:42:00","departure_time":"10:43:00","lat":48.837726,"lon":16.853526,"is_passed":false},{"stop_id":"U25501Z10","name":"Rakvice","arrival_time":"10:46:00","departure_time":"10:46:00","lat":48.866893,"lon":16.821444,"is_passed":false},{"stop_id":"U15537Z10","name":"Zaječí, železniční stanice","arrival_time":"10:49:00","departure_time":"10:50:00","lat":48.889637,"lon":16.781831,"is_passed":false},{"stop_id":"U15425Z10","name":"Šakvice, železniční stanice","arrival_time":"10:54:00","departure_time":"11:03:00","lat":48.912883,"lon":16.70557,"is_passed":false}],"14731":[{"stop_id":"U15425Z11","name":"Šakvice, železniční stanice","arrival_time":"11:03:00","departure_time":"11:03:00","lat":48.912883,"lon":16.70557,"is_passed":false},{"stop_id":"U15537Z11","name":"Zaječí, železniční stanice","arrival_time":"11:07:00","departure_time":"11:08:00","lat":48.889637,"lon":16.781831,"is_passed":false},{"stop_id":"U25501Z11","name":"Rakvice","arrival_time":"11:11:00","departure_time":"11:11:00","lat":48.866893,"lon":16.821444,"is_passed":false},{"stop_id":"U15619Z11","name":"Podivín, železniční stanice","arrival_time":"11:14:00","departure_time":"11:15:00","lat":48.837726,"lon":16.853526,"is_passed":false},{"stop_id":"U15609Z11","name":"Ladná, železniční stanice","arrival_time":"11:18:00","departure_time":"11:18:00","lat":48.813095,"lon":16.880976,"is_passed":false},{"stop_id":"U15729Z11","name":"Břeclav, autobusové nádraží","arrival_time":"11:24:00","departure_time":"11:24:00","lat":48.753851,"lon":16.893169,"is_passed":false}],"14732":[{"stop_id":"U15729Z11","name":"Břeclav, autobusové nádraží","arrival_time":"11:35:00","departure_time":"11:35:00","lat":48.753851,"lon":16.893169,"is_passed":false},{"stop_id":"U29101Z11","name":"Hrušky zastávka","arrival_time":"11:40:00","departure_time":"11:41:00","lat":48.787328,"lon":16.982583,"is_passed":false},{"stop_id":"U19129Z11","name":"Moravská Nová Ves, železniční stanice","arrival_time":"11:44:00","departure_time":"11:45:00","lat":48.799493,"lon":17.021674,"is_passed":false},{"stop_id":"U19119Z11","name":"Lužice, železniční stanice","arrival_time":"11:48:00","departure_time":"11:48:00","lat":48.827619,"lon":17.061961,"is_passed":false},{"stop_id":"U19001Z21","name":"Hodonín, autobusové nádraží","arrival_time":"11:53:00","departure_time":"12:07:00","lat":48.85575,"lon":17.12069,"is_passed":false}],"14733":[{"stop_id":"U19001Z20","name":"Hodonín, autobusové nádraží","arrival_time":"12:07:00","departure_time":"12:07:00","lat":48.85575,"lon":17.12069,"is_passed":false},{"stop_id":"U19119Z10","name":"Lužice, železniční stanice","arrival_time":"12:11:00","departure_time":"12:12:00","lat":48.827619,"lon":17.061961,"is_passed":false},{"stop_id":"U19129Z10","name":"Moravská Nová Ves, železniční stanice","arrival_time":"12:15:00","departure_time":"12:16:00","lat":48.799493,"lon":17.021674,"is_passed":false},{"stop_id":"U29101Z10","name":"Hrušky zastávka","arrival_time":"12:19:00","departure_time":"12:19:00","lat":48.786692,"lon":16.980171,"is_passed":false},{"stop_id":"U15729Z10","name":"Břeclav, autobusové nádraží","arrival_time":"12:25:00","departure_time":"12:25:00","lat":48.753851,"lon":16.893169,"is_passed":false}],"14734":[{"stop_id":"U15729Z10","name":"Břeclav, autobusové nádraží","arrival_time":"12:33:00","departure_time":"12:33:00","lat":48.753851,"lon":16.893169,"is_passed":false},{"stop_id":"U15609Z10","name":"Ladná, železniční stanice","arrival_time":"12:38:00","departure_time":"12:38:00","lat":48.813095,"lon":16.880976,"is_passed":false},{"stop_id":"U15619Z10","name":"Podivín, železniční stanice","arrival_time":"12:42:00","departure_time":"12:43:00","lat":48.837726,"lon":16.853526,"is_passed":false},{"stop_id":"U25501Z10","name":"Rakvice","arrival_time":"12:46:00","departure_time":"12:46:00","lat":48.866893,"lon":16.821444,"is_passed":false},{"stop_id":"U15537Z10","name":"Zaječí, železniční stanice","arrival_time":"12:49:00","departure_time":"12:50:00","lat":48.889637,"lon":16.781831,"is_passed":false},{"stop_id":"U15425Z10","name":"Šakvice, železniční stanice","arrival_time":"12:54:00","departure_time":"13:03:00","lat":48.912883,"lon":16.70557,"is_passed":false}],"14735":[{"stop_id":"U15425Z11","name":"Šakvice, železniční stanice","arrival_time":"13:03:00","departure_time":"13:03:00","lat":48.912883,"lon":16.70557,"is_passed":false},{"stop_id":"U15537Z11","name":"Zaječí, železniční stanice","arrival_time":"13:07:00","departure_time":"13:08:00","lat":48.889637,"lon":16.781831,"is_passed":false},{"stop_id":"U25501Z11","name":"Rakvice","arrival_time":"13:11:00","departure_time":"13:11:00","lat":48.866893,"lon":16.821444,"is_passed":false},{"stop_id":"U15619Z11","name":"Podivín, železniční stanice","arrival_time":"13:14:00","departure_time":"13:15:00","lat":48.837726,"lon":16.853526,"is_passed":false},{"stop_id":"U15609Z11","name":"Ladná, železniční stanice","arrival_time":"13:18:00","departure_time":"13:18:00","lat":48.813095,"lon":16.880976,"is_passed":false},{"stop_id":"U15729Z11","name":"Břeclav, autobusové nádraží","arrival_time":"13:24:00","departure_time":"13:24:00","lat":48.753851,"lon":16.893169,"is_passed":false}],"14736":[{"stop_id":"U15729Z11","name":"Břeclav, autobusové nádraží","arrival_time":"13:35:00","departure_time":"13:35:00","lat":48.753851,"lon":16.893169,"is_passed":false},{"stop_id":"U29101Z11","name":"Hrušky zastávka","arrival_time":"13:41:00","departure_time":"13:41:00","lat":48.787328,"lon":16.982583,"is_passed":false},{"stop_id":"U19129Z11","name":"Moravská Nová Ves, železniční stanice","arrival_time":"13:44:00","departure_time":"13:45:00","lat":48.799493,"lon":17.021674,"is_passed":false},{"stop_id":"U19119Z11","name":"Lužice, železniční stanice","arrival_time":"13:48:00","departure_time":"13:48:00","lat":48.827619,"lon":17.061961,"is_passed":false},{"stop_id":"U19001Z21","name":"Hodonín, autobusové nádraží","arrival_time":"13:53:00","departure_time":"14:07:00","lat":48.85575,"lon":17.12069,"is_passed":false}],"14737":[{"stop_id":"U19001Z20","name":"Hodonín, autobusové nádraží","arrival_time":"14:07:00","departure_time":"14:07:00","lat":48.85575,"lon":17.12069,"is_passed":false},{"stop_id":"U19119Z10","name":"Lužice, železniční stanice","arrival_time":"14:11:00","departure_time":"14:12:00","lat":48.827619,"lon":17.061961,"is_passed":false},{"stop_id":"U19129Z10","name":"Moravská Nová Ves, železniční stanice","arrival_time":"14:15:00","departure_time":"14:16:00","lat":48.799493,"lon":17.021674,"is_passed":false},{"stop_id":"U29101Z10","name":"Hrušky zastávka","arrival_time":"14:19:00","departure_time":"14:19:00","lat":48.786692,"lon":16.980171,"is_passed":false},{"stop_id":"U15729Z10","name":"Břeclav, autobusové nádraží","arrival_time":"14:25:00","departure_time":"14:25:00","lat":48.753851,"lon":16.893169,"is_passed":false}],"14738":[{"stop_id":"U15729Z10","name":"Břeclav, autobusové nádraží","arrival_time":"14:35:00","departure_time":"14:35:00","lat":48.753851,"lon":16.893169,"is_passed":false},{"stop_id":"U15609Z10","name":"Ladná, železniční stanice","arrival_time":"14:40:00","departure_time":"14:40:00","lat":48.813095,"lon":16.880976,"is_passed":false},{"stop_id":"U15619Z10","name":"Podivín, železniční stanice","arrival_time":"14:44:00","departure_time":"14:45:00","lat":48.837726,"lon":16.853526,"is_passed":false},{"stop_id":"U25501Z10","name":"Rakvice","arrival_time":"14:48:00","departure_time":"14:48:00","lat":48.866893,"lon":16.821444,"is_passed":false},{"stop_id":"U15537Z10","name":"Zaječí, železniční stanice","arrival_time":"14:51:00","departure_time":"14:52:00","lat":48.889637,"lon":16.781831,"is_passed":false},{"stop_id":"U15425Z10","name":"Šakvice, železniční stanice","arrival_time":"14:56:00","departure_time":"15:03:00","lat":48.912883,"lon":16.70557,"is_passed":false}],"14739":[{"stop_id":"U15425Z11","name":"Šakvice, železniční stanice","arrival_time":"15:03:00","departure_time":"15:03:00","lat":48.912883,"lon":16.70557,"is_passed":false},{"stop_id":"U15537Z11","name":"Zaječí, železniční stanice","arrival_time":"15:07:00","departure_time":"15:08:00","lat":48.889637,"lon":16.781831,"is_passed":false},{"stop_id":"U25501Z11","name":"Rakvice","arrival_time":"15:11:00","departure_time":"15:11:00","lat":48.866893,"lon":16.821444,"is_passed":false},{"stop_id":"U15619Z11","name":"Podivín, železniční stanice","arrival_time":"15:14:00","departure_time":"15:15:00","lat":48.837726,"lon":16.853526,"is_passed":false},{"stop_id":"U15609Z11","name":"Ladná, železniční stanice","arrival_time":"15:18:00","departure_time":"15:18:00","lat":48.813095,"lon":16.880976,"is_passed":false},{"stop_id":"U15729Z11","name":"Břeclav, autobusové nádraží","arrival_time":"15:24:00","departure_time":"15:24:00","lat":48.753851,"lon":16.893169,"is_passed":false}],"14740":[{"stop_id":"U15729Z11","name":"Břeclav, autobusové nádraží","arrival_time":"15:35:00","departure_time":"15:35:00","lat":48.753851,"lon":16.893169,"is_passed":false},{"stop_id":"U29101Z11","name":"Hrušky zastávka","arrival_time":"15:41:00","departure_time":"15:41:00","lat":48.787328,"lon":16.982583,"is_passed":false},{"stop_id":"U19129Z11","name":"Moravská Nová Ves, železniční stanice","arrival_time":"15:44:00","departure_time":"15:45:00","lat":48.799493,"lon":17.021674,"is_passed":false},{"stop_id":"U19119Z11","name":"Lužice, železniční stanice","arrival_time":"15:48:00","departure_time":"15:48:00","lat":48.827619,"lon":17.061961,"is_passed":false},{"stop_id":"U19001Z21","name":"Hodonín, autobusové nádraží","arrival_time":"15:53:00","departure_time":"16:07:00","lat":48.85575,"lon":17.12069,"is_passed":false}],"14741":[{"stop_id":"U19001Z20","name":"Hodonín, autobusové nádraží","arrival_time":"16:07:00","departure_time":"16:07:00","lat":48.85575,"lon":17.12069,"is_passed":false},{"stop_id":"U19119Z10","name":"Lužice, železniční stanice","arrival_time":"16:11:00","departure_time":"16:12:00","lat":48.827619,"lon":17.061961,"is_passed":false},{"stop_id":"U19129Z10","name":"Moravská Nová Ves, železniční stanice","arrival_time":"16:15:00","departure_time":"16:16:00","lat":48.799493,"lon":17.021674,"is_passed":false},{"stop_id":"U29101Z10","name":"Hrušky zastávka","arrival_time":"16:19:00","departure_time":"16:19:00","lat":48.786692,"lon":16.980171,"is_passed":false},{"stop_id":"U15729Z10","name":"Břeclav, autobusové nádraží","arrival_time":"16:25:00","departure_time":"16:25:00","lat":48.753851,"lon":16.893169,"is_passed":false}],"14742":[{"stop_id":"U15729Z10","name":"Břeclav, autobusové nádraží","arrival_time":"16:33:00","departure_time":"16:33:00","lat":48.753851,"lon":16.893169,"is_passed":false},{"stop_id":"U15609Z10","name":"Ladná, železniční stanice","arrival_time":"16:38:00","departure_time":"16:38:00","lat":48.813095,"lon":16.880976,"is_passed":false},{"stop_id":"U15619Z10","name":"Podivín, železniční stanice","arrival_time":"16:42:00","departure_time":"16:43:00","lat":48.837726,"lon":16.853526,"is_passed":false},{"stop_id":"U25501Z10","name":"Rakvice","arrival_time":"16:46:00","departure_time":"16:46:00","lat":48.866893,"lon":16.821444,"is_passed":false},{"stop_id":"U15537Z10","name":"Zaječí, železniční stanice","arrival_time":"16:49:00","departure_time":"16:50:00","lat":48.889637,"lon":16.781831,"is_passed":false},{"stop_id":"U15425Z10","name":"Šakvice, železniční stanice","arrival_time":"16:54:00","departure_time":"17:03:00","lat":48.912883,"lon":16.70557,"is_passed":false}],"14743":[{"stop_id":"U15425Z11","name":"Šakvice, železniční stanice","arrival_time":"17:03:00","departure_time":"17:03:00","lat":48.912883,"lon":16.70557,"is_passed":false},{"stop_id":"U15537Z11","name":"Zaječí, železniční stanice","arrival_time":"17:07:00","departure_time":"17:08:00","lat":48.889637,"lon":16.781831,"is_passed":false},{"stop_id":"U25501Z11","name":"Rakvice","arrival_time":"17:11:00","departure_time":"17:11:00","lat":48.866893,"lon":16.821444,"is_passed":false},{"stop_id":"U15619Z11","name":"Podivín, železniční stanice","arrival_time":"17:14:00","departure_time":"17:15:00","lat":48.837726,"lon":16.853526,"is_passed":false},{"stop_id":"U15609Z11","name":"Ladná, železniční stanice","arrival_time":"17:18:00","departure_time":"17:18:00","lat":48.813095,"lon":16.880976,"is_passed":false},{"stop_id":"U15729Z11","name":"Břeclav, autobusové nádraží","arrival_time":"17:24:00","departure_time":"17:24:00","lat":48.753851,"lon":16.893169,"is_passed":false}],"14744":[{"stop_id":"U15729Z11","name":"Břeclav, autobusové nádraží","arrival_time":"17:35:00","departure_time":"17:35:00","lat":48.753851,"lon":16.893169,"is_passed":false},{"stop_id":"U29101Z11","name":"Hrušky zastávka","arrival_time":"17:41:00","departure_time":"17:41:00","lat":48.787328,"lon":16.982583,"is_passed":false},{"stop_id":"U19129Z11","name":"Moravská Nová Ves, železniční stanice","arrival_time":"17:44:00","departure_time":"17:45:00","lat":48.799493,"lon":17.021674,"is_passed":false},{"stop_id":"U19119Z11","name":"Lužice, železniční stanice","arrival_time":"17:48:00","departure_time":"17:48:00","lat":48.827619,"lon":17.061961,"is_passed":false},{"stop_id":"U19001Z21","name":"Hodonín, autobusové nádraží","arrival_time":"17:53:00","departure_time":"18:07:00","lat":48.85575,"lon":17.12069,"is_passed":false}],"14745":[{"stop_id":"U19001Z20","name":"Hodonín, autobusové nádraží","arrival_time":"18:07:00","departure_time":"18:07:00","lat":48.85575,"lon":17.12069,"is_passed":false},{"stop_id":"U19119Z10","name":"Lužice, železniční stanice","arrival_time":"18:11:00","departure_time":"18:12:00","lat":48.827619,"lon":17.061961,"is_passed":false},{"stop_id":"U19129Z10","name":"Moravská Nová Ves, železniční stanice","arrival_time":"18:15:00","departure_time":"18:16:00","lat":48.799493,"lon":17.021674,"is_passed":false},{"stop_id":"U29101Z10","name":"Hrušky zastávka","arrival_time":"18:19:00","departure_time":"18:19:00","lat":48.786692,"lon":16.980171,"is_passed":false},{"stop_id":"U15729Z10","name":"Břeclav, autobusové nádraží","arrival_time":"18:25:00","departure_time":"18:25:00","lat":48.753851,"lon":16.893169,"is_passed":false}],"14746":[{"stop_id":"U15729Z10","name":"Břeclav, autobusové nádraží","arrival_time":"18:31:00","departure_time":"18:31:00","lat":48.753851,"lon":16.893169,"is_passed":false},{"stop_id":"U15609Z10","name":"Ladná, železniční stanice","arrival_time":"18:36:00","departure_time":"18:36:00","lat":48.813095,"lon":16.880976,"is_passed":false},{"stop_id":"U15619Z10","name":"Podivín, železniční stanice","arrival_time":"18:40:00","departure_time":"18:41:00","lat":48.837726,"lon":16.853526,"is_passed":false},{"stop_id":"U25501Z10","name":"Rakvice","arrival_time":"18:44:00","departure_time":"18:44:00","lat":48.866893,"lon":16.821444,"is_passed":false},{"stop_id":"U15537Z10","name":"Zaječí, železniční stanice","arrival_time":"18:48:00","departure_time":"18:51:00","lat":48.889637,"lon":16.781831,"is_passed":false},{"stop_id":"U15425Z10","name":"Šakvice, železniční stanice","arrival_time":"18:56:00","departure_time":"19:08:00","lat":48.912883,"lon":16.70557,"is_passed":false}],"14747":[{"stop_id":"U15425Z11","name":"Šakvice, železniční stanice","arrival_time":"19:08:00","departure_time":"19:08:00","lat":48.912883,"lon":16.70557,"is_passed":false},{"stop_id":"U15537Z11","name":"Zaječí, železniční stanice","arrival_time":"19:12:00","departure_time":"19:13:00","lat":48.889637,"lon":16.781831,"is_passed":false},{"stop_id":"U25501Z11","name":"Rakvice","arrival_time":"19:16:00","departure_time":"19:16:00","lat":48.866893,"lon":16.821444,"is_passed":false},{"stop_id":"U15619Z11","name":"Podivín, železniční stanice","arrival_time":"19:19:00","departure_time":"19:20:00","lat":48.837726,"lon":16.853526,"is_passed":false},{"stop_id":"U15609Z11","name":"Ladná, železniční stanice","arrival_time":"19:23:00","departure_time":"19:23:00","lat":48.813095,"lon":16.880976,"is_passed":false},{"stop_id":"U15729Z11","name":"Břeclav, autobusové nádraží","arrival_time":"19:29:00","departure_time":"19:41:00","lat":48.753851,"lon":16.893169,"is_passed":false}],"14748":[{"stop_id":"U15729Z10","name":"Břeclav, autobusové nádraží","arrival_time":"19:41:00","departure_time":"19:41:00","lat":48.753851,"lon":16.893169,"is_passed":false},{"stop_id":"U15609Z10","name":"Ladná, železniční stanice","arrival_time":"19:46:00","departure_time":"19:46:00","lat":48.813095,"lon":16.880976,"is_passed":false},{"stop_id":"U15619Z10","name":"Podivín, železniční stanice","arrival_time":"19:50:00","departure_time":"19:51:00","lat":48.837726,"lon":16.853526,"is_passed":false},{"stop_id":"U25501Z10","name":"Rakvice","arrival_time":"19:54:00","departure_time":"19:54:00","lat":48.866893,"lon":16.821444,"is_passed":false},{"stop_id":"U15537Z10","name":"Zaječí, železniční stanice","arrival_time":"19:57:00","departure_time":"19:58:00","lat":48.889637,"lon":16.781831,"is_passed":false},{"stop_id":"U15425Z10","name":"Šakvice, železniční stanice","arrival_time":"20:02:00","departure_time":"21:54:00","lat":48.912883,"lon":16.70557,"is_passed":false}],"14749":[{"stop_id":"U15425Z11","name":"Šakvice, železniční stanice","arrival_time":"21:54:00","departure_time":"21:54:00","lat":48.912883,"lon":16.70557,"is_passed":false},{"stop_id":"U15537Z11","name":"Zaječí, železniční stanice","arrival_time":"21:58:00","departure_time":"21:59:00","lat":48.889637,"lon":16.781831,"is_passed":false},{"stop_id":"U25501Z11","name":"Rakvice","arrival_time":"22:02:00","departure_time":"22:02:00","lat":48.866893,"lon":16.821444,"is_passed":false},{"stop_id":"U15619Z11","name":"Podivín, železniční stanice","arrival_time":"22:05:00","departure_time":"22:06:00","lat":48.837726,"lon":16.853526,"is_passed":false},{"stop_id":"U15609Z11","name":"Ladná, železniční stanice","arrival_time":"22:09:00","departure_time":"22:09:00","lat":48.813095,"lon":16.880976,"is_passed":false},{"stop_id":"U15729Z11","name":"Břeclav, autobusové nádraží","arrival_time":"22:15:00","departure_time":"22:41:00","lat":48.753851,"lon":16.893169,"is_passed":false}],"14750":[{"stop_id":"U15729Z10","name":"Břeclav, autobusové nádraží","arrival_time":"22:41:00","departure_time":"22:41:00","lat":48.753851,"lon":16.893169,"is_passed":false},{"stop_id":"U15609Z10","name":"Ladná, železniční stanice","arrival_time":"22:46:00","departure_time":"22:46:00","lat":48.813095,"lon":16.880976,"is_passed":false},{"stop_id":"U15619Z10","name":"Podivín, železniční stanice","arrival_time":"22:50:00","departure_time":"22:51:00","lat":48.837726,"lon":16.853526,"is_passed":false},{"stop_id":"U25501Z10","name":"Rakvice","arrival_time":"22:54:00","departure_time":"22:54:00","lat":48.866893,"lon":16.821444,"is_passed":false},{"stop_id":"U15537Z10","name":"Zaječí, železniční stanice","arrival_time":"22:57:00","departure_time":"22:58:00","lat":48.889637,"lon":16.781831,"is_passed":false},{"stop_id":"U15425Z10","name":"Šakvice, železniční stanice","arrival_time":"23:02:00","departure_time":"23:03:00","lat":48.912883,"lon":16.70557,"is_passed":false}],"14751":[{"stop_id":"U15425Z10","name":"Šakvice, železniční stanice","arrival_time":"23:03:00","departure_time":"23:03:00","lat":48.912883,"lon":16.70557,"is_passed":false},{"stop_id":"U25402Z10","name":"Popice","arrival_time":"23:05:00","departure_time":"23:06:00","lat":48.924332,"lon":16.668084,"is_passed":false},{"stop_id":"U25401Z10","name":"Pouzdřany","arrival_time":"23:09:00","departure_time":"23:09:00","lat":48.942025,"lon":16.630527,"is_passed":false},{"stop_id":"U15307Z10","name":"Vranovice, žel.st.","arrival_time":"23:12:00","departure_time":"23:12:00","lat":48.964528,"lon":16.604187,"is_passed":false}],"14752":[{"stop_id":"U29602Z1","name":"Myjava","arrival_time":"8:07:00","departure_time":"8:07:00","lat":48.763641,"lon":17.570897,"is_passed":false},{"stop_id":"U29601Z1","name":"Brestovec","arrival_time":"8:10:00","departure_time":"8:11:00","lat":48.786012,"lon":17.557593,"is_passed":false},{"stop_id":"U29504Z1","name":"Vrbovce zastávka","arrival_time":"8:14:00","departure_time":"8:14:00","lat":48.804784,"lon":17.52869,"is_passed":false},{"stop_id":"U29501Z10","name":"Vrbovce","arrival_time":"8:17:00","departure_time":"8:30:00","lat":48.824439,"lon":17.516352,"is_passed":false},{"stop_id":"U29502Z10","name":"Javorník nad Veličkou zastávka","arrival_time":"8:34:00","departure_time":"8:34:00","lat":48.860868,"lon":17.520699,"is_passed":false},{"stop_id":"U19530Z10","name":"Velká nad Veličkou, železniční stanice","arrival_time":"8:37:00","departure_time":"8:39:00","lat":48.878631,"lon":17.51092,"is_passed":false},{"stop_id":"U29401Z10","name":"Louka u Ostrohu","arrival_time":"8:43:00","departure_time":"8:43:00","lat":48.912234,"lon":17.484226,"is_passed":false},{"stop_id":"U29402Z10","name":"Lipov","arrival_time":"8:46:00","departure_time":"8:46:00","lat":48.909806,"lon":17.457953,"is_passed":false},{"stop_id":"U29403Z10","name":"Blatnice pod Sv. Antonínkem","arrival_time":"8:51:00","departure_time":"8:51:00","lat":48.941163,"lon":17.437706,"is_passed":false},{"stop_id":"U19316Z10","name":"Veselí nad Moravou, železniční stanice","arrival_time":"8:57:00","departure_time":"9:03:00","lat":48.948694,"lon":17.382439,"is_passed":false},{"stop_id":"U29302Z10","name":"Veselí nad Moravou-Zarazice","arrival_time":"9:05:00","departure_time":"9:06:00","lat":48.937236,"lon":17.361306,"is_passed":false},{"stop_id":"U29303Z10","name":"Vnorovy","arrival_time":"9:08:00","departure_time":"9:08:00","lat":48.931508,"lon":17.348464,"is_passed":false},{"stop_id":"U19205Z10","name":"Strážnice, aut. st.","arrival_time":"9:13:00","departure_time":"9:14:00","lat":48.897385,"lon":17.317688,"is_passed":false},{"stop_id":"U29201Z10","name":"Petrov","arrival_time":"9:18:00","departure_time":"9:18:00","lat":48.878911,"lon":17.273703,"is_passed":false},{"stop_id":"U29202Z10","name":"Sudoměřice nad Moravou","arrival_time":"9:21:00","departure_time":"9:22:00","lat":48.871653,"lon":17.243039,"is_passed":false},{"stop_id":"U29104Z10","name":"Rohatec kolonie","arrival_time":"9:27:00","departure_time":"9:27:00","lat":48.892642,"lon":17.212111,"is_passed":false},{"stop_id":"U29103Z10","name":"Rohatec","arrival_time":"9:30:00","departure_time":"9:30:00","lat":48.892515,"lon":17.197852,"is_passed":false},{"stop_id":"U29102Z10","name":"Rohatec zastávka","arrival_time":"9:32:00","departure_time":"9:33:00","lat":48.88309,"lon":17.178111,"is_passed":false},{"stop_id":"U19001Z20","name":"Hodonín, autobusové nádraží","arrival_time":"9:37:00","departure_time":"9:46:00","lat":48.85575,"lon":17.12069,"is_passed":false}],"14753":[{"stop_id":"U19001Z23","name":"Hodonín, autobusové nádraží","arrival_time":"9:46:00","departure_time":"9:46:00","lat":48.85575,"lon":17.12069,"is_passed":false},{"stop_id":"U29106Z10","name":"Mutěnice","arrival_time":"10:00:00","departure_time":"10:01:00","lat":48.904678,"lon":17.039875,"is_passed":false},{"stop_id":"U29105Z10","name":"Mutěnice zastávka","arrival_time":"10:03:00","departure_time":"10:10:00","lat":48.911986,"lon":17.027008,"is_passed":false},{"stop_id":"U16546Z10","name":"Čejč, železniční stanice","arrival_time":"10:19:00","departure_time":"10:20:00","lat":48.942189,"lon":16.958672,"is_passed":false},{"stop_id":"U16454Z10","name":"Brumovice, železniční stanice","arrival_time":"10:26:00","departure_time":"10:26:00","lat":48.947228,"lon":16.905767,"is_passed":false},{"stop_id":"U25504Z10","name":"Kobylí na Moravě","arrival_time":"10:30:00","departure_time":"10:33:00","lat":48.934022,"lon":16.881272,"is_passed":false},{"stop_id":"U15513Z10","name":"Bořetice, železniční stanice","arrival_time":"10:37:00","departure_time":"10:38:00","lat":48.916314,"lon":16.850139,"is_passed":false},{"stop_id":"U25503Z10","name":"Velké Pavlovice zastávka","arrival_time":"10:43:00","departure_time":"10:44:00","lat":48.901672,"lon":16.8224,"is_passed":false},{"stop_id":"U25502Z10","name":"Velké Pavlovice","arrival_time":"10:46:00","departure_time":"10:47:00","lat":48.88985,"lon":16.823672,"is_passed":false},{"stop_id":"U15537Z12","name":"Zaječí, železniční stanice","arrival_time":"10:53:00","departure_time":"11:06:00","lat":48.889637,"lon":16.781831,"is_passed":false}],"14754":[{"stop_id":"U15537Z13","name":"Zaječí, železniční stanice","arrival_time":"11:06:00","departure_time":"11:06:00","lat":48.889637,"lon":16.781831,"is_passed":false},{"stop_id":"U25502Z11","name":"Velké Pavlovice","arrival_time":"11:11:00","departure_time":"11:12:00","lat":48.88985,"lon":16.823672,"is_passed":false},{"stop_id":"U25503Z11","name":"Velké Pavlovice zastávka","arrival_time":"11:14:00","departure_time":"11:14:00","lat":48.901672,"lon":16.8224,"is_passed":false},{"stop_id":"U15513Z11","name":"Bořetice, železniční stanice","arrival_time":"11:19:00","departure_time":"11:20:00","lat":48.916314,"lon":16.850139,"is_passed":false},{"stop_id":"U25504Z11","name":"Kobylí na Moravě","arrival_time":"11:25:00","departure_time":"11:26:00","lat":48.934022,"lon":16.881272,"is_passed":false}],"14755":[{"stop_id":"U25504Z11","name":"Kobylí na Moravě","arrival_time":"11:26:00","departure_time":"11:26:00","lat":48.934022,"lon":16.881272,"is_passed":false},{"stop_id":"U16454Z11","name":"Brumovice, železniční stanice","arrival_time":"11:29:00","departure_time":"11:29:00","lat":48.947228,"lon":16.905767,"is_passed":false},{"stop_id":"U16546Z11","name":"Čejč, železniční stanice","arrival_time":"11:35:00","departure_time":"11:37:00","lat":48.942189,"lon":16.958672,"is_passed":false},{"stop_id":"U29105Z11","name":"Mutěnice zastávka","arrival_time":"11:46:00","departure_time":"11:55:00","lat":48.911986,"lon":17.027008,"is_passed":false},{"stop_id":"U29106Z11","name":"Mutěnice","arrival_time":"11:57:00","departure_time":"12:03:00","lat":48.904678,"lon":17.039875,"is_passed":false},{"stop_id":"U19001Z22","name":"Hodonín, autobusové nádraží","arrival_time":"12:17:00","departure_time":"12:22:00","lat":48.85575,"lon":17.12069,"is_passed":false}],"14756":[{"stop_id":"U19001Z21","name":"Hodonín, autobusové nádraží","arrival_time":"12:22:00","departure_time":"12:22:00","lat":48.85575,"lon":17.12069,"is_passed":false},{"stop_id":"U29102Z11","name":"Rohatec zastávka","arrival_time":"12:26:00","departure_time":"12:27:00","lat":48.88309,"lon":17.178111,"is_passed":false},{"stop_id":"U29103Z11","name":"Rohatec","arrival_time":"12:29:00","departure_time":"12:29:00","lat":48.892515,"lon":17.197852,"is_passed":false},{"stop_id":"U29104Z11","name":"Rohatec kolonie","arrival_time":"12:31:00","departure_time":"12:31:00","lat":48.892642,"lon":17.212111,"is_passed":false},{"stop_id":"U29202Z11","name":"Sudoměřice nad Moravou","arrival_time":"12:37:00","departure_time":"12:37:00","lat":48.871653,"lon":17.243039,"is_passed":false},{"stop_id":"U29201Z11","name":"Petrov","arrival_time":"12:40:00","departure_time":"12:41:00","lat":48.878911,"lon":17.273703,"is_passed":false},{"stop_id":"U19205Z11","name":"Strážnice, aut. st.","arrival_time":"12:45:00","departure_time":"12:46:00","lat":48.897385,"lon":17.317688,"is_passed":false},{"stop_id":"U29303Z11","name":"Vnorovy","arrival_time":"12:50:00","departure_time":"12:50:00","lat":48.931508,"lon":17.348464,"is_passed":false},{"stop_id":"U29302Z11","name":"Veselí nad Moravou-Zarazice","arrival_time":"12:52:00","departure_time":"12:52:00","lat":48.937236,"lon":17.361306,"is_passed":false},{"stop_id":"U19316Z11","name":"Veselí nad Moravou, železniční stanice","arrival_time":"12:55:00","departure_time":"13:03:00","lat":48.948694,"lon":17.382439,"is_passed":false}],"14757":[{"stop_id":"U19316Z11","name":"Veselí nad Moravou, železniční stanice","arrival_time":"13:03:00","departure_time":"13:03:00","lat":48.948694,"lon":17.382439,"is_passed":false},{"stop_id":"U29403Z11","name":"Blatnice pod Sv. Antonínkem","arrival_time":"13:07:00","departure_time":"13:07:00","lat":48.941163,"lon":17.437706,"is_passed":false},{"stop_id":"U29402Z11","name":"Lipov","arrival_time":"13:12:00","departure_time":"13:13:00","lat":48.909806,"lon":17.457953,"is_passed":false},{"stop_id":"U29401Z11","name":"Louka u Ostrohu","arrival_time":"13:15:00","departure_time":"13:16:00","lat":48.912234,"lon":17.484226,"is_passed":false},{"stop_id":"U19530Z11","name":"Velká nad Veličkou, železniční stanice","arrival_time":"13:21:00","departure_time":"13:23:00","lat":48.878631,"lon":17.51092,"is_passed":false},{"stop_id":"U29502Z11","name":"Javorník nad Veličkou zastávka","arrival_time":"13:26:00","departure_time":"13:26:00","lat":48.860802,"lon":17.520722,"is_passed":false},{"stop_id":"U29501Z11","name":"Vrbovce","arrival_time":"13:31:00","departure_time":"13:40:00","lat":48.824439,"lon":17.516352,"is_passed":false},{"stop_id":"U29504Z2","name":"Vrbovce zastávka","arrival_time":"13:43:00","departure_time":"13:44:00","lat":48.804784,"lon":17.52869,"is_passed":false},{"stop_id":"U29601Z2","name":"Brestovec","arrival_time":"13:47:00","departure_time":"13:47:00","lat":48.786012,"lon":17.557593,"is_passed":false},{"stop_id":"U29602Z2","name":"Myjava","arrival_time":"13:51:00","departure_time":"14:07:00","lat":48.763641,"lon":17.570897,"is_passed":false}],"14758":[{"stop_id":"U29602Z1","name":"Myjava","arrival_time":"14:07:00","departure_time":"14:07:00","lat":48.763641,"lon":17.570897,"is_passed":false},{"stop_id":"U29601Z1","name":"Brestovec","arrival_time":"14:10:00","departure_time":"14:11:00","lat":48.786012,"lon":17.557593,"is_passed":false},{"stop_id":"U29504Z1","name":"Vrbovce zastávka","arrival_time":"14:14:00","departure_time":"14:14:00","lat":48.804784,"lon":17.52869,"is_passed":false},{"stop_id":"U29501Z10","name":"Vrbovce","arrival_time":"14:17:00","departure_time":"14:30:00","lat":48.824439,"lon":17.516352,"is_passed":false},{"stop_id":"U29502Z10","name":"Javorník nad Veličkou zastávka","arrival_time":"14:34:00","departure_time":"14:34:00","lat":48.860868,"lon":17.520699,"is_passed":false},{"stop_id":"U19530Z10","name":"Velká nad Veličkou, železniční stanice","arrival_time":"14:37:00","departure_time":"14:39:00","lat":48.878631,"lon":17.51092,"is_passed":false},{"stop_id":"U29401Z10","name":"Louka u Ostrohu","arrival_time":"14:43:00","departure_time":"14:44:00","lat":48.912234,"lon":17.484226,"is_passed":false},{"stop_id":"U29402Z10","name":"Lipov","arrival_time":"14:46:00","departure_time":"14:47:00","lat":48.909806,"lon":17.457953,"is_passed":false},{"stop_id":"U29403Z10","name":"Blatnice pod Sv. Antonínkem","arrival_time":"14:52:00","departure_time":"14:52:00","lat":48.941163,"lon":17.437706,"is_passed":false},{"stop_id":"U19316Z10","name":"Veselí nad Moravou, železniční stanice","arrival_time":"14:57:00","departure_time":"15:08:00","lat":48.948694,"lon":17.382439,"is_passed":false}],"14759":[{"stop_id":"U19316Z10","name":"Veselí nad Moravou, železniční stanice","arrival_time":"15:08:00","departure_time":"15:08:00","lat":48.948694,"lon":17.382439,"is_passed":false},{"stop_id":"U29302Z10","name":"Veselí nad Moravou-Zarazice","arrival_time":"15:10:00","departure_time":"15:11:00","lat":48.937236,"lon":17.361306,"is_passed":false},{"stop_id":"U29303Z10","name":"Vnorovy","arrival_time":"15:13:00","departure_time":"15:13:00","lat":48.931508,"lon":17.348464,"is_passed":false},{"stop_id":"U19205Z10","name":"Strážnice, aut. st.","arrival_time":"15:18:00","departure_time":"15:19:00","lat":48.897385,"lon":17.317688,"is_passed":false},{"stop_id":"U29201Z10","name":"Petrov","arrival_time":"15:23:00","departure_time":"15:23:00","lat":48.878911,"lon":17.273703,"is_passed":false},{"stop_id":"U29202Z10","name":"Sudoměřice nad Moravou","arrival_time":"15:26:00","departure_time":"15:27:00","lat":48.871653,"lon":17.243039,"is_passed":false},{"stop_id":"U29104Z10","name":"Rohatec kolonie","arrival_time":"15:32:00","departure_time":"15:32:00","lat":48.892642,"lon":17.212111,"is_passed":false},{"stop_id":"U29103Z10","name":"Rohatec","arrival_time":"15:35:00","departure_time":"15:35:00","lat":48.892515,"lon":17.197852,"is_passed":false},{"stop_id":"U29102Z10","name":"Rohatec zastávka","arrival_time":"15:37:00","departure_time":"15:38:00","lat":48.88309,"lon":17.178111,"is_passed":false},{"stop_id":"U19001Z20","name":"Hodonín, autobusové nádraží","arrival_time":"15:42:00","departure_time":"15:46:00","lat":48.85575,"lon":17.12069,"is_passed":false}],"14760":[{"stop_id":"U19001Z23","name":"Hodonín, autobusové nádraží","arrival_time":"15:46:00","departure_time":"15:46:00","lat":48.85575,"lon":17.12069,"is_passed":false},{"stop_id":"U29106Z10","name":"Mutěnice","arrival_time":"16:00:00","departure_time":"16:01:00","lat":48.904678,"lon":17.039875,"is_passed":false},{"stop_id":"U29105Z10","name":"Mutěnice zastávka","arrival_time":"16:03:00","departure_time":"16:10:00","lat":48.911986,"lon":17.027008,"is_passed":false},{"stop_id":"U16546Z10","name":"Čejč, železniční stanice","arrival_time":"16:19:00","departure_time":"16:20:00","lat":48.942189,"lon":16.958672,"is_passed":false},{"stop_id":"U16454Z10","name":"Brumovice, železniční stanice","arrival_time":"16:26:00","departure_time":"16:26:00","lat":48.947228,"lon":16.905767,"is_passed":false},{"stop_id":"U25504Z10","name":"Kobylí na Moravě","arrival_time":"16:30:00","departure_time":"16:33:00","lat":48.934022,"lon":16.881272,"is_passed":false}],"14761":[{"stop_id":"U25504Z10","name":"Kobylí na Moravě","arrival_time":"16:33:00","departure_time":"16:33:00","lat":48.934022,"lon":16.881272,"is_passed":false},{"stop_id":"U15513Z10","name":"Bořetice, železniční stanice","arrival_time":"16:37:00","departure_time":"16:38:00","lat":48.916314,"lon":16.850139,"is_passed":false},{"stop_id":"U25503Z10","name":"Velké Pavlovice zastávka","arrival_time":"16:43:00","departure_time":"16:44:00","lat":48.901672,"lon":16.8224,"is_passed":false},{"stop_id":"U25502Z10","name":"Velké Pavlovice","arrival_time":"16:46:00","departure_time":"16:47:00","lat":48.88985,"lon":16.823672,"is_passed":false},{"stop_id":"U15537Z12","name":"Zaječí, železniční stanice","arrival_time":"16:53:00","departure_time":"17:06:00","lat":48.889637,"lon":16.781831,"is_passed":false}],"14762":[{"stop_id":"U15537Z13","name":"Zaječí, železniční stanice","arrival_time":"17:06:00","departure_time":"17:06:00","lat":48.889637,"lon":16.781831,"is_passed":false},{"stop_id":"U25502Z11","name":"Velké Pavlovice","arrival_time":"17:11:00","departure_time":"17:12:00","lat":48.88985,"lon":16.823672,"is_passed":false},{"stop_id":"U25503Z11","name":"Velké Pavlovice zastávka","arrival_time":"17:14:00","departure_time":"17:14:00","lat":48.901672,"lon":16.8224,"is_passed":false},{"stop_id":"U15513Z11","name":"Bořetice, železniční stanice","arrival_time":"17:19:00","departure_time":"17:20:00","lat":48.916314,"lon":16.850139,"is_passed":false},{"stop_id":"U25504Z11","name":"Kobylí na Moravě","arrival_time":"17:25:00","departure_time":"17:26:00","lat":48.934022,"lon":16.881272,"is_passed":false},{"stop_id":"U16454Z11","name":"Brumovice, železniční stanice","arrival_time":"17:29:00","departure_time":"17:29:00","lat":48.947228,"lon":16.905767,"is_passed":false},{"stop_id":"U16546Z11","name":"Čejč, železniční stanice","arrival_time":"17:35:00","departure_time":"17:37:00","lat":48.942189,"lon":16.958672,"is_passed":false}],"14763":[{"stop_id":"U16546Z11","name":"Čejč, železniční stanice","arrival_time":"17:37:00","departure_time":"17:37:00","lat":48.942189,"lon":16.958672,"is_passed":false},{"stop_id":"U29105Z11","name":"Mutěnice zastávka","arrival_time":"17:46:00","departure_time":"17:55:00","lat":48.911986,"lon":17.027008,"is_passed":false},{"stop_id":"U29106Z11","name":"Mutěnice","arrival_time":"17:57:00","departure_time":"18:03:00","lat":48.904678,"lon":17.039875,"is_passed":false},{"stop_id":"U19001Z22","name":"Hodonín, autobusové nádraží","arrival_time":"18:17:00","departure_time":"18:22:00","lat":48.85575,"lon":17.12069,"is_passed":false}],"14764":[{"stop_id":"U19001Z21","name":"Hodonín, autobusové nádraží","arrival_time":"18:22:00","departure_time":"18:22:00","lat":48.85575,"lon":17.12069,"is_passed":false},{"stop_id":"U29102Z11","name":"Rohatec zastávka","arrival_time":"18:26:00","departure_time":"18:27:00","lat":48.88309,"lon":17.178111,"is_passed":false},{"stop_id":"U29103Z11","name":"Rohatec","arrival_time":"18:29:00","departure_time":"18:30:00","lat":48.892515,"lon":17.197852,"is_passed":false},{"stop_id":"U29104Z11","name":"Rohatec kolonie","arrival_time":"18:32:00","departure_time":"18:32:00","lat":48.892642,"lon":17.212111,"is_passed":false},{"stop_id":"U29202Z11","name":"Sudoměřice nad Moravou","arrival_time":"18:37:00","departure_time":"18:38:00","lat":48.871653,"lon":17.243039,"is_passed":false},{"stop_id":"U29201Z11","name":"Petrov","arrival_time":"18:41:00","departure_time":"18:41:00","lat":48.878911,"lon":17.273703,"is_passed":false},{"stop_id":"U19205Z11","name":"Strážnice, aut. st.","arrival_time":"18:45:00","departure_time":"18:46:00","lat":48.897385,"lon":17.317688,"is_passed":false},{"stop_id":"U29303Z11","name":"Vnorovy","arrival_time":"18:50:00","departure_time":"18:50:00","lat":48.931508,"lon":17.348464,"is_passed":false},{"stop_id":"U29302Z11","name":"Veselí nad Moravou-Zarazice","arrival_time":"18:52:00","departure_time":"18:52:00","lat":48.937236,"lon":17.361306,"is_passed":false},{"stop_id":"U19316Z11","name":"Veselí nad Moravou, železniční stanice","arrival_time":"18:55:00","departure_time":"18:55:00","lat":48.948694,"lon":17.382439,"is_passed":false}],"14765":[{"stop_id":"U29502Z10","name":"Javorník nad Veličkou zastávka","arrival_time":"6:34:00","departure_time":"6:34:00","lat":48.860868,"lon":17.520699,"is_passed":false},{"stop_id":"U19530Z10","name":"Velká nad Veličkou, železniční stanice","arrival_time":"6:37:00","departure_time":"6:39:00","lat":48.878631,"lon":17.51092,"is_passed":false},{"stop_id":"U29401Z10","name":"Louka u Ostrohu","arrival_time":"6:43:00","departure_time":"6:43:00","lat":48.912234,"lon":17.484226,"is_passed":false},{"stop_id":"U29402Z10","name":"Lipov","arrival_time":"6:46:00","departure_time":"6:46:00","lat":48.909806,"lon":17.457953,"is_passed":false},{"stop_id":"U29403Z10","name":"Blatnice pod Sv. Antonínkem","arrival_time":"6:51:00","departure_time":"6:51:00","lat":48.941163,"lon":17.437706,"is_passed":false},{"stop_id":"U19316Z10","name":"Veselí nad Moravou, železniční stanice","arrival_time":"6:57:00","departure_time":"7:01:00","lat":48.948694,"lon":17.382439,"is_passed":false}],"14766":[{"stop_id":"U19316Z10","name":"Veselí nad Moravou, železniční stanice","arrival_time":"7:01:00","departure_time":"7:01:00","lat":48.948694,"lon":17.382439,"is_passed":false},{"stop_id":"U29302Z10","name":"Veselí nad Moravou-Zarazice","arrival_time":"7:03:00","departure_time":"7:04:00","lat":48.937236,"lon":17.361306,"is_passed":false},{"stop_id":"U29303Z10","name":"Vnorovy","arrival_time":"7:06:00","departure_time":"7:06:00","lat":48.931508,"lon":17.348464,"is_passed":false},{"stop_id":"U19205Z10","name":"Strážnice, aut. st.","arrival_time":"7:11:00","departure_time":"7:12:00","lat":48.897385,"lon":17.317688,"is_passed":false},{"stop_id":"U29201Z10","name":"Petrov","arrival_time":"7:16:00","departure_time":"7:16:00","lat":48.878911,"lon":17.273703,"is_passed":false},{"stop_id":"U29202Z10","name":"Sudoměřice nad Moravou","arrival_time":"7:19:00","departure_time":"7:20:00","lat":48.871653,"lon":17.243039,"is_passed":false},{"stop_id":"U29104Z10","name":"Rohatec kolonie","arrival_time":"7:25:00","departure_time":"7:25:00","lat":48.892642,"lon":17.212111,"is_passed":false},{"stop_id":"U29103Z10","name":"Rohatec","arrival_time":"7:28:00","departure_time":"7:29:00","lat":48.892515,"lon":17.197852,"is_passed":false},{"stop_id":"U29102Z10","name":"Rohatec zastávka","arrival_time":"7:31:00","departure_time":"7:32:00","lat":48.88309,"lon":17.178111,"is_passed":false},{"stop_id":"U19001Z20","name":"Hodonín, autobusové nádraží","arrival_time":"7:38:00","departure_time":"7:38:00","lat":48.85575,"lon":17.12069,"is_passed":false}],"14767":[{"stop_id":"U25504Z10","name":"Kobylí na Moravě","arrival_time":"8:33:00","departure_time":"8:33:00","lat":48.934022,"lon":16.881272,"is_passed":false},{"stop_id":"U15513Z10","name":"Bořetice, železniční stanice","arrival_time":"8:37:00","departure_time":"8:38:00","lat":48.916314,"lon":16.850139,"is_passed":false},{"stop_id":"U25503Z10","name":"Velké Pavlovice zastávka","arrival_time":"8:43:00","departure_time":"8:44:00","lat":48.901672,"lon":16.8224,"is_passed":false},{"stop_id":"U25502Z10","name":"Velké Pavlovice","arrival_time":"8:46:00","departure_time":"8:47:00","lat":48.88985,"lon":16.823672,"is_passed":false},{"stop_id":"U15537Z12","name":"Zaječí, železniční stanice","arrival_time":"8:53:00","departure_time":"8:53:00","lat":48.889637,"lon":16.781831,"is_passed":false}],"14768":[{"stop_id":"U1146Z98","name":"Hlavní nádraží","arrival_time":"8:35:00","departure_time":"8:35:00","lat":49.19035,"lon":16.612342,"is_passed":false},{"stop_id":"U15425Z11","name":"Šakvice, železniční stanice","arrival_time":"8:53:00","departure_time":"8:55:00","lat":48.912883,"lon":16.70557,"is_passed":false},{"stop_id":"U15537Z11","name":"Zaječí, železniční stanice","arrival_time":"8:59:00","departure_time":"9:00:00","lat":48.889637,"lon":16.781831,"is_passed":false},{"stop_id":"U15619Z11","name":"Podivín, železniční stanice","arrival_time":"9:05:00","departure_time":"9:06:00","lat":48.837726,"lon":16.853526,"is_passed":false},{"stop_id":"U15729Z11","name":"Břeclav, autobusové nádraží","arrival_time":"9:13:00","departure_time":"9:21:00","lat":48.753851,"lon":16.893169,"is_passed":false},{"stop_id":"U19001Z21","name":"Hodonín, autobusové nádraží","arrival_time":"9:33:00","departure_time":"9:37:00","lat":48.85575,"lon":17.12069,"is_passed":false},{"stop_id":"U19302Z11","name":"Moravský Písek, Kolonie, žel. stanice","arrival_time":"9:47:00","departure_time":"9:49:00","lat":48.977119,"lon":17.314582,"is_passed":false},{"stop_id":"U31028Z11","name":"Staré Město u Uherského Hradiště","arrival_time":"9:56:00","departure_time":"11:57:00","lat":49.076212,"lon":17.422903,"is_passed":false}],"14769":[{"stop_id":"U31028Z10","name":"Staré Město u Uherského Hradiště","arrival_time":"11:57:00","departure_time":"11:57:00","lat":49.076247,"lon":17.422785,"is_passed":false},{"stop_id":"U19302Z10","name":"Moravský Písek, Kolonie, žel. stanice","arrival_time":"12:04:00","departure_time":"12:06:00","lat":48.977119,"lon":17.314582,"is_passed":false},{"stop_id":"U19001Z20","name":"Hodonín, autobusové nádraží","arrival_time":"12:17:00","departure_time":"12:23:00","lat":48.85575,"lon":17.12069,"is_passed":false},{"stop_id":"U15729Z10","name":"Břeclav, autobusové nádraží","arrival_time":"12:35:00","departure_time":"12:44:00","lat":48.753851,"lon":16.893169,"is_passed":false},{"stop_id":"U15619Z10","name":"Podivín, železniční stanice","arrival_time":"12:50:00","departure_time":"12:51:00","lat":48.837726,"lon":16.853526,"is_passed":false},{"stop_id":"U15537Z10","name":"Zaječí, železniční stanice","arrival_time":"12:56:00","departure_time":"12:57:00","lat":48.889637,"lon":16.781831,"is_passed":false},{"stop_id":"U15425Z10","name":"Šakvice, železniční stanice","arrival_time":"13:01:00","departure_time":"13:02:00","lat":48.912883,"lon":16.70557,"is_passed":false},{"stop_id":"U1146Z99","name":"Hlavní nádraží","arrival_time":"13:22:00","departure_time":"14:36:00","lat":49.19035,"lon":16.612342,"is_passed":false}],"14770":[{"stop_id":"U1146Z98","name":"Hlavní nádraží","arrival_time":"14:36:00","departure_time":"14:36:00","lat":49.19035,"lon":16.612342,"is_passed":false},{"stop_id":"U15425Z11","name":"Šakvice, železniční stanice","arrival_time":"14:55:00","departure_time":"14:56:00","lat":48.912883,"lon":16.70557,"is_passed":false},{"stop_id":"U15537Z11","name":"Zaječí, železniční stanice","arrival_time":"15:00:00","departure_time":"15:01:00","lat":48.889637,"lon":16.781831,"is_passed":false},{"stop_id":"U15619Z11","name":"Podivín, železniční stanice","arrival_time":"15:07:00","departure_time":"15:08:00","lat":48.837726,"lon":16.853526,"is_passed":false},{"stop_id":"U15729Z11","name":"Břeclav, autobusové nádraží","arrival_time":"15:15:00","departure_time":"15:21:00","lat":48.753851,"lon":16.893169,"is_passed":false},{"stop_id":"U19001Z21","name":"Hodonín, autobusové nádraží","arrival_time":"15:33:00","departure_time":"15:37:00","lat":48.85575,"lon":17.12069,"is_passed":false},{"stop_id":"U19302Z11","name":"Moravský Písek, Kolonie, žel. stanice","arrival_time":"15:47:00","departure_time":"15:49:00","lat":48.977119,"lon":17.314582,"is_passed":false},{"stop_id":"U31028Z11","name":"Staré Město u Uherského Hradiště","arrival_time":"15:56:00","departure_time":"17:57:00","lat":49.076212,"lon":17.422903,"is_passed":false}],"14771":[{"stop_id":"U31028Z10","name":"Staré Město u Uherského Hradiště","arrival_time":"17:57:00","departure_time":"17:57:00","lat":49.076247,"lon":17.422785,"is_passed":false},{"stop_id":"U19302Z10","name":"Moravský Písek, Kolonie, žel. stanice","arrival_time":"18:04:00","departure_time":"18:06:00","lat":48.977119,"lon":17.314582,"is_passed":false},{"stop_id":"U19001Z20","name":"Hodonín, autobusové nádraží","arrival_time":"18:17:00","departure_time":"18:23:00","lat":48.85575,"lon":17.12069,"is_passed":false},{"stop_id":"U15729Z10","name":"Břeclav, autobusové nádraží","arrival_time":"18:35:00","departure_time":"18:44:00","lat":48.753851,"lon":16.893169,"is_passed":false},{"stop_id":"U15619Z10","name":"Podivín, železniční stanice","arrival_time":"18:52:00","departure_time":"18:53:00","lat":48.837726,"lon":16.853526,"is_passed":false},{"stop_id":"U15537Z10","name":"Zaječí, železniční stanice","arrival_time":"18:57:00","departure_time":"18:58:00","lat":48.889637,"lon":16.781831,"is_passed":false},{"stop_id":"U15425Z10","name":"Šakvice, železniční stanice","arrival_time":"19:02:00","departure_time":"19:03:00","lat":48.912883,"lon":16.70557,"is_passed":false},{"stop_id":"U1146Z99","name":"Hlavní nádraží","arrival_time":"19:24:00","departure_time":"19:35:00","lat":49.19035,"lon":16.612342,"is_passed":false}],"14772":[{"stop_id":"U1146Z98","name":"Hlavní nádraží","arrival_time":"19:35:00","departure_time":"19:35:00","lat":49.19035,"lon":16.612342,"is_passed":false},{"stop_id":"U15425Z11","name":"Šakvice, železniční stanice","arrival_time":"19:53:00","departure_time":"19:54:00","lat":48.912883,"lon":16.70557,"is_passed":false},{"stop_id":"U15537Z11","name":"Zaječí, železniční stanice","arrival_time":"19:58:00","departure_time":"19:59:00","lat":48.889637,"lon":16.781831,"is_passed":false},{"stop_id":"U25501Z11","name":"Rakvice","arrival_time":"20:02:00","departure_time":"20:03:00","lat":48.866893,"lon":16.821444,"is_passed":false},{"stop_id":"U15619Z11","name":"Podivín, železniční stanice","arrival_time":"20:06:00","departure_time":"20:07:00","lat":48.837726,"lon":16.853526,"is_passed":false},{"stop_id":"U15729Z11","name":"Břeclav, autobusové nádraží","arrival_time":"20:14:00","departure_time":"20:24:00","lat":48.753851,"lon":16.893169,"is_passed":false},{"stop_id":"U19001Z21","name":"Hodonín, autobusové nádraží","arrival_time":"20:37:00","departure_time":"20:37:00","lat":48.85575,"lon":17.12069,"is_passed":false}],"14773":[{"stop_id":"U1146Z98","name":"Hlavní nádraží","arrival_time":"6:36:00","departure_time":"6:36:00","lat":49.19035,"lon":16.612342,"is_passed":false},{"stop_id":"U15425Z11","name":"Šakvice, železniční stanice","arrival_time":"6:55:00","departure_time":"6:56:00","lat":48.912883,"lon":16.70557,"is_passed":false},{"stop_id":"U15537Z11","name":"Zaječí, železniční stanice","arrival_time":"7:00:00","departure_time":"7:01:00","lat":48.889637,"lon":16.781831,"is_passed":false},{"stop_id":"U15619Z11","name":"Podivín, železniční stanice","arrival_time":"7:07:00","departure_time":"7:08:00","lat":48.837726,"lon":16.853526,"is_passed":false},{"stop_id":"U15729Z11","name":"Břeclav, autobusové nádraží","arrival_time":"7:15:00","departure_time":"7:21:00","lat":48.753851,"lon":16.893169,"is_passed":false},{"stop_id":"U19001Z21","name":"Hodonín, autobusové nádraží","arrival_time":"7:33:00","departure_time":"7:37:00","lat":48.85575,"lon":17.12069,"is_passed":false},{"stop_id":"U19302Z11","name":"Moravský Písek, Kolonie, žel. stanice","arrival_time":"7:47:00","departure_time":"7:49:00","lat":48.977119,"lon":17.314582,"is_passed":false},{"stop_id":"U31028Z11","name":"Staré Město u Uherského Hradiště","arrival_time":"7:56:00","departure_time":"9:57:00","lat":49.076212,"lon":17.422903,"is_passed":false}],"14774":[{"stop_id":"U31028Z10","name":"Staré Město u Uherského Hradiště","arrival_time":"9:57:00","departure_time":"9:57:00","lat":49.076247,"lon":17.422785,"is_passed":false},{"stop_id":"U19302Z10","name":"Moravský Písek, Kolonie, žel. stanice","arrival_time":"10:04:00","departure_time":"10:06:00","lat":48.977119,"lon":17.314582,"is_passed":false},{"stop_id":"U19001Z20","name":"Hodonín, autobusové nádraží","arrival_time":"10:17:00","departure_time":"10:23:00","lat":48.85575,"lon":17.12069,"is_passed":false},{"stop_id":"U15729Z10","name":"Břeclav, autobusové nádraží","arrival_time":"10:35:00","departure_time":"10:44:00","lat":48.753851,"lon":16.893169,"is_passed":false},{"stop_id":"U15619Z10","name":"Podivín, železniční stanice","arrival_time":"10:50:00","departure_time":"10:51:00","lat":48.837726,"lon":16.853526,"is_passed":false},{"stop_id":"U15537Z10","name":"Zaječí, železniční stanice","arrival_time":"10:56:00","departure_time":"10:57:00","lat":48.889637,"lon":16.781831,"is_passed":false},{"stop_id":"U15425Z10","name":"Šakvice, železniční stanice","arrival_time":"11:01:00","departure_time":"11:02:00","lat":48.912883,"lon":16.70557,"is_passed":false},{"stop_id":"U1146Z99","name":"Hlavní nádraží","arrival_time":"11:22:00","departure_time":"12:36:00","lat":49.19035,"lon":16.612342,"is_passed":false}],"14775":[{"stop_id":"U1146Z98","name":"Hlavní nádraží","arrival_time":"12:36:00","departure_time":"12:36:00","lat":49.19035,"lon":16.612342,"is_passed":false},{"stop_id":"U15425Z11","name":"Šakvice, železniční stanice","arrival_time":"12:55:00","departure_time":"12:56:00","lat":48.912883,"lon":16.70557,"is_passed":false},{"stop_id":"U15537Z11","name":"Zaječí, železniční stanice","arrival_time":"13:00:00","departure_time":"13:01:00","lat":48.889637,"lon":16.781831,"is_passed":false},{"stop_id":"U15619Z11","name":"Podivín, železniční stanice","arrival_time":"13:07:00","departure_time":"13:08:00","lat":48.837726,"lon":16.853526,"is_passed":false},{"stop_id":"U15729Z11","name":"Břeclav, autobusové nádraží","arrival_time":"13:15:00","departure_time":"13:21:00","lat":48.753851,"lon":16.893169,"is_passed":false},{"stop_id":"U19001Z21","name":"Hodonín, autobusové nádraží","arrival_time":"13:33:00","departure_time":"13:37:00","lat":48.85575,"lon":17.12069,"is_passed":false},{"stop_id":"U19302Z11","name":"Moravský Písek, Kolonie, žel. stanice","arrival_time":"13:47:00","departure_time":"13:49:00","lat":48.977119,"lon":17.314582,"is_passed":false},{"stop_id":"U31028Z11","name":"Staré Město u Uherského Hradiště","arrival_time":"13:56:00","departure_time":"15:57:00","lat":49.076212,"lon":17.422903,"is_passed":false}],"14776":[{"stop_id":"U31028Z10","name":"Staré Město u Uherského Hradiště","arrival_time":"15:57:00","departure_time":"15:57:00","lat":49.076247,"lon":17.422785,"is_passed":false},{"stop_id":"U19302Z10","name":"Moravský Písek, Kolonie, žel. stanice","arrival_time":"16:04:00","departure_time":"16:06:00","lat":48.977119,"lon":17.314582,"is_passed":false},{"stop_id":"U19001Z20","name":"Hodonín, autobusové nádraží","arrival_time":"16:17:00","departure_time":"16:23:00","lat":48.85575,"lon":17.12069,"is_passed":false},{"stop_id":"U15729Z10","name":"Břeclav, autobusové nádraží","arrival_time":"16:35:00","departure_time":"16:44:00","lat":48.753851,"lon":16.893169,"is_passed":false},{"stop_id":"U15619Z10","name":"Podivín, železniční stanice","arrival_time":"16:50:00","departure_time":"16:51:00","lat":48.837726,"lon":16.853526,"is_passed":false},{"stop_id":"U15537Z10","name":"Zaječí, železniční stanice","arrival_time":"16:56:00","departure_time":"16:57:00","lat":48.889637,"lon":16.781831,"is_passed":false},{"stop_id":"U15425Z10","name":"Šakvice, železniční stanice","arrival_time":"17:01:00","departure_time":"17:02:00","lat":48.912883,"lon":16.70557,"is_passed":false},{"stop_id":"U1146Z99","name":"Hlavní nádraží","arrival_time":"17:23:00","departure_time":"18:35:00","lat":49.19035,"lon":16.612342,"is_passed":false}],"14777":[{"stop_id":"U1146Z98","name":"Hlavní nádraží","arrival_time":"18:35:00","departure_time":"18:35:00","lat":49.19035,"lon":16.612342,"is_passed":false},{"stop_id":"U15425Z11","name":"Šakvice, železniční stanice","arrival_time":"18:54:00","departure_time":"18:56:00","lat":48.912883,"lon":16.70557,"is_passed":false},{"stop_id":"U15537Z11","name":"Zaječí, železniční stanice","arrival_time":"19:00:00","departure_time":"19:01:00","lat":48.889637,"lon":16.781831,"is_passed":false},{"stop_id":"U15619Z11","name":"Podivín, železniční stanice","arrival_time":"19:06:00","departure_time":"19:07:00","lat":48.837726,"lon":16.853526,"is_passed":false},{"stop_id":"U15729Z11","name":"Břeclav, autobusové nádraží","arrival_time":"19:14:00","departure_time":"19:21:00","lat":48.753851,"lon":16.893169,"is_passed":false},{"stop_id":"U19001Z21","name":"Hodonín, autobusové nádraží","arrival_time":"19:33:00","departure_time":"19:37:00","lat":48.85575,"lon":17.12069,"is_passed":false},{"stop_id":"U19302Z11","name":"Moravský Písek, Kolonie, žel. stanice","arrival_time":"19:47:00","departure_time":"19:49:00","lat":48.977119,"lon":17.314582,"is_passed":false},{"stop_id":"U31028Z11","name":"Staré Město u Uherského Hradiště","arrival_time":"19:56:00","departure_time":"21:57:00","lat":49.076212,"lon":17.422903,"is_passed":false}],"14778":[{"stop_id":"U31028Z10","name":"Staré Město u Uherského Hradiště","arrival_time":"21:57:00","departure_time":"21:57:00","lat":49.076247,"lon":17.422785,"is_passed":false},{"stop_id":"U19302Z10","name":"Moravský Písek, Kolonie, žel. stanice","arrival_time":"22:04:00","departure_time":"22:06:00","lat":48.977119,"lon":17.314582,"is_passed":false},{"stop_id":"U19001Z20","name":"Hodonín, autobusové nádraží","arrival_time":"22:17:00","departure_time":"22:19:00","lat":48.85575,"lon":17.12069,"is_passed":false},{"stop_id":"U15729Z10","name":"Břeclav, autobusové nádraží","arrival_time":"22:31:00","departure_time":"22:31:00","lat":48.753851,"lon":16.893169,"is_passed":false}],"14779":[{"stop_id":"U31028Z10","name":"Staré Město u Uherského Hradiště","arrival_time":"7:57:00","departure_time":"7:57:00","lat":49.076247,"lon":17.422785,"is_passed":false},{"stop_id":"U19302Z10","name":"Moravský Písek, Kolonie, žel. stanice","arrival_time":"8:04:00","departure_time":"8:06:00","lat":48.977119,"lon":17.314582,"is_passed":false},{"stop_id":"U19001Z20","name":"Hodonín, autobusové nádraží","arrival_time":"8:17:00","departure_time":"8:23:00","lat":48.85575,"lon":17.12069,"is_passed":false},{"stop_id":"U15729Z10","name":"Břeclav, autobusové nádraží","arrival_time":"8:35:00","departure_time":"8:44:00","lat":48.753851,"lon":16.893169,"is_passed":false},{"stop_id":"U15619Z10","name":"Podivín, železniční stanice","arrival_time":"8:50:00","departure_time":"8:51:00","lat":48.837726,"lon":16.853526,"is_passed":false},{"stop_id":"U15537Z10","name":"Zaječí, železniční stanice","arrival_time":"8:56:00","departure_time":"8:57:00","lat":48.889637,"lon":16.781831,"is_passed":false},{"stop_id":"U15425Z10","name":"Šakvice, železniční stanice","arrival_time":"9:01:00","departure_time":"9:02:00","lat":48.912883,"lon":16.70557,"is_passed":false},{"stop_id":"U1146Z99","name":"Hlavní nádraží","arrival_time":"9:22:00","departure_time":"10:36:00","lat":49.19035,"lon":16.612342,"is_passed":false}],"14780":[{"stop_id":"U1146Z98","name":"Hlavní nádraží","arrival_time":"10:36:00","departure_time":"10:36:00","lat":49.19035,"lon":16.612342,"is_passed":false},{"stop_id":"U15425Z11","name":"Šakvice, železniční stanice","arrival_time":"10:55:00","departure_time":"10:56:00","lat":48.912883,"lon":16.70557,"is_passed":false},{"stop_id":"U15537Z11","name":"Zaječí, železniční stanice","arrival_time":"11:00:00","departure_time":"11:01:00","lat":48.889637,"lon":16.781831,"is_passed":false},{"stop_id":"U15619Z11","name":"Podivín, železniční stanice","arrival_time":"11:07:00","departure_time":"11:08:00","lat":48.837726,"lon":16.853526,"is_passed":false},{"stop_id":"U15729Z11","name":"Břeclav, autobusové nádraží","arrival_time":"11:15:00","departure_time":"11:21:00","lat":48.753851,"lon":16.893169,"is_passed":false},{"stop_id":"U19001Z21","name":"Hodonín, autobusové nádraží","arrival_time":"11:33:00","departure_time":"11:37:00","lat":48.85575,"lon":17.12069,"is_passed":false},{"stop_id":"U19302Z11","name":"Moravský Písek, Kolonie, žel. stanice","arrival_time":"11:47:00","departure_time":"11:49:00","lat":48.977119,"lon":17.314582,"is_passed":false},{"stop_id":"U31028Z11","name":"Staré Město u Uherského Hradiště","arrival_time":"11:56:00","departure_time":"13:57:00","lat":49.076212,"lon":17.422903,"is_passed":false}],"14781":[{"stop_id":"U31028Z10","name":"Staré Město u Uherského Hradiště","arrival_time":"13:57:00","departure_time":"13:57:00","lat":49.076247,"lon":17.422785,"is_passed":false},{"stop_id":"U19302Z10","name":"Moravský Písek, Kolonie, žel. stanice","arrival_time":"14:04:00","departure_time":"14:06:00","lat":48.977119,"lon":17.314582,"is_passed":false},{"stop_id":"U19001Z20","name":"Hodonín, autobusové nádraží","arrival_time":"14:17:00","departure_time":"14:23:00","lat":48.85575,"lon":17.12069,"is_passed":false},{"stop_id":"U15729Z10","name":"Břeclav, autobusové nádraží","arrival_time":"14:35:00","departure_time":"14:44:00","lat":48.753851,"lon":16.893169,"is_passed":false},{"stop_id":"U15619Z10","name":"Podivín, železniční stanice","arrival_time":"14:50:00","departure_time":"14:51:00","lat":48.837726,"lon":16.853526,"is_passed":false},{"stop_id":"U15537Z10","name":"Zaječí, železniční stanice","arrival_time":"14:56:00","departure_time":"14:57:00","lat":48.889637,"lon":16.781831,"is_passed":false},{"stop_id":"U15425Z10","name":"Šakvice, železniční stanice","arrival_time":"15:01:00","departure_time":"15:02:00","lat":48.912883,"lon":16.70557,"is_passed":false},