{"147":[{"stop_id":"U1696Z5","name":"ÚAN Zvonařka","arrival_time":"15:04:00","departure_time":"15:04:00","lat":49.185364,"lon":16.616151,"is_passed":false},{"stop_id":"U1677Z3","name":"Tržní","arrival_time":"15:08:00","departure_time":"15:08:00","lat":49.189342,"lon":16.630314,"is_passed":false},{"stop_id":"U17335Z2","name":"Rousínov, autobusová stanice","arrival_time":"15:28:00","departure_time":"15:29:00","lat":49.20291,"lon":16.88497,"is_passed":false},{"stop_id":"U17331Z1","name":"Rousínov, Čechyně, rozcestí","arrival_time":"15:31:00","departure_time":"15:31:00","lat":49.207062,"lon":16.891572,"is_passed":false},{"stop_id":"U17311Z3","name":"Komořany, EDP","arrival_time":"15:34:00","departure_time":"15:34:00","lat":49.220008,"lon":16.905058,"is_passed":false},{"stop_id":"U17344Z1","name":"Tučapy, rozcestí","arrival_time":"15:36:00","departure_time":"15:36:00","lat":49.227308,"lon":16.915917,"is_passed":false},{"stop_id":"U17328Z1","name":"Luleč, rozcestí","arrival_time":"15:38:00","departure_time":"15:38:00","lat":49.248113,"lon":16.944733,"is_passed":false},{"stop_id":"U17428Z1","name":"Vyškov, Drnovská Bioveta","arrival_time":"15:40:00","departure_time":"15:40:00","lat":49.254302,"lon":16.95682,"is_passed":false},{"stop_id":"U17435Z1","name":"Vyškov, Nouzka","arrival_time":"15:43:00","departure_time":"15:43:00","lat":49.267372,"lon":16.982268,"is_passed":false},{"stop_id":"U17429Z1","name":"Vyškov, garáže ČSAD","arrival_time":"15:44:00","departure_time":"15:44:00","lat":49.271332,"lon":16.989108,"is_passed":false},{"stop_id":"U17423Z21","name":"Vyškov, Autobusové nádraží","arrival_time":"15:46:00","departure_time":"16:16:00","lat":49.275819,"lon":16.992078,"is_passed":false}],"1470":[{"stop_id":"U17446Z10","name":"Vyškov, železniční stanice","arrival_time":"8:21:00","departure_time":"8:21:00","lat":49.277222,"lon":16.990833,"is_passed":false},{"stop_id":"U1146Z99","name":"Hlavní nádraží","arrival_time":"8:57:00","departure_time":"8:57:00","lat":49.19035,"lon":16.612342,"is_passed":false},{"stop_id":"U1286Z10","name":"Královo Pole, nádraží","arrival_time":"9:14:00","departure_time":"9:14:00","lat":49.231051,"lon":16.596651,"is_passed":false}],"1471":[{"stop_id":"U1286Z11","name":"Královo Pole, nádraží","arrival_time":"6:45:00","departure_time":"6:45:00","lat":49.231051,"lon":16.596651,"is_passed":false},{"stop_id":"U1146Z98","name":"Hlavní nádraží","arrival_time":"6:56:00","departure_time":"7:02:00","lat":49.19035,"lon":16.612342,"is_passed":false},{"stop_id":"U17446Z11","name":"Vyškov, železniční stanice","arrival_time":"7:39:00","departure_time":"7:40:00","lat":49.277222,"lon":16.990833,"is_passed":false}],"1472":[{"stop_id":"U17446Z10","name":"Vyškov, železniční stanice","arrival_time":"9:21:00","departure_time":"9:21:00","lat":49.277222,"lon":16.990833,"is_passed":false},{"stop_id":"U1146Z99","name":"Hlavní nádraží","arrival_time":"9:59:00","departure_time":"9:59:00","lat":49.19035,"lon":16.612342,"is_passed":false},{"stop_id":"U1286Z10","name":"Královo Pole, nádraží","arrival_time":"10:14:00","departure_time":"10:14:00","lat":49.231051,"lon":16.596651,"is_passed":false}],"1473":[{"stop_id":"U1286Z11","name":"Královo Pole, nádraží","arrival_time":"7:45:00","departure_time":"7:45:00","lat":49.231051,"lon":16.596651,"is_passed":false},{"stop_id":"U1146Z98","name":"Hlavní nádraží","arrival_time":"7:56:00","departure_time":"8:02:00","lat":49.19035,"lon":16.612342,"is_passed":false},{"stop_id":"U17446Z11","name":"Vyškov, železniční stanice","arrival_time":"8:39:00","departure_time":"8:40:00","lat":49.277222,"lon":16.990833,"is_passed":false}],"1474":[{"stop_id":"U17446Z10","name":"Vyškov, železniční stanice","arrival_time":"10:21:00","departure_time":"10:21:00","lat":49.277222,"lon":16.990833,"is_passed":false},{"stop_id":"U1146Z99","name":"Hlavní nádraží","arrival_time":"10:59:00","departure_time":"10:59:00","lat":49.19035,"lon":16.612342,"is_passed":false},{"stop_id":"U1286Z10","name":"Královo Pole, nádraží","arrival_time":"11:14:00","departure_time":"11:14:00","lat":49.231051,"lon":16.596651,"is_passed":false}],"1475":[{"stop_id":"U1286Z11","name":"Královo Pole, nádraží","arrival_time":"8:45:00","departure_time":"8:45:00","lat":49.231051,"lon":16.596651,"is_passed":false},{"stop_id":"U1146Z98","name":"Hlavní nádraží","arrival_time":"8:56:00","departure_time":"9:02:00","lat":49.19035,"lon":16.612342,"is_passed":false},{"stop_id":"U17446Z11","name":"Vyškov, železniční stanice","arrival_time":"9:39:00","departure_time":"9:40:00","lat":49.277222,"lon":16.990833,"is_passed":false}],"1476":[{"stop_id":"U17446Z10","name":"Vyškov, železniční stanice","arrival_time":"11:21:00","departure_time":"11:21:00","lat":49.277222,"lon":16.990833,"is_passed":false},{"stop_id":"U1146Z99","name":"Hlavní nádraží","arrival_time":"11:59:00","departure_time":"11:59:00","lat":49.19035,"lon":16.612342,"is_passed":false},{"stop_id":"U1286Z10","name":"Královo Pole, nádraží","arrival_time":"12:14:00","departure_time":"12:14:00","lat":49.231051,"lon":16.596651,"is_passed":false}],"1477":[{"stop_id":"U1286Z11","name":"Královo Pole, nádraží","arrival_time":"9:45:00","departure_time":"9:45:00","lat":49.231051,"lon":16.596651,"is_passed":false},{"stop_id":"U1146Z98","name":"Hlavní nádraží","arrival_time":"9:56:00","departure_time":"10:02:00","lat":49.19035,"lon":16.612342,"is_passed":false},{"stop_id":"U17446Z11","name":"Vyškov, železniční stanice","arrival_time":"10:39:00","departure_time":"10:40:00","lat":49.277222,"lon":16.990833,"is_passed":false}],"1478":[{"stop_id":"U17446Z10","name":"Vyškov, železniční stanice","arrival_time":"12:21:00","departure_time":"12:21:00","lat":49.277222,"lon":16.990833,"is_passed":false},{"stop_id":"U1146Z99","name":"Hlavní nádraží","arrival_time":"12:59:00","departure_time":"12:59:00","lat":49.19035,"lon":16.612342,"is_passed":false},{"stop_id":"U1286Z10","name":"Královo Pole, nádraží","arrival_time":"13:14:00","departure_time":"13:14:00","lat":49.231051,"lon":16.596651,"is_passed":false}],"1479":[{"stop_id":"U1286Z11","name":"Královo Pole, nádraží","arrival_time":"10:45:00","departure_time":"10:45:00","lat":49.231051,"lon":16.596651,"is_passed":false},{"stop_id":"U1146Z98","name":"Hlavní nádraží","arrival_time":"10:56:00","departure_time":"11:02:00","lat":49.19035,"lon":16.612342,"is_passed":false},{"stop_id":"U17446Z11","name":"Vyškov, železniční stanice","arrival_time":"11:39:00","departure_time":"11:40:00","lat":49.277222,"lon":16.990833,"is_passed":false}],"14700":[{"stop_id":"U19316Z10","name":"Veselí nad Moravou, železniční stanice","arrival_time":"15:08:00","departure_time":"15:08:00","lat":48.948694,"lon":17.382439,"is_passed":false},{"stop_id":"U29302Z10","name":"Veselí nad Moravou-Zarazice","arrival_time":"15:10:00","departure_time":"15:11:00","lat":48.937236,"lon":17.361306,"is_passed":false},{"stop_id":"U29303Z10","name":"Vnorovy","arrival_time":"15:13:00","departure_time":"15:13:00","lat":48.931508,"lon":17.348464,"is_passed":false},{"stop_id":"U19205Z10","name":"Strážnice, aut. st.","arrival_time":"15:18:00","departure_time":"15:19:00","lat":48.897385,"lon":17.317688,"is_passed":false},{"stop_id":"U29201Z10","name":"Petrov","arrival_time":"15:23:00","departure_time":"15:23:00","lat":48.878911,"lon":17.273703,"is_passed":false},{"stop_id":"U29202Z10","name":"Sudoměřice nad Moravou","arrival_time":"15:26:00","departure_time":"15:27:00","lat":48.871653,"lon":17.243039,"is_passed":false},{"stop_id":"U29104Z10","name":"Rohatec kolonie","arrival_time":"15:32:00","departure_time":"15:32:00","lat":48.892642,"lon":17.212111,"is_passed":false},{"stop_id":"U29103Z10","name":"Rohatec","arrival_time":"15:35:00","departure_time":"15:35:00","lat":48.892515,"lon":17.197852,"is_passed":false},{"stop_id":"U29102Z10","name":"Rohatec zastávka","arrival_time":"15:37:00","departure_time":"15:38:00","lat":48.88309,"lon":17.178111,"is_passed":false},{"stop_id":"U19001Z20","name":"Hodonín, autobusové nádraží","arrival_time":"15:42:00","departure_time":"15:46:00","lat":48.85575,"lon":17.12069,"is_passed":false}],"14701":[{"stop_id":"U19001Z23","name":"Hodonín, autobusové nádraží","arrival_time":"15:46:00","departure_time":"15:46:00","lat":48.85575,"lon":17.12069,"is_passed":false},{"stop_id":"U29106Z10","name":"Mutěnice","arrival_time":"16:00:00","departure_time":"16:01:00","lat":48.904678,"lon":17.039875,"is_passed":false},{"stop_id":"U29105Z10","name":"Mutěnice zastávka","arrival_time":"16:03:00","departure_time":"16:10:00","lat":48.911986,"lon":17.027008,"is_passed":false},{"stop_id":"U16546Z10","name":"Čejč, železniční stanice","arrival_time":"16:19:00","departure_time":"16:20:00","lat":48.942189,"lon":16.958672,"is_passed":false},{"stop_id":"U16454Z10","name":"Brumovice, železniční stanice","arrival_time":"16:26:00","departure_time":"16:26:00","lat":48.947228,"lon":16.905767,"is_passed":false},{"stop_id":"U25504Z10","name":"Kobylí na Moravě","arrival_time":"16:30:00","departure_time":"16:33:00","lat":48.934022,"lon":16.881272,"is_passed":false}],"14702":[{"stop_id":"U25504Z10","name":"Kobylí na Moravě","arrival_time":"16:33:00","departure_time":"16:33:00","lat":48.934022,"lon":16.881272,"is_passed":false},{"stop_id":"U15513Z10","name":"Bořetice, železniční stanice","arrival_time":"16:37:00","departure_time":"16:38:00","lat":48.916314,"lon":16.850139,"is_passed":false},{"stop_id":"U25503Z10","name":"Velké Pavlovice zastávka","arrival_time":"16:43:00","departure_time":"16:44:00","lat":48.901672,"lon":16.8224,"is_passed":false},{"stop_id":"U25502Z10","name":"Velké Pavlovice","arrival_time":"16:46:00","departure_time":"16:47:00","lat":48.88985,"lon":16.823672,"is_passed":false},{"stop_id":"U15537Z12","name":"Zaječí, železniční stanice","arrival_time":"16:53:00","departure_time":"17:06:00","lat":48.889637,"lon":16.781831,"is_passed":false}],"14703":[{"stop_id":"U15537Z13","name":"Zaječí, železniční stanice","arrival_time":"17:06:00","departure_time":"17:06:00","lat":48.889637,"lon":16.781831,"is_passed":false},{"stop_id":"U25502Z11","name":"Velké Pavlovice","arrival_time":"17:11:00","departure_time":"17:12:00","lat":48.88985,"lon":16.823672,"is_passed":false},{"stop_id":"U25503Z11","name":"Velké Pavlovice zastávka","arrival_time":"17:14:00","departure_time":"17:14:00","lat":48.901672,"lon":16.8224,"is_passed":false},{"stop_id":"U15513Z11","name":"Bořetice, železniční stanice","arrival_time":"17:19:00","departure_time":"17:20:00","lat":48.916314,"lon":16.850139,"is_passed":false},{"stop_id":"U25504Z11","name":"Kobylí na Moravě","arrival_time":"17:25:00","departure_time":"17:26:00","lat":48.934022,"lon":16.881272,"is_passed":false},{"stop_id":"U16454Z11","name":"Brumovice, železniční stanice","arrival_time":"17:29:00","departure_time":"17:29:00","lat":48.947228,"lon":16.905767,"is_passed":false},{"stop_id":"U16546Z11","name":"Čejč, železniční stanice","arrival_time":"17:35:00","departure_time":"17:37:00","lat":48.942189,"lon":16.958672,"is_passed":false}],"14704":[{"stop_id":"U16546Z11","name":"Čejč, železniční stanice","arrival_time":"17:37:00","departure_time":"17:37:00","lat":48.942189,"lon":16.958672,"is_passed":false},{"stop_id":"U29105Z11","name":"Mutěnice zastávka","arrival_time":"17:46:00","departure_time":"17:55:00","lat":48.911986,"lon":17.027008,"is_passed":false},{"stop_id":"U29106Z11","name":"Mutěnice","arrival_time":"17:57:00","departure_time":"18:03:00","lat":48.904678,"lon":17.039875,"is_passed":false},{"stop_id":"U19001Z22","name":"Hodonín, autobusové nádraží","arrival_time":"18:17:00","departure_time":"18:22:00","lat":48.85575,"lon":17.12069,"is_passed":false}],"14705":[{"stop_id":"U19001Z21","name":"Hodonín, autobusové nádraží","arrival_time":"18:22:00","departure_time":"18:22:00","lat":48.85575,"lon":17.12069,"is_passed":false},{"stop_id":"U29102Z11","name":"Rohatec zastávka","arrival_time":"18:26:00","departure_time":"18:27:00","lat":48.88309,"lon":17.178111,"is_passed":false},{"stop_id":"U29103Z11","name":"Rohatec","arrival_time":"18:29:00","departure_time":"18:30:00","lat":48.892515,"lon":17.197852,"is_passed":false},{"stop_id":"U29104Z11","name":"Rohatec kolonie","arrival_time":"18:32:00","departure_time":"18:32:00","lat":48.892642,"lon":17.212111,"is_passed":false},{"stop_id":"U29202Z11","name":"Sudoměřice nad Moravou","arrival_time":"18:37:00","departure_time":"18:38:00","lat":48.871653,"lon":17.243039,"is_passed":false},{"stop_id":"U29201Z11","name":"Petrov","arrival_time":"18:41:00","departure_time":"18:41:00","lat":48.878911,"lon":17.273703,"is_passed":false},{"stop_id":"U19205Z11","name":"Strážnice, aut. st.","arrival_time":"18:45:00","departure_time":"18:46:00","lat":48.897385,"lon":17.317688,"is_passed":false},{"stop_id":"U29303Z11","name":"Vnorovy","arrival_time":"18:50:00","departure_time":"18:50:00","lat":48.931508,"lon":17.348464,"is_passed":false},{"stop_id":"U29302Z11","name":"Veselí nad Moravou-Zarazice","arrival_time":"18:52:00","departure_time":"18:52:00","lat":48.937236,"lon":17.361306,"is_passed":false},{"stop_id":"U19316Z11","name":"Veselí nad Moravou, železniční stanice","arrival_time":"18:55:00","departure_time":"18:55:00","lat":48.948694,"lon":17.382439,"is_passed":false}],"14706":[{"stop_id":"U29502Z10","name":"Javorník nad Veličkou zastávka","arrival_time":"6:34:00","departure_time":"6:34:00","lat":48.860868,"lon":17.520699,"is_passed":false},{"stop_id":"U19530Z10","name":"Velká nad Veličkou, železniční stanice","arrival_time":"6:37:00","departure_time":"6:39:00","lat":48.878631,"lon":17.51092,"is_passed":false},{"stop_id":"U29401Z10","name":"Louka u Ostrohu","arrival_time":"6:43:00","departure_time":"6:43:00","lat":48.912234,"lon":17.484226,"is_passed":false},{"stop_id":"U29402Z10","name":"Lipov","arrival_time":"6:46:00","departure_time":"6:46:00","lat":48.909806,"lon":17.457953,"is_passed":false},{"stop_id":"U29403Z10","name":"Blatnice pod Sv. Antonínkem","arrival_time":"6:51:00","departure_time":"6:51:00","lat":48.941163,"lon":17.437706,"is_passed":false},{"stop_id":"U19316Z10","name":"Veselí nad Moravou, železniční stanice","arrival_time":"6:57:00","departure_time":"7:01:00","lat":48.948694,"lon":17.382439,"is_passed":false}],"14707":[{"stop_id":"U19316Z10","name":"Veselí nad Moravou, železniční stanice","arrival_time":"7:01:00","departure_time":"7:01:00","lat":48.948694,"lon":17.382439,"is_passed":false},{"stop_id":"U29302Z10","name":"Veselí nad Moravou-Zarazice","arrival_time":"7:03:00","departure_time":"7:04:00","lat":48.937236,"lon":17.361306,"is_passed":false},{"stop_id":"U29303Z10","name":"Vnorovy","arrival_time":"7:06:00","departure_time":"7:06:00","lat":48.931508,"lon":17.348464,"is_passed":false},{"stop_id":"U19205Z10","name":"Strážnice, aut. st.","arrival_time":"7:11:00","departure_time":"7:12:00","lat":48.897385,"lon":17.317688,"is_passed":false},{"stop_id":"U29201Z10","name":"Petrov","arrival_time":"7:16:00","departure_time":"7:16:00","lat":48.878911,"lon":17.273703,"is_passed":false},{"stop_id":"U29202Z10","name":"Sudoměřice nad Moravou","arrival_time":"7:19:00","departure_time":"7:20:00","lat":48.871653,"lon":17.243039,"is_passed":false},{"stop_id":"U29104Z10","name":"Rohatec kolonie","arrival_time":"7:25:00","departure_time":"7:25:00","lat":48.892642,"lon":17.212111,"is_passed":false},{"stop_id":"U29103Z10","name":"Rohatec","arrival_time":"7:28:00","departure_time":"7:29:00","lat":48.892515,"lon":17.197852,"is_passed":false},{"stop_id":"U29102Z10","name":"Rohatec zastávka","arrival_time":"7:31:00","departure_time":"7:32:00","lat":48.88309,"lon":17.178111,"is_passed":false},{"stop_id":"U19001Z20","name":"Hodonín, autobusové nádraží","arrival_time":"7:38:00","departure_time":"7:38:00","lat":48.85575,"lon":17.12069,"is_passed":false}],"14708":[{"stop_id":"U25504Z10","name":"Kobylí na Moravě","arrival_time":"8:33:00","departure_time":"8:33:00","lat":48.934022,"lon":16.881272,"is_passed":false},{"stop_id":"U15513Z10","name":"Bořetice, železniční stanice","arrival_time":"8:37:00","departure_time":"8:38:00","lat":48.916314,"lon":16.850139,"is_passed":false},{"stop_id":"U25503Z10","name":"Velké Pavlovice zastávka","arrival_time":"8:43:00","departure_time":"8:44:00","lat":48.901672,"lon":16.8224,"is_passed":false},{"stop_id":"U25502Z10","name":"Velké Pavlovice","arrival_time":"8:46:00","departure_time":"8:47:00","lat":48.88985,"lon":16.823672,"is_passed":false},{"stop_id":"U15537Z12","name":"Zaječí, železniční stanice","arrival_time":"8:53:00","departure_time":"8:53:00","lat":48.889637,"lon":16.781831,"is_passed":false}],"14709":[{"stop_id":"U1146Z98","name":"Hlavní nádraží","arrival_time":"8:35:00","departure_time":"8:35:00","lat":49.19035,"lon":16.612342,"is_passed":false},{"stop_id":"U15425Z11","name":"Šakvice, železniční stanice","arrival_time":"8:53:00","departure_time":"8:55:00","lat":48.912883,"lon":16.70557,"is_passed":false},{"stop_id":"U15537Z11","name":"Zaječí, železniční stanice","arrival_time":"8:59:00","departure_time":"9:00:00","lat":48.889637,"lon":16.781831,"is_passed":false},{"stop_id":"U15619Z11","name":"Podivín, železniční stanice","arrival_time":"9:05:00","departure_time":"9:06:00","lat":48.837726,"lon":16.853526,"is_passed":false},{"stop_id":"U15729Z11","name":"Břeclav, autobusové nádraží","arrival_time":"9:13:00","departure_time":"9:21:00","lat":48.753851,"lon":16.893169,"is_passed":false},{"stop_id":"U19001Z21","name":"Hodonín, autobusové nádraží","arrival_time":"9:33:00","departure_time":"9:37:00","lat":48.85575,"lon":17.12069,"is_passed":false},{"stop_id":"U19302Z11","name":"Moravský Písek, Kolonie, žel. stanice","arrival_time":"9:47:00","departure_time":"9:49:00","lat":48.977119,"lon":17.314582,"is_passed":false},{"stop_id":"U31028Z11","name":"Staré Město u Uherského Hradiště","arrival_time":"9:56:00","departure_time":"11:57:00","lat":49.076212,"lon":17.422903,"is_passed":false}],"14710":[{"stop_id":"U31028Z10","name":"Staré Město u Uherského Hradiště","arrival_time":"11:57:00","departure_time":"11:57:00","lat":49.076247,"lon":17.422785,"is_passed":false},{"stop_id":"U19302Z10","name":"Moravský Písek, Kolonie, žel. stanice","arrival_time":"12:04:00","departure_time":"12:06:00","lat":48.977119,"lon":17.314582,"is_passed":false},{"stop_id":"U19001Z20","name":"Hodonín, autobusové nádraží","arrival_time":"12:17:00","departure_time":"12:23:00","lat":48.85575,"lon":17.12069,"is_passed":false},{"stop_id":"U15729Z10","name":"Břeclav, autobusové nádraží","arrival_time":"12:35:00","departure_time":"12:44:00","lat":48.753851,"lon":16.893169,"is_passed":false},{"stop_id":"U15619Z10","name":"Podivín, železniční stanice","arrival_time":"12:50:00","departure_time":"12:51:00","lat":48.837726,"lon":16.853526,"is_passed":false},{"stop_id":"U15537Z10","name":"Zaječí, železniční stanice","arrival_time":"12:56:00","departure_time":"12:57:00","lat":48.889637,"lon":16.781831,"is_passed":false},{"stop_id":"U15425Z10","name":"Šakvice, železniční stanice","arrival_time":"13:01:00","departure_time":"13:02:00","lat":48.912883,"lon":16.70557,"is_passed":false},{"stop_id":"U1146Z99","name":"Hlavní nádraží","arrival_time":"13:22:00","departure_time":"14:36:00","lat":49.19035,"lon":16.612342,"is_passed":false}],"14711":[{"stop_id":"U1146Z98","name":"Hlavní nádraží","arrival_time":"14:36:00","departure_time":"14:36:00","lat":49.19035,"lon":16.612342,"is_passed":false},{"stop_id":"U15425Z11","name":"Šakvice, železniční stanice","arrival_time":"14:55:00","departure_time":"14:56:00","lat":48.912883,"lon":16.70557,"is_passed":false},{"stop_id":"U15537Z11","name":"Zaječí, železniční stanice","arrival_time":"15:00:00","departure_time":"15:01:00","lat":48.889637,"lon":16.781831,"is_passed":false},{"stop_id":"U15619Z11","name":"Podivín, železniční stanice","arrival_time":"15:07:00","departure_time":"15:08:00","lat":48.837726,"lon":16.853526,"is_passed":false},{"stop_id":"U15729Z11","name":"Břeclav, autobusové nádraží","arrival_time":"15:15:00","departure_time":"15:21:00","lat":48.753851,"lon":16.893169,"is_passed":false},{"stop_id":"U19001Z21","name":"Hodonín, autobusové nádraží","arrival_time":"15:33:00","departure_time":"15:37:00","lat":48.85575,"lon":17.12069,"is_passed":false},{"stop_id":"U19302Z11","name":"Moravský Písek, Kolonie, žel. stanice","arrival_time":"15:47:00","departure_time":"15:49:00","lat":48.977119,"lon":17.314582,"is_passed":false},{"stop_id":"U31028Z11","name":"Staré Město u Uherského Hradiště","arrival_time":"15:56:00","departure_time":"17:57:00","lat":49.076212,"lon":17.422903,"is_passed":false}],"14712":[{"stop_id":"U31028Z10","name":"Staré Město u Uherského Hradiště","arrival_time":"17:57:00","departure_time":"17:57:00","lat":49.076247,"lon":17.422785,"is_passed":false},{"stop_id":"U19302Z10","name":"Moravský Písek, Kolonie, žel. stanice","arrival_time":"18:04:00","departure_time":"18:06:00","lat":48.977119,"lon":17.314582,"is_passed":false},{"stop_id":"U19001Z20","name":"Hodonín, autobusové nádraží","arrival_time":"18:17:00","departure_time":"18:23:00","lat":48.85575,"lon":17.12069,"is_passed":false},{"stop_id":"U15729Z10","name":"Břeclav, autobusové nádraží","arrival_time":"18:35:00","departure_time":"18:44:00","lat":48.753851,"lon":16.893169,"is_passed":false},{"stop_id":"U15619Z10","name":"Podivín, železniční stanice","arrival_time":"18:52:00","departure_time":"18:53:00","lat":48.837726,"lon":16.853526,"is_passed":false},{"stop_id":"U15537Z10","name":"Zaječí, železniční stanice","arrival_time":"18:57:00","departure_time":"18:58:00","lat":48.889637,"lon":16.781831,"is_passed":false},{"stop_id":"U15425Z10","name":"Šakvice, železniční stanice","arrival_time":"19:02:00","departure_time":"19:03:00","lat":48.912883,"lon":16.70557,"is_passed":false},{"stop_id":"U1146Z99","name":"Hlavní nádraží","arrival_time":"19:24:00","departure_time":"19:35:00","lat":49.19035,"lon":16.612342,"is_passed":false}],"14713":[{"stop_id":"U1146Z98","name":"Hlavní nádraží","arrival_time":"19:35:00","departure_time":"19:35:00","lat":49.19035,"lon":16.612342,"is_passed":false},{"stop_id":"U15425Z11","name":"Šakvice, železniční stanice","arrival_time":"19:53:00","departure_time":"19:54:00","lat":48.912883,"lon":16.70557,"is_passed":false},{"stop_id":"U15537Z11","name":"Zaječí, železniční stanice","arrival_time":"19:58:00","departure_time":"19:59:00","lat":48.889637,"lon":16.781831,"is_passed":false},{"stop_id":"U25501Z11","name":"Rakvice","arrival_time":"20:02:00","departure_time":"20:03:00","lat":48.866893,"lon":16.821444,"is_passed":false},{"stop_id":"U15619Z11","name":"Podivín, železniční stanice","arrival_time":"20:06:00","departure_time":"20:07:00","lat":48.837726,"lon":16.853526,"is_passed":false},{"stop_id":"U15729Z11","name":"Břeclav, autobusové nádraží","arrival_time":"20:14:00","departure_time":"20:24:00","lat":48.753851,"lon":16.893169,"is_passed":false},{"stop_id":"U19001Z21","name":"Hodonín, autobusové nádraží","arrival_time":"20:37:00","departure_time":"20:37:00","lat":48.85575,"lon":17.12069,"is_passed":false}],"14714":[{"stop_id":"U1146Z98","name":"Hlavní nádraží","arrival_time":"6:36:00","departure_time":"6:36:00","lat":49.19035,"lon":16.612342,"is_passed":false},{"stop_id":"U15425Z11","name":"Šakvice, železniční stanice","arrival_time":"6:55:00","departure_time":"6:56:00","lat":48.912883,"lon":16.70557,"is_passed":false},{"stop_id":"U15537Z11","name":"Zaječí, železniční stanice","arrival_time":"7:00:00","departure_time":"7:01:00","lat":48.889637,"lon":16.781831,"is_passed":false},{"stop_id":"U15619Z11","name":"Podivín, železniční stanice","arrival_time":"7:07:00","departure_time":"7:08:00","lat":48.837726,"lon":16.853526,"is_passed":false},{"stop_id":"U15729Z11","name":"Břeclav, autobusové nádraží","arrival_time":"7:15:00","departure_time":"7:21:00","lat":48.753851,"lon":16.893169,"is_passed":false},{"stop_id":"U19001Z21","name":"Hodonín, autobusové nádraží","arrival_time":"7:33:00","departure_time":"7:37:00","lat":48.85575,"lon":17.12069,"is_passed":false},{"stop_id":"U19302Z11","name":"Moravský Písek, Kolonie, žel. stanice","arrival_time":"7:47:00","departure_time":"7:49:00","lat":48.977119,"lon":17.314582,"is_passed":false},{"stop_id":"U31028Z11","name":"Staré Město u Uherského Hradiště","arrival_time":"7:56:00","departure_time":"9:57:00","lat":49.076212,"lon":17.422903,"is_passed":false}],"14715":[{"stop_id":"U31028Z10","name":"Staré Město u Uherského Hradiště","arrival_time":"9:57:00","departure_time":"9:57:00","lat":49.076247,"lon":17.422785,"is_passed":false},{"stop_id":"U19302Z10","name":"Moravský Písek, Kolonie, žel. stanice","arrival_time":"10:04:00","departure_time":"10:06:00","lat":48.977119,"lon":17.314582,"is_passed":false},{"stop_id":"U19001Z20","name":"Hodonín, autobusové nádraží","arrival_time":"10:17:00","departure_time":"10:23:00","lat":48.85575,"lon":17.12069,"is_passed":false},{"stop_id":"U15729Z10","name":"Břeclav, autobusové nádraží","arrival_time":"10:35:00","departure_time":"10:44:00","lat":48.753851,"lon":16.893169,"is_passed":false},{"stop_id":"U15619Z10","name":"Podivín, železniční stanice","arrival_time":"10:50:00","departure_time":"10:51:00","lat":48.837726,"lon":16.853526,"is_passed":false},{"stop_id":"U15537Z10","name":"Zaječí, železniční stanice","arrival_time":"10:56:00","departure_time":"10:57:00","lat":48.889637,"lon":16.781831,"is_passed":false},{"stop_id":"U15425Z10","name":"Šakvice, železniční stanice","arrival_time":"11:01:00","departure_time":"11:02:00","lat":48.912883,"lon":16.70557,"is_passed":false},{"stop_id":"U1146Z99","name":"Hlavní nádraží","arrival_time":"11:22:00","departure_time":"12:36:00","lat":49.19035,"lon":16.612342,"is_passed":false}],"14716":[{"stop_id":"U1146Z98","name":"Hlavní nádraží","arrival_time":"12:36:00","departure_time":"12:36:00","lat":49.19035,"lon":16.612342,"is_passed":false},{"stop_id":"U15425Z11","name":"Šakvice, železniční stanice","arrival_time":"12:55:00","departure_time":"12:56:00","lat":48.912883,"lon":16.70557,"is_passed":false},{"stop_id":"U15537Z11","name":"Zaječí, železniční stanice","arrival_time":"13:00:00","departure_time":"13:01:00","lat":48.889637,"lon":16.781831,"is_passed":false},{"stop_id":"U15619Z11","name":"Podivín, železniční stanice","arrival_time":"13:07:00","departure_time":"13:08:00","lat":48.837726,"lon":16.853526,"is_passed":false},{"stop_id":"U15729Z11","name":"Břeclav, autobusové nádraží","arrival_time":"13:15:00","departure_time":"13:21:00","lat":48.753851,"lon":16.893169,"is_passed":false},{"stop_id":"U19001Z21","name":"Hodonín, autobusové nádraží","arrival_time":"13:33:00","departure_time":"13:37:00","lat":48.85575,"lon":17.12069,"is_passed":false},{"stop_id":"U19302Z11","name":"Moravský Písek, Kolonie, žel. stanice","arrival_time":"13:47:00","departure_time":"13:49:00","lat":48.977119,"lon":17.314582,"is_passed":false},{"stop_id":"U31028Z11","name":"Staré Město u Uherského Hradiště","arrival_time":"13:56:00","departure_time":"15:57:00","lat":49.076212,"lon":17.422903,"is_passed":false}],"14717":[{"stop_id":"U31028Z10","name":"Staré Město u Uherského Hradiště","arrival_time":"15:57:00","departure_time":"15:57:00","lat":49.076247,"lon":17.422785,"is_passed":false},{"stop_id":"U19302Z10","name":"Moravský Písek, Kolonie, žel. stanice","arrival_time":"16:04:00","departure_time":"16:06:00","lat":48.977119,"lon":17.314582,"is_passed":false},{"stop_id":"U19001Z20","name":"Hodonín, autobusové nádraží","arrival_time":"16:17:00","departure_time":"16:23:00","lat":48.85575,"lon":17.12069,"is_passed":false},{"stop_id":"U15729Z10","name":"Břeclav, autobusové nádraží","arrival_time":"16:35:00","departure_time":"16:44:00","lat":48.753851,"lon":16.893169,"is_passed":false},{"stop_id":"U15619Z10","name":"Podivín, železniční stanice","arrival_time":"16:50:00","departure_time":"16:51:00","lat":48.837726,"lon":16.853526,"is_passed":false},{"stop_id":"U15537Z10","name":"Zaječí, železniční stanice","arrival_time":"16:56:00","departure_time":"16:57:00","lat":48.889637,"lon":16.781831,"is_passed":false},{"stop_id":"U15425Z10","name":"Šakvice, železniční stanice","arrival_time":"17:01:00","departure_time":"17:02:00","lat":48.912883,"lon":16.70557,"is_passed":false},{"stop_id":"U1146Z99","name":"Hlavní nádraží","arrival_time":"17:23:00","departure_time":"18:35:00","lat":49.19035,"lon":16.612342,"is_passed":false}],"14718":[{"stop_id":"U1146Z98","name":"Hlavní nádraží","arrival_time":"18:35:00","departure_time":"18:35:00","lat":49.19035,"lon":16.612342,"is_passed":false},{"stop_id":"U15425Z11","name":"Šakvice, železniční stanice","arrival_time":"18:54:00","departure_time":"18:56:00","lat":48.912883,"lon":16.70557,"is_passed":false},{"stop_id":"U15537Z11","name":"Zaječí, železniční stanice","arrival_time":"19:00:00","departure_time":"19:01:00","lat":48.889637,"lon":16.781831,"is_passed":false},{"stop_id":"U15619Z11","name":"Podivín, železniční stanice","arrival_time":"19:06:00","departure_time":"19:07:00","lat":48.837726,"lon":16.853526,"is_passed":false},{"stop_id":"U15729Z11","name":"Břeclav, autobusové nádraží","arrival_time":"19:14:00","departure_time":"19:21:00","lat":48.753851,"lon":16.893169,"is_passed":false},{"stop_id":"U19001Z21","name":"Hodonín, autobusové nádraží","arrival_time":"19:33:00","departure_time":"19:37:00","lat":48.85575,"lon":17.12069,"is_passed":false},{"stop_id":"U19302Z11","name":"Moravský Písek, Kolonie, žel. stanice","arrival_time":"19:47:00","departure_time":"19:49:00","lat":48.977119,"lon":17.314582,"is_passed":false},{"stop_id":"U31028Z11","name":"Staré Město u Uherského Hradiště","arrival_time":"19:56:00","departure_time":"21:57:00","lat":49.076212,"lon":17.422903,"is_passed":false}],"14719":[{"stop_id":"U31028Z10","name":"Staré Město u Uherského Hradiště","arrival_time":"21:57:00","departure_time":"21:57:00","lat":49.076247,"lon":17.422785,"is_passed":false},{"stop_id":"U19302Z10","name":"Moravský Písek, Kolonie, žel. stanice","arrival_time":"22:04:00","departure_time":"22:06:00","lat":48.977119,"lon":17.314582,"is_passed":false},{"stop_id":"U19001Z20","name":"Hodonín, autobusové nádraží","arrival_time":"22:17:00","departure_time":"22:19:00","lat":48.85575,"lon":17.12069,"is_passed":false},{"stop_id":"U15729Z10","name":"Břeclav, autobusové nádraží","arrival_time":"22:31:00","departure_time":"22:31:00","lat":48.753851,"lon":16.893169,"is_passed":false}],"14720":[{"stop_id":"U31028Z10","name":"Staré Město u Uherského Hradiště","arrival_time":"7:57:00","departure_time":"7:57:00","lat":49.076247,"lon":17.422785,"is_passed":false},{"stop_id":"U19302Z10","name":"Moravský Písek, Kolonie, žel. stanice","arrival_time":"8:04:00","departure_time":"8:06:00","lat":48.977119,"lon":17.314582,"is_passed":false},{"stop_id":"U19001Z20","name":"Hodonín, autobusové nádraží","arrival_time":"8:17:00","departure_time":"8:23:00","lat":48.85575,"lon":17.12069,"is_passed":false},{"stop_id":"U15729Z10","name":"Břeclav, autobusové nádraží","arrival_time":"8:35:00","departure_time":"8:44:00","lat":48.753851,"lon":16.893169,"is_passed":false},{"stop_id":"U15619Z10","name":"Podivín, železniční stanice","arrival_time":"8:50:00","departure_time":"8:51:00","lat":48.837726,"lon":16.853526,"is_passed":false},{"stop_id":"U15537Z10","name":"Zaječí, železniční stanice","arrival_time":"8:56:00","departure_time":"8:57:00","lat":48.889637,"lon":16.781831,"is_passed":false},{"stop_id":"U15425Z10","name":"Šakvice, železniční stanice","arrival_time":"9:01:00","departure_time":"9:02:00","lat":48.912883,"lon":16.70557,"is_passed":false},{"stop_id":"U1146Z99","name":"Hlavní nádraží","arrival_time":"9:22:00","departure_time":"10:36:00","lat":49.19035,"lon":16.612342,"is_passed":false}],"14721":[{"stop_id":"U1146Z98","name":"Hlavní nádraží","arrival_time":"10:36:00","departure_time":"10:36:00","lat":49.19035,"lon":16.612342,"is_passed":false},{"stop_id":"U15425Z11","name":"Šakvice, železniční stanice","arrival_time":"10:55:00","departure_time":"10:56:00","lat":48.912883,"lon":16.70557,"is_passed":false},{"stop_id":"U15537Z11","name":"Zaječí, železniční stanice","arrival_time":"11:00:00","departure_time":"11:01:00","lat":48.889637,"lon":16.781831,"is_passed":false},{"stop_id":"U15619Z11","name":"Podivín, železniční stanice","arrival_time":"11:07:00","departure_time":"11:08:00","lat":48.837726,"lon":16.853526,"is_passed":false},{"stop_id":"U15729Z11","name":"Břeclav, autobusové nádraží","arrival_time":"11:15:00","departure_time":"11:21:00","lat":48.753851,"lon":16.893169,"is_passed":false},{"stop_id":"U19001Z21","name":"Hodonín, autobusové nádraží","arrival_time":"11:33:00","departure_time":"11:37:00","lat":48.85575,"lon":17.12069,"is_passed":false},{"stop_id":"U19302Z11","name":"Moravský Písek, Kolonie, žel. stanice","arrival_time":"11:47:00","departure_time":"11:49:00","lat":48.977119,"lon":17.314582,"is_passed":false},{"stop_id":"U31028Z11","name":"Staré Město u Uherského Hradiště","arrival_time":"11:56:00","departure_time":"13:57:00","lat":49.076212,"lon":17.422903,"is_passed":false}],"14722":[{"stop_id":"U31028Z10","name":"Staré Město u Uherského Hradiště","arrival_time":"13:57:00","departure_time":"13:57:00","lat":49.076247,"lon":17.422785,"is_passed":false},{"stop_id":"U19302Z10","name":"Moravský Písek, Kolonie, žel. stanice","arrival_time":"14:04:00","departure_time":"14:06:00","lat":48.977119,"lon":17.314582,"is_passed":false},{"stop_id":"U19001Z20","name":"Hodonín, autobusové nádraží","arrival_time":"14:17:00","departure_time":"14:23:00","lat":48.85575,"lon":17.12069,"is_passed":false},{"stop_id":"U15729Z10","name":"Břeclav, autobusové nádraží","arrival_time":"14:35:00","departure_time":"14:44:00","lat":48.753851,"lon":16.893169,"is_passed":false},{"stop_id":"U15619Z10","name":"Podivín, železniční stanice","arrival_time":"14:50:00","departure_time":"14:51:00","lat":48.837726,"lon":16.853526,"is_passed":false},{"stop_id":"U15537Z10","name":"Zaječí, železniční stanice","arrival_time":"14:56:00","departure_time":"14:57:00","lat":48.889637,"lon":16.781831,"is_passed":false},{"stop_id":"U15425Z10","name":"Šakvice, železniční stanice","arrival_time":"15:01:00","departure_time":"15:02:00","lat":48.912883,"lon":16.70557,"is_passed":false},{"stop_id":"U1146Z99","name":"Hlavní nádraží","arrival_time":"15:23:00","departure_time":"16:36:00","lat":49.19035,"lon":16.612342,"is_passed":false}],"14723":[{"stop_id":"U1146Z98","name":"Hlavní nádraží","arrival_time":"16:36:00","departure_time":"16:36:00","lat":49.19035,"lon":16.612342,"is_passed":false},{"stop_id":"U15425Z11","name":"Šakvice, železniční stanice","arrival_time":"16:55:00","departure_time":"16:56:00","lat":48.912883,"lon":16.70557,"is_passed":false},{"stop_id":"U15537Z11","name":"Zaječí, železniční stanice","arrival_time":"17:00:00","departure_time":"17:01:00","lat":48.889637,"lon":16.781831,"is_passed":false},{"stop_id":"U15619Z11","name":"Podivín, železniční stanice","arrival_time":"17:07:00","departure_time":"17:08:00","lat":48.837726,"lon":16.853526,"is_passed":false},{"stop_id":"U15729Z11","name":"Břeclav, autobusové nádraží","arrival_time":"17:15:00","departure_time":"17:21:00","lat":48.753851,"lon":16.893169,"is_passed":false},{"stop_id":"U19001Z21","name":"Hodonín, autobusové nádraží","arrival_time":"17:33:00","departure_time":"17:37:00","lat":48.85575,"lon":17.12069,"is_passed":false},{"stop_id":"U19302Z11","name":"Moravský Písek, Kolonie, žel. stanice","arrival_time":"17:47:00","departure_time":"17:49:00","lat":48.977119,"lon":17.314582,"is_passed":false},{"stop_id":"U31028Z11","name":"Staré Město u Uherského Hradiště","arrival_time":"17:56:00","departure_time":"19:57:00","lat":49.076212,"lon":17.422903,"is_passed":false}],"14724":[{"stop_id":"U31028Z10","name":"Staré Město u Uherského Hradiště","arrival_time":"19:57:00","departure_time":"19:57:00","lat":49.076247,"lon":17.422785,"is_passed":false},{"stop_id":"U19302Z10","name":"Moravský Písek, Kolonie, žel. stanice","arrival_time":"20:04:00","departure_time":"20:06:00","lat":48.977119,"lon":17.314582,"is_passed":false},{"stop_id":"U19001Z20","name":"Hodonín, autobusové nádraží","arrival_time":"20:17:00","departure_time":"20:23:00","lat":48.85575,"lon":17.12069,"is_passed":false},{"stop_id":"U15729Z10","name":"Břeclav, autobusové nádraží","arrival_time":"20:35:00","departure_time":"20:44:00","lat":48.753851,"lon":16.893169,"is_passed":false},{"stop_id":"U15619Z10","name":"Podivín, železniční stanice","arrival_time":"20:50:00","departure_time":"20:51:00","lat":48.837726,"lon":16.853526,"is_passed":false},{"stop_id":"U15537Z10","name":"Zaječí, železniční stanice","arrival_time":"20:56:00","departure_time":"20:57:00","lat":48.889637,"lon":16.781831,"is_passed":false},{"stop_id":"U15425Z10","name":"Šakvice, železniční stanice","arrival_time":"21:01:00","departure_time":"21:02:00","lat":48.912883,"lon":16.70557,"is_passed":false},{"stop_id":"U1146Z99","name":"Hlavní nádraží","arrival_time":"21:22:00","departure_time":"21:22:00","lat":49.19035,"lon":16.612342,"is_passed":false}],"14725":[{"stop_id":"U18009Z22","name":"Znojmo, autobusové nádraží","arrival_time":"11:38:00","departure_time":"11:38:00","lat":48.852761,"lon":16.059287,"is_passed":false},{"stop_id":"U28002Z10","name":"Znojmo nemocnice","arrival_time":"11:41:00","departure_time":"11:41:00","lat":48.865504,"lon":16.048394,"is_passed":false},{"stop_id":"U28103Z10","name":"Citonice","arrival_time":"11:47:00","departure_time":"11:47:00","lat":48.878906,"lon":15.977467,"is_passed":false},{"stop_id":"U18158Z10","name":"Olbramkostel, železniční stanice","arrival_time":"11:52:00","departure_time":"11:53:00","lat":48.903229,"lon":15.949177,"is_passed":false},{"stop_id":"U18259Z10","name":"Šumná, železniční stanice","arrival_time":"12:00:00","departure_time":"12:00:00","lat":48.923097,"lon":15.874306,"is_passed":false},{"stop_id":"U18339Z10","name":"Grešlové Mýto, železniční stanice","arrival_time":"12:08:00","departure_time":"12:08:00","lat":48.98455,"lon":15.874436,"is_passed":false},{"stop_id":"U28401Z10","name":"Blížkovice","arrival_time":"12:11:00","departure_time":"12:12:00","lat":49.004292,"lon":15.854364,"is_passed":false},{"stop_id":"U28501Z10","name":"Vesce","arrival_time":"12:15:00","departure_time":"12:15:00","lat":49.019071,"lon":15.831277,"is_passed":false},{"stop_id":"U28502Z10","name":"Moravské Budějovice","arrival_time":"12:21:00","departure_time":"12:22:00","lat":49.057522,"lon":15.809326,"is_passed":false}],"14726":[{"stop_id":"U18009Z22","name":"Znojmo, autobusové nádraží","arrival_time":"12:58:00","departure_time":"12:58:00","lat":48.852761,"lon":16.059287,"is_passed":false},{"stop_id":"U28002Z10","name":"Znojmo nemocnice","arrival_time":"13:00:00","departure_time":"13:01:00","lat":48.865504,"lon":16.048394,"is_passed":false},{"stop_id":"U18259Z10","name":"Šumná, železniční stanice","arrival_time":"13:16:00","departure_time":"13:17:00","lat":48.923097,"lon":15.874306,"is_passed":false},{"stop_id":"U28502Z10","name":"Moravské Budějovice","arrival_time":"13:32:00","departure_time":"13:33:00","lat":49.057522,"lon":15.809326,"is_passed":false}],"14727":[{"stop_id":"U18009Z22","name":"Znojmo, autobusové nádraží","arrival_time":"14:58:00","departure_time":"14:58:00","lat":48.852761,"lon":16.059287,"is_passed":false},{"stop_id":"U28002Z10","name":"Znojmo nemocnice","arrival_time":"15:00:00","departure_time":"15:01:00","lat":48.865504,"lon":16.048394,"is_passed":false},{"stop_id":"U18259Z10","name":"Šumná, železniční stanice","arrival_time":"15:16:00","departure_time":"15:17:00","lat":48.923097,"lon":15.874306,"is_passed":false},{"stop_id":"U28502Z10","name":"Moravské Budějovice","arrival_time":"15:32:00","departure_time":"15:33:00","lat":49.057522,"lon":15.809326,"is_passed":false}],"14728":[{"stop_id":"U28502Z11","name":"Moravské Budějovice","arrival_time":"13:51:00","departure_time":"13:51:00","lat":49.057522,"lon":15.809326,"is_passed":false},{"stop_id":"U28501Z11","name":"Vesce","arrival_time":"13:57:00","departure_time":"13:57:00","lat":49.019071,"lon":15.831277,"is_passed":false},{"stop_id":"U28401Z11","name":"Blížkovice","arrival_time":"14:00:00","departure_time":"14:00:00","lat":49.004292,"lon":15.854364,"is_passed":false},{"stop_id":"U18339Z11","name":"Grešlové Mýto, železniční stanice","arrival_time":"14:03:00","departure_time":"14:10:00","lat":48.98455,"lon":15.874436,"is_passed":false},{"stop_id":"U18259Z11","name":"Šumná, železniční stanice","arrival_time":"14:17:00","departure_time":"14:18:00","lat":48.923097,"lon":15.874306,"is_passed":false},{"stop_id":"U18158Z11","name":"Olbramkostel, železniční stanice","arrival_time":"14:25:00","departure_time":"14:25:00","lat":48.903229,"lon":15.949177,"is_passed":false},{"stop_id":"U28103Z11","name":"Citonice","arrival_time":"14:29:00","departure_time":"14:29:00","lat":48.878906,"lon":15.977467,"is_passed":false},{"stop_id":"U28002Z11","name":"Znojmo nemocnice","arrival_time":"14:35:00","departure_time":"14:36:00","lat":48.865504,"lon":16.048394,"is_passed":false},{"stop_id":"U18009Z23","name":"Znojmo, autobusové nádraží","arrival_time":"14:39:00","departure_time":"14:39:00","lat":48.852761,"lon":16.059287,"is_passed":false}],"14729":[{"stop_id":"U28502Z11","name":"Moravské Budějovice","arrival_time":"15:51:00","departure_time":"15:51:00","lat":49.057522,"lon":15.809326,"is_passed":false},{"stop_id":"U28501Z11","name":"Vesce","arrival_time":"15:57:00","departure_time":"15:57:00","lat":49.019071,"lon":15.831277,"is_passed":false},{"stop_id":"U28401Z11","name":"Blížkovice","arrival_time":"16:00:00","departure_time":"16:00:00","lat":49.004292,"lon":15.854364,"is_passed":false},{"stop_id":"U18339Z11","name":"Grešlové Mýto, železniční stanice","arrival_time":"16:03:00","departure_time":"16:10:00","lat":48.98455,"lon":15.874436,"is_passed":false},{"stop_id":"U18259Z11","name":"Šumná, železniční stanice","arrival_time":"16:17:00","departure_time":"16:18:00","lat":48.923097,"lon":15.874306,"is_passed":false},{"stop_id":"U18158Z11","name":"Olbramkostel, železniční stanice","arrival_time":"16:25:00","departure_time":"16:25:00","lat":48.903229,"lon":15.949177,"is_passed":false},{"stop_id":"U28103Z11","name":"Citonice","arrival_time":"16:29:00","departure_time":"16:29:00","lat":48.878906,"lon":15.977467,"is_passed":false},{"stop_id":"U28002Z11","name":"Znojmo nemocnice","arrival_time":"16:35:00","departure_time":"16:36:00","lat":48.865504,"lon":16.048394,"is_passed":false},{"stop_id":"U18009Z23","name":"Znojmo, autobusové nádraží","arrival_time":"16:39:00","departure_time":"16:39:00","lat":48.852761,"lon":16.059287,"is_passed":false}],"14730":[{"stop_id":"U28502Z11","name":"Moravské Budějovice","arrival_time":"20:29:00","departure_time":"20:29:00","lat":49.057522,"lon":15.809326,"is_passed":false},{"stop_id":"U18259Z11","name":"Šumná, železniční stanice","arrival_time":"20:45:00","departure_time":"20:45:00","lat":48.923097,"lon":15.874306,"is_passed":false},{"stop_id":"U28002Z11","name":"Znojmo nemocnice","arrival_time":"21:00:00","departure_time":"21:01:00","lat":48.865504,"lon":16.048394,"is_passed":false},{"stop_id":"U18009Z23","name":"Znojmo, autobusové nádraží","arrival_time":"21:04:00","departure_time":"21:04:00","lat":48.852761,"lon":16.059287,"is_passed":false}],"14731":[{"stop_id":"U19001Z20","name":"Hodonín, autobusové nádraží","arrival_time":"5:07:00","departure_time":"5:07:00","lat":48.85575,"lon":17.12069,"is_passed":false},{"stop_id":"U19119Z10","name":"Lužice, železniční stanice","arrival_time":"5:11:00","departure_time":"5:12:00","lat":48.827619,"lon":17.061961,"is_passed":false},{"stop_id":"U19129Z10","name":"Moravská Nová Ves, železniční stanice","arrival_time":"5:15:00","departure_time":"5:16:00","lat":48.799493,"lon":17.021674,"is_passed":false},{"stop_id":"U29101Z10","name":"Hrušky zastávka","arrival_time":"5:19:00","departure_time":"5:19:00","lat":48.786692,"lon":16.980171,"is_passed":false},{"stop_id":"U15729Z10","name":"Břeclav, autobusové nádraží","arrival_time":"5:25:00","departure_time":"5:35:00","lat":48.753851,"lon":16.893169,"is_passed":false}],"14732":[{"stop_id":"U15729Z11","name":"Břeclav, autobusové nádraží","arrival_time":"5:35:00","departure_time":"5:35:00","lat":48.753851,"lon":16.893169,"is_passed":false},{"stop_id":"U29101Z11","name":"Hrušky zastávka","arrival_time":"5:41:00","departure_time":"5:41:00","lat":48.787328,"lon":16.982583,"is_passed":false},{"stop_id":"U19129Z11","name":"Moravská Nová Ves, železniční stanice","arrival_time":"5:44:00","departure_time":"5:45:00","lat":48.799493,"lon":17.021674,"is_passed":false},{"stop_id":"U19119Z11","name":"Lužice, železniční stanice","arrival_time":"5:48:00","departure_time":"5:48:00","lat":48.827619,"lon":17.061961,"is_passed":false},{"stop_id":"U19001Z21","name":"Hodonín, autobusové nádraží","arrival_time":"5:53:00","departure_time":"6:07:00","lat":48.85575,"lon":17.12069,"is_passed":false}],"14733":[{"stop_id":"U19001Z20","name":"Hodonín, autobusové nádraží","arrival_time":"6:07:00","departure_time":"6:07:00","lat":48.85575,"lon":17.12069,"is_passed":false},{"stop_id":"U19119Z10","name":"Lužice, železniční stanice","arrival_time":"6:11:00","departure_time":"6:12:00","lat":48.827619,"lon":17.061961,"is_passed":false},{"stop_id":"U19129Z10","name":"Moravská Nová Ves, železniční stanice","arrival_time":"6:15:00","departure_time":"6:16:00","lat":48.799493,"lon":17.021674,"is_passed":false},{"stop_id":"U29101Z10","name":"Hrušky zastávka","arrival_time":"6:19:00","departure_time":"6:19:00","lat":48.786692,"lon":16.980171,"is_passed":false},{"stop_id":"U15729Z10","name":"Břeclav, autobusové nádraží","arrival_time":"6:25:00","departure_time":"16:04:00","lat":48.753851,"lon":16.893169,"is_passed":false}],"14734":[{"stop_id":"U15729Z11","name":"Břeclav, autobusové nádraží","arrival_time":"16:04:00","departure_time":"16:04:00","lat":48.753851,"lon":16.893169,"is_passed":false},{"stop_id":"U19001Z21","name":"Hodonín, autobusové nádraží","arrival_time":"16:17:00","departure_time":"16:17:00","lat":48.85575,"lon":17.12069,"is_passed":false}],"14735":[{"stop_id":"U19001Z20","name":"Hodonín, autobusové nádraží","arrival_time":"17:20:00","departure_time":"17:20:00","lat":48.85575,"lon":17.12069,"is_passed":false},{"stop_id":"U15729Z10","name":"Břeclav, autobusové nádraží","arrival_time":"17:32:00","departure_time":"17:44:00","lat":48.753851,"lon":16.893169,"is_passed":false}],"14736":[{"stop_id":"U15729Z10","name":"Břeclav, autobusové nádraží","arrival_time":"17:44:00","departure_time":"17:44:00","lat":48.753851,"lon":16.893169,"is_passed":false},{"stop_id":"U15619Z10","name":"Podivín, železniční stanice","arrival_time":"17:52:00","departure_time":"17:53:00","lat":48.837726,"lon":16.853526,"is_passed":false},{"stop_id":"U25501Z10","name":"Rakvice","arrival_time":"17:56:00","departure_time":"17:56:00","lat":48.866893,"lon":16.821444,"is_passed":false},{"stop_id":"U15537Z10","name":"Zaječí, železniční stanice","arrival_time":"17:59:00","departure_time":"18:00:00","lat":48.889637,"lon":16.781831,"is_passed":false},{"stop_id":"U15425Z10","name":"Šakvice, železniční stanice","arrival_time":"18:04:00","departure_time":"18:05:00","lat":48.912883,"lon":16.70557,"is_passed":false},{"stop_id":"U1146Z99","name":"Hlavní nádraží","arrival_time":"18:24:00","departure_time":"18:24:00","lat":49.19035,"lon":16.612342,"is_passed":false}],"14737":[{"stop_id":"U19001Z20","name":"Hodonín, autobusové nádraží","arrival_time":"23:00:00","departure_time":"23:00:00","lat":48.85575,"lon":17.12069,"is_passed":false},{"stop_id":"U19119Z10","name":"Lužice, železniční stanice","arrival_time":"23:05:00","departure_time":"23:05:00","lat":48.827619,"lon":17.061961,"is_passed":false},{"stop_id":"U19129Z10","name":"Moravská Nová Ves, železniční stanice","arrival_time":"23:09:00","departure_time":"23:09:00","lat":48.799493,"lon":17.021674,"is_passed":false},{"stop_id":"U29101Z10","name":"Hrušky zastávka","arrival_time":"23:12:00","departure_time":"23:12:00","lat":48.786692,"lon":16.980171,"is_passed":false},{"stop_id":"U15729Z10","name":"Břeclav, autobusové nádraží","arrival_time":"23:19:00","departure_time":"23:19:00","lat":48.753851,"lon":16.893169,"is_passed":false}],"14738":[{"stop_id":"U1146Z97","name":"Hlavní nádraží","arrival_time":"19:55:00","departure_time":"19:55:00","lat":49.189976,"lon":16.610222,"is_passed":false},{"stop_id":"U11002Z11","name":"Brno-Horní Heršpice","arrival_time":"19:59:00","departure_time":"20:00:00","lat":49.167404,"lon":16.60686,"is_passed":false},{"stop_id":"U11009Z21","name":"Brno-Starý Lískovec","arrival_time":"20:03:00","departure_time":"20:03:00","lat":49.162219,"lon":16.571096,"is_passed":false},{"stop_id":"U14119Z11","name":"Střelice, dolní železniční stanice","arrival_time":"20:08:00","departure_time":"20:09:00","lat":49.156583,"lon":16.506195,"is_passed":false},{"stop_id":"U24101Z2","name":"Střelice","arrival_time":"20:11:00","departure_time":"20:12:00","lat":49.154016,"lon":16.483608,"is_passed":false},{"stop_id":"U24202Z2","name":"Radostice","arrival_time":"20:15:00","departure_time":"20:15:00","lat":49.133611,"lon":16.461945,"is_passed":false},{"stop_id":"U24203Z2","name":"Silůvky","arrival_time":"20:20:00","departure_time":"20:21:00","lat":49.108611,"lon":16.462778,"is_passed":false},{"stop_id":"U14350Z11","name":"Moravské Bránice, žel. st.","arrival_time":"20:25:00","departure_time":"20:29:00","lat":49.084611,"lon":16.428333,"is_passed":false},{"stop_id":"U14479Z11","name":"Moravský Krumlov, železniční stanice","arrival_time":"20:39:00","departure_time":"20:40:00","lat":49.046389,"lon":16.338056,"is_passed":false},{"stop_id":"U14490Z11","name":"Moravský Krumlov, Rakšice, žel.st.","arrival_time":"20:44:00","departure_time":"20:45:00","lat":49.014428,"lon":16.34527,"is_passed":false},{"stop_id":"U24501Z11","name":"Bohutice","arrival_time":"20:49:00","departure_time":"20:50:00","lat":48.987956,"lon":16.356025,"is_passed":false},{"stop_id":"U14555Z11","name":"Miroslav, železniční stanice","arrival_time":"20:56:00","departure_time":"20:57:00","lat":48.93532,"lon":16.362297,"is_passed":false},{"stop_id":"U25506Z11","name":"Dolenice","arrival_time":"21:00:00","departure_time":"21:00:00","lat":48.9122,"lon":16.367822,"is_passed":false},{"stop_id":"U25507Z11","name":"Břežany","arrival_time":"21:05:00","departure_time":"21:05:00","lat":48.873106,"lon":16.367539,"is_passed":false},{"stop_id":"U25603Z11","name":"Pravice","arrival_time":"21:09:00","departure_time":"21:09:00","lat":48.848689,"lon":16.370211,"is_passed":false},{"stop_id":"U15637Z13","name":"Hrušovany nad Jevišovkou, žel. st.","arrival_time":"21:14:00","departure_time":"21:14:00","lat":48.810029,"lon":16.383137,"is_passed":false}],"14739":[{"stop_id":"U1146Z97","name":"Hlavní nádraží","arrival_time":"20:55:00","departure_time":"20:55:00","lat":49.189976,"lon":16.610222,"is_passed":false},{"stop_id":"U11002Z11","name":"Brno-Horní Heršpice","arrival_time":"20:59:00","departure_time":"21:00:00","lat":49.167404,"lon":16.60686,"is_passed":false},{"stop_id":"U11009Z21","name":"Brno-Starý Lískovec","arrival_time":"21:03:00","departure_time":"21:04:00","lat":49.162219,"lon":16.571096,"is_passed":false},{"stop_id":"U14119Z11","name":"Střelice, dolní železniční stanice","arrival_time":"21:08:00","departure_time":"21:09:00","lat":49.156583,"lon":16.506195,"is_passed":false},{"stop_id":"U24101Z2","name":"Střelice","arrival_time":"21:11:00","departure_time":"21:12:00","lat":49.154016,"lon":16.483608,"is_passed":false},{"stop_id":"U24202Z2","name":"Radostice","arrival_time":"21:15:00","departure_time":"21:16:00","lat":49.133611,"lon":16.461945,"is_passed":false},{"stop_id":"U24203Z2","name":"Silůvky","arrival_time":"21:20:00","departure_time":"21:21:00","lat":49.108611,"lon":16.462778,"is_passed":false},{"stop_id":"U14350Z11","name":"Moravské Bránice, žel. st.","arrival_time":"21:25:00","departure_time":"21:29:00","lat":49.084611,"lon":16.428333,"is_passed":false},{"stop_id":"U14479Z11","name":"Moravský Krumlov, železniční stanice","arrival_time":"21:39:00","departure_time":"21:40:00","lat":49.046389,"lon":16.338056,"is_passed":false},{"stop_id":"U14490Z11","name":"Moravský Krumlov, Rakšice, žel.st.","arrival_time":"21:44:00","departure_time":"21:48:00","lat":49.014428,"lon":16.34527,"is_passed":false},{"stop_id":"U24501Z11","name":"Bohutice","arrival_time":"21:52:00","departure_time":"21:53:00","lat":48.987956,"lon":16.356025,"is_passed":false},{"stop_id":"U14555Z11","name":"Miroslav, železniční stanice","arrival_time":"21:58:00","departure_time":"21:59:00","lat":48.93532,"lon":16.362297,"is_passed":false},{"stop_id":"U25506Z11","name":"Dolenice","arrival_time":"22:02:00","departure_time":"22:02:00","lat":48.9122,"lon":16.367822,"is_passed":false},{"stop_id":"U25507Z11","name":"Břežany","arrival_time":"22:07:00","departure_time":"22:07:00","lat":48.873106,"lon":16.367539,"is_passed":false},{"stop_id":"U25603Z11","name":"Pravice","arrival_time":"22:11:00","departure_time":"22:11:00","lat":48.848689,"lon":16.370211,"is_passed":false},{"stop_id":"U15637Z13","name":"Hrušovany nad Jevišovkou, žel. st.","arrival_time":"22:16:00","departure_time":"22:16:00","lat":48.810029,"lon":16.383137,"is_passed":false}],"14740":[{"stop_id":"U14350Z11","name":"Moravské Bránice, žel. st.","arrival_time":"7:31:00","departure_time":"7:31:00","lat":49.084611,"lon":16.428333,"is_passed":false},{"stop_id":"U24402Z2","name":"Ivančice letovisko","arrival_time":"7:35:00","departure_time":"7:35:00","lat":49.094691,"lon":16.402086,"is_passed":false},{"stop_id":"U24403Z2","name":"Ivančice město","arrival_time":"7:38:00","departure_time":"7:39:00","lat":49.099021,"lon":16.382606,"is_passed":false},{"stop_id":"U14454Z11","name":"Ivančice, železniční stanice","arrival_time":"7:41:00","departure_time":"8:16:00","lat":49.098253,"lon":16.372176,"is_passed":false}],"14741":[{"stop_id":"U14454Z10","name":"Ivančice, železniční stanice","arrival_time":"8:16:00","departure_time":"8:16:00","lat":49.098253,"lon":16.372176,"is_passed":false},{"stop_id":"U24403Z1","name":"Ivančice město","arrival_time":"8:17:00","departure_time":"8:18:00","lat":49.099079,"lon":16.382843,"is_passed":false},{"stop_id":"U24402Z1","name":"Ivančice letovisko","arrival_time":"8:21:00","departure_time":"8:21:00","lat":49.094553,"lon":16.402136,"is_passed":false},{"stop_id":"U14350Z10","name":"Moravské Bránice, žel. st.","arrival_time":"8:26:00","departure_time":"8:29:00","lat":49.084611,"lon":16.428333,"is_passed":false}],"14742":[{"stop_id":"U14350Z11","name":"Moravské Bránice, žel. st.","arrival_time":"8:29:00","departure_time":"8:29:00","lat":49.084611,"lon":16.428333,"is_passed":false},{"stop_id":"U14479Z11","name":"Moravský Krumlov, železniční stanice","arrival_time":"8:39:00","departure_time":"8:40:00","lat":49.046389,"lon":16.338056,"is_passed":false},{"stop_id":"U14490Z11","name":"Moravský Krumlov, Rakšice, žel.st.","arrival_time":"8:44:00","departure_time":"8:45:00","lat":49.014428,"lon":16.34527,"is_passed":false},{"stop_id":"U24501Z11","name":"Bohutice","arrival_time":"8:50:00","departure_time":"9:07:00","lat":48.987956,"lon":16.356025,"is_passed":false}],"14743":[{"stop_id":"U24501Z10","name":"Bohutice","arrival_time":"9:07:00","departure_time":"9:07:00","lat":48.987956,"lon":16.356025,"is_passed":false},{"stop_id":"U14490Z10","name":"Moravský Krumlov, Rakšice, žel.st.","arrival_time":"9:11:00","departure_time":"9:12:00","lat":49.014428,"lon":16.34527,"is_passed":false},{"stop_id":"U14479Z10","name":"Moravský Krumlov, železniční stanice","arrival_time":"9:16:00","departure_time":"9:17:00","lat":49.046389,"lon":16.338056,"is_passed":false},{"stop_id":"U14350Z10","name":"Moravské Bránice, žel. st.","arrival_time":"9:28:00","departure_time":"9:31:00","lat":49.084611,"lon":16.428333,"is_passed":false}],"14744":[{"stop_id":"U14350Z11","name":"Moravské Bránice, žel. st.","arrival_time":"9:31:00","departure_time":"9:31:00","lat":49.084611,"lon":16.428333,"is_passed":false},{"stop_id":"U24402Z2","name":"Ivančice letovisko","arrival_time":"9:35:00","departure_time":"9:35:00","lat":49.094691,"lon":16.402086,"is_passed":false},{"stop_id":"U24403Z2","name":"Ivančice město","arrival_time":"9:38:00","departure_time":"9:39:00","lat":49.099021,"lon":16.382606,"is_passed":false},{"stop_id":"U14454Z11","name":"Ivančice, železniční stanice","arrival_time":"9:41:00","departure_time":"10:16:00","lat":49.098253,"lon":16.372176,"is_passed":false}],"14745":[{"stop_id":"U14454Z10","name":"Ivančice, železniční stanice","arrival_time":"10:16:00","departure_time":"10:16:00","lat":49.098253,"lon":16.372176,"is_passed":false},{"stop_id":"U24403Z1","name":"Ivančice město","arrival_time":"10:17:00","departure_time":"10:18:00","lat":49.099079,"lon":16.382843,"is_passed":false},{"stop_id":"U24402Z1","name":"Ivančice letovisko","arrival_time":"10:21:00","departure_time":"10:21:00","lat":49.094553,"lon":16.402136,"is_passed":false},{"stop_id":"U14350Z10","name":"Moravské Bránice, žel. st.","arrival_time":"10:26:00","departure_time":"10:29:00","lat":49.084611,"lon":16.428333,"is_passed":false}],"14746":[{"stop_id":"U14350Z11","name":"Moravské Bránice, žel. st.","arrival_time":"10:29:00","departure_time":"10:29:00","lat":49.084611,"lon":16.428333,"is_passed":false},{"stop_id":"U14479Z11","name":"Moravský Krumlov, železniční stanice","arrival_time":"10:39:00","departure_time":"10:40:00","lat":49.046389,"lon":16.338056,"is_passed":false},{"stop_id":"U14490Z11","name":"Moravský Krumlov, Rakšice, žel.st.","arrival_time":"10:44:00","departure_time":"10:45:00","lat":49.014428,"lon":16.34527,"is_passed":false},{"stop_id":"U24501Z11","name":"Bohutice","arrival_time":"10:50:00","departure_time":"11:07:00","lat":48.987956,"lon":16.356025,"is_passed":false}],"14747":[{"stop_id":"U24501Z10","name":"Bohutice","arrival_time":"11:07:00","departure_time":"11:07:00","lat":48.987956,"lon":16.356025,"is_passed":false},{"stop_id":"U14490Z10","name":"Moravský Krumlov, Rakšice, žel.st.","arrival_time":"11:11:00","departure_time":"11:12:00","lat":49.014428,"lon":16.34527,"is_passed":false},{"stop_id":"U14479Z10","name":"Moravský Krumlov, železniční stanice","arrival_time":"11:16:00","departure_time":"11:17:00","lat":49.046389,"lon":16.338056,"is_passed":false},{"stop_id":"U14350Z10","name":"Moravské Bránice, žel. st.","arrival_time":"11:28:00","departure_time":"11:31:00","lat":49.084611,"lon":16.428333,"is_passed":false}],"14748":[{"stop_id":"U14350Z11","name":"Moravské Bránice, žel. st.","arrival_time":"11:31:00","departure_time":"11:31:00","lat":49.084611,"lon":16.428333,"is_passed":false},{"stop_id":"U24402Z2","name":"Ivančice letovisko","arrival_time":"11:35:00","departure_time":"11:35:00","lat":49.094691,"lon":16.402086,"is_passed":false},{"stop_id":"U24403Z2","name":"Ivančice město","arrival_time":"11:38:00","departure_time":"11:39:00","lat":49.099021,"lon":16.382606,"is_passed":false},{"stop_id":"U14454Z11","name":"Ivančice, železniční stanice","arrival_time":"11:41:00","departure_time":"12:16:00","lat":49.098253,"lon":16.372176,"is_passed":false}],"14749":[{"stop_id":"U14454Z10","name":"Ivančice, železniční stanice","arrival_time":"12:16:00","departure_time":"12:16:00","lat":49.098253,"lon":16.372176,"is_passed":false},{"stop_id":"U24403Z1","name":"Ivančice město","arrival_time":"12:17:00","departure_time":"12:18:00","lat":49.099079,"lon":16.382843,"is_passed":false},{"stop_id":"U24402Z1","name":"Ivančice letovisko","arrival_time":"12:21:00","departure_time":"12:21:00","lat":49.094553,"lon":16.402136,"is_passed":false},{"stop_id":"U14350Z10","name":"Moravské Bránice, žel. st.","arrival_time":"12:26:00","departure_time":"12:26:00","lat":49.084611,"lon":16.428333,"is_passed":false}],"14750":[{"stop_id":"U24501Z10","name":"Bohutice","arrival_time":"6:05:00","departure_time":"6:05:00","lat":48.987956,"lon":16.356025,"is_passed":false},{"stop_id":"U14490Z10","name":"Moravský Krumlov, Rakšice, žel.st.","arrival_time":"6:10:00","departure_time":"6:11:00","lat":49.014428,"lon":16.34527,"is_passed":false},{"stop_id":"U14479Z10","name":"Moravský Krumlov, železniční stanice","arrival_time":"6:16:00","departure_time":"6:17:00","lat":49.046389,"lon":16.338056,"is_passed":false},{"stop_id":"U14350Z10","name":"Moravské Bránice, žel. st.","arrival_time":"6:28:00","departure_time":"6:31:00","lat":49.084611,"lon":16.428333,"is_passed":false},{"stop_id":"U24203Z1","name":"Silůvky","arrival_time":"6:35:00","departure_time":"6:36:00","lat":49.108611,"lon":16.462778,"is_passed":false},{"stop_id":"U24202Z1","name":"Radostice","arrival_time":"6:39:00","departure_time":"6:39:00","lat":49.133611,"lon":16.461945,"is_passed":false},{"stop_id":"U24101Z1","name":"Střelice","arrival_time":"6:44:00","departure_time":"6:45:00","lat":49.153958,"lon":16.483833,"is_passed":false},{"stop_id":"U14119Z10","name":"Střelice, dolní železniční stanice","arrival_time":"6:47:00","departure_time":"6:48:00","lat":49.156488,"lon":16.506231,"is_passed":false},{"stop_id":"U11009Z22","name":"Brno-Starý Lískovec","arrival_time":"6:52:00","departure_time":"6:52:00","lat":49.16217,"lon":16.5711,"is_passed":false},{"stop_id":"U11002Z10","name":"Brno-Horní Heršpice","arrival_time":"6:56:00","departure_time":"6:56:00","lat":49.167404,"lon":16.60686,"is_passed":false},{"stop_id":"U1146Z96","name":"Hlavní nádraží","arrival_time":"7:01:00","departure_time":"7:01:00","lat":49.189976,"lon":16.610222,"is_passed":false}],"14751":[{"stop_id":"U1146Z97","name":"Hlavní nádraží","arrival_time":"11:55:00","departure_time":"11:55:00","lat":49.189976,"lon":16.610222,"is_passed":false},{"stop_id":"U11002Z11","name":"Brno-Horní Heršpice","arrival_time":"11:59:00","departure_time":"12:00:00","lat":49.167404,"lon":16.60686,"is_passed":false},{"stop_id":"U11009Z21","name":"Brno-Starý Lískovec","arrival_time":"12:03:00","departure_time":"12:03:00","lat":49.162219,"lon":16.571096,"is_passed":false},{"stop_id":"U14119Z11","name":"Střelice, dolní železniční stanice","arrival_time":"12:08:00","departure_time":"12:09:00","lat":49.156583,"lon":16.506195,"is_passed":false},{"stop_id":"U24101Z2","name":"Střelice","arrival_time":"12:11:00","departure_time":"12:12:00","lat":49.154016,"lon":16.483608,"is_passed":false},{"stop_id":"U24202Z2","name":"Radostice","arrival_time":"12:15:00","departure_time":"12:15:00","lat":49.133611,"lon":16.461945,"is_passed":false},{"stop_id":"U24203Z2","name":"Silůvky","arrival_time":"12:20:00","departure_time":"12:21:00","lat":49.108611,"lon":16.462778,"is_passed":false},{"stop_id":"U14350Z11","name":"Moravské Bránice, žel. st.","arrival_time":"12:25:00","departure_time":"12:31:00","lat":49.084611,"lon":16.428333,"is_passed":false},{"stop_id":"U24402Z2","name":"Ivančice letovisko","arrival_time":"12:35:00","departure_time":"12:35:00","lat":49.094691,"lon":16.402086,"is_passed":false},{"stop_id":"U24403Z2","name":"Ivančice město","arrival_time":"12:38:00","departure_time":"12:39:00","lat":49.099021,"lon":16.382606,"is_passed":false},{"stop_id":"U14454Z11","name":"Ivančice, železniční stanice","arrival_time":"12:41:00","departure_time":"13:16:00","lat":49.098253,"lon":16.372176,"is_passed":false}],"14752":[{"stop_id":"U14454Z10","name":"Ivančice, železniční stanice","arrival_time":"13:16:00","departure_time":"13:16:00","lat":49.098253,"lon":16.372176,"is_passed":false},{"stop_id":"U24403Z1","name":"Ivančice město","arrival_time":"13:17:00","departure_time":"13:18:00","lat":49.099079,"lon":16.382843,"is_passed":false},{"stop_id":"U24402Z1","name":"Ivančice letovisko","arrival_time":"13:21:00","departure_time":"13:21:00","lat":49.094553,"lon":16.402136,"is_passed":false},{"stop_id":"U14350Z10","name":"Moravské Bránice, žel. st.","arrival_time":"13:26:00","departure_time":"13:31:00","lat":49.084611,"lon":16.428333,"is_passed":false},{"stop_id":"U24203Z1","name":"Silůvky","arrival_time":"13:35:00","departure_time":"13:36:00","lat":49.108611,"lon":16.462778,"is_passed":false},{"stop_id":"U24202Z1","name":"Radostice","arrival_time":"13:39:00","departure_time":"13:39:00","lat":49.133611,"lon":16.461945,"is_passed":false},{"stop_id":"U24101Z1","name":"Střelice","arrival_time":"13:44:00","departure_time":"13:45:00","lat":49.153958,"lon":16.483833,"is_passed":false},{"stop_id":"U14119Z10","name":"Střelice, dolní železniční stanice","arrival_time":"13:47:00","departure_time":"13:48:00","lat":49.156488,"lon":16.506231,"is_passed":false},{"stop_id":"U11009Z22","name":"Brno-Starý Lískovec","arrival_time":"13:52:00","departure_time":"13:52:00","lat":49.16217,"lon":16.5711,"is_passed":false},{"stop_id":"U11002Z10","name":"Brno-Horní Heršpice","arrival_time":"13:56:00","departure_time":"13:56:00","lat":49.167404,"lon":16.60686,"is_passed":false},{"stop_id":"U1146Z96","name":"Hlavní nádraží","arrival_time":"14:05:00","departure_time":"14:05:00","lat":49.189976,"lon":16.610222,"is_passed":false}],"14753":[{"stop_id":"U14350Z11","name":"Moravské Bránice, žel. st.","arrival_time":"15:31:00","departure_time":"15:31:00","lat":49.084611,"lon":16.428333,"is_passed":false},{"stop_id":"U24402Z2","name":"Ivančice letovisko","arrival_time":"15:35:00","departure_time":"15:35:00","lat":49.094691,"lon":16.402086,"is_passed":false},{"stop_id":"U24403Z2","name":"Ivančice město","arrival_time":"15:38:00","departure_time":"15:39:00","lat":49.099021,"lon":16.382606,"is_passed":false},{"stop_id":"U14454Z11","name":"Ivančice, železniční stanice","arrival_time":"15:41:00","departure_time":"16:16:00","lat":49.098253,"lon":16.372176,"is_passed":false}],"14754":[{"stop_id":"U14454Z10","name":"Ivančice, železniční stanice","arrival_time":"16:16:00","departure_time":"16:16:00","lat":49.098253,"lon":16.372176,"is_passed":false},{"stop_id":"U24403Z1","name":"Ivančice město","arrival_time":"16:17:00","departure_time":"16:18:00","lat":49.099079,"lon":16.382843,"is_passed":false},{"stop_id":"U24402Z1","name":"Ivančice letovisko","arrival_time":"16:21:00","departure_time":"16:21:00","lat":49.094553,"lon":16.402136,"is_passed":false},{"stop_id":"U14350Z10","name":"Moravské Bránice, žel. st.","arrival_time":"16:26:00","departure_time":"16:29:00","lat":49.084611,"lon":16.428333,"is_passed":false}],"14755":[{"stop_id":"U14350Z11","name":"Moravské Bránice, žel. st.","arrival_time":"16:29:00","departure_time":"16:29:00","lat":49.084611,"lon":16.428333,"is_passed":false},{"stop_id":"U14479Z11","name":"Moravský Krumlov, železniční stanice","arrival_time":"16:39:00","departure_time":"16:40:00","lat":49.046389,"lon":16.338056,"is_passed":false},{"stop_id":"U14490Z11","name":"Moravský Krumlov, Rakšice, žel.st.","arrival_time":"16:44:00","departure_time":"16:45:00","lat":49.014428,"lon":16.34527,"is_passed":false},{"stop_id":"U24501Z11","name":"Bohutice","arrival_time":"16:50:00","departure_time":"17:07:00","lat":48.987956,"lon":16.356025,"is_passed":false}],"14756":[{"stop_id":"U24501Z10","name":"Bohutice","arrival_time":"17:07:00","departure_time":"17:07:00","lat":48.987956,"lon":16.356025,"is_passed":false},{"stop_id":"U14490Z10","name":"Moravský Krumlov, Rakšice, žel.st.","arrival_time":"17:11:00","departure_time":"17:12:00","lat":49.014428,"lon":16.34527,"is_passed":false},{"stop_id":"U14479Z10","name":"Moravský Krumlov, železniční stanice","arrival_time":"17:16:00","departure_time":"17:17:00","lat":49.046389,"lon":16.338056,"is_passed":false},{"stop_id":"U14350Z10","name":"Moravské Bránice, žel. st.","arrival_time":"17:28:00","departure_time":"17:31:00","lat":49.084611,"lon":16.428333,"is_passed":false}],"14757":[{"stop_id":"U14350Z11","name":"Moravské Bránice, žel. st.","arrival_time":"17:31:00","departure_time":"17:31:00","lat":49.084611,"lon":16.428333,"is_passed":false},{"stop_id":"U24402Z2","name":"Ivančice letovisko","arrival_time":"17:35:00","departure_time":"17:35:00","lat":49.094691,"lon":16.402086,"is_passed":false},{"stop_id":"U24403Z2","name":"Ivančice město","arrival_time":"17:38:00","departure_time":"17:39:00","lat":49.099021,"lon":16.382606,"is_passed":false},{"stop_id":"U14454Z11","name":"Ivančice, železniční stanice","arrival_time":"17:41:00","departure_time":"18:16:00","lat":49.098253,"lon":16.372176,"is_passed":false}],"14758":[{"stop_id":"U14454Z10","name":"Ivančice, železniční stanice","arrival_time":"18:16:00","departure_time":"18:16:00","lat":49.098253,"lon":16.372176,"is_passed":false},{"stop_id":"U24403Z1","name":"Ivančice město","arrival_time":"18:17:00","departure_time":"18:18:00","lat":49.099079,"lon":16.382843,"is_passed":false},{"stop_id":"U24402Z1","name":"Ivančice letovisko","arrival_time":"18:21:00","departure_time":"18:21:00","lat":49.094553,"lon":16.402136,"is_passed":false},{"stop_id":"U14350Z10","name":"Moravské Bránice, žel. st.","arrival_time":"18:26:00","departure_time":"18:29:00","lat":49.084611,"lon":16.428333,"is_passed":false}],"14759":[{"stop_id":"U14350Z11","name":"Moravské Bránice, žel. st.","arrival_time":"18:29:00","departure_time":"18:29:00","lat":49.084611,"lon":16.428333,"is_passed":false},{"stop_id":"U14479Z11","name":"Moravský Krumlov, železniční stanice","arrival_time":"18:39:00","departure_time":"18:40:00","lat":49.046389,"lon":16.338056,"is_passed":false},{"stop_id":"U14490Z11","name":"Moravský Krumlov, Rakšice, žel.st.","arrival_time":"18:44:00","departure_time":"18:45:00","lat":49.014428,"lon":16.34527,"is_passed":false},{"stop_id":"U24501Z11","name":"Bohutice","arrival_time":"18:50:00","departure_time":"19:07:00","lat":48.987956,"lon":16.356025,"is_passed":false}],"14760":[{"stop_id":"U24501Z10","name":"Bohutice","arrival_time":"19:07:00","departure_time":"19:07:00","lat":48.987956,"lon":16.356025,"is_passed":false},{"stop_id":"U14490Z10","name":"Moravský Krumlov, Rakšice, žel.st.","arrival_time":"19:11:00","departure_time":"19:12:00","lat":49.014428,"lon":16.34527,"is_passed":false},{"stop_id":"U14479Z10","name":"Moravský Krumlov, železniční stanice","arrival_time":"19:16:00","departure_time":"19:17:00","lat":49.046389,"lon":16.338056,"is_passed":false},{"stop_id":"U14350Z10","name":"Moravské Bránice, žel. st.","arrival_time":"19:28:00","departure_time":"19:31:00","lat":49.084611,"lon":16.428333,"is_passed":false}],"14761":[{"stop_id":"U14350Z11","name":"Moravské Bránice, žel. st.","arrival_time":"19:31:00","departure_time":"19:31:00","lat":49.084611,"lon":16.428333,"is_passed":false},{"stop_id":"U24402Z2","name":"Ivančice letovisko","arrival_time":"19:35:00","departure_time":"19:35:00","lat":49.094691,"lon":16.402086,"is_passed":false},{"stop_id":"U24403Z2","name":"Ivančice město","arrival_time":"19:38:00","departure_time":"19:39:00","lat":49.099021,"lon":16.382606,"is_passed":false},{"stop_id":"U14454Z11","name":"Ivančice, železniční stanice","arrival_time":"19:41:00","departure_time":"20:16:00","lat":49.098253,"lon":16.372176,"is_passed":false}],"14762":[{"stop_id":"U14454Z10","name":"Ivančice, železniční stanice","arrival_time":"20:16:00","departure_time":"20:16:00","lat":49.098253,"lon":16.372176,"is_passed":false},{"stop_id":"U24403Z1","name":"Ivančice město","arrival_time":"20:17:00","departure_time":"20:18:00","lat":49.099079,"lon":16.382843,"is_passed":false},{"stop_id":"U24402Z1","name":"Ivančice letovisko","arrival_time":"20:21:00","departure_time":"20:21:00","lat":49.094553,"lon":16.402136,"is_passed":false},{"stop_id":"U14350Z10","name":"Moravské Bránice, žel. st.","arrival_time":"20:26:00","departure_time":"20:31:00","lat":49.084611,"lon":16.428333,"is_passed":false}],"14763":[{"stop_id":"U14350Z11","name":"Moravské Bránice, žel. st.","arrival_time":"20:31:00","departure_time":"20:31:00","lat":49.084611,"lon":16.428333,"is_passed":false},{"stop_id":"U24402Z2","name":"Ivančice letovisko","arrival_time":"20:35:00","departure_time":"20:35:00","lat":49.094691,"lon":16.402086,"is_passed":false},{"stop_id":"U24403Z2","name":"Ivančice město","arrival_time":"20:38:00","departure_time":"20:39:00","lat":49.099021,"lon":16.382606,"is_passed":false},{"stop_id":"U14454Z11","name":"Ivančice, železniční stanice","arrival_time":"20:41:00","departure_time":"21:16:00","lat":49.098253,"lon":16.372176,"is_passed":false}],"14764":[{"stop_id":"U14454Z10","name":"Ivančice, železniční stanice","arrival_time":"21:16:00","departure_time":"21:16:00","lat":49.098253,"lon":16.372176,"is_passed":false},{"stop_id":"U24403Z1","name":"Ivančice město","arrival_time":"21:17:00","departure_time":"21:18:00","lat":49.099079,"lon":16.382843,"is_passed":false},{"stop_id":"U24402Z1","name":"Ivančice letovisko","arrival_time":"21:21:00","departure_time":"21:21:00","lat":49.094553,"lon":16.402136,"is_passed":false},{"stop_id":"U14350Z10","name":"Moravské Bránice, žel. st.","arrival_time":"21:26:00","departure_time":"21:31:00","lat":49.084611,"lon":16.428333,"is_passed":false}],"14765":[{"stop_id":"U14350Z11","name":"Moravské Bránice, žel. st.","arrival_time":"21:31:00","departure_time":"21:31:00","lat":49.084611,"lon":16.428333,"is_passed":false},{"stop_id":"U24402Z2","name":"Ivančice letovisko","arrival_time":"21:35:00","departure_time":"21:35:00","lat":49.094691,"lon":16.402086,"is_passed":false},{"stop_id":"U24403Z2","name":"Ivančice město","arrival_time":"21:38:00","departure_time":"21:39:00","lat":49.099021,"lon":16.382606,"is_passed":false},{"stop_id":"U14454Z11","name":"Ivančice, železniční stanice","arrival_time":"21:41:00","departure_time":"22:16:00","lat":49.098253,"lon":16.372176,"is_passed":false}],"14766":[{"stop_id":"U14454Z10","name":"Ivančice, železniční stanice","arrival_time":"22:16:00","departure_time":"22:16:00","lat":49.098253,"lon":16.372176,"is_passed":false},{"stop_id":"U24403Z1","name":"Ivančice město","arrival_time":"22:17:00","departure_time":"22:18:00","lat":49.099079,"lon":16.382843,"is_passed":false},{"stop_id":"U24402Z1","name":"Ivančice letovisko","arrival_time":"22:21:00","departure_time":"22:21:00","lat":49.094553,"lon":16.402136,"is_passed":false},{"stop_id":"U14350Z10","name":"Moravské Bránice, žel. st.","arrival_time":"22:26:00","departure_time":"22:31:00","lat":49.084611,"lon":16.428333,"is_passed":false}],"14767":[{"stop_id":"U14350Z11","name":"Moravské Bránice, žel. st.","arrival_time":"22:31:00","departure_time":"22:31:00","lat":49.084611,"lon":16.428333,"is_passed":false},{"stop_id":"U24402Z2","name":"Ivančice letovisko","arrival_time":"22:35:00","departure_time":"22:35:00","lat":49.094691,"lon":16.402086,"is_passed":false},{"stop_id":"U24403Z2","name":"Ivančice město","arrival_time":"22:38:00","departure_time":"22:39:00","lat":49.099021,"lon":16.382606,"is_passed":false},{"stop_id":"U14454Z11","name":"Ivančice, železniční stanice","arrival_time":"22:41:00","departure_time":"23:16:00","lat":49.098253,"lon":16.372176,"is_passed":false}],"14768":[{"stop_id":"U14454Z10","name":"Ivančice, železniční stanice","arrival_time":"23:16:00","departure_time":"23:16:00","lat":49.098253,"lon":16.372176,"is_passed":false},{"stop_id":"U24403Z1","name":"Ivančice město","arrival_time":"23:17:00","departure_time":"23:18:00","lat":49.099079,"lon":16.382843,"is_passed":false},{"stop_id":"U24402Z1","name":"Ivančice letovisko","arrival_time":"23:21:00","departure_time":"23:21:00","lat":49.094553,"lon":16.402136,"is_passed":false},{"stop_id":"U14350Z10","name":"Moravské Bránice, žel. st.","arrival_time":"23:26:00","departure_time":"23:31:00","lat":49.084611,"lon":16.428333,"is_passed":false}],"14769":[{"stop_id":"U14350Z11","name":"Moravské Bránice, žel. st.","arrival_time":"23:31:00","departure_time":"23:31:00","lat":49.084611,"lon":16.428333,"is_passed":false},{"stop_id":"U24402Z2","name":"Ivančice letovisko","arrival_time":"23:35:00","departure_time":"23:35:00","lat":49.094691,"lon":16.402086,"is_passed":false},{"stop_id":"U24403Z2","name":"Ivančice město","arrival_time":"23:38:00","departure_time":"23:39:00","lat":49.099021,"lon":16.382606,"is_passed":false},{"stop_id":"U14454Z11","name":"Ivančice, železniční stanice","arrival_time":"23:41:00","departure_time":"23:41:00","lat":49.098253,"lon":16.372176,"is_passed":false}],"14770":[{"stop_id":"U14242Z21","name":"Zastávka, železniční stanice","arrival_time":"6:15:00","departure_time":"6:15:00","lat":49.187463,"lon":16.358639,"is_passed":false},{"stop_id":"U24301Z2","name":"Vysoké Popovice","arrival_time":"6:21:00","departure_time":"6:21:00","lat":49.178333,"lon":16.291111,"is_passed":false},{"stop_id":"U14435Z11","name":"Rapotice, železniční stanice","arrival_time":"6:25:00","departure_time":"6:28:00","lat":49.184028,"lon":16.256111,"is_passed":false},{"stop_id":"U24401Z2","name":"Kralice nad Oslavou","arrival_time":"6:32:00","departure_time":"6:32:00","lat":49.192355,"lon":16.203612,"is_passed":false},{"stop_id":"U14507Z51","name":"Náměšť nad Oslavou, autobusové nádraží","arrival_time":"6:43:00","departure_time":"6:43:00","lat":49.207007,"lon":16.14766,"is_passed":false}],"14771":[{"stop_id":"U14507Z52","name":"Náměšť nad Oslavou, autobusové nádraží","arrival_time":"8:12:00","departure_time":"8:12:00","lat":49.207007,"lon":16.14766,"is_passed":false},{"stop_id":"U24401Z1","name":"Kralice nad Oslavou","arrival_time":"8:18:00","departure_time":"8:21:00","lat":49.192471,"lon":16.203748,"is_passed":false},{"stop_id":"U14435Z10","name":"Rapotice, železniční stanice","arrival_time":"8:27:00","departure_time":"8:28:00","lat":49.184028,"lon":16.256111,"is_passed":false},{"stop_id":"U24301Z1","name":"Vysoké Popovice","arrival_time":"8:31:00","departure_time":"8:32:00","lat":49.178333,"lon":16.291111,"is_passed":false},{"stop_id":"U14242Z20","name":"Zastávka, železniční stanice","arrival_time":"8:38:00","departure_time":"9:16:00","lat":49.187405,"lon":16.358754,"is_passed":false}],"14772":[{"stop_id":"U14242Z21","name":"Zastávka, železniční stanice","arrival_time":"9:16:00","departure_time":"9:16:00","lat":49.187463,"lon":16.358639,"is_passed":false},{"stop_id":"U24301Z2","name":"Vysoké Popovice","arrival_time":"9:22:00","departure_time":"9:22:00","lat":49.178333,"lon":16.291111,"is_passed":false},{"stop_id":"U14435Z11","name":"Rapotice, železniční stanice","arrival_time":"9:26:00","departure_time":"9:27:00","lat":49.184028,"lon":16.256111,"is_passed":false},{"stop_id":"U24401Z2","name":"Kralice nad Oslavou","arrival_time":"9:31:00","departure_time":"9:31:00","lat":49.192355,"lon":16.203612,"is_passed":false},{"stop_id":"U14507Z51","name":"Náměšť nad Oslavou, autobusové nádraží","arrival_time":"9:43:00","departure_time":"9:51:00","lat":49.207007,"lon":16.14766,"is_passed":false}],"14773":[{"stop_id":"U14507Z52","name":"Náměšť nad Oslavou, autobusové nádraží","arrival_time":"12:12:00","departure_time":"12:12:00","lat":49.207007,"lon":16.14766,"is_passed":false},{"stop_id":"U24401Z1","name":"Kralice nad Oslavou","arrival_time":"12:18:00","departure_time":"12:22:00","lat":49.192471,"lon":16.203748,"is_passed":false},{"stop_id":"U14435Z10","name":"Rapotice, železniční stanice","arrival_time":"12:27:00","departure_time":"12:28:00","lat":49.184028,"lon":16.256111,"is_passed":false},{"stop_id":"U24301Z1","name":"Vysoké Popovice","arrival_time":"12:31:00","departure_time":"12:32:00","lat":49.178333,"lon":16.291111,"is_passed":false},{"stop_id":"U14242Z20","name":"Zastávka, železniční stanice","arrival_time":"12:38:00","departure_time":"13:16:00","lat":49.187405,"lon":16.358754,"is_passed":false}],"14774":[{"stop_id":"U14242Z21","name":"Zastávka, železniční stanice","arrival_time":"13:16:00","departure_time":"13:16:00","lat":49.187463,"lon":16.358639,"is_passed":false},{"stop_id":"U24301Z2","name":"Vysoké Popovice","arrival_time":"13:22:00","departure_time":"13:22:00","lat":49.178333,"lon":16.291111,"is_passed":false},{"stop_id":"U14435Z11","name":"Rapotice, železniční stanice","arrival_time":"13:26:00","departure_time":"13:27:00","lat":49.184028,"lon":16.256111,"is_passed":false},{"stop_id":"U24401Z2","name":"Kralice nad Oslavou","arrival_time":"13:31:00","departure_time":"13:31:00","lat":49.192355,"lon":16.203612,"is_passed":false},{"stop_id":"U14507Z51","name":"Náměšť nad Oslavou, autobusové nádraží","arrival_time":"13:43:00","departure_time":"13:51:00","lat":49.207007,"lon":16.14766,"is_passed":false}],"14775":[{"stop_id":"U14507Z52","name":"Náměšť nad Oslavou, autobusové nádraží","arrival_time":"20:12:00","departure_time":"20:12:00","lat":49.207007,"lon":16.14766,"is_passed":false},{"stop_id":"U24401Z1","name":"Kralice nad Oslavou","arrival_time":"20:18:00","departure_time":"20:21:00","lat":49.192471,"lon":16.203748,"is_passed":false},{"stop_id":"U14435Z10","name":"Rapotice, železniční stanice","arrival_time":"20:26:00","departure_time":"20:28:00","lat":49.184028,"lon":16.256111,"is_passed":false},{"stop_id":"U24301Z1","name":"Vysoké Popovice","arrival_time":"20:31:00","departure_time":"20:32:00","lat":49.178333,"lon":16.291111,"is_passed":false},{"stop_id":"U14242Z20","name":"Zastávka, železniční stanice","arrival_time":"20:38:00","departure_time":"21:15:00","lat":49.187405,"lon":16.358754,"is_passed":false}],"14776":[{"stop_id":"U14242Z21","name":"Zastávka, železniční stanice","arrival_time":"21:15:00","departure_time":"21:15:00","lat":49.187463,"lon":16.358639,"is_passed":false},{"stop_id":"U24301Z2","name":"Vysoké Popovice","arrival_time":"21:21:00","departure_time":"21:22:00","lat":49.178333,"lon":16.291111,"is_passed":false},{"stop_id":"U14435Z11","name":"Rapotice, železniční stanice","arrival_time":"21:26:00","departure_time":"21:27:00","lat":49.184028,"lon":16.256111,"is_passed":false},{"stop_id":"U24401Z2","name":"Kralice nad Oslavou","arrival_time":"21:32:00","departure_time":"21:32:00","lat":49.192355,"lon":16.203612,"is_passed":false},{"stop_id":"U14507Z51","name":"Náměšť nad Oslavou, autobusové nádraží","arrival_time":"21:43:00","departure_time":"21:44:00","lat":49.207007,"lon":16.14766,"is_passed":false}],"14777":[{"stop_id":"U1146Z98","name":"Hlavní nádraží","arrival_time":"21:21:00","departure_time":"21:21:00","lat":49.19035,"lon":16.612342,"is_passed":false},{"stop_id":"U17446Z11","name":"Vyškov, železniční stanice","arrival_time":"21:57:00","departure_time":"22:01:00","lat":49.277222,"lon":16.990833,"is_passed":false},{"stop_id":"U17514Z21","name":"Ivanovice na Hané, aut. st.","arrival_time":"22:09:00","departure_time":"22:09:00","lat":49.306111,"lon":17.086945,"is_passed":false},{"stop_id":"U27503Z2","name":"Nezamyslice","arrival_time":"22:22:00","departure_time":"22:23:00","lat":49.336,"lon":17.1625,"is_passed":false}],"14778":[{"stop_id":"U27503Z1","name":"Nezamyslice","arrival_time":"21:39:00","departure_time":"21:39:00","lat":49.336,"lon":17.1625,"is_passed":false},{"stop_id":"U17514Z20","name":"Ivanovice na Hané, aut. st.","arrival_time":"21:45:00","departure_time":"21:49:00","lat":49.306111,"lon":17.086945,"is_passed":false},{"stop_id":"U17446Z10","name":"Vyškov, železniční stanice","arrival_time":"21:57:00","departure_time":"22:00:00","lat":49.277222,"lon":16.990833,"is_passed":false},{"stop_id":"U1146Z99","name":"Hlavní nádraží","arrival_time":"22:36:00","departure_time":"22:36:00","lat":49.19035,"lon":16.612342,"is_passed":false}],"14779":[{"stop_id":"U27503Z1","name":"Nezamyslice","arrival_time":"20:22:00","departure_time":"20:22:00","lat":49.336,"lon":17.1625,"is_passed":false},{"stop_id":"U17514Z20","name":"Ivanovice na Hané, aut. st.","arrival_time":"20:28:00","departure_time":"20:29:00","lat":49.306111,"lon":17.086945,"is_passed":false},{"stop_id":"U17446Z10","name":"Vyškov, železniční stanice","arrival_time":"20:36:00","departure_time":"20:41:00","lat":49.277222,"lon":16.990833,"is_passed":false},{"stop_id":"U1146Z99","name":"Hlavní nádraží","arrival_time":"21:18:00","departure_time":"21:18:00","lat":49.19035,"lon":16.612342,"is_passed":false}],"14780":[{"stop_id":"U19316Z13","name":"Veselí nad Moravou, železniční stanice","arrival_time":"6:03:00","departure_time":"6:03:00","lat":48.948694,"lon":17.382439,"is_passed":false},{"stop_id":"U19310Z12","name":"Veselí nad Moravou, Milokošť","arrival_time":"6:06:00","departure_time":"6:06:00","lat":48.967085,"lon":17.398881,"is_passed":false},{"stop_id":"U29404Z11","name":"Uherský Ostroh","arrival_time":"6:09:00","departure_time":"6:09:00","lat":48.981817,"lon":17.403441,"is_passed":false},{"stop_id":"U30314Z1","name":"Ostrožská Nová Ves","arrival_time":"6:13:00","departure_time":"6:14:00","lat":49.009594,"lon":17.436368,"is_passed":false},{"stop_id":"U31103Z1","name":"Ostrožská Nová Ves lázně","arrival_time":"6:16:00","departure_time":"6:16:00","lat":49.018181,"lon":17.446255,"is_passed":false},{"stop_id":"U31025Z2","name":"Kunovice zastávka","arrival_time":"6:19:00","departure_time":"6:19:00","lat":49.038039,"lon":17.461023,"is_passed":false},{"stop_id":"U31027Z2","name":"Uherské Hradiště","arrival_time":"6:24:00","departure_time":"6:24:00","lat":49.066825,"lon":17.457085,"is_passed":false}],"14781":[{"stop_id":"U31027Z1","name":"Uherské Hradiště","arrival_time":"6:30:00","departure_time":"6:30:00","lat":49.066881,"lon":17.457171,"is_passed":false},{"stop_id":"U31026Z2","name":"Kunovice","arrival_time":"6:33:00","departure_time":"6:43:00","lat":49.051914,"lon":17.470711,"is_passed":false}],"14782":[{"stop_id":"U31026Z1","name":"Kunovice","arrival_time":"6:43:00","departure_time":"6:43:00","lat":49.051998,"lon":17.470067,"is_passed":false},{"stop_id":"U31027Z2","name":"Uherské Hradiště","arrival_time":"6:46:00","departure_time":"7:35:00","lat":49.066825,"lon":17.457085,"is_passed":false}],"14783":[{"stop_id":"U31027Z1","name":"Uherské Hradiště","arrival_time":"7:35:00","departure_time":"7:35:00","lat":49.066881,"lon":17.457171,"is_passed":false},{"stop_id":"U31025Z1","name":"Kunovice zastávka","arrival_time":"7:39:00","departure_time":"7:39:00","lat":49.038454,"lon":17.46113,"is_passed":false},{"stop_id":"U31103Z2","name":"Ostrožská Nová Ves lázně","arrival_time":"7:42:00","departure_time":"7:42:00","lat":49.018181,"lon":17.446255,"is_passed":false},{"stop_id":"U30314Z2","name":"Ostrožská Nová Ves","arrival_time":"7:44:00","departure_time":"7:45:00","lat":49.009975,"lon":17.436797,"is_passed":false},{"stop_id":"U29404Z10","name":"Uherský Ostroh","arrival_time":"7:49:00","departure_time":"7:49:00","lat":48.982198,"lon":17.403538,"is_passed":false},{"stop_id":"U19310Z11","name":"Veselí nad Moravou, Milokošť","arrival_time":"7:52:00","departure_time":"7:52:00","lat":48.966999,"lon":17.398828,"is_passed":false},{"stop_id":"U19316Z12","name":"Veselí nad Moravou, železniční stanice","arrival_time":"7:56:00","departure_time":"7:57:00","lat":48.948694,"lon":17.382439,"is_passed":false},{"stop_id":"U16908Z10","name":"Bzenec, železniční stanice","arrival_time":"8:05:00","departure_time":"8:06:00","lat":48.969173,"lon":17.263183,"is_passed":false},{"stop_id":"U26802Z10","name":"Vracov","arrival_time":"8:09:00","departure_time":"8:10:00","lat":48.97657,"lon":17.220097,"is_passed":false},{"stop_id":"U26801Z10","name":"Vlkoš","arrival_time":"8:15:00","departure_time":"8:15:00","lat":48.98791,"lon":17.166472,"is_passed":false},{"stop_id":"U26603Z1","name":"Kyjov zastávka","arrival_time":"8:20:00","departure_time":"8:20:00","lat":49.003312,"lon":17.123835,"is_passed":false},{"stop_id":"U16650Z50","name":"Kyjov, železniční stanice","arrival_time":"8:23:00","departure_time":"8:25:00","lat":49.016226,"lon":17.122949,"is_passed":false},{"stop_id":"U16604Z10","name":"Kyjov, Bohuslavice, železniční stanice","arrival_time":"8:30:00","departure_time":"8:30:00","lat":49.055833,"lon":17.118917,"is_passed":false},{"stop_id":"U26601Z1","name":"Jestřabice","arrival_time":"8:35:00","departure_time":"8:35:00","lat":49.088889,"lon":17.113333,"is_passed":false},{"stop_id":"U16503Z10","name":"Nemotice, železniční stanice","arrival_time":"8:41:00","departure_time":"8:42:00","lat":49.133033,"lon":17.114422,"is_passed":false},{"stop_id":"U16628Z10","name":"Brankovice, železniční stanice","arrival_time":"8:46:00","departure_time":"8:47:00","lat":49.150361,"lon":17.13375,"is_passed":false},{"stop_id":"U16509Z10","name":"Nesovice, železniční stanice","arrival_time":"8:51:00","departure_time":"8:52:00","lat":49.149315,"lon":17.080192,"is_passed":false},{"stop_id":"U26501Z1","name":"Nevojice","arrival_time":"8:56:00","departure_time":"8:56:00","lat":49.136847,"lon":17.04775,"is_passed":false},{"stop_id":"U16463Z50","name":"Bučovice, železniční stanice","arrival_time":"9:00:00","departure_time":"9:01:00","lat":49.145619,"lon":16.999658,"is_passed":false},{"stop_id":"U16406Z10","name":"Bučovice, Marefy, žel. st.","arrival_time":"9:04:00","departure_time":"9:04:00","lat":49.149232,"lon":16.972808,"is_passed":false},{"stop_id":"U16318Z10","name":"Křižanovice, žel. st.","arrival_time":"9:07:00","departure_time":"9:07:00","lat":49.145047,"lon":16.935893,"is_passed":false},{"stop_id":"U16333Z10","name":"Slavkov u Brna, žel. st.","arrival_time":"9:12:00","departure_time":"9:13:00","lat":49.14495,"lon":16.873475,"is_passed":false},{"stop_id":"U16211Z10","name":"Křenovice, dol. žel. st.","arrival_time":"9:16:00","departure_time":"9:17:00","lat":49.143679,"lon":16.834698,"is_passed":false},{"stop_id":"U26103Z1","name":"Blažovice","arrival_time":"9:22:00","departure_time":"9:23:00","lat":49.163735,"lon":16.798179,"is_passed":false},{"stop_id":"U16121Z10","name":"Ponětovice, železniční stanice","arrival_time":"9:27:00","departure_time":"9:27:00","lat":49.154709,"lon":16.748578,"is_passed":false},{"stop_id":"U16137Z10","name":"Šlapanice, železniční stanice","arrival_time":"9:29:00","departure_time":"9:30:00","lat":49.156975,"lon":16.729526,"is_passed":false},{"stop_id":"U16136Z11","name":"Šlapanice, železniční zastávka","arrival_time":"9:32:00","departure_time":"9:32:00","lat":49.163384,"lon":16.719877,"is_passed":false},{"stop_id":"U1573Z10","name":"Slatina, nádraží","arrival_time":"9:36:00","departure_time":"9:37:00","lat":49.169478,"lon":16.682148,"is_passed":false},{"stop_id":"U1146Z99","name":"Hlavní nádraží","arrival_time":"9:48:00","departure_time":"9:48:00","lat":49.19035,"lon":16.612342,"is_passed":false}],"14784":[{"stop_id":"U16650Z51","name":"Kyjov, železniční stanice","arrival_time":"6:32:00","departure_time":"6:32:00","lat":49.016263,"lon":17.122856,"is_passed":false},{"stop_id":"U26603Z2","name":"Kyjov zastávka","arrival_time":"6:35:00","departure_time":"6:35:00","lat":49.003383,"lon":17.123528,"is_passed":false},{"stop_id":"U26801Z11","name":"Vlkoš","arrival_time":"6:40:00","departure_time":"6:40:00","lat":48.987902,"lon":17.166624,"is_passed":false},{"stop_id":"U26802Z11","name":"Vracov","arrival_time":"6:44:00","departure_time":"6:45:00","lat":48.976674,"lon":17.218698,"is_passed":false},{"stop_id":"U16908Z11","name":"Bzenec, železniční stanice","arrival_time":"6:48:00","departure_time":"6:49:00","lat":48.969173,"lon":17.263183,"is_passed":false},{"stop_id":"U19316Z13","name":"Veselí nad Moravou, železniční stanice","arrival_time":"6:58:00","departure_time":"7:07:00","lat":48.948694,"lon":17.382439,"is_passed":false},{"stop_id":"U19310Z12","name":"Veselí nad Moravou, Milokošť","arrival_time":"7:10:00","departure_time":"7:10:00","lat":48.967085,"lon":17.398881,"is_passed":false},{"stop_id":"U29404Z11","name":"Uherský Ostroh","arrival_time":"7:12:00","departure_time":"7:13:00","lat":48.981817,"lon":17.403441,"is_passed":false},{"stop_id":"U30314Z1","name":"Ostrožská Nová Ves","arrival_time":"7:17:00","departure_time":"7:18:00","lat":49.009594,"lon":17.436368,"is_passed":false},{"stop_id":"U31025Z2","name":"Kunovice zastávka","arrival_time":"7:22:00","departure_time":"7:22:00","lat":49.038039,"lon":17.461023,"is_passed":false},{"stop_id":"U31027Z2","name":"Uherské Hradiště","arrival_time":"7:26:00","departure_time":"7:52:00","lat":49.066825,"lon":17.457085,"is_passed":false},{"stop_id":"U31028Z2","name":"Staré Město u Uherského Hradiště","arrival_time":"7:58:00","departure_time":"8:27:00","lat":49.076022,"lon":17.42271,"is_passed":false}],"14785":[{"stop_id":"U31028Z1","name":"Staré Město u Uherského Hradiště","arrival_time":"8:27:00","departure_time":"8:27:00","lat":49.076029,"lon":17.422624,"is_passed":false},{"stop_id":"U31027Z1","name":"Uherské Hradiště","arrival_time":"8:33:00","departure_time":"8:36:00","lat":49.066881,"lon":17.457171,"is_passed":false},{"stop_id":"U31025Z1","name":"Kunovice zastávka","arrival_time":"8:40:00","departure_time":"8:40:00","lat":49.038454,"lon":17.46113,"is_passed":false},{"stop_id":"U30314Z2","name":"Ostrožská Nová Ves","arrival_time":"8:45:00","departure_time":"8:46:00","lat":49.009975,"lon":17.436797,"is_passed":false},{"stop_id":"U29404Z10","name":"Uherský Ostroh","arrival_time":"8:50:00","departure_time":"8:51:00","lat":48.982198,"lon":17.403538,"is_passed":false},{"stop_id":"U19316Z12","name":"Veselí nad Moravou, železniční stanice","arrival_time":"8:56:00","departure_time":"9:01:00","lat":48.948694,"lon":17.382439,"is_passed":false},{"stop_id":"U16908Z10","name":"Bzenec, železniční stanice","arrival_time":"9:09:00","departure_time":"9:10:00","lat":48.969173,"lon":17.263183,"is_passed":false},{"stop_id":"U26802Z10","name":"Vracov","arrival_time":"9:14:00","departure_time":"9:15:00","lat":48.97657,"lon":17.220097,"is_passed":false},{"stop_id":"U26603Z1","name":"Kyjov zastávka","arrival_time":"9:23:00","departure_time":"9:23:00","lat":49.003312,"lon":17.123835,"is_passed":false},{"stop_id":"U16650Z50","name":"Kyjov, železniční stanice","arrival_time":"9:27:00","departure_time":"9:28:00","lat":49.016226,"lon":17.122949,"is_passed":false},{"stop_id":"U16503Z10","name":"Nemotice, železniční stanice","arrival_time":"9:41:00","departure_time":"9:42:00","lat":49.133033,"lon":17.114422,"is_passed":false},{"stop_id":"U16509Z10","name":"Nesovice, železniční stanice","arrival_time":"9:50:00","departure_time":"9:50:00","lat":49.149315,"lon":17.080192,"is_passed":false},{"stop_id":"U16463Z50","name":"Bučovice, železniční stanice","arrival_time":"9:57:00","departure_time":"9:58:00","lat":49.145619,"lon":16.999658,"is_passed":false},{"stop_id":"U16333Z10","name":"Slavkov u Brna, žel. st.","arrival_time":"10:06:00","departure_time":"10:08:00","lat":49.14495,"lon":16.873475,"is_passed":false},{"stop_id":"U1146Z99","name":"Hlavní nádraží","arrival_time":"10:33:00","departure_time":"11:28:00","lat":49.19035,"lon":16.612342,"is_passed":false}],"14786":[{"stop_id":"U1146Z98","name":"Hlavní nádraží","arrival_time":"11:28:00","departure_time":"11:28:00","lat":49.19035,"lon":16.612342,"is_passed":false},{"stop_id":"U16333Z11","name":"Slavkov u Brna, žel. st.","arrival_time":"11:52:00","departure_time":"11:53:00","lat":49.14495,"lon":16.873475,"is_passed":false},{"stop_id":"U16463Z51","name":"Bučovice, železniční stanice","arrival_time":"12:01:00","departure_time":"12:02:00","lat":49.145619,"lon":16.999658,"is_passed":false},{"stop_id":"U16509Z11","name":"Nesovice, železniční stanice","arrival_time":"12:09:00","departure_time":"12:10:00","lat":49.14916,"lon":17.079897,"is_passed":false},{"stop_id":"U16503Z11","name":"Nemotice, železniční stanice","arrival_time":"12:17:00","departure_time":"12:18:00","lat":49.132992,"lon":17.114242,"is_passed":false},{"stop_id":"U16650Z51","name":"Kyjov, železniční stanice","arrival_time":"12:31:00","departure_time":"12:32:00","lat":49.016263,"lon":17.122856,"is_passed":false},{"stop_id":"U26603Z2","name":"Kyjov zastávka","arrival_time":"12:35:00","departure_time":"12:35:00","lat":49.003383,"lon":17.123528,"is_passed":false},{"stop_id":"U26802Z11","name":"Vracov","arrival_time":"12:44:00","departure_time":"12:45:00","lat":48.976674,"lon":17.218698,"is_passed":false},{"stop_id":"U16908Z11","name":"Bzenec, železniční stanice","arrival_time":"12:48:00","departure_time":"12:49:00","lat":48.969173,"lon":17.263183,"is_passed":false},{"stop_id":"U19316Z13","name":"Veselí nad Moravou, železniční stanice","arrival_time":"12:58:00","departure_time":"13:00:00","lat":48.948694,"lon":17.382439,"is_passed":false},{"stop_id":"U29404Z11","name":"Uherský Ostroh","arrival_time":"13:04:00","departure_time":"13:05:00","lat":48.981817,"lon":17.403441,"is_passed":false},{"stop_id":"U30314Z1","name":"Ostrožská Nová Ves","arrival_time":"13:09:00","departure_time":"13:09:00","lat":49.009594,"lon":17.436368,"is_passed":false},{"stop_id":"U31025Z2","name":"Kunovice zastávka","arrival_time":"13:13:00","departure_time":"13:14:00","lat":49.038039,"lon":17.461023,"is_passed":false},{"stop_id":"U31027Z2","name":"Uherské Hradiště","arrival_time":"13:18:00","departure_time":"13:20:00","lat":49.066825,"lon":17.457085,"is_passed":false},{"stop_id":"U31028Z2","name":"Staré Město u Uherského Hradiště","arrival_time":"13:26:00","departure_time":"14:27:00","lat":49.076022,"lon":17.42271,"is_passed":false}],"14787":[{"stop_id":"U31028Z1","name":"Staré Město u Uherského Hradiště","arrival_time":"14:27:00","departure_time":"14:27:00","lat":49.076029,"lon":17.422624,"is_passed":false},{"stop_id":"U31027Z1","name":"Uherské Hradiště","arrival_time":"14:33:00","departure_time":"14:36:00","lat":49.066881,"lon":17.457171,"is_passed":false},{"stop_id":"U31025Z1","name":"Kunovice zastávka","arrival_time":"14:40:00","departure_time":"14:40:00","lat":49.038454,"lon":17.46113,"is_passed":false},{"stop_id":"U30314Z2","name":"Ostrožská Nová Ves","arrival_time":"14:45:00","departure_time":"14:46:00","lat":49.009975,"lon":17.436797,"is_passed":false},{"stop_id":"U29404Z10","name":"Uherský Ostroh","arrival_time":"14:50:00","departure_time":"14:51:00","lat":48.982198,"lon":17.403538,"is_passed":false},{"stop_id":"U19316Z12","name":"Veselí nad Moravou, železniční stanice","arrival_time":"14:56:00","departure_time":"15:01:00","lat":48.948694,"lon":17.382439,"is_passed":false},{"stop_id":"U16908Z10","name":"Bzenec, železniční stanice","arrival_time":"15:09:00","departure_time":"15:10:00","lat":48.969173,"lon":17.263183,"is_passed":false},{"stop_id":"U26802Z10","name":"Vracov","arrival_time":"15:14:00","departure_time":"15:15:00","lat":48.97657,"lon":17.220097,"is_passed":false},{"stop_id":"U26603Z1","name":"Kyjov zastávka","arrival_time":"15:23:00","departure_time":"15:23:00","lat":49.003312,"lon":17.123835,"is_passed":false},{"stop_id":"U16650Z50","name":"Kyjov, železniční stanice","arrival_time":"15:27:00","departure_time":"15:28:00","lat":49.016226,"lon":17.122949,"is_passed":false},{"stop_id":"U16503Z10","name":"Nemotice, železniční stanice","arrival_time":"15:41:00","departure_time":"15:42:00","lat":49.133033,"lon":17.114422,"is_passed":false},{"stop_id":"U16509Z10","name":"Nesovice, železniční stanice","arrival_time":"15:50:00","departure_time":"15:50:00","lat":49.149315,"lon":17.080192,"is_passed":false},{"stop_id":"U16463Z50","name":"Bučovice, železniční stanice","arrival_time":"15:57:00","departure_time":"15:58:00","lat":49.145619,"lon":16.999658,"is_passed":false},{"stop_id":"U16333Z10","name":"Slavkov u Brna, žel. st.","arrival_time":"16:06:00","departure_time":"16:08:00","lat":49.14495,"lon":16.873475,"is_passed":false},{"stop_id":"U1146Z99","name":"Hlavní nádraží","arrival_time":"16:33:00","departure_time":"22:25:00","lat":49.19035,"lon":16.612342,"is_passed":false}],"14788":[{"stop_id":"U1146Z98","name":"Hlavní nádraží","arrival_time":"22:25:00","departure_time":"22:25:00","lat":49.19035,"lon":16.612342,"is_passed":false},{"stop_id":"U1809Z10","name":"Židenice, nádraží","arrival_time":"22:30:00","departure_time":"22:33:00","lat":49.204282,"lon":16.636042,"is_passed":false},{"stop_id":"U1573Z11","name":"Slatina, nádraží","arrival_time":"22:40:00","departure_time":"22:40:00","lat":49.169478,"lon":16.682148,"is_passed":false},{"stop_id":"U16136Z12","name":"Šlapanice, železniční zastávka","arrival_time":"22:44:00","departure_time":"22:44:00","lat":49.163296,"lon":16.719903,"is_passed":false},{"stop_id":"U16137Z11","name":"Šlapanice, železniční stanice","arrival_time":"22:46:00","departure_time":"22:46:00","lat":49.156915,"lon":16.729568,"is_passed":false},{"stop_id":"U16121Z11","name":"Ponětovice, železniční stanice","arrival_time":"22:49:00","departure_time":"22:49:00","lat":49.154709,"lon":16.748578,"is_passed":false},{"stop_id":"U26103Z2","name":"Blažovice","arrival_time":"22:53:00","departure_time":"22:54:00","lat":49.163735,"lon":16.798179,"is_passed":false},{"stop_id":"U16211Z11","name":"Křenovice, dol. žel. st.","arrival_time":"22:58:00","departure_time":"22:58:00","lat":49.144304,"lon":16.834023,"is_passed":false},