{"147":[{"stop_id":"U1696Z5","name":"ÚAN Zvonařka","arrival_time":"18:04:00","departure_time":"18:04:00","lat":49.185364,"lon":16.616151,"is_passed":false},{"stop_id":"U1677Z3","name":"Tržní","arrival_time":"18:08:00","departure_time":"18:08:00","lat":49.189342,"lon":16.630314,"is_passed":false},{"stop_id":"U17335Z2","name":"Rousínov, autobusová stanice","arrival_time":"18:28:00","departure_time":"18:29:00","lat":49.20291,"lon":16.88497,"is_passed":false},{"stop_id":"U17331Z1","name":"Rousínov, Čechyně, rozcestí","arrival_time":"18:31:00","departure_time":"18:31:00","lat":49.207062,"lon":16.891572,"is_passed":false},{"stop_id":"U17311Z3","name":"Komořany, EDP","arrival_time":"18:34:00","departure_time":"18:34:00","lat":49.220008,"lon":16.905058,"is_passed":false},{"stop_id":"U17344Z1","name":"Tučapy, rozcestí","arrival_time":"18:36:00","departure_time":"18:36:00","lat":49.227308,"lon":16.915917,"is_passed":false},{"stop_id":"U17328Z1","name":"Luleč, rozcestí","arrival_time":"18:38:00","departure_time":"18:38:00","lat":49.248113,"lon":16.944733,"is_passed":false},{"stop_id":"U17428Z1","name":"Vyškov, Drnovská Bioveta","arrival_time":"18:40:00","departure_time":"18:40:00","lat":49.254302,"lon":16.95682,"is_passed":false},{"stop_id":"U17435Z1","name":"Vyškov, Nouzka","arrival_time":"18:43:00","departure_time":"18:43:00","lat":49.267372,"lon":16.982268,"is_passed":false},{"stop_id":"U17429Z1","name":"Vyškov, garáže ČSAD","arrival_time":"18:44:00","departure_time":"18:44:00","lat":49.271332,"lon":16.989108,"is_passed":false},{"stop_id":"U17423Z21","name":"Vyškov, Autobusové nádraží","arrival_time":"18:46:00","departure_time":"19:16:00","lat":49.275819,"lon":16.992078,"is_passed":false}],"1470":[{"stop_id":"U19530Z10","name":"Velká nad Veličkou, železniční stanice","arrival_time":"5:40:00","departure_time":"5:40:00","lat":48.878631,"lon":17.51092,"is_passed":false},{"stop_id":"U29401Z10","name":"Louka u Ostrohu","arrival_time":"5:45:00","departure_time":"5:45:00","lat":48.912234,"lon":17.484226,"is_passed":false},{"stop_id":"U29402Z10","name":"Lipov","arrival_time":"5:48:00","departure_time":"5:48:00","lat":48.909806,"lon":17.457953,"is_passed":false},{"stop_id":"U29403Z10","name":"Blatnice pod Sv. Antonínkem","arrival_time":"5:53:00","departure_time":"5:53:00","lat":48.941163,"lon":17.437706,"is_passed":false},{"stop_id":"U19316Z10","name":"Veselí nad Moravou, železniční stanice","arrival_time":"5:58:00","departure_time":"6:02:00","lat":48.948694,"lon":17.382439,"is_passed":false},{"stop_id":"U29302Z10","name":"Veselí nad Moravou-Zarazice","arrival_time":"6:04:00","departure_time":"6:05:00","lat":48.937236,"lon":17.361306,"is_passed":false},{"stop_id":"U29303Z10","name":"Vnorovy","arrival_time":"6:07:00","departure_time":"6:07:00","lat":48.931508,"lon":17.348464,"is_passed":false},{"stop_id":"U19205Z10","name":"Strážnice, aut. st.","arrival_time":"6:12:00","departure_time":"6:13:00","lat":48.897385,"lon":17.317688,"is_passed":false},{"stop_id":"U29201Z10","name":"Petrov","arrival_time":"6:17:00","departure_time":"6:17:00","lat":48.878911,"lon":17.273703,"is_passed":false},{"stop_id":"U29202Z10","name":"Sudoměřice nad Moravou","arrival_time":"6:20:00","departure_time":"6:21:00","lat":48.871653,"lon":17.243039,"is_passed":false},{"stop_id":"U29104Z10","name":"Rohatec kolonie","arrival_time":"6:26:00","departure_time":"6:26:00","lat":48.892642,"lon":17.212111,"is_passed":false},{"stop_id":"U29103Z10","name":"Rohatec","arrival_time":"6:29:00","departure_time":"6:29:00","lat":48.892515,"lon":17.197852,"is_passed":false},{"stop_id":"U29102Z10","name":"Rohatec zastávka","arrival_time":"6:32:00","departure_time":"6:32:00","lat":48.88309,"lon":17.178111,"is_passed":false},{"stop_id":"U19001Z20","name":"Hodonín, autobusové nádraží","arrival_time":"6:39:00","departure_time":"7:03:00","lat":48.85575,"lon":17.12069,"is_passed":false}],"1471":[{"stop_id":"U19001Z21","name":"Hodonín, autobusové nádraží","arrival_time":"7:03:00","departure_time":"7:03:00","lat":48.85575,"lon":17.12069,"is_passed":false},{"stop_id":"U29102Z11","name":"Rohatec zastávka","arrival_time":"7:07:00","departure_time":"7:08:00","lat":48.88309,"lon":17.178111,"is_passed":false},{"stop_id":"U29103Z11","name":"Rohatec","arrival_time":"7:10:00","departure_time":"7:10:00","lat":48.892515,"lon":17.197852,"is_passed":false},{"stop_id":"U29104Z11","name":"Rohatec kolonie","arrival_time":"7:12:00","departure_time":"7:12:00","lat":48.892642,"lon":17.212111,"is_passed":false},{"stop_id":"U29202Z11","name":"Sudoměřice nad Moravou","arrival_time":"7:18:00","departure_time":"7:23:00","lat":48.871653,"lon":17.243039,"is_passed":false},{"stop_id":"U29201Z11","name":"Petrov","arrival_time":"7:26:00","departure_time":"7:26:00","lat":48.878911,"lon":17.273703,"is_passed":false},{"stop_id":"U19205Z11","name":"Strážnice, aut. st.","arrival_time":"7:30:00","departure_time":"7:32:00","lat":48.897385,"lon":17.317688,"is_passed":false},{"stop_id":"U29303Z11","name":"Vnorovy","arrival_time":"7:36:00","departure_time":"7:36:00","lat":48.931508,"lon":17.348464,"is_passed":false},{"stop_id":"U29302Z11","name":"Veselí nad Moravou-Zarazice","arrival_time":"7:38:00","departure_time":"7:38:00","lat":48.937236,"lon":17.361306,"is_passed":false},{"stop_id":"U19316Z11","name":"Veselí nad Moravou, železniční stanice","arrival_time":"7:41:00","departure_time":"12:12:00","lat":48.948694,"lon":17.382439,"is_passed":false}],"1472":[{"stop_id":"U19316Z10","name":"Veselí nad Moravou, železniční stanice","arrival_time":"12:12:00","departure_time":"12:12:00","lat":48.948694,"lon":17.382439,"is_passed":false},{"stop_id":"U29302Z10","name":"Veselí nad Moravou-Zarazice","arrival_time":"12:14:00","departure_time":"12:15:00","lat":48.937236,"lon":17.361306,"is_passed":false},{"stop_id":"U29303Z10","name":"Vnorovy","arrival_time":"12:17:00","departure_time":"12:17:00","lat":48.931508,"lon":17.348464,"is_passed":false},{"stop_id":"U19205Z10","name":"Strážnice, aut. st.","arrival_time":"12:22:00","departure_time":"12:23:00","lat":48.897385,"lon":17.317688,"is_passed":false},{"stop_id":"U29201Z10","name":"Petrov","arrival_time":"12:27:00","departure_time":"12:27:00","lat":48.878911,"lon":17.273703,"is_passed":false},{"stop_id":"U29202Z10","name":"Sudoměřice nad Moravou","arrival_time":"12:30:00","departure_time":"12:33:00","lat":48.871653,"lon":17.243039,"is_passed":false},{"stop_id":"U29104Z10","name":"Rohatec kolonie","arrival_time":"12:38:00","departure_time":"12:38:00","lat":48.892642,"lon":17.212111,"is_passed":false},{"stop_id":"U29103Z10","name":"Rohatec","arrival_time":"12:41:00","departure_time":"12:41:00","lat":48.892515,"lon":17.197852,"is_passed":false},{"stop_id":"U29102Z10","name":"Rohatec zastávka","arrival_time":"12:43:00","departure_time":"12:44:00","lat":48.88309,"lon":17.178111,"is_passed":false},{"stop_id":"U19001Z20","name":"Hodonín, autobusové nádraží","arrival_time":"12:49:00","departure_time":"13:17:00","lat":48.85575,"lon":17.12069,"is_passed":false}],"1473":[{"stop_id":"U19001Z21","name":"Hodonín, autobusové nádraží","arrival_time":"13:17:00","departure_time":"13:17:00","lat":48.85575,"lon":17.12069,"is_passed":false},{"stop_id":"U29102Z11","name":"Rohatec zastávka","arrival_time":"13:21:00","departure_time":"13:22:00","lat":48.88309,"lon":17.178111,"is_passed":false},{"stop_id":"U29103Z11","name":"Rohatec","arrival_time":"13:24:00","departure_time":"13:24:00","lat":48.892515,"lon":17.197852,"is_passed":false},{"stop_id":"U29104Z11","name":"Rohatec kolonie","arrival_time":"13:27:00","departure_time":"13:27:00","lat":48.892642,"lon":17.212111,"is_passed":false},{"stop_id":"U29202Z11","name":"Sudoměřice nad Moravou","arrival_time":"13:32:00","departure_time":"13:33:00","lat":48.871653,"lon":17.243039,"is_passed":false},{"stop_id":"U29201Z11","name":"Petrov","arrival_time":"13:36:00","departure_time":"13:36:00","lat":48.878911,"lon":17.273703,"is_passed":false},{"stop_id":"U19205Z11","name":"Strážnice, aut. st.","arrival_time":"13:40:00","departure_time":"13:45:00","lat":48.897385,"lon":17.317688,"is_passed":false},{"stop_id":"U29303Z11","name":"Vnorovy","arrival_time":"13:49:00","departure_time":"13:49:00","lat":48.931508,"lon":17.348464,"is_passed":false},{"stop_id":"U29302Z11","name":"Veselí nad Moravou-Zarazice","arrival_time":"13:51:00","departure_time":"13:51:00","lat":48.937236,"lon":17.361306,"is_passed":false},{"stop_id":"U19316Z11","name":"Veselí nad Moravou, železniční stanice","arrival_time":"13:54:00","departure_time":"14:08:00","lat":48.948694,"lon":17.382439,"is_passed":false},{"stop_id":"U29403Z11","name":"Blatnice pod Sv. Antonínkem","arrival_time":"14:12:00","departure_time":"14:12:00","lat":48.941163,"lon":17.437706,"is_passed":false},{"stop_id":"U29402Z11","name":"Lipov","arrival_time":"14:17:00","departure_time":"14:17:00","lat":48.909806,"lon":17.457953,"is_passed":false},{"stop_id":"U29401Z11","name":"Louka u Ostrohu","arrival_time":"14:20:00","departure_time":"14:20:00","lat":48.912234,"lon":17.484226,"is_passed":false},{"stop_id":"U19530Z11","name":"Velká nad Veličkou, železniční stanice","arrival_time":"14:26:00","departure_time":"15:35:00","lat":48.878631,"lon":17.51092,"is_passed":false}],"1474":[{"stop_id":"U19530Z10","name":"Velká nad Veličkou, železniční stanice","arrival_time":"15:35:00","departure_time":"15:35:00","lat":48.878631,"lon":17.51092,"is_passed":false},{"stop_id":"U29401Z10","name":"Louka u Ostrohu","arrival_time":"15:39:00","departure_time":"15:39:00","lat":48.912234,"lon":17.484226,"is_passed":false},{"stop_id":"U29402Z10","name":"Lipov","arrival_time":"15:42:00","departure_time":"15:42:00","lat":48.909806,"lon":17.457953,"is_passed":false},{"stop_id":"U29403Z10","name":"Blatnice pod Sv. Antonínkem","arrival_time":"15:47:00","departure_time":"15:47:00","lat":48.941163,"lon":17.437706,"is_passed":false},{"stop_id":"U19316Z10","name":"Veselí nad Moravou, železniční stanice","arrival_time":"15:53:00","departure_time":"16:12:00","lat":48.948694,"lon":17.382439,"is_passed":false},{"stop_id":"U29302Z10","name":"Veselí nad Moravou-Zarazice","arrival_time":"16:14:00","departure_time":"16:15:00","lat":48.937236,"lon":17.361306,"is_passed":false},{"stop_id":"U29303Z10","name":"Vnorovy","arrival_time":"16:17:00","departure_time":"16:17:00","lat":48.931508,"lon":17.348464,"is_passed":false},{"stop_id":"U19205Z10","name":"Strážnice, aut. st.","arrival_time":"16:22:00","departure_time":"16:23:00","lat":48.897385,"lon":17.317688,"is_passed":false},{"stop_id":"U29201Z10","name":"Petrov","arrival_time":"16:27:00","departure_time":"16:27:00","lat":48.878911,"lon":17.273703,"is_passed":false},{"stop_id":"U29202Z10","name":"Sudoměřice nad Moravou","arrival_time":"16:30:00","departure_time":"16:34:00","lat":48.871653,"lon":17.243039,"is_passed":false},{"stop_id":"U29104Z10","name":"Rohatec kolonie","arrival_time":"16:39:00","departure_time":"16:39:00","lat":48.892642,"lon":17.212111,"is_passed":false},{"stop_id":"U29103Z10","name":"Rohatec","arrival_time":"16:42:00","departure_time":"16:42:00","lat":48.892515,"lon":17.197852,"is_passed":false},{"stop_id":"U29102Z10","name":"Rohatec zastávka","arrival_time":"16:44:00","departure_time":"16:45:00","lat":48.88309,"lon":17.178111,"is_passed":false},{"stop_id":"U19001Z20","name":"Hodonín, autobusové nádraží","arrival_time":"16:50:00","departure_time":"17:17:00","lat":48.85575,"lon":17.12069,"is_passed":false}],"1475":[{"stop_id":"U19001Z21","name":"Hodonín, autobusové nádraží","arrival_time":"17:17:00","departure_time":"17:17:00","lat":48.85575,"lon":17.12069,"is_passed":false},{"stop_id":"U29102Z11","name":"Rohatec zastávka","arrival_time":"17:21:00","departure_time":"17:22:00","lat":48.88309,"lon":17.178111,"is_passed":false},{"stop_id":"U29103Z11","name":"Rohatec","arrival_time":"17:24:00","departure_time":"17:25:00","lat":48.892515,"lon":17.197852,"is_passed":false},{"stop_id":"U29104Z11","name":"Rohatec kolonie","arrival_time":"17:27:00","departure_time":"17:27:00","lat":48.892642,"lon":17.212111,"is_passed":false},{"stop_id":"U29202Z11","name":"Sudoměřice nad Moravou","arrival_time":"17:32:00","departure_time":"17:33:00","lat":48.871653,"lon":17.243039,"is_passed":false},{"stop_id":"U29201Z11","name":"Petrov","arrival_time":"17:36:00","departure_time":"17:36:00","lat":48.878911,"lon":17.273703,"is_passed":false},{"stop_id":"U19205Z11","name":"Strážnice, aut. st.","arrival_time":"17:40:00","departure_time":"17:41:00","lat":48.897385,"lon":17.317688,"is_passed":false},{"stop_id":"U29303Z11","name":"Vnorovy","arrival_time":"17:45:00","departure_time":"17:46:00","lat":48.931508,"lon":17.348464,"is_passed":false},{"stop_id":"U29302Z11","name":"Veselí nad Moravou-Zarazice","arrival_time":"17:48:00","departure_time":"17:48:00","lat":48.937236,"lon":17.361306,"is_passed":false},{"stop_id":"U19316Z11","name":"Veselí nad Moravou, železniční stanice","arrival_time":"17:51:00","departure_time":"18:08:00","lat":48.948694,"lon":17.382439,"is_passed":false},{"stop_id":"U29403Z11","name":"Blatnice pod Sv. Antonínkem","arrival_time":"18:12:00","departure_time":"18:12:00","lat":48.941163,"lon":17.437706,"is_passed":false},{"stop_id":"U29402Z11","name":"Lipov","arrival_time":"18:17:00","departure_time":"18:17:00","lat":48.909806,"lon":17.457953,"is_passed":false},{"stop_id":"U29401Z11","name":"Louka u Ostrohu","arrival_time":"18:20:00","departure_time":"18:20:00","lat":48.912234,"lon":17.484226,"is_passed":false},{"stop_id":"U19530Z11","name":"Velká nad Veličkou, železniční stanice","arrival_time":"18:26:00","departure_time":"19:35:00","lat":48.878631,"lon":17.51092,"is_passed":false}],"1476":[{"stop_id":"U19530Z10","name":"Velká nad Veličkou, železniční stanice","arrival_time":"19:35:00","departure_time":"19:35:00","lat":48.878631,"lon":17.51092,"is_passed":false},{"stop_id":"U29401Z10","name":"Louka u Ostrohu","arrival_time":"19:40:00","departure_time":"19:40:00","lat":48.912234,"lon":17.484226,"is_passed":false},{"stop_id":"U29402Z10","name":"Lipov","arrival_time":"19:42:00","departure_time":"19:43:00","lat":48.909806,"lon":17.457953,"is_passed":false},{"stop_id":"U29403Z10","name":"Blatnice pod Sv. Antonínkem","arrival_time":"19:48:00","departure_time":"19:48:00","lat":48.941163,"lon":17.437706,"is_passed":false},{"stop_id":"U19316Z10","name":"Veselí nad Moravou, železniční stanice","arrival_time":"19:53:00","departure_time":"20:12:00","lat":48.948694,"lon":17.382439,"is_passed":false},{"stop_id":"U29302Z10","name":"Veselí nad Moravou-Zarazice","arrival_time":"20:14:00","departure_time":"20:15:00","lat":48.937236,"lon":17.361306,"is_passed":false},{"stop_id":"U29303Z10","name":"Vnorovy","arrival_time":"20:17:00","departure_time":"20:17:00","lat":48.931508,"lon":17.348464,"is_passed":false},{"stop_id":"U19205Z10","name":"Strážnice, aut. st.","arrival_time":"20:21:00","departure_time":"20:22:00","lat":48.897385,"lon":17.317688,"is_passed":false}],"1477":[{"stop_id":"U19205Z10","name":"Strážnice, aut. st.","arrival_time":"20:22:00","departure_time":"20:22:00","lat":48.897385,"lon":17.317688,"is_passed":false},{"stop_id":"U29201Z10","name":"Petrov","arrival_time":"20:26:00","departure_time":"20:27:00","lat":48.878911,"lon":17.273703,"is_passed":false},{"stop_id":"U29202Z10","name":"Sudoměřice nad Moravou","arrival_time":"20:30:00","departure_time":"20:38:00","lat":48.871653,"lon":17.243039,"is_passed":false},{"stop_id":"U29104Z10","name":"Rohatec kolonie","arrival_time":"20:44:00","departure_time":"20:44:00","lat":48.892642,"lon":17.212111,"is_passed":false},{"stop_id":"U29103Z10","name":"Rohatec","arrival_time":"20:46:00","departure_time":"20:47:00","lat":48.892515,"lon":17.197852,"is_passed":false},{"stop_id":"U29102Z10","name":"Rohatec zastávka","arrival_time":"20:49:00","departure_time":"20:49:00","lat":48.88309,"lon":17.178111,"is_passed":false},{"stop_id":"U19001Z20","name":"Hodonín, autobusové nádraží","arrival_time":"20:54:00","departure_time":"20:54:00","lat":48.85575,"lon":17.12069,"is_passed":false}],"1478":[{"stop_id":"U19001Z21","name":"Hodonín, autobusové nádraží","arrival_time":"4:31:00","departure_time":"4:31:00","lat":48.85575,"lon":17.12069,"is_passed":false},{"stop_id":"U29102Z11","name":"Rohatec zastávka","arrival_time":"4:35:00","departure_time":"4:36:00","lat":48.88309,"lon":17.178111,"is_passed":false},{"stop_id":"U29103Z11","name":"Rohatec","arrival_time":"4:38:00","departure_time":"4:38:00","lat":48.892515,"lon":17.197852,"is_passed":false},{"stop_id":"U29104Z11","name":"Rohatec kolonie","arrival_time":"4:41:00","departure_time":"4:41:00","lat":48.892642,"lon":17.212111,"is_passed":false},{"stop_id":"U29202Z11","name":"Sudoměřice nad Moravou","arrival_time":"4:46:00","departure_time":"4:48:00","lat":48.871653,"lon":17.243039,"is_passed":false},{"stop_id":"U29201Z11","name":"Petrov","arrival_time":"4:51:00","departure_time":"4:51:00","lat":48.878911,"lon":17.273703,"is_passed":false},{"stop_id":"U19205Z11","name":"Strážnice, aut. st.","arrival_time":"4:55:00","departure_time":"4:56:00","lat":48.897385,"lon":17.317688,"is_passed":false},{"stop_id":"U29303Z11","name":"Vnorovy","arrival_time":"5:00:00","departure_time":"5:01:00","lat":48.931508,"lon":17.348464,"is_passed":false},{"stop_id":"U29302Z11","name":"Veselí nad Moravou-Zarazice","arrival_time":"5:03:00","departure_time":"5:03:00","lat":48.937236,"lon":17.361306,"is_passed":false},{"stop_id":"U19316Z11","name":"Veselí nad Moravou, železniční stanice","arrival_time":"5:06:00","departure_time":"5:12:00","lat":48.948694,"lon":17.382439,"is_passed":false},{"stop_id":"U29403Z11","name":"Blatnice pod Sv. Antonínkem","arrival_time":"5:16:00","departure_time":"5:16:00","lat":48.941163,"lon":17.437706,"is_passed":false},{"stop_id":"U29402Z11","name":"Lipov","arrival_time":"5:21:00","departure_time":"5:21:00","lat":48.909806,"lon":17.457953,"is_passed":false},{"stop_id":"U29401Z11","name":"Louka u Ostrohu","arrival_time":"5:24:00","departure_time":"5:25:00","lat":48.912234,"lon":17.484226,"is_passed":false},{"stop_id":"U19530Z11","name":"Velká nad Veličkou, železniční stanice","arrival_time":"5:30:00","departure_time":"5:32:00","lat":48.878631,"lon":17.51092,"is_passed":false},{"stop_id":"U29502Z11","name":"Javorník nad Veličkou zastávka","arrival_time":"5:34:00","departure_time":"5:34:00","lat":48.860802,"lon":17.520722,"is_passed":false},{"stop_id":"U29501Z11","name":"Vrbovce","arrival_time":"5:40:00","departure_time":"5:41:00","lat":48.824439,"lon":17.516352,"is_passed":false},{"stop_id":"U29504Z2","name":"Vrbovce zastávka","arrival_time":"5:44:00","departure_time":"5:45:00","lat":48.804784,"lon":17.52869,"is_passed":false},{"stop_id":"U29601Z2","name":"Brestovec","arrival_time":"5:48:00","departure_time":"5:48:00","lat":48.786012,"lon":17.557593,"is_passed":false},{"stop_id":"U29602Z2","name":"Myjava","arrival_time":"5:52:00","departure_time":"6:18:00","lat":48.763641,"lon":17.570897,"is_passed":false}],"1479":[{"stop_id":"U29602Z1","name":"Myjava","arrival_time":"6:18:00","departure_time":"6:18:00","lat":48.763641,"lon":17.570897,"is_passed":false},{"stop_id":"U29601Z1","name":"Brestovec","arrival_time":"6:21:00","departure_time":"6:22:00","lat":48.786012,"lon":17.557593,"is_passed":false},{"stop_id":"U29504Z1","name":"Vrbovce zastávka","arrival_time":"6:25:00","departure_time":"6:25:00","lat":48.804784,"lon":17.52869,"is_passed":false},{"stop_id":"U29501Z10","name":"Vrbovce","arrival_time":"6:28:00","departure_time":"6:30:00","lat":48.824439,"lon":17.516352,"is_passed":false},{"stop_id":"U29502Z10","name":"Javorník nad Veličkou zastávka","arrival_time":"6:34:00","departure_time":"6:34:00","lat":48.860868,"lon":17.520699,"is_passed":false},{"stop_id":"U19530Z10","name":"Velká nad Veličkou, železniční stanice","arrival_time":"6:37:00","departure_time":"6:39:00","lat":48.878631,"lon":17.51092,"is_passed":false},{"stop_id":"U29401Z10","name":"Louka u Ostrohu","arrival_time":"6:43:00","departure_time":"6:43:00","lat":48.912234,"lon":17.484226,"is_passed":false},{"stop_id":"U29402Z10","name":"Lipov","arrival_time":"6:46:00","departure_time":"6:46:00","lat":48.909806,"lon":17.457953,"is_passed":false},{"stop_id":"U29403Z10","name":"Blatnice pod Sv. Antonínkem","arrival_time":"6:51:00","departure_time":"6:51:00","lat":48.941163,"lon":17.437706,"is_passed":false},{"stop_id":"U19316Z10","name":"Veselí nad Moravou, železniční stanice","arrival_time":"6:57:00","departure_time":"7:03:00","lat":48.948694,"lon":17.382439,"is_passed":false},{"stop_id":"U29302Z10","name":"Veselí nad Moravou-Zarazice","arrival_time":"7:05:00","departure_time":"7:06:00","lat":48.937236,"lon":17.361306,"is_passed":false},{"stop_id":"U29303Z10","name":"Vnorovy","arrival_time":"7:08:00","departure_time":"7:08:00","lat":48.931508,"lon":17.348464,"is_passed":false},{"stop_id":"U19205Z10","name":"Strážnice, aut. st.","arrival_time":"7:13:00","departure_time":"7:14:00","lat":48.897385,"lon":17.317688,"is_passed":false},{"stop_id":"U29201Z10","name":"Petrov","arrival_time":"7:18:00","departure_time":"7:18:00","lat":48.878911,"lon":17.273703,"is_passed":false},{"stop_id":"U29202Z10","name":"Sudoměřice nad Moravou","arrival_time":"7:21:00","departure_time":"7:22:00","lat":48.871653,"lon":17.243039,"is_passed":false},{"stop_id":"U29104Z10","name":"Rohatec kolonie","arrival_time":"7:27:00","departure_time":"7:27:00","lat":48.892642,"lon":17.212111,"is_passed":false},{"stop_id":"U29103Z10","name":"Rohatec","arrival_time":"7:30:00","departure_time":"7:30:00","lat":48.892515,"lon":17.197852,"is_passed":false},{"stop_id":"U29102Z10","name":"Rohatec zastávka","arrival_time":"7:33:00","departure_time":"7:33:00","lat":48.88309,"lon":17.178111,"is_passed":false},{"stop_id":"U19001Z20","name":"Hodonín, autobusové nádraží","arrival_time":"7:40:00","departure_time":"8:17:00","lat":48.85575,"lon":17.12069,"is_passed":false}],"14700":[{"stop_id":"U16836Z1","name":"Kostelec, točna","arrival_time":"11:46:00","departure_time":"11:46:00","lat":49.026817,"lon":17.152758,"is_passed":false},{"stop_id":"U16838Z1","name":"Moravany","arrival_time":"11:51:00","departure_time":"11:51:00","lat":49.03939,"lon":17.16802,"is_passed":false},{"stop_id":"U16840Z1","name":"Moravany, Moštěnská","arrival_time":"11:53:00","departure_time":"11:53:00","lat":49.037068,"lon":17.17237,"is_passed":false},{"stop_id":"U16828Z1","name":"Hýsly, Moštěnice, dvůr","arrival_time":"11:55:00","departure_time":"11:55:00","lat":49.02998,"lon":17.180055,"is_passed":false},{"stop_id":"U16827Z1","name":"Hýsly","arrival_time":"11:57:00","departure_time":"11:57:00","lat":49.023667,"lon":17.183032,"is_passed":false},{"stop_id":"U16834Z2","name":"Kelčany, ZSP","arrival_time":"12:00:00","departure_time":"12:00:00","lat":49.012325,"lon":17.184113,"is_passed":false},{"stop_id":"U16833Z2","name":"Kelčany, u sklepů","arrival_time":"12:01:00","departure_time":"12:01:00","lat":49.01266,"lon":17.176467,"is_passed":false},{"stop_id":"U16609Z2","name":"Kyjov, Brandlova sídliště","arrival_time":"12:04:00","departure_time":"12:04:00","lat":49.011808,"lon":17.136515,"is_passed":false},{"stop_id":"U16608Z16","name":"Kyjov, aut. st.","arrival_time":"12:06:00","departure_time":"12:09:00","lat":49.006873,"lon":17.123912,"is_passed":false}],"14701":[{"stop_id":"U16608Z4","name":"Kyjov, aut. st.","arrival_time":"12:09:00","departure_time":"12:09:00","lat":49.006715,"lon":17.124547,"is_passed":false},{"stop_id":"U16609Z1","name":"Kyjov, Brandlova sídliště","arrival_time":"12:11:00","departure_time":"12:11:00","lat":49.012038,"lon":17.136722,"is_passed":false},{"stop_id":"U16833Z1","name":"Kelčany, u sklepů","arrival_time":"12:14:00","departure_time":"12:14:00","lat":49.012553,"lon":17.176447,"is_passed":false},{"stop_id":"U16834Z1","name":"Kelčany, ZSP","arrival_time":"12:15:00","departure_time":"12:15:00","lat":49.012325,"lon":17.184113,"is_passed":false},{"stop_id":"U16827Z2","name":"Hýsly","arrival_time":"12:18:00","departure_time":"12:18:00","lat":49.024093,"lon":17.183113,"is_passed":false},{"stop_id":"U16828Z2","name":"Hýsly, Moštěnice, dvůr","arrival_time":"12:20:00","departure_time":"12:20:00","lat":49.030195,"lon":17.180302,"is_passed":false},{"stop_id":"U16840Z2","name":"Moravany, Moštěnská","arrival_time":"12:22:00","departure_time":"12:22:00","lat":49.037033,"lon":17.172578,"is_passed":false},{"stop_id":"U16838Z2","name":"Moravany","arrival_time":"12:24:00","departure_time":"12:24:00","lat":49.039392,"lon":17.168022,"is_passed":false},{"stop_id":"U16836Z2","name":"Kostelec, točna","arrival_time":"12:29:00","departure_time":"12:30:00","lat":49.026817,"lon":17.152758,"is_passed":false}],"14702":[{"stop_id":"U16836Z2","name":"Kostelec, točna","arrival_time":"12:30:00","departure_time":"12:30:00","lat":49.026817,"lon":17.152758,"is_passed":false},{"stop_id":"U16835Z1","name":"Kostelec, horní zastávka","arrival_time":"12:32:00","departure_time":"12:32:00","lat":49.032285,"lon":17.149582,"is_passed":false},{"stop_id":"U16826Z1","name":"Čeložnice, Domov důchodců","arrival_time":"12:36:00","departure_time":"12:36:00","lat":49.048863,"lon":17.154308,"is_passed":false},{"stop_id":"U16825Z1","name":"Čeložnice","arrival_time":"12:37:00","departure_time":"12:58:00","lat":49.051555,"lon":17.154533,"is_passed":false}],"14703":[{"stop_id":"U16825Z2","name":"Čeložnice","arrival_time":"12:58:00","departure_time":"12:58:00","lat":49.051555,"lon":17.154533,"is_passed":false},{"stop_id":"U16826Z2","name":"Čeložnice, Domov důchodců","arrival_time":"12:59:00","departure_time":"12:59:00","lat":49.048863,"lon":17.154308,"is_passed":false},{"stop_id":"U16835Z2","name":"Kostelec, horní zastávka","arrival_time":"13:03:00","departure_time":"13:03:00","lat":49.032285,"lon":17.149582,"is_passed":false},{"stop_id":"U16836Z1","name":"Kostelec, točna","arrival_time":"13:05:00","departure_time":"13:06:00","lat":49.026817,"lon":17.152758,"is_passed":false}],"14704":[{"stop_id":"U16836Z1","name":"Kostelec, točna","arrival_time":"13:06:00","departure_time":"13:06:00","lat":49.026817,"lon":17.152758,"is_passed":false},{"stop_id":"U16838Z1","name":"Moravany","arrival_time":"13:11:00","departure_time":"13:11:00","lat":49.03939,"lon":17.16802,"is_passed":false},{"stop_id":"U16840Z1","name":"Moravany, Moštěnská","arrival_time":"13:13:00","departure_time":"13:13:00","lat":49.037068,"lon":17.17237,"is_passed":false},{"stop_id":"U16828Z1","name":"Hýsly, Moštěnice, dvůr","arrival_time":"13:15:00","departure_time":"13:15:00","lat":49.02998,"lon":17.180055,"is_passed":false},{"stop_id":"U16827Z1","name":"Hýsly","arrival_time":"13:17:00","departure_time":"13:17:00","lat":49.023667,"lon":17.183032,"is_passed":false},{"stop_id":"U16834Z2","name":"Kelčany, ZSP","arrival_time":"13:20:00","departure_time":"13:20:00","lat":49.012325,"lon":17.184113,"is_passed":false},{"stop_id":"U16833Z2","name":"Kelčany, u sklepů","arrival_time":"13:21:00","departure_time":"13:21:00","lat":49.01266,"lon":17.176467,"is_passed":false},{"stop_id":"U16609Z2","name":"Kyjov, Brandlova sídliště","arrival_time":"13:24:00","departure_time":"13:24:00","lat":49.011808,"lon":17.136515,"is_passed":false},{"stop_id":"U16608Z16","name":"Kyjov, aut. st.","arrival_time":"13:26:00","departure_time":"14:29:00","lat":49.006873,"lon":17.123912,"is_passed":false}],"14705":[{"stop_id":"U16608Z4","name":"Kyjov, aut. st.","arrival_time":"14:29:00","departure_time":"14:29:00","lat":49.006715,"lon":17.124547,"is_passed":false},{"stop_id":"U16609Z1","name":"Kyjov, Brandlova sídliště","arrival_time":"14:31:00","departure_time":"14:31:00","lat":49.012038,"lon":17.136722,"is_passed":false},{"stop_id":"U16833Z1","name":"Kelčany, u sklepů","arrival_time":"14:34:00","departure_time":"14:34:00","lat":49.012553,"lon":17.176447,"is_passed":false},{"stop_id":"U16834Z1","name":"Kelčany, ZSP","arrival_time":"14:35:00","departure_time":"14:35:00","lat":49.012325,"lon":17.184113,"is_passed":false},{"stop_id":"U16827Z2","name":"Hýsly","arrival_time":"14:38:00","departure_time":"14:38:00","lat":49.024093,"lon":17.183113,"is_passed":false},{"stop_id":"U16828Z2","name":"Hýsly, Moštěnice, dvůr","arrival_time":"14:40:00","departure_time":"14:40:00","lat":49.030195,"lon":17.180302,"is_passed":false},{"stop_id":"U16840Z2","name":"Moravany, Moštěnská","arrival_time":"14:42:00","departure_time":"14:42:00","lat":49.037033,"lon":17.172578,"is_passed":false},{"stop_id":"U16838Z2","name":"Moravany","arrival_time":"14:44:00","departure_time":"14:44:00","lat":49.039392,"lon":17.168022,"is_passed":false},{"stop_id":"U16836Z2","name":"Kostelec, točna","arrival_time":"14:49:00","departure_time":"14:50:00","lat":49.026817,"lon":17.152758,"is_passed":false}],"14706":[{"stop_id":"U16836Z2","name":"Kostelec, točna","arrival_time":"14:50:00","departure_time":"14:50:00","lat":49.026817,"lon":17.152758,"is_passed":false},{"stop_id":"U16835Z1","name":"Kostelec, horní zastávka","arrival_time":"14:52:00","departure_time":"14:52:00","lat":49.032285,"lon":17.149582,"is_passed":false},{"stop_id":"U16826Z1","name":"Čeložnice, Domov důchodců","arrival_time":"14:56:00","departure_time":"14:56:00","lat":49.048863,"lon":17.154308,"is_passed":false},{"stop_id":"U16825Z1","name":"Čeložnice","arrival_time":"14:57:00","departure_time":"15:28:00","lat":49.051555,"lon":17.154533,"is_passed":false}],"14707":[{"stop_id":"U16825Z2","name":"Čeložnice","arrival_time":"15:28:00","departure_time":"15:28:00","lat":49.051555,"lon":17.154533,"is_passed":false},{"stop_id":"U16826Z2","name":"Čeložnice, Domov důchodců","arrival_time":"15:29:00","departure_time":"15:29:00","lat":49.048863,"lon":17.154308,"is_passed":false},{"stop_id":"U16835Z2","name":"Kostelec, horní zastávka","arrival_time":"15:33:00","departure_time":"15:33:00","lat":49.032285,"lon":17.149582,"is_passed":false},{"stop_id":"U16836Z1","name":"Kostelec, točna","arrival_time":"15:35:00","departure_time":"15:36:00","lat":49.026817,"lon":17.152758,"is_passed":false}],"14708":[{"stop_id":"U16836Z1","name":"Kostelec, točna","arrival_time":"15:36:00","departure_time":"15:36:00","lat":49.026817,"lon":17.152758,"is_passed":false},{"stop_id":"U16838Z1","name":"Moravany","arrival_time":"15:41:00","departure_time":"15:41:00","lat":49.03939,"lon":17.16802,"is_passed":false},{"stop_id":"U16840Z1","name":"Moravany, Moštěnská","arrival_time":"15:43:00","departure_time":"15:43:00","lat":49.037068,"lon":17.17237,"is_passed":false},{"stop_id":"U16828Z1","name":"Hýsly, Moštěnice, dvůr","arrival_time":"15:45:00","departure_time":"15:45:00","lat":49.02998,"lon":17.180055,"is_passed":false},{"stop_id":"U16827Z1","name":"Hýsly","arrival_time":"15:47:00","departure_time":"15:47:00","lat":49.023667,"lon":17.183032,"is_passed":false},{"stop_id":"U16834Z2","name":"Kelčany, ZSP","arrival_time":"15:50:00","departure_time":"15:50:00","lat":49.012325,"lon":17.184113,"is_passed":false},{"stop_id":"U16833Z2","name":"Kelčany, u sklepů","arrival_time":"15:51:00","departure_time":"15:51:00","lat":49.01266,"lon":17.176467,"is_passed":false},{"stop_id":"U16609Z2","name":"Kyjov, Brandlova sídliště","arrival_time":"15:54:00","departure_time":"15:54:00","lat":49.011808,"lon":17.136515,"is_passed":false},{"stop_id":"U16608Z16","name":"Kyjov, aut. st.","arrival_time":"15:56:00","departure_time":"16:09:00","lat":49.006873,"lon":17.123912,"is_passed":false}],"14709":[{"stop_id":"U16608Z4","name":"Kyjov, aut. st.","arrival_time":"16:09:00","departure_time":"16:09:00","lat":49.006715,"lon":17.124547,"is_passed":false},{"stop_id":"U16609Z1","name":"Kyjov, Brandlova sídliště","arrival_time":"16:11:00","departure_time":"16:11:00","lat":49.012038,"lon":17.136722,"is_passed":false},{"stop_id":"U16833Z1","name":"Kelčany, u sklepů","arrival_time":"16:14:00","departure_time":"16:14:00","lat":49.012553,"lon":17.176447,"is_passed":false},{"stop_id":"U16834Z1","name":"Kelčany, ZSP","arrival_time":"16:15:00","departure_time":"16:15:00","lat":49.012325,"lon":17.184113,"is_passed":false},{"stop_id":"U16827Z2","name":"Hýsly","arrival_time":"16:18:00","departure_time":"16:18:00","lat":49.024093,"lon":17.183113,"is_passed":false},{"stop_id":"U16828Z2","name":"Hýsly, Moštěnice, dvůr","arrival_time":"16:20:00","departure_time":"16:20:00","lat":49.030195,"lon":17.180302,"is_passed":false},{"stop_id":"U16840Z2","name":"Moravany, Moštěnská","arrival_time":"16:22:00","departure_time":"16:22:00","lat":49.037033,"lon":17.172578,"is_passed":false},{"stop_id":"U16838Z2","name":"Moravany","arrival_time":"16:24:00","departure_time":"16:24:00","lat":49.039392,"lon":17.168022,"is_passed":false},{"stop_id":"U16836Z2","name":"Kostelec, točna","arrival_time":"16:29:00","departure_time":"16:30:00","lat":49.026817,"lon":17.152758,"is_passed":false}],"14710":[{"stop_id":"U16836Z2","name":"Kostelec, točna","arrival_time":"16:30:00","departure_time":"16:30:00","lat":49.026817,"lon":17.152758,"is_passed":false},{"stop_id":"U16835Z1","name":"Kostelec, horní zastávka","arrival_time":"16:32:00","departure_time":"16:32:00","lat":49.032285,"lon":17.149582,"is_passed":false},{"stop_id":"U16826Z1","name":"Čeložnice, Domov důchodců","arrival_time":"16:36:00","departure_time":"16:36:00","lat":49.048863,"lon":17.154308,"is_passed":false},{"stop_id":"U16825Z1","name":"Čeložnice","arrival_time":"16:37:00","departure_time":"16:53:00","lat":49.051555,"lon":17.154533,"is_passed":false}],"14711":[{"stop_id":"U16825Z2","name":"Čeložnice","arrival_time":"16:53:00","departure_time":"16:53:00","lat":49.051555,"lon":17.154533,"is_passed":false},{"stop_id":"U16826Z2","name":"Čeložnice, Domov důchodců","arrival_time":"16:54:00","departure_time":"16:54:00","lat":49.048863,"lon":17.154308,"is_passed":false},{"stop_id":"U16835Z2","name":"Kostelec, horní zastávka","arrival_time":"16:58:00","departure_time":"16:58:00","lat":49.032285,"lon":17.149582,"is_passed":false},{"stop_id":"U16836Z1","name":"Kostelec, točna","arrival_time":"17:00:00","departure_time":"17:01:00","lat":49.026817,"lon":17.152758,"is_passed":false}],"14712":[{"stop_id":"U16836Z1","name":"Kostelec, točna","arrival_time":"17:01:00","departure_time":"17:01:00","lat":49.026817,"lon":17.152758,"is_passed":false},{"stop_id":"U16838Z1","name":"Moravany","arrival_time":"17:06:00","departure_time":"17:06:00","lat":49.03939,"lon":17.16802,"is_passed":false},{"stop_id":"U16839Z1","name":"Moravany, Kameňák","arrival_time":"17:09:00","departure_time":"17:09:00","lat":49.058545,"lon":17.175095,"is_passed":false},{"stop_id":"U16840Z1","name":"Moravany, Moštěnská","arrival_time":"17:13:00","departure_time":"17:13:00","lat":49.037068,"lon":17.17237,"is_passed":false},{"stop_id":"U16828Z1","name":"Hýsly, Moštěnice, dvůr","arrival_time":"17:15:00","departure_time":"17:15:00","lat":49.02998,"lon":17.180055,"is_passed":false},{"stop_id":"U16827Z1","name":"Hýsly","arrival_time":"17:17:00","departure_time":"17:17:00","lat":49.023667,"lon":17.183032,"is_passed":false},{"stop_id":"U16834Z2","name":"Kelčany, ZSP","arrival_time":"17:20:00","departure_time":"17:20:00","lat":49.012325,"lon":17.184113,"is_passed":false},{"stop_id":"U16833Z2","name":"Kelčany, u sklepů","arrival_time":"17:21:00","departure_time":"17:21:00","lat":49.01266,"lon":17.176467,"is_passed":false},{"stop_id":"U16609Z2","name":"Kyjov, Brandlova sídliště","arrival_time":"17:24:00","departure_time":"17:24:00","lat":49.011808,"lon":17.136515,"is_passed":false},{"stop_id":"U16608Z16","name":"Kyjov, aut. st.","arrival_time":"17:26:00","departure_time":"18:34:00","lat":49.006873,"lon":17.123912,"is_passed":false}],"14713":[{"stop_id":"U16608Z4","name":"Kyjov, aut. st.","arrival_time":"18:34:00","departure_time":"18:34:00","lat":49.006715,"lon":17.124547,"is_passed":false},{"stop_id":"U16609Z1","name":"Kyjov, Brandlova sídliště","arrival_time":"18:36:00","departure_time":"18:36:00","lat":49.012038,"lon":17.136722,"is_passed":false},{"stop_id":"U16833Z1","name":"Kelčany, u sklepů","arrival_time":"18:39:00","departure_time":"18:39:00","lat":49.012553,"lon":17.176447,"is_passed":false},{"stop_id":"U16834Z1","name":"Kelčany, ZSP","arrival_time":"18:40:00","departure_time":"18:40:00","lat":49.012325,"lon":17.184113,"is_passed":false},{"stop_id":"U16827Z2","name":"Hýsly","arrival_time":"18:43:00","departure_time":"18:43:00","lat":49.024093,"lon":17.183113,"is_passed":false},{"stop_id":"U16828Z2","name":"Hýsly, Moštěnice, dvůr","arrival_time":"18:45:00","departure_time":"18:45:00","lat":49.030195,"lon":17.180302,"is_passed":false},{"stop_id":"U16840Z2","name":"Moravany, Moštěnská","arrival_time":"18:47:00","departure_time":"18:47:00","lat":49.037033,"lon":17.172578,"is_passed":false},{"stop_id":"U16838Z2","name":"Moravany","arrival_time":"18:49:00","departure_time":"18:49:00","lat":49.039392,"lon":17.168022,"is_passed":false},{"stop_id":"U16836Z2","name":"Kostelec, točna","arrival_time":"18:50:00","departure_time":"18:50:00","lat":49.026817,"lon":17.152758,"is_passed":false}],"14714":[{"stop_id":"U16836Z2","name":"Kostelec, točna","arrival_time":"18:50:00","departure_time":"18:50:00","lat":49.026817,"lon":17.152758,"is_passed":false},{"stop_id":"U16835Z1","name":"Kostelec, horní zastávka","arrival_time":"18:52:00","departure_time":"18:52:00","lat":49.032285,"lon":17.149582,"is_passed":false},{"stop_id":"U16826Z1","name":"Čeložnice, Domov důchodců","arrival_time":"18:56:00","departure_time":"18:56:00","lat":49.048863,"lon":17.154308,"is_passed":false},{"stop_id":"U16825Z1","name":"Čeložnice","arrival_time":"18:57:00","departure_time":"18:58:00","lat":49.051555,"lon":17.154533,"is_passed":false}],"14715":[{"stop_id":"U16825Z2","name":"Čeložnice","arrival_time":"18:58:00","departure_time":"18:58:00","lat":49.051555,"lon":17.154533,"is_passed":false},{"stop_id":"U16826Z2","name":"Čeložnice, Domov důchodců","arrival_time":"18:59:00","departure_time":"18:59:00","lat":49.048863,"lon":17.154308,"is_passed":false},{"stop_id":"U16835Z2","name":"Kostelec, horní zastávka","arrival_time":"19:03:00","departure_time":"19:03:00","lat":49.032285,"lon":17.149582,"is_passed":false},{"stop_id":"U16836Z1","name":"Kostelec, točna","arrival_time":"19:05:00","departure_time":"19:06:00","lat":49.026817,"lon":17.152758,"is_passed":false}],"14716":[{"stop_id":"U16836Z1","name":"Kostelec, točna","arrival_time":"19:06:00","departure_time":"19:06:00","lat":49.026817,"lon":17.152758,"is_passed":false},{"stop_id":"U16838Z1","name":"Moravany","arrival_time":"19:11:00","departure_time":"19:11:00","lat":49.03939,"lon":17.16802,"is_passed":false},{"stop_id":"U16840Z1","name":"Moravany, Moštěnská","arrival_time":"19:13:00","departure_time":"19:13:00","lat":49.037068,"lon":17.17237,"is_passed":false},{"stop_id":"U16828Z1","name":"Hýsly, Moštěnice, dvůr","arrival_time":"19:15:00","departure_time":"19:15:00","lat":49.02998,"lon":17.180055,"is_passed":false},{"stop_id":"U16827Z1","name":"Hýsly","arrival_time":"19:17:00","departure_time":"19:17:00","lat":49.023667,"lon":17.183032,"is_passed":false},{"stop_id":"U16834Z2","name":"Kelčany, ZSP","arrival_time":"19:20:00","departure_time":"19:20:00","lat":49.012325,"lon":17.184113,"is_passed":false},{"stop_id":"U16833Z2","name":"Kelčany, u sklepů","arrival_time":"19:21:00","departure_time":"19:21:00","lat":49.01266,"lon":17.176467,"is_passed":false},{"stop_id":"U16609Z2","name":"Kyjov, Brandlova sídliště","arrival_time":"19:24:00","departure_time":"19:24:00","lat":49.011808,"lon":17.136515,"is_passed":false},{"stop_id":"U16608Z16","name":"Kyjov, aut. st.","arrival_time":"19:26:00","departure_time":"20:09:00","lat":49.006873,"lon":17.123912,"is_passed":false}],"14717":[{"stop_id":"U16608Z4","name":"Kyjov, aut. st.","arrival_time":"20:09:00","departure_time":"20:09:00","lat":49.006715,"lon":17.124547,"is_passed":false},{"stop_id":"U16609Z1","name":"Kyjov, Brandlova sídliště","arrival_time":"20:11:00","departure_time":"20:11:00","lat":49.012038,"lon":17.136722,"is_passed":false},{"stop_id":"U16833Z1","name":"Kelčany, u sklepů","arrival_time":"20:14:00","departure_time":"20:14:00","lat":49.012553,"lon":17.176447,"is_passed":false},{"stop_id":"U16834Z1","name":"Kelčany, ZSP","arrival_time":"20:15:00","departure_time":"20:15:00","lat":49.012325,"lon":17.184113,"is_passed":false},{"stop_id":"U16827Z2","name":"Hýsly","arrival_time":"20:18:00","departure_time":"20:18:00","lat":49.024093,"lon":17.183113,"is_passed":false},{"stop_id":"U16828Z2","name":"Hýsly, Moštěnice, dvůr","arrival_time":"20:20:00","departure_time":"20:20:00","lat":49.030195,"lon":17.180302,"is_passed":false},{"stop_id":"U16840Z2","name":"Moravany, Moštěnská","arrival_time":"20:22:00","departure_time":"20:22:00","lat":49.037033,"lon":17.172578,"is_passed":false},{"stop_id":"U16838Z2","name":"Moravany","arrival_time":"20:24:00","departure_time":"20:24:00","lat":49.039392,"lon":17.168022,"is_passed":false},{"stop_id":"U16836Z2","name":"Kostelec, točna","arrival_time":"20:29:00","departure_time":"20:30:00","lat":49.026817,"lon":17.152758,"is_passed":false}],"14718":[{"stop_id":"U16836Z2","name":"Kostelec, točna","arrival_time":"20:30:00","departure_time":"20:30:00","lat":49.026817,"lon":17.152758,"is_passed":false},{"stop_id":"U16835Z1","name":"Kostelec, horní zastávka","arrival_time":"20:32:00","departure_time":"20:32:00","lat":49.032285,"lon":17.149582,"is_passed":false},{"stop_id":"U16826Z1","name":"Čeložnice, Domov důchodců","arrival_time":"20:36:00","departure_time":"20:36:00","lat":49.048863,"lon":17.154308,"is_passed":false},{"stop_id":"U16825Z1","name":"Čeložnice","arrival_time":"20:37:00","departure_time":"20:58:00","lat":49.051555,"lon":17.154533,"is_passed":false}],"14719":[{"stop_id":"U16825Z2","name":"Čeložnice","arrival_time":"20:58:00","departure_time":"20:58:00","lat":49.051555,"lon":17.154533,"is_passed":false},{"stop_id":"U16826Z2","name":"Čeložnice, Domov důchodců","arrival_time":"20:59:00","departure_time":"20:59:00","lat":49.048863,"lon":17.154308,"is_passed":false},{"stop_id":"U16835Z2","name":"Kostelec, horní zastávka","arrival_time":"21:03:00","departure_time":"21:03:00","lat":49.032285,"lon":17.149582,"is_passed":false},{"stop_id":"U16836Z1","name":"Kostelec, točna","arrival_time":"21:05:00","departure_time":"21:06:00","lat":49.026817,"lon":17.152758,"is_passed":false}],"14720":[{"stop_id":"U16836Z1","name":"Kostelec, točna","arrival_time":"21:06:00","departure_time":"21:06:00","lat":49.026817,"lon":17.152758,"is_passed":false},{"stop_id":"U16838Z1","name":"Moravany","arrival_time":"21:11:00","departure_time":"21:11:00","lat":49.03939,"lon":17.16802,"is_passed":false},{"stop_id":"U16840Z1","name":"Moravany, Moštěnská","arrival_time":"21:13:00","departure_time":"21:13:00","lat":49.037068,"lon":17.17237,"is_passed":false},{"stop_id":"U16828Z1","name":"Hýsly, Moštěnice, dvůr","arrival_time":"21:15:00","departure_time":"21:15:00","lat":49.02998,"lon":17.180055,"is_passed":false},{"stop_id":"U16827Z1","name":"Hýsly","arrival_time":"21:17:00","departure_time":"21:17:00","lat":49.023667,"lon":17.183032,"is_passed":false},{"stop_id":"U16834Z2","name":"Kelčany, ZSP","arrival_time":"21:20:00","departure_time":"21:20:00","lat":49.012325,"lon":17.184113,"is_passed":false},{"stop_id":"U16833Z2","name":"Kelčany, u sklepů","arrival_time":"21:21:00","departure_time":"21:21:00","lat":49.01266,"lon":17.176467,"is_passed":false},{"stop_id":"U16609Z2","name":"Kyjov, Brandlova sídliště","arrival_time":"21:24:00","departure_time":"21:24:00","lat":49.011808,"lon":17.136515,"is_passed":false},{"stop_id":"U16608Z16","name":"Kyjov, aut. st.","arrival_time":"21:26:00","departure_time":"22:37:00","lat":49.006873,"lon":17.123912,"is_passed":false}],"14721":[{"stop_id":"U16608Z4","name":"Kyjov, aut. st.","arrival_time":"22:37:00","departure_time":"22:37:00","lat":49.006715,"lon":17.124547,"is_passed":false},{"stop_id":"U16609Z1","name":"Kyjov, Brandlova sídliště","arrival_time":"22:39:00","departure_time":"22:39:00","lat":49.012038,"lon":17.136722,"is_passed":false},{"stop_id":"U16833Z1","name":"Kelčany, u sklepů","arrival_time":"22:42:00","departure_time":"22:42:00","lat":49.012553,"lon":17.176447,"is_passed":false},{"stop_id":"U16834Z1","name":"Kelčany, ZSP","arrival_time":"22:43:00","departure_time":"22:43:00","lat":49.012325,"lon":17.184113,"is_passed":false},{"stop_id":"U16827Z2","name":"Hýsly","arrival_time":"22:46:00","departure_time":"22:46:00","lat":49.024093,"lon":17.183113,"is_passed":false},{"stop_id":"U16828Z2","name":"Hýsly, Moštěnice, dvůr","arrival_time":"22:48:00","departure_time":"22:48:00","lat":49.030195,"lon":17.180302,"is_passed":false},{"stop_id":"U16840Z2","name":"Moravany, Moštěnská","arrival_time":"22:50:00","departure_time":"22:50:00","lat":49.037033,"lon":17.172578,"is_passed":false},{"stop_id":"U16838Z2","name":"Moravany","arrival_time":"22:52:00","departure_time":"22:52:00","lat":49.039392,"lon":17.168022,"is_passed":false},{"stop_id":"U16836Z2","name":"Kostelec, točna","arrival_time":"22:57:00","departure_time":"22:57:00","lat":49.026817,"lon":17.152758,"is_passed":false}],"14722":[{"stop_id":"U16836Z2","name":"Kostelec, točna","arrival_time":"22:57:00","departure_time":"22:57:00","lat":49.026817,"lon":17.152758,"is_passed":false},{"stop_id":"U16835Z1","name":"Kostelec, horní zastávka","arrival_time":"22:59:00","departure_time":"22:59:00","lat":49.032285,"lon":17.149582,"is_passed":false},{"stop_id":"U16826Z1","name":"Čeložnice, Domov důchodců","arrival_time":"23:03:00","departure_time":"23:03:00","lat":49.048863,"lon":17.154308,"is_passed":false},{"stop_id":"U16825Z1","name":"Čeložnice","arrival_time":"23:04:00","departure_time":"23:04:00","lat":49.051555,"lon":17.154533,"is_passed":false}],"14723":[{"stop_id":"U16606Z81","name":"Kyjov, Boršov, horní zastávka","arrival_time":"7:05:00","departure_time":"7:05:00","lat":49.029722,"lon":17.121369,"is_passed":false},{"stop_id":"U16607Z81","name":"Kyjov, Boršov","arrival_time":"7:06:00","departure_time":"7:06:00","lat":49.025162,"lon":17.122555,"is_passed":false},{"stop_id":"U16610Z81","name":"Kyjov, ČSAD","arrival_time":"7:07:00","departure_time":"7:07:00","lat":49.019932,"lon":17.124135,"is_passed":false},{"stop_id":"U16649Z81","name":"Kyjov, Zahradní","arrival_time":"7:09:00","departure_time":"7:09:00","lat":49.016012,"lon":17.127543,"is_passed":false},{"stop_id":"U16640Z81","name":"Kyjov, Nětčice, obecní dům","arrival_time":"7:11:00","departure_time":"7:11:00","lat":49.019152,"lon":17.128983,"is_passed":false},{"stop_id":"U16643Z81","name":"Kyjov, sídliště Karla Čapka","arrival_time":"7:13:00","departure_time":"7:13:00","lat":49.018148,"lon":17.134067,"is_passed":false},{"stop_id":"U16644Z81","name":"Kyjov, smuteční síň","arrival_time":"7:14:00","departure_time":"7:14:00","lat":49.015572,"lon":17.134788,"is_passed":false},{"stop_id":"U16646Z81","name":"Kyjov, Újezd, Dvořákova","arrival_time":"7:15:00","departure_time":"7:15:00","lat":49.01324,"lon":17.133735,"is_passed":false},{"stop_id":"U16648Z81","name":"Kyjov, Újezd, škola","arrival_time":"7:16:00","departure_time":"7:16:00","lat":49.010588,"lon":17.13151,"is_passed":false},{"stop_id":"U16638Z81","name":"Kyjov, náměstí TGM","arrival_time":"7:18:00","departure_time":"7:18:00","lat":49.009988,"lon":17.122645,"is_passed":false},{"stop_id":"U16608Z81","name":"Kyjov, aut. st.","arrival_time":"7:21:00","departure_time":"7:21:00","lat":49.006675,"lon":17.124582,"is_passed":false}],"14724":[{"stop_id":"U17202Z3","name":"Hostěnice, chaty","arrival_time":"6:58:00","departure_time":"6:58:00","lat":49.241877,"lon":16.764803,"is_passed":false},{"stop_id":"U17204Z2","name":"Hostěnice, obecní úřad","arrival_time":"7:00:00","departure_time":"7:00:00","lat":49.239232,"lon":16.771882,"is_passed":false},{"stop_id":"U17203Z2","name":"Hostěnice, kasárna","arrival_time":"7:02:00","departure_time":"7:02:00","lat":49.232903,"lon":16.778737,"is_passed":false},{"stop_id":"U16168Z2","name":"Mokrá-Horákov, lom","arrival_time":"7:06:00","departure_time":"7:06:00","lat":49.226117,"lon":16.756382,"is_passed":false},{"stop_id":"U16113Z2","name":"Mokrá-Horákov, Mokrá","arrival_time":"7:07:00","departure_time":"7:07:00","lat":49.223592,"lon":16.751325,"is_passed":false},{"stop_id":"U16114Z2","name":"Mokrá-Horákov, sídliště","arrival_time":"7:08:00","departure_time":"7:08:00","lat":49.221072,"lon":16.751731,"is_passed":false},{"stop_id":"U16166Z51","name":"Mokrá-Horákov, Horákov","arrival_time":"7:10:00","departure_time":"7:10:00","lat":49.215676,"lon":16.749652,"is_passed":false},{"stop_id":"U16110Z2","name":"Mokrá-Horákov, cementárna","arrival_time":"7:12:00","departure_time":"7:12:00","lat":49.214097,"lon":16.765264,"is_passed":false},{"stop_id":"U16167Z2","name":"Mokrá-Horákov, rozc.cementárna","arrival_time":"7:14:00","departure_time":"7:14:00","lat":49.210003,"lon":16.752575,"is_passed":false},{"stop_id":"U16148Z2","name":"Velatice","arrival_time":"7:17:00","departure_time":"7:17:00","lat":49.197461,"lon":16.753006,"is_passed":false},{"stop_id":"U16160Z2","name":"Velatice, Maxlůvka","arrival_time":"7:19:00","departure_time":"7:19:00","lat":49.184092,"lon":16.752442,"is_passed":false},{"stop_id":"U16154Z2","name":"Tvarožná, kostel","arrival_time":"7:24:00","departure_time":"7:24:00","lat":49.190188,"lon":16.775817,"is_passed":false},{"stop_id":"U16130Z2","name":"Šlapanice, Bedřichovice, rozc.","arrival_time":"7:28:00","departure_time":"7:28:00","lat":49.182977,"lon":16.72308,"is_passed":false},{"stop_id":"U1577Z6","name":"Slatina, sídliště","arrival_time":"7:31:00","departure_time":"7:31:00","lat":49.18229,"lon":16.690089,"is_passed":false},{"stop_id":"U1068Z4","name":"Černovičky","arrival_time":"7:33:00","departure_time":"7:33:00","lat":49.183907,"lon":16.668247,"is_passed":false},{"stop_id":"U1677Z2","name":"Tržní","arrival_time":"7:38:00","departure_time":"7:38:00","lat":49.189407,"lon":16.629972,"is_passed":false},{"stop_id":"U1798Z5","name":"Zvonařka","arrival_time":"7:40:00","departure_time":"7:40:00","lat":49.18754,"lon":16.620139,"is_passed":false},{"stop_id":"U1716Z3","name":"Úzká","arrival_time":"7:42:00","departure_time":"7:46:00","lat":49.189244,"lon":16.613733,"is_passed":false}],"14725":[{"stop_id":"U1716Z11","name":"Úzká","arrival_time":"7:46:00","departure_time":"7:46:00","lat":49.188931,"lon":16.612782,"is_passed":false},{"stop_id":"U1463Z2","name":"Opuštěná","arrival_time":"7:49:00","departure_time":"7:49:00","lat":49.185245,"lon":16.613024,"is_passed":false},{"stop_id":"U1677Z1","name":"Tržní","arrival_time":"7:51:00","departure_time":"7:51:00","lat":49.189973,"lon":16.632193,"is_passed":false},{"stop_id":"U1068Z3","name":"Černovičky","arrival_time":"7:55:00","departure_time":"7:55:00","lat":49.183143,"lon":16.669108,"is_passed":false},{"stop_id":"U1577Z5","name":"Slatina, sídliště","arrival_time":"7:57:00","departure_time":"7:57:00","lat":49.182195,"lon":16.690725,"is_passed":false},{"stop_id":"U16130Z1","name":"Šlapanice, Bedřichovice, rozc.","arrival_time":"8:00:00","departure_time":"8:00:00","lat":49.182882,"lon":16.723572,"is_passed":false},{"stop_id":"U16160Z1","name":"Velatice, Maxlůvka","arrival_time":"8:02:00","departure_time":"8:02:00","lat":49.184211,"lon":16.752533,"is_passed":false},{"stop_id":"U16148Z1","name":"Velatice","arrival_time":"8:05:00","departure_time":"8:05:00","lat":49.197404,"lon":16.753095,"is_passed":false},{"stop_id":"U16167Z1","name":"Mokrá-Horákov, rozc.cementárna","arrival_time":"8:06:00","departure_time":"8:06:00","lat":49.210133,"lon":16.752819,"is_passed":false},{"stop_id":"U16166Z1","name":"Mokrá-Horákov, Horákov","arrival_time":"8:08:00","departure_time":"8:08:00","lat":49.215676,"lon":16.749652,"is_passed":false},{"stop_id":"U16114Z1","name":"Mokrá-Horákov, sídliště","arrival_time":"8:09:00","departure_time":"8:09:00","lat":49.2211,"lon":16.751997,"is_passed":false},{"stop_id":"U16113Z1","name":"Mokrá-Horákov, Mokrá","arrival_time":"8:10:00","departure_time":"8:10:00","lat":49.223614,"lon":16.751436,"is_passed":false},{"stop_id":"U16168Z1","name":"Mokrá-Horákov, lom","arrival_time":"8:13:00","departure_time":"8:13:00","lat":49.22604,"lon":16.756503,"is_passed":false},{"stop_id":"U17203Z1","name":"Hostěnice, kasárna","arrival_time":"8:16:00","departure_time":"8:16:00","lat":49.233353,"lon":16.778908,"is_passed":false},{"stop_id":"U17204Z51","name":"Hostěnice, obecní úřad","arrival_time":"8:18:00","departure_time":"8:18:00","lat":49.239232,"lon":16.771882,"is_passed":false},{"stop_id":"U17202Z11","name":"Hostěnice, chaty","arrival_time":"8:19:00","departure_time":"8:19:00","lat":49.241877,"lon":16.764803,"is_passed":false},{"stop_id":"U17204Z52","name":"Hostěnice, obecní úřad","arrival_time":"8:21:00","departure_time":"8:21:00","lat":49.239232,"lon":16.771882,"is_passed":false},{"stop_id":"U17203Z2","name":"Hostěnice, kasárna","arrival_time":"8:23:00","departure_time":"8:23:00","lat":49.232903,"lon":16.778737,"is_passed":false},{"stop_id":"U17205Z2","name":"Hostěnice, rozc.Červený vrch","arrival_time":"8:25:00","departure_time":"8:25:00","lat":49.232777,"lon":16.795863,"is_passed":false},{"stop_id":"U17209Z2","name":"Pozořice, Jezera, vodojem","arrival_time":"8:27:00","departure_time":"8:27:00","lat":49.221987,"lon":16.797157,"is_passed":false},{"stop_id":"U17211Z2","name":"Pozořice, Jezera","arrival_time":"8:29:00","departure_time":"8:29:00","lat":49.215547,"lon":16.795443,"is_passed":false},{"stop_id":"U17212Z6","name":"Pozořice, náměstí","arrival_time":"8:30:00","departure_time":"8:56:00","lat":49.209871,"lon":16.790286,"is_passed":false}],"14726":[{"stop_id":"U17212Z1","name":"Pozořice, náměstí","arrival_time":"8:56:00","departure_time":"8:56:00","lat":49.208924,"lon":16.790865,"is_passed":false},{"stop_id":"U17211Z1","name":"Pozořice, Jezera","arrival_time":"8:59:00","departure_time":"8:59:00","lat":49.215403,"lon":16.795607,"is_passed":false},{"stop_id":"U17209Z1","name":"Pozořice, Jezera, vodojem","arrival_time":"9:01:00","departure_time":"9:01:00","lat":49.221987,"lon":16.797157,"is_passed":false},{"stop_id":"U17205Z1","name":"Hostěnice, rozc.Červený vrch","arrival_time":"9:03:00","departure_time":"9:03:00","lat":49.232777,"lon":16.795863,"is_passed":false},{"stop_id":"U17203Z3","name":"Hostěnice, kasárna","arrival_time":"9:05:00","departure_time":"9:05:00","lat":49.232903,"lon":16.778737,"is_passed":false},{"stop_id":"U17204Z61","name":"Hostěnice, obecní úřad","arrival_time":"9:07:00","departure_time":"9:07:00","lat":49.239232,"lon":16.771882,"is_passed":false},{"stop_id":"U17202Z3","name":"Hostěnice, chaty","arrival_time":"9:08:00","departure_time":"9:08:00","lat":49.241877,"lon":16.764803,"is_passed":false},{"stop_id":"U17204Z2","name":"Hostěnice, obecní úřad","arrival_time":"9:10:00","departure_time":"9:10:00","lat":49.239232,"lon":16.771882,"is_passed":false},{"stop_id":"U17203Z2","name":"Hostěnice, kasárna","arrival_time":"9:12:00","departure_time":"9:12:00","lat":49.232903,"lon":16.778737,"is_passed":false},{"stop_id":"U16168Z2","name":"Mokrá-Horákov, lom","arrival_time":"9:16:00","departure_time":"9:16:00","lat":49.226117,"lon":16.756382,"is_passed":false},{"stop_id":"U16113Z2","name":"Mokrá-Horákov, Mokrá","arrival_time":"9:17:00","departure_time":"9:17:00","lat":49.223592,"lon":16.751325,"is_passed":false},{"stop_id":"U16114Z2","name":"Mokrá-Horákov, sídliště","arrival_time":"9:18:00","departure_time":"9:18:00","lat":49.221072,"lon":16.751731,"is_passed":false},{"stop_id":"U16166Z51","name":"Mokrá-Horákov, Horákov","arrival_time":"9:20:00","departure_time":"9:20:00","lat":49.215676,"lon":16.749652,"is_passed":false},{"stop_id":"U16167Z2","name":"Mokrá-Horákov, rozc.cementárna","arrival_time":"9:21:00","departure_time":"9:21:00","lat":49.210003,"lon":16.752575,"is_passed":false},{"stop_id":"U16148Z2","name":"Velatice","arrival_time":"9:24:00","departure_time":"9:24:00","lat":49.197461,"lon":16.753006,"is_passed":false},{"stop_id":"U16160Z2","name":"Velatice, Maxlůvka","arrival_time":"9:26:00","departure_time":"9:26:00","lat":49.184092,"lon":16.752442,"is_passed":false},{"stop_id":"U16130Z2","name":"Šlapanice, Bedřichovice, rozc.","arrival_time":"9:29:00","departure_time":"9:29:00","lat":49.182977,"lon":16.72308,"is_passed":false},{"stop_id":"U1577Z6","name":"Slatina, sídliště","arrival_time":"9:32:00","departure_time":"9:32:00","lat":49.18229,"lon":16.690089,"is_passed":false},{"stop_id":"U1068Z4","name":"Černovičky","arrival_time":"9:34:00","departure_time":"9:34:00","lat":49.183907,"lon":16.668247,"is_passed":false},{"stop_id":"U1677Z2","name":"Tržní","arrival_time":"9:39:00","departure_time":"9:39:00","lat":49.189407,"lon":16.629972,"is_passed":false},{"stop_id":"U1798Z5","name":"Zvonařka","arrival_time":"9:41:00","departure_time":"9:41:00","lat":49.18754,"lon":16.620139,"is_passed":false},{"stop_id":"U1716Z3","name":"Úzká","arrival_time":"9:43:00","departure_time":"9:46:00","lat":49.189244,"lon":16.613733,"is_passed":false}],"14727":[{"stop_id":"U1716Z11","name":"Úzká","arrival_time":"9:46:00","departure_time":"9:46:00","lat":49.188931,"lon":16.612782,"is_passed":false},{"stop_id":"U1463Z2","name":"Opuštěná","arrival_time":"9:49:00","departure_time":"9:49:00","lat":49.185245,"lon":16.613024,"is_passed":false},{"stop_id":"U1677Z1","name":"Tržní","arrival_time":"9:51:00","departure_time":"9:51:00","lat":49.189973,"lon":16.632193,"is_passed":false},{"stop_id":"U1068Z3","name":"Černovičky","arrival_time":"9:55:00","departure_time":"9:55:00","lat":49.183143,"lon":16.669108,"is_passed":false},{"stop_id":"U1577Z5","name":"Slatina, sídliště","arrival_time":"9:57:00","departure_time":"9:57:00","lat":49.182195,"lon":16.690725,"is_passed":false},{"stop_id":"U16130Z1","name":"Šlapanice, Bedřichovice, rozc.","arrival_time":"10:00:00","departure_time":"10:00:00","lat":49.182882,"lon":16.723572,"is_passed":false},{"stop_id":"U16160Z1","name":"Velatice, Maxlůvka","arrival_time":"10:02:00","departure_time":"10:02:00","lat":49.184211,"lon":16.752533,"is_passed":false},{"stop_id":"U16148Z1","name":"Velatice","arrival_time":"10:05:00","departure_time":"10:05:00","lat":49.197404,"lon":16.753095,"is_passed":false},{"stop_id":"U16167Z1","name":"Mokrá-Horákov, rozc.cementárna","arrival_time":"10:06:00","departure_time":"10:06:00","lat":49.210133,"lon":16.752819,"is_passed":false},{"stop_id":"U16166Z1","name":"Mokrá-Horákov, Horákov","arrival_time":"10:08:00","departure_time":"10:08:00","lat":49.215676,"lon":16.749652,"is_passed":false},{"stop_id":"U16114Z1","name":"Mokrá-Horákov, sídliště","arrival_time":"10:09:00","departure_time":"10:09:00","lat":49.2211,"lon":16.751997,"is_passed":false},{"stop_id":"U16113Z1","name":"Mokrá-Horákov, Mokrá","arrival_time":"10:10:00","departure_time":"10:10:00","lat":49.223614,"lon":16.751436,"is_passed":false},{"stop_id":"U16168Z3","name":"Mokrá-Horákov, lom","arrival_time":"10:13:00","departure_time":"11:01:00","lat":49.22575,"lon":16.75752,"is_passed":false}],"14728":[{"stop_id":"U16168Z2","name":"Mokrá-Horákov, lom","arrival_time":"11:01:00","departure_time":"11:01:00","lat":49.226117,"lon":16.756382,"is_passed":false},{"stop_id":"U16113Z2","name":"Mokrá-Horákov, Mokrá","arrival_time":"11:02:00","departure_time":"11:02:00","lat":49.223592,"lon":16.751325,"is_passed":false},{"stop_id":"U16114Z2","name":"Mokrá-Horákov, sídliště","arrival_time":"11:03:00","departure_time":"11:03:00","lat":49.221072,"lon":16.751731,"is_passed":false},{"stop_id":"U16166Z51","name":"Mokrá-Horákov, Horákov","arrival_time":"11:05:00","departure_time":"11:05:00","lat":49.215676,"lon":16.749652,"is_passed":false},{"stop_id":"U16167Z2","name":"Mokrá-Horákov, rozc.cementárna","arrival_time":"11:06:00","departure_time":"11:06:00","lat":49.210003,"lon":16.752575,"is_passed":false},{"stop_id":"U16148Z2","name":"Velatice","arrival_time":"11:09:00","departure_time":"11:09:00","lat":49.197461,"lon":16.753006,"is_passed":false},{"stop_id":"U16160Z2","name":"Velatice, Maxlůvka","arrival_time":"11:11:00","departure_time":"11:11:00","lat":49.184092,"lon":16.752442,"is_passed":false},{"stop_id":"U16130Z2","name":"Šlapanice, Bedřichovice, rozc.","arrival_time":"11:14:00","departure_time":"11:14:00","lat":49.182977,"lon":16.72308,"is_passed":false},{"stop_id":"U1577Z6","name":"Slatina, sídliště","arrival_time":"11:17:00","departure_time":"11:17:00","lat":49.18229,"lon":16.690089,"is_passed":false},{"stop_id":"U1068Z4","name":"Černovičky","arrival_time":"11:19:00","departure_time":"11:19:00","lat":49.183907,"lon":16.668247,"is_passed":false},{"stop_id":"U1677Z2","name":"Tržní","arrival_time":"11:24:00","departure_time":"11:24:00","lat":49.189407,"lon":16.629972,"is_passed":false},{"stop_id":"U1798Z5","name":"Zvonařka","arrival_time":"11:26:00","departure_time":"11:26:00","lat":49.18754,"lon":16.620139,"is_passed":false},{"stop_id":"U1716Z3","name":"Úzká","arrival_time":"11:28:00","departure_time":"11:41:00","lat":49.189244,"lon":16.613733,"is_passed":false}],"14729":[{"stop_id":"U1716Z11","name":"Úzká","arrival_time":"11:41:00","departure_time":"11:41:00","lat":49.188931,"lon":16.612782,"is_passed":false},{"stop_id":"U1463Z2","name":"Opuštěná","arrival_time":"11:44:00","departure_time":"11:44:00","lat":49.185245,"lon":16.613024,"is_passed":false},{"stop_id":"U1677Z1","name":"Tržní","arrival_time":"11:46:00","departure_time":"11:46:00","lat":49.189973,"lon":16.632193,"is_passed":false},{"stop_id":"U1068Z3","name":"Černovičky","arrival_time":"11:50:00","departure_time":"11:50:00","lat":49.183143,"lon":16.669108,"is_passed":false},{"stop_id":"U1577Z5","name":"Slatina, sídliště","arrival_time":"11:52:00","departure_time":"11:52:00","lat":49.182195,"lon":16.690725,"is_passed":false},{"stop_id":"U16130Z1","name":"Šlapanice, Bedřichovice, rozc.","arrival_time":"11:55:00","departure_time":"11:55:00","lat":49.182882,"lon":16.723572,"is_passed":false},{"stop_id":"U16154Z2","name":"Tvarožná, kostel","arrival_time":"12:00:00","departure_time":"12:00:00","lat":49.190188,"lon":16.775817,"is_passed":false},{"stop_id":"U16160Z1","name":"Velatice, Maxlůvka","arrival_time":"12:04:00","departure_time":"12:04:00","lat":49.184211,"lon":16.752533,"is_passed":false},{"stop_id":"U16148Z1","name":"Velatice","arrival_time":"12:07:00","departure_time":"12:07:00","lat":49.197404,"lon":16.753095,"is_passed":false},{"stop_id":"U16167Z1","name":"Mokrá-Horákov, rozc.cementárna","arrival_time":"12:08:00","departure_time":"12:08:00","lat":49.210133,"lon":16.752819,"is_passed":false},{"stop_id":"U16166Z1","name":"Mokrá-Horákov, Horákov","arrival_time":"12:10:00","departure_time":"12:10:00","lat":49.215676,"lon":16.749652,"is_passed":false},{"stop_id":"U16114Z1","name":"Mokrá-Horákov, sídliště","arrival_time":"12:11:00","departure_time":"12:11:00","lat":49.2211,"lon":16.751997,"is_passed":false},{"stop_id":"U16113Z1","name":"Mokrá-Horákov, Mokrá","arrival_time":"12:12:00","departure_time":"12:12:00","lat":49.223614,"lon":16.751436,"is_passed":false},{"stop_id":"U16168Z1","name":"Mokrá-Horákov, lom","arrival_time":"12:15:00","departure_time":"12:15:00","lat":49.22604,"lon":16.756503,"is_passed":false},{"stop_id":"U17203Z1","name":"Hostěnice, kasárna","arrival_time":"12:18:00","departure_time":"12:18:00","lat":49.233353,"lon":16.778908,"is_passed":false},{"stop_id":"U17204Z51","name":"Hostěnice, obecní úřad","arrival_time":"12:20:00","departure_time":"12:20:00","lat":49.239232,"lon":16.771882,"is_passed":false},{"stop_id":"U17202Z2","name":"Hostěnice, chaty","arrival_time":"12:21:00","departure_time":"12:53:00","lat":49.241683,"lon":16.76534,"is_passed":false}],"14730":[{"stop_id":"U17202Z3","name":"Hostěnice, chaty","arrival_time":"12:53:00","departure_time":"12:53:00","lat":49.241877,"lon":16.764803,"is_passed":false},{"stop_id":"U17204Z2","name":"Hostěnice, obecní úřad","arrival_time":"12:55:00","departure_time":"12:55:00","lat":49.239232,"lon":16.771882,"is_passed":false},{"stop_id":"U17203Z2","name":"Hostěnice, kasárna","arrival_time":"12:57:00","departure_time":"12:57:00","lat":49.232903,"lon":16.778737,"is_passed":false},{"stop_id":"U16168Z2","name":"Mokrá-Horákov, lom","arrival_time":"13:01:00","departure_time":"13:01:00","lat":49.226117,"lon":16.756382,"is_passed":false},{"stop_id":"U16113Z2","name":"Mokrá-Horákov, Mokrá","arrival_time":"13:02:00","departure_time":"13:02:00","lat":49.223592,"lon":16.751325,"is_passed":false},{"stop_id":"U16114Z2","name":"Mokrá-Horákov, sídliště","arrival_time":"13:03:00","departure_time":"13:03:00","lat":49.221072,"lon":16.751731,"is_passed":false},{"stop_id":"U16166Z51","name":"Mokrá-Horákov, Horákov","arrival_time":"13:05:00","departure_time":"13:05:00","lat":49.215676,"lon":16.749652,"is_passed":false},{"stop_id":"U16167Z2","name":"Mokrá-Horákov, rozc.cementárna","arrival_time":"13:06:00","departure_time":"13:06:00","lat":49.210003,"lon":16.752575,"is_passed":false},{"stop_id":"U16148Z2","name":"Velatice","arrival_time":"13:09:00","departure_time":"13:09:00","lat":49.197461,"lon":16.753006,"is_passed":false},{"stop_id":"U16160Z2","name":"Velatice, Maxlůvka","arrival_time":"13:11:00","departure_time":"13:11:00","lat":49.184092,"lon":16.752442,"is_passed":false},{"stop_id":"U16130Z2","name":"Šlapanice, Bedřichovice, rozc.","arrival_time":"13:14:00","departure_time":"13:14:00","lat":49.182977,"lon":16.72308,"is_passed":false},{"stop_id":"U1577Z6","name":"Slatina, sídliště","arrival_time":"13:17:00","departure_time":"13:17:00","lat":49.18229,"lon":16.690089,"is_passed":false},{"stop_id":"U1068Z4","name":"Černovičky","arrival_time":"13:19:00","departure_time":"13:19:00","lat":49.183907,"lon":16.668247,"is_passed":false},{"stop_id":"U1677Z2","name":"Tržní","arrival_time":"13:24:00","departure_time":"13:24:00","lat":49.189407,"lon":16.629972,"is_passed":false},{"stop_id":"U1798Z5","name":"Zvonařka","arrival_time":"13:26:00","departure_time":"13:26:00","lat":49.18754,"lon":16.620139,"is_passed":false},{"stop_id":"U1716Z3","name":"Úzká","arrival_time":"13:28:00","departure_time":"13:41:00","lat":49.189244,"lon":16.613733,"is_passed":false}],"14731":[{"stop_id":"U1716Z11","name":"Úzká","arrival_time":"13:41:00","departure_time":"13:41:00","lat":49.188931,"lon":16.612782,"is_passed":false},{"stop_id":"U1463Z2","name":"Opuštěná","arrival_time":"13:44:00","departure_time":"13:44:00","lat":49.185245,"lon":16.613024,"is_passed":false},{"stop_id":"U1677Z1","name":"Tržní","arrival_time":"13:46:00","departure_time":"13:46:00","lat":49.189973,"lon":16.632193,"is_passed":false},{"stop_id":"U1068Z3","name":"Černovičky","arrival_time":"13:50:00","departure_time":"13:50:00","lat":49.183143,"lon":16.669108,"is_passed":false},{"stop_id":"U1577Z5","name":"Slatina, sídliště","arrival_time":"13:52:00","departure_time":"13:52:00","lat":49.182195,"lon":16.690725,"is_passed":false},{"stop_id":"U16130Z1","name":"Šlapanice, Bedřichovice, rozc.","arrival_time":"13:55:00","departure_time":"13:55:00","lat":49.182882,"lon":16.723572,"is_passed":false},{"stop_id":"U16160Z1","name":"Velatice, Maxlůvka","arrival_time":"13:57:00","departure_time":"13:57:00","lat":49.184211,"lon":16.752533,"is_passed":false},{"stop_id":"U16148Z1","name":"Velatice","arrival_time":"14:00:00","departure_time":"14:00:00","lat":49.197404,"lon":16.753095,"is_passed":false},{"stop_id":"U16167Z1","name":"Mokrá-Horákov, rozc.cementárna","arrival_time":"14:01:00","departure_time":"14:01:00","lat":49.210133,"lon":16.752819,"is_passed":false},{"stop_id":"U16166Z1","name":"Mokrá-Horákov, Horákov","arrival_time":"14:03:00","departure_time":"14:03:00","lat":49.215676,"lon":16.749652,"is_passed":false},{"stop_id":"U16114Z1","name":"Mokrá-Horákov, sídliště","arrival_time":"14:04:00","departure_time":"14:04:00","lat":49.2211,"lon":16.751997,"is_passed":false},{"stop_id":"U16113Z1","name":"Mokrá-Horákov, Mokrá","arrival_time":"14:05:00","departure_time":"14:05:00","lat":49.223614,"lon":16.751436,"is_passed":false},{"stop_id":"U16168Z3","name":"Mokrá-Horákov, lom","arrival_time":"14:08:00","departure_time":"15:01:00","lat":49.22575,"lon":16.75752,"is_passed":false}],"14732":[{"stop_id":"U16168Z2","name":"Mokrá-Horákov, lom","arrival_time":"15:01:00","departure_time":"15:01:00","lat":49.226117,"lon":16.756382,"is_passed":false},{"stop_id":"U16113Z2","name":"Mokrá-Horákov, Mokrá","arrival_time":"15:02:00","departure_time":"15:02:00","lat":49.223592,"lon":16.751325,"is_passed":false},{"stop_id":"U16114Z2","name":"Mokrá-Horákov, sídliště","arrival_time":"15:03:00","departure_time":"15:03:00","lat":49.221072,"lon":16.751731,"is_passed":false},{"stop_id":"U16166Z51","name":"Mokrá-Horákov, Horákov","arrival_time":"15:05:00","departure_time":"15:05:00","lat":49.215676,"lon":16.749652,"is_passed":false},{"stop_id":"U16167Z2","name":"Mokrá-Horákov, rozc.cementárna","arrival_time":"15:06:00","departure_time":"15:06:00","lat":49.210003,"lon":16.752575,"is_passed":false},{"stop_id":"U16148Z2","name":"Velatice","arrival_time":"15:09:00","departure_time":"15:09:00","lat":49.197461,"lon":16.753006,"is_passed":false},{"stop_id":"U16160Z2","name":"Velatice, Maxlůvka","arrival_time":"15:11:00","departure_time":"15:11:00","lat":49.184092,"lon":16.752442,"is_passed":false},{"stop_id":"U16130Z2","name":"Šlapanice, Bedřichovice, rozc.","arrival_time":"15:14:00","departure_time":"15:14:00","lat":49.182977,"lon":16.72308,"is_passed":false},{"stop_id":"U1577Z6","name":"Slatina, sídliště","arrival_time":"15:17:00","departure_time":"15:17:00","lat":49.18229,"lon":16.690089,"is_passed":false},{"stop_id":"U1068Z4","name":"Černovičky","arrival_time":"15:19:00","departure_time":"15:19:00","lat":49.183907,"lon":16.668247,"is_passed":false},{"stop_id":"U1677Z2","name":"Tržní","arrival_time":"15:24:00","departure_time":"15:24:00","lat":49.189407,"lon":16.629972,"is_passed":false},{"stop_id":"U1798Z5","name":"Zvonařka","arrival_time":"15:26:00","departure_time":"15:26:00","lat":49.18754,"lon":16.620139,"is_passed":false},{"stop_id":"U1716Z3","name":"Úzká","arrival_time":"15:28:00","departure_time":"15:41:00","lat":49.189244,"lon":16.613733,"is_passed":false}],"14733":[{"stop_id":"U1716Z11","name":"Úzká","arrival_time":"15:41:00","departure_time":"15:41:00","lat":49.188931,"lon":16.612782,"is_passed":false},{"stop_id":"U1463Z2","name":"Opuštěná","arrival_time":"15:44:00","departure_time":"15:44:00","lat":49.185245,"lon":16.613024,"is_passed":false},{"stop_id":"U1677Z1","name":"Tržní","arrival_time":"15:46:00","departure_time":"15:46:00","lat":49.189973,"lon":16.632193,"is_passed":false},{"stop_id":"U1068Z3","name":"Černovičky","arrival_time":"15:50:00","departure_time":"15:50:00","lat":49.183143,"lon":16.669108,"is_passed":false},{"stop_id":"U1577Z5","name":"Slatina, sídliště","arrival_time":"15:52:00","departure_time":"15:52:00","lat":49.182195,"lon":16.690725,"is_passed":false},{"stop_id":"U16130Z1","name":"Šlapanice, Bedřichovice, rozc.","arrival_time":"15:55:00","departure_time":"15:55:00","lat":49.182882,"lon":16.723572,"is_passed":false},{"stop_id":"U16160Z1","name":"Velatice, Maxlůvka","arrival_time":"15:57:00","departure_time":"15:57:00","lat":49.184211,"lon":16.752533,"is_passed":false},{"stop_id":"U16148Z1","name":"Velatice","arrival_time":"16:00:00","departure_time":"16:00:00","lat":49.197404,"lon":16.753095,"is_passed":false},{"stop_id":"U16167Z1","name":"Mokrá-Horákov, rozc.cementárna","arrival_time":"16:01:00","departure_time":"16:01:00","lat":49.210133,"lon":16.752819,"is_passed":false},{"stop_id":"U16166Z1","name":"Mokrá-Horákov, Horákov","arrival_time":"16:03:00","departure_time":"16:03:00","lat":49.215676,"lon":16.749652,"is_passed":false},{"stop_id":"U16114Z1","name":"Mokrá-Horákov, sídliště","arrival_time":"16:04:00","departure_time":"16:04:00","lat":49.2211,"lon":16.751997,"is_passed":false},{"stop_id":"U16113Z1","name":"Mokrá-Horákov, Mokrá","arrival_time":"16:05:00","departure_time":"16:05:00","lat":49.223614,"lon":16.751436,"is_passed":false},{"stop_id":"U16168Z3","name":"Mokrá-Horákov, lom","arrival_time":"16:08:00","departure_time":"17:12:00","lat":49.22575,"lon":16.75752,"is_passed":false}],"14734":[{"stop_id":"U16168Z2","name":"Mokrá-Horákov, lom","arrival_time":"17:12:00","departure_time":"17:12:00","lat":49.226117,"lon":16.756382,"is_passed":false},{"stop_id":"U16113Z2","name":"Mokrá-Horákov, Mokrá","arrival_time":"17:13:00","departure_time":"17:13:00","lat":49.223592,"lon":16.751325,"is_passed":false},{"stop_id":"U16114Z2","name":"Mokrá-Horákov, sídliště","arrival_time":"17:14:00","departure_time":"17:14:00","lat":49.221072,"lon":16.751731,"is_passed":false},{"stop_id":"U16166Z51","name":"Mokrá-Horákov, Horákov","arrival_time":"17:16:00","departure_time":"17:16:00","lat":49.215676,"lon":16.749652,"is_passed":false},{"stop_id":"U16110Z2","name":"Mokrá-Horákov, cementárna","arrival_time":"17:18:00","departure_time":"17:18:00","lat":49.214097,"lon":16.765264,"is_passed":false},{"stop_id":"U16167Z2","name":"Mokrá-Horákov, rozc.cementárna","arrival_time":"17:20:00","departure_time":"17:20:00","lat":49.210003,"lon":16.752575,"is_passed":false},{"stop_id":"U16148Z2","name":"Velatice","arrival_time":"17:23:00","departure_time":"17:23:00","lat":49.197461,"lon":16.753006,"is_passed":false},{"stop_id":"U16160Z2","name":"Velatice, Maxlůvka","arrival_time":"17:25:00","departure_time":"17:25:00","lat":49.184092,"lon":16.752442,"is_passed":false},{"stop_id":"U16130Z2","name":"Šlapanice, Bedřichovice, rozc.","arrival_time":"17:28:00","departure_time":"17:28:00","lat":49.182977,"lon":16.72308,"is_passed":false},{"stop_id":"U1577Z6","name":"Slatina, sídliště","arrival_time":"17:31:00","departure_time":"17:31:00","lat":49.18229,"lon":16.690089,"is_passed":false},{"stop_id":"U1068Z4","name":"Černovičky","arrival_time":"17:33:00","departure_time":"17:33:00","lat":49.183907,"lon":16.668247,"is_passed":false},{"stop_id":"U1677Z2","name":"Tržní","arrival_time":"17:38:00","departure_time":"17:38:00","lat":49.189407,"lon":16.629972,"is_passed":false},{"stop_id":"U1798Z5","name":"Zvonařka","arrival_time":"17:40:00","departure_time":"17:40:00","lat":49.18754,"lon":16.620139,"is_passed":false},{"stop_id":"U1716Z3","name":"Úzká","arrival_time":"17:42:00","departure_time":"17:46:00","lat":49.189244,"lon":16.613733,"is_passed":false}],"14735":[{"stop_id":"U1716Z11","name":"Úzká","arrival_time":"17:46:00","departure_time":"17:46:00","lat":49.188931,"lon":16.612782,"is_passed":false},{"stop_id":"U1463Z2","name":"Opuštěná","arrival_time":"17:49:00","departure_time":"17:49:00","lat":49.185245,"lon":16.613024,"is_passed":false},{"stop_id":"U1677Z1","name":"Tržní","arrival_time":"17:51:00","departure_time":"17:51:00","lat":49.189973,"lon":16.632193,"is_passed":false},{"stop_id":"U1068Z3","name":"Černovičky","arrival_time":"17:55:00","departure_time":"17:55:00","lat":49.183143,"lon":16.669108,"is_passed":false},{"stop_id":"U1577Z5","name":"Slatina, sídliště","arrival_time":"17:57:00","departure_time":"17:57:00","lat":49.182195,"lon":16.690725,"is_passed":false},{"stop_id":"U16130Z1","name":"Šlapanice, Bedřichovice, rozc.","arrival_time":"18:00:00","departure_time":"18:00:00","lat":49.182882,"lon":16.723572,"is_passed":false},{"stop_id":"U16160Z1","name":"Velatice, Maxlůvka","arrival_time":"18:02:00","departure_time":"18:02:00","lat":49.184211,"lon":16.752533,"is_passed":false},{"stop_id":"U16148Z1","name":"Velatice","arrival_time":"18:05:00","departure_time":"18:05:00","lat":49.197404,"lon":16.753095,"is_passed":false},{"stop_id":"U16167Z1","name":"Mokrá-Horákov, rozc.cementárna","arrival_time":"18:06:00","departure_time":"18:06:00","lat":49.210133,"lon":16.752819,"is_passed":false},{"stop_id":"U16166Z1","name":"Mokrá-Horákov, Horákov","arrival_time":"18:08:00","departure_time":"18:08:00","lat":49.215676,"lon":16.749652,"is_passed":false},{"stop_id":"U16114Z1","name":"Mokrá-Horákov, sídliště","arrival_time":"18:09:00","departure_time":"18:09:00","lat":49.2211,"lon":16.751997,"is_passed":false},{"stop_id":"U16113Z1","name":"Mokrá-Horákov, Mokrá","arrival_time":"18:10:00","departure_time":"18:10:00","lat":49.223614,"lon":16.751436,"is_passed":false},{"stop_id":"U16168Z1","name":"Mokrá-Horákov, lom","arrival_time":"18:13:00","departure_time":"18:13:00","lat":49.22604,"lon":16.756503,"is_passed":false},{"stop_id":"U17203Z1","name":"Hostěnice, kasárna","arrival_time":"18:16:00","departure_time":"18:16:00","lat":49.233353,"lon":16.778908,"is_passed":false},{"stop_id":"U17204Z51","name":"Hostěnice, obecní úřad","arrival_time":"18:18:00","departure_time":"18:18:00","lat":49.239232,"lon":16.771882,"is_passed":false},{"stop_id":"U17202Z2","name":"Hostěnice, chaty","arrival_time":"18:19:00","departure_time":"18:19:00","lat":49.241683,"lon":16.76534,"is_passed":false}],"14736":[{"stop_id":"U17220Z2","name":"Viničné Šumice, točna","arrival_time":"5:16:00","departure_time":"5:16:00","lat":49.212718,"lon":16.8107,"is_passed":false},{"stop_id":"U17218Z2","name":"Viničné Šumice, Psénky","arrival_time":"5:17:00","departure_time":"5:17:00","lat":49.213227,"lon":16.815287,"is_passed":false},{"stop_id":"U17216Z2","name":"Viničné Šumice, Hradská","arrival_time":"5:18:00","departure_time":"5:18:00","lat":49.214327,"lon":16.821805,"is_passed":false},{"stop_id":"U17217Z2","name":"Viničné Šumice, obecní úřad","arrival_time":"5:19:00","departure_time":"5:19:00","lat":49.212442,"lon":16.82585,"is_passed":false},{"stop_id":"U17206Z2","name":"Kovalovice, Dražka","arrival_time":"5:21:00","departure_time":"5:21:00","lat":49.206257,"lon":16.824293,"is_passed":false},{"stop_id":"U17208Z2","name":"Kovalovice, obecní úřad","arrival_time":"5:22:00","departure_time":"5:22:00","lat":49.204713,"lon":16.818635,"is_passed":false},{"stop_id":"U17207Z2","name":"Kovalovice, na kopci","arrival_time":"5:23:00","departure_time":"5:23:00","lat":49.20635,"lon":16.807393,"is_passed":false},{"stop_id":"U17210Z2","name":"Pozořice, Velké Lipky","arrival_time":"5:25:00","departure_time":"5:25:00","lat":49.209561,"lon":16.798872,"is_passed":false},{"stop_id":"U17211Z1","name":"Pozořice, Jezera","arrival_time":"5:29:00","departure_time":"5:29:00","lat":49.215403,"lon":16.795607,"is_passed":false},{"stop_id":"U17212Z2","name":"Pozořice, náměstí","arrival_time":"5:32:00","departure_time":"5:32:00","lat":49.209871,"lon":16.790286,"is_passed":false},{"stop_id":"U17215Z2","name":"Sivice","arrival_time":"5:34:00","departure_time":"5:34:00","lat":49.201272,"lon":16.783517,"is_passed":false},{"stop_id":"U16140Z2","name":"Tvarožná, sokolovna","arrival_time":"5:36:00","departure_time":"5:36:00","lat":49.193067,"lon":16.775881,"is_passed":false},{"stop_id":"U16153Z2","name":"Tvarožná","arrival_time":"5:38:00","departure_time":"5:38:00","lat":49.190839,"lon":16.770364,"is_passed":false},{"stop_id":"U16142Z2","name":"Tvarožná, zemědělské družstvo","arrival_time":"5:39:00","departure_time":"5:39:00","lat":49.185883,"lon":16.764842,"is_passed":false},{"stop_id":"U16105Z2","name":"Jiříkovice, motorest Rohlenka","arrival_time":"5:40:00","departure_time":"5:40:00","lat":49.183667,"lon":16.760583,"is_passed":false},{"stop_id":"U16130Z2","name":"Šlapanice, Bedřichovice, rozc.","arrival_time":"5:43:00","departure_time":"5:43:00","lat":49.182977,"lon":16.72308,"is_passed":false},{"stop_id":"U1577Z6","name":"Slatina, sídliště","arrival_time":"5:45:00","departure_time":"5:45:00","lat":49.18229,"lon":16.690089,"is_passed":false},{"stop_id":"U1068Z4","name":"Černovičky","arrival_time":"5:46:00","departure_time":"5:46:00","lat":49.183907,"lon":16.668247,"is_passed":false},{"stop_id":"U1677Z2","name":"Tržní","arrival_time":"5:50:00","departure_time":"5:50:00","lat":49.189407,"lon":16.629972,"is_passed":false},{"stop_id":"U1798Z5","name":"Zvonařka","arrival_time":"5:52:00","departure_time":"5:52:00","lat":49.18754,"lon":16.620139,"is_passed":false},{"stop_id":"U1146Z7","name":"Hlavní nádraží","arrival_time":"5:55:00","departure_time":"6:00:00","lat":49.19213,"lon":16.613467,"is_passed":false}],"14737":[{"stop_id":"U1146Z8","name":"Hlavní nádraží","arrival_time":"6:00:00","departure_time":"6:00:00","lat":49.191893,"lon":16.613334,"is_passed":false},{"stop_id":"U1677Z1","name":"Tržní","arrival_time":"6:03:00","departure_time":"6:03:00","lat":49.189973,"lon":16.632193,"is_passed":false},{"stop_id":"U1068Z3","name":"Černovičky","arrival_time":"6:07:00","departure_time":"6:07:00","lat":49.183143,"lon":16.669108,"is_passed":false},{"stop_id":"U1577Z5","name":"Slatina, sídliště","arrival_time":"6:09:00","departure_time":"6:09:00","lat":49.182195,"lon":16.690725,"is_passed":false},{"stop_id":"U16130Z1","name":"Šlapanice, Bedřichovice, rozc.","arrival_time":"6:12:00","departure_time":"6:12:00","lat":49.182882,"lon":16.723572,"is_passed":false},{"stop_id":"U16105Z1","name":"Jiříkovice, motorest Rohlenka","arrival_time":"6:15:00","departure_time":"6:15:00","lat":49.183436,"lon":16.761042,"is_passed":false},{"stop_id":"U16142Z1","name":"Tvarožná, zemědělské družstvo","arrival_time":"6:16:00","departure_time":"6:16:00","lat":49.185906,"lon":16.765089,"is_passed":false},{"stop_id":"U16153Z1","name":"Tvarožná","arrival_time":"6:17:00","departure_time":"6:17:00","lat":49.190736,"lon":16.770347,"is_passed":false},{"stop_id":"U16140Z1","name":"Tvarožná, sokolovna","arrival_time":"6:19:00","departure_time":"6:19:00","lat":49.193053,"lon":16.776292,"is_passed":false},{"stop_id":"U17215Z1","name":"Sivice","arrival_time":"6:22:00","departure_time":"6:22:00","lat":49.201394,"lon":16.783639,"is_passed":false},{"stop_id":"U17212Z1","name":"Pozořice, náměstí","arrival_time":"6:25:00","departure_time":"6:25:00","lat":49.208924,"lon":16.790865,"is_passed":false},{"stop_id":"U17211Z1","name":"Pozořice, Jezera","arrival_time":"6:28:00","departure_time":"6:28:00","lat":49.215403,"lon":16.795607,"is_passed":false},{"stop_id":"U17212Z3","name":"Pozořice, náměstí","arrival_time":"6:29:00","departure_time":"6:29:00","lat":49.209464,"lon":16.791047,"is_passed":false},{"stop_id":"U17210Z1","name":"Pozořice, Velké Lipky","arrival_time":"6:30:00","departure_time":"6:30:00","lat":49.209336,"lon":16.79656,"is_passed":false},{"stop_id":"U17207Z1","name":"Kovalovice, na kopci","arrival_time":"6:31:00","departure_time":"6:31:00","lat":49.206132,"lon":16.807718,"is_passed":false},{"stop_id":"U17208Z1","name":"Kovalovice, obecní úřad","arrival_time":"6:32:00","departure_time":"6:32:00","lat":49.204735,"lon":16.81897,"is_passed":false},{"stop_id":"U17206Z1","name":"Kovalovice, Dražka","arrival_time":"6:33:00","departure_time":"6:33:00","lat":49.206533,"lon":16.824383,"is_passed":false},{"stop_id":"U17217Z1","name":"Viničné Šumice, obecní úřad","arrival_time":"6:35:00","departure_time":"6:35:00","lat":49.212478,"lon":16.825983,"is_passed":false},{"stop_id":"U17216Z1","name":"Viničné Šumice, Hradská","arrival_time":"6:36:00","departure_time":"6:36:00","lat":49.21438,"lon":16.821803,"is_passed":false},{"stop_id":"U17218Z1","name":"Viničné Šumice, Psénky","arrival_time":"6:37:00","departure_time":"6:37:00","lat":49.213833,"lon":16.817523,"is_passed":false},{"stop_id":"U17220Z1","name":"Viničné Šumice, točna","arrival_time":"6:38:00","departure_time":"7:12:00","lat":49.212718,"lon":16.8107,"is_passed":false}],"14738":[{"stop_id":"U17220Z2","name":"Viničné Šumice, točna","arrival_time":"7:12:00","departure_time":"7:12:00","lat":49.212718,"lon":16.8107,"is_passed":false},{"stop_id":"U17218Z2","name":"Viničné Šumice, Psénky","arrival_time":"7:13:00","departure_time":"7:13:00","lat":49.213227,"lon":16.815287,"is_passed":false},{"stop_id":"U17216Z2","name":"Viničné Šumice, Hradská","arrival_time":"7:14:00","departure_time":"7:14:00","lat":49.214327,"lon":16.821805,"is_passed":false},{"stop_id":"U17217Z2","name":"Viničné Šumice, obecní úřad","arrival_time":"7:15:00","departure_time":"7:15:00","lat":49.212442,"lon":16.82585,"is_passed":false},{"stop_id":"U17206Z2","name":"Kovalovice, Dražka","arrival_time":"7:17:00","departure_time":"7:17:00","lat":49.206257,"lon":16.824293,"is_passed":false},{"stop_id":"U17208Z2","name":"Kovalovice, obecní úřad","arrival_time":"7:18:00","departure_time":"7:18:00","lat":49.204713,"lon":16.818635,"is_passed":false},{"stop_id":"U17207Z2","name":"Kovalovice, na kopci","arrival_time":"7:19:00","departure_time":"7:19:00","lat":49.20635,"lon":16.807393,"is_passed":false},{"stop_id":"U17210Z2","name":"Pozořice, Velké Lipky","arrival_time":"7:21:00","departure_time":"7:21:00","lat":49.209561,"lon":16.798872,"is_passed":false},{"stop_id":"U17211Z1","name":"Pozořice, Jezera","arrival_time":"7:25:00","departure_time":"7:25:00","lat":49.215403,"lon":16.795607,"is_passed":false},{"stop_id":"U17212Z2","name":"Pozořice, náměstí","arrival_time":"7:28:00","departure_time":"7:28:00","lat":49.209871,"lon":16.790286,"is_passed":false},{"stop_id":"U17215Z2","name":"Sivice","arrival_time":"7:30:00","departure_time":"7:30:00","lat":49.201272,"lon":16.783517,"is_passed":false},{"stop_id":"U16140Z2","name":"Tvarožná, sokolovna","arrival_time":"7:32:00","departure_time":"7:32:00","lat":49.193067,"lon":16.775881,"is_passed":false},{"stop_id":"U16153Z2","name":"Tvarožná","arrival_time":"7:34:00","departure_time":"7:34:00","lat":49.190839,"lon":16.770364,"is_passed":false},{"stop_id":"U16142Z2","name":"Tvarožná, zemědělské družstvo","arrival_time":"7:35:00","departure_time":"7:35:00","lat":49.185883,"lon":16.764842,"is_passed":false},{"stop_id":"U16105Z2","name":"Jiříkovice, motorest Rohlenka","arrival_time":"7:36:00","departure_time":"7:36:00","lat":49.183667,"lon":16.760583,"is_passed":false},{"stop_id":"U16130Z2","name":"Šlapanice, Bedřichovice, rozc.","arrival_time":"7:39:00","departure_time":"7:39:00","lat":49.182977,"lon":16.72308,"is_passed":false},{"stop_id":"U1577Z6","name":"Slatina, sídliště","arrival_time":"7:42:00","departure_time":"7:42:00","lat":49.18229,"lon":16.690089,"is_passed":false},{"stop_id":"U1068Z4","name":"Černovičky","arrival_time":"7:44:00","departure_time":"7:44:00","lat":49.183907,"lon":16.668247,"is_passed":false},{"stop_id":"U1677Z2","name":"Tržní","arrival_time":"7:49:00","departure_time":"7:49:00","lat":49.189407,"lon":16.629972,"is_passed":false},{"stop_id":"U1798Z5","name":"Zvonařka","arrival_time":"7:51:00","departure_time":"7:51:00","lat":49.18754,"lon":16.620139,"is_passed":false},{"stop_id":"U1716Z3","name":"Úzká","arrival_time":"7:53:00","departure_time":"8:08:00","lat":49.189244,"lon":16.613733,"is_passed":false}],"14739":[{"stop_id":"U1716Z11","name":"Úzká","arrival_time":"8:08:00","departure_time":"8:08:00","lat":49.188931,"lon":16.612782,"is_passed":false},{"stop_id":"U1463Z2","name":"Opuštěná","arrival_time":"8:11:00","departure_time":"8:11:00","lat":49.185245,"lon":16.613024,"is_passed":false},{"stop_id":"U1677Z1","name":"Tržní","arrival_time":"8:13:00","departure_time":"8:13:00","lat":49.189973,"lon":16.632193,"is_passed":false},{"stop_id":"U1068Z3","name":"Černovičky","arrival_time":"8:17:00","departure_time":"8:17:00","lat":49.183143,"lon":16.669108,"is_passed":false},{"stop_id":"U1577Z5","name":"Slatina, sídliště","arrival_time":"8:19:00","departure_time":"8:19:00","lat":49.182195,"lon":16.690725,"is_passed":false},{"stop_id":"U16130Z1","name":"Šlapanice, Bedřichovice, rozc.","arrival_time":"8:22:00","departure_time":"8:22:00","lat":49.182882,"lon":16.723572,"is_passed":false},{"stop_id":"U16105Z1","name":"Jiříkovice, motorest Rohlenka","arrival_time":"8:25:00","departure_time":"8:25:00","lat":49.183436,"lon":16.761042,"is_passed":false},{"stop_id":"U16142Z1","name":"Tvarožná, zemědělské družstvo","arrival_time":"8:26:00","departure_time":"8:26:00","lat":49.185906,"lon":16.765089,"is_passed":false},{"stop_id":"U16153Z1","name":"Tvarožná","arrival_time":"8:27:00","departure_time":"8:27:00","lat":49.190736,"lon":16.770347,"is_passed":false},{"stop_id":"U16140Z1","name":"Tvarožná, sokolovna","arrival_time":"8:29:00","departure_time":"8:29:00","lat":49.193053,"lon":16.776292,"is_passed":false},{"stop_id":"U17215Z1","name":"Sivice","arrival_time":"8:32:00","departure_time":"8:32:00","lat":49.201394,"lon":16.783639,"is_passed":false},{"stop_id":"U17212Z1","name":"Pozořice, náměstí","arrival_time":"8:35:00","departure_time":"8:35:00","lat":49.208924,"lon":16.790865,"is_passed":false},{"stop_id":"U17211Z1","name":"Pozořice, Jezera","arrival_time":"8:38:00","departure_time":"8:38:00","lat":49.215403,"lon":16.795607,"is_passed":false},{"stop_id":"U17212Z3","name":"Pozořice, náměstí","arrival_time":"8:39:00","departure_time":"8:39:00","lat":49.209464,"lon":16.791047,"is_passed":false},{"stop_id":"U17210Z1","name":"Pozořice, Velké Lipky","arrival_time":"8:40:00","departure_time":"8:40:00","lat":49.209336,"lon":16.79656,"is_passed":false},{"stop_id":"U17207Z1","name":"Kovalovice, na kopci","arrival_time":"8:41:00","departure_time":"8:41:00","lat":49.206132,"lon":16.807718,"is_passed":false},{"stop_id":"U17208Z1","name":"Kovalovice, obecní úřad","arrival_time":"8:42:00","departure_time":"8:42:00","lat":49.204735,"lon":16.81897,"is_passed":false},{"stop_id":"U17206Z1","name":"Kovalovice, Dražka","arrival_time":"8:43:00","departure_time":"8:43:00","lat":49.206533,"lon":16.824383,"is_passed":false},{"stop_id":"U17217Z1","name":"Viničné Šumice, obecní úřad","arrival_time":"8:45:00","departure_time":"8:45:00","lat":49.212478,"lon":16.825983,"is_passed":false},{"stop_id":"U17216Z1","name":"Viničné Šumice, Hradská","arrival_time":"8:46:00","departure_time":"8:46:00","lat":49.21438,"lon":16.821803,"is_passed":false},{"stop_id":"U17218Z1","name":"Viničné Šumice, Psénky","arrival_time":"8:47:00","departure_time":"8:47:00","lat":49.213833,"lon":16.817523,"is_passed":false},{"stop_id":"U17220Z1","name":"Viničné Šumice, točna","arrival_time":"8:48:00","departure_time":"12:12:00","lat":49.212718,"lon":16.8107,"is_passed":false}],"14740":[{"stop_id":"U17220Z2","name":"Viničné Šumice, točna","arrival_time":"12:12:00","departure_time":"12:12:00","lat":49.212718,"lon":16.8107,"is_passed":false},{"stop_id":"U17218Z2","name":"Viničné Šumice, Psénky","arrival_time":"12:13:00","departure_time":"12:13:00","lat":49.213227,"lon":16.815287,"is_passed":false},{"stop_id":"U17216Z2","name":"Viničné Šumice, Hradská","arrival_time":"12:14:00","departure_time":"12:14:00","lat":49.214327,"lon":16.821805,"is_passed":false},{"stop_id":"U17217Z2","name":"Viničné Šumice, obecní úřad","arrival_time":"12:15:00","departure_time":"12:15:00","lat":49.212442,"lon":16.82585,"is_passed":false},{"stop_id":"U17206Z2","name":"Kovalovice, Dražka","arrival_time":"12:17:00","departure_time":"12:17:00","lat":49.206257,"lon":16.824293,"is_passed":false},{"stop_id":"U17208Z2","name":"Kovalovice, obecní úřad","arrival_time":"12:18:00","departure_time":"12:18:00","lat":49.204713,"lon":16.818635,"is_passed":false},{"stop_id":"U17207Z2","name":"Kovalovice, na kopci","arrival_time":"12:19:00","departure_time":"12:19:00","lat":49.20635,"lon":16.807393,"is_passed":false},{"stop_id":"U17210Z2","name":"Pozořice, Velké Lipky","arrival_time":"12:21:00","departure_time":"12:21:00","lat":49.209561,"lon":16.798872,"is_passed":false},{"stop_id":"U17211Z1","name":"Pozořice, Jezera","arrival_time":"12:25:00","departure_time":"12:25:00","lat":49.215403,"lon":16.795607,"is_passed":false},{"stop_id":"U17212Z2","name":"Pozořice, náměstí","arrival_time":"12:28:00","departure_time":"12:28:00","lat":49.209871,"lon":16.790286,"is_passed":false},{"stop_id":"U17215Z2","name":"Sivice","arrival_time":"12:30:00","departure_time":"12:30:00","lat":49.201272,"lon":16.783517,"is_passed":false},{"stop_id":"U16140Z2","name":"Tvarožná, sokolovna","arrival_time":"12:32:00","departure_time":"12:32:00","lat":49.193067,"lon":16.775881,"is_passed":false},{"stop_id":"U16153Z2","name":"Tvarožná","arrival_time":"12:34:00","departure_time":"12:34:00","lat":49.190839,"lon":16.770364,"is_passed":false},{"stop_id":"U16142Z2","name":"Tvarožná, zemědělské družstvo","arrival_time":"12:35:00","departure_time":"12:35:00","lat":49.185883,"lon":16.764842,"is_passed":false},{"stop_id":"U16105Z2","name":"Jiříkovice, motorest Rohlenka","arrival_time":"12:36:00","departure_time":"12:36:00","lat":49.183667,"lon":16.760583,"is_passed":false},{"stop_id":"U16130Z2","name":"Šlapanice, Bedřichovice, rozc.","arrival_time":"12:39:00","departure_time":"12:39:00","lat":49.182977,"lon":16.72308,"is_passed":false},{"stop_id":"U1577Z6","name":"Slatina, sídliště","arrival_time":"12:42:00","departure_time":"12:42:00","lat":49.18229,"lon":16.690089,"is_passed":false},{"stop_id":"U1068Z4","name":"Černovičky","arrival_time":"12:44:00","departure_time":"12:44:00","lat":49.183907,"lon":16.668247,"is_passed":false},{"stop_id":"U1677Z2","name":"Tržní","arrival_time":"12:49:00","departure_time":"12:49:00","lat":49.189407,"lon":16.629972,"is_passed":false},{"stop_id":"U1798Z5","name":"Zvonařka","arrival_time":"12:51:00","departure_time":"12:51:00","lat":49.18754,"lon":16.620139,"is_passed":false},{"stop_id":"U1716Z3","name":"Úzká","arrival_time":"12:53:00","departure_time":"13:08:00","lat":49.189244,"lon":16.613733,"is_passed":false}],"14741":[{"stop_id":"U1716Z11","name":"Úzká","arrival_time":"13:08:00","departure_time":"13:08:00","lat":49.188931,"lon":16.612782,"is_passed":false},{"stop_id":"U1463Z2","name":"Opuštěná","arrival_time":"13:11:00","departure_time":"13:11:00","lat":49.185245,"lon":16.613024,"is_passed":false},{"stop_id":"U1677Z1","name":"Tržní","arrival_time":"13:13:00","departure_time":"13:13:00","lat":49.189973,"lon":16.632193,"is_passed":false},{"stop_id":"U1068Z3","name":"Černovičky","arrival_time":"13:17:00","departure_time":"13:17:00","lat":49.183143,"lon":16.669108,"is_passed":false},{"stop_id":"U1577Z5","name":"Slatina, sídliště","arrival_time":"13:19:00","departure_time":"13:19:00","lat":49.182195,"lon":16.690725,"is_passed":false},{"stop_id":"U16130Z1","name":"Šlapanice, Bedřichovice, rozc.","arrival_time":"13:22:00","departure_time":"13:22:00","lat":49.182882,"lon":16.723572,"is_passed":false},{"stop_id":"U16105Z1","name":"Jiříkovice, motorest Rohlenka","arrival_time":"13:25:00","departure_time":"13:25:00","lat":49.183436,"lon":16.761042,"is_passed":false},{"stop_id":"U16142Z1","name":"Tvarožná, zemědělské družstvo","arrival_time":"13:26:00","departure_time":"13:26:00","lat":49.185906,"lon":16.765089,"is_passed":false},{"stop_id":"U16153Z1","name":"Tvarožná","arrival_time":"13:27:00","departure_time":"13:27:00","lat":49.190736,"lon":16.770347,"is_passed":false},{"stop_id":"U16140Z1","name":"Tvarožná, sokolovna","arrival_time":"13:29:00","departure_time":"13:29:00","lat":49.193053,"lon":16.776292,"is_passed":false},{"stop_id":"U17215Z1","name":"Sivice","arrival_time":"13:32:00","departure_time":"13:32:00","lat":49.201394,"lon":16.783639,"is_passed":false},{"stop_id":"U17212Z1","name":"Pozořice, náměstí","arrival_time":"13:35:00","departure_time":"13:35:00","lat":49.208924,"lon":16.790865,"is_passed":false},{"stop_id":"U17211Z1","name":"Pozořice, Jezera","arrival_time":"13:38:00","departure_time":"13:38:00","lat":49.215403,"lon":16.795607,"is_passed":false},{"stop_id":"U17212Z3","name":"Pozořice, náměstí","arrival_time":"13:39:00","departure_time":"13:39:00","lat":49.209464,"lon":16.791047,"is_passed":false},{"stop_id":"U17210Z1","name":"Pozořice, Velké Lipky","arrival_time":"13:40:00","departure_time":"13:40:00","lat":49.209336,"lon":16.79656,"is_passed":false},{"stop_id":"U17207Z1","name":"Kovalovice, na kopci","arrival_time":"13:41:00","departure_time":"13:41:00","lat":49.206132,"lon":16.807718,"is_passed":false},{"stop_id":"U17208Z1","name":"Kovalovice, obecní úřad","arrival_time":"13:42:00","departure_time":"13:42:00","lat":49.204735,"lon":16.81897,"is_passed":false},{"stop_id":"U17206Z1","name":"Kovalovice, Dražka","arrival_time":"13:43:00","departure_time":"13:43:00","lat":49.206533,"lon":16.824383,"is_passed":false},{"stop_id":"U17217Z1","name":"Viničné Šumice, obecní úřad","arrival_time":"13:45:00","departure_time":"13:45:00","lat":49.212478,"lon":16.825983,"is_passed":false},{"stop_id":"U17216Z1","name":"Viničné Šumice, Hradská","arrival_time":"13:46:00","departure_time":"13:46:00","lat":49.21438,"lon":16.821803,"is_passed":false},{"stop_id":"U17218Z1","name":"Viničné Šumice, Psénky","arrival_time":"13:47:00","departure_time":"13:47:00","lat":49.213833,"lon":16.817523,"is_passed":false},{"stop_id":"U17220Z1","name":"Viničné Šumice, točna","arrival_time":"13:48:00","departure_time":"15:12:00","lat":49.212718,"lon":16.8107,"is_passed":false}],"14742":[{"stop_id":"U17220Z2","name":"Viničné Šumice, točna","arrival_time":"15:12:00","departure_time":"15:12:00","lat":49.212718,"lon":16.8107,"is_passed":false},{"stop_id":"U17218Z2","name":"Viničné Šumice, Psénky","arrival_time":"15:13:00","departure_time":"15:13:00","lat":49.213227,"lon":16.815287,"is_passed":false},{"stop_id":"U17216Z2","name":"Viničné Šumice, Hradská","arrival_time":"15:14:00","departure_time":"15:14:00","lat":49.214327,"lon":16.821805,"is_passed":false},{"stop_id":"U17217Z2","name":"Viničné Šumice, obecní úřad","arrival_time":"15:15:00","departure_time":"15:15:00","lat":49.212442,"lon":16.82585,"is_passed":false},{"stop_id":"U17206Z2","name":"Kovalovice, Dražka","arrival_time":"15:17:00","departure_time":"15:17:00","lat":49.206257,"lon":16.824293,"is_passed":false},{"stop_id":"U17208Z2","name":"Kovalovice, obecní úřad","arrival_time":"15:18:00","departure_time":"15:18:00","lat":49.204713,"lon":16.818635,"is_passed":false},{"stop_id":"U17207Z2","name":"Kovalovice, na kopci","arrival_time":"15:19:00","departure_time":"15:19:00","lat":49.20635,"lon":16.807393,"is_passed":false},{"stop_id":"U17210Z2","name":"Pozořice, Velké Lipky","arrival_time":"15:21:00","departure_time":"15:21:00","lat":49.209561,"lon":16.798872,"is_passed":false},{"stop_id":"U17211Z1","name":"Pozořice, Jezera","arrival_time":"15:25:00","departure_time":"15:25:00","lat":49.215403,"lon":16.795607,"is_passed":false},{"stop_id":"U17212Z2","name":"Pozořice, náměstí","arrival_time":"15:28:00","departure_time":"15:28:00","lat":49.209871,"lon":16.790286,"is_passed":false},{"stop_id":"U17215Z2","name":"Sivice","arrival_time":"15:30:00","departure_time":"15:30:00","lat":49.201272,"lon":16.783517,"is_passed":false},{"stop_id":"U16140Z2","name":"Tvarožná, sokolovna","arrival_time":"15:32:00","departure_time":"15:32:00","lat":49.193067,"lon":16.775881,"is_passed":false},{"stop_id":"U16153Z2","name":"Tvarožná","arrival_time":"15:34:00","departure_time":"15:34:00","lat":49.190839,"lon":16.770364,"is_passed":false},{"stop_id":"U16142Z2","name":"Tvarožná, zemědělské družstvo","arrival_time":"15:35:00","departure_time":"15:35:00","lat":49.185883,"lon":16.764842,"is_passed":false},{"stop_id":"U16105Z2","name":"Jiříkovice, motorest Rohlenka","arrival_time":"15:36:00","departure_time":"15:36:00","lat":49.183667,"lon":16.760583,"is_passed":false},{"stop_id":"U16130Z2","name":"Šlapanice, Bedřichovice, rozc.","arrival_time":"15:39:00","departure_time":"15:39:00","lat":49.182977,"lon":16.72308,"is_passed":false},{"stop_id":"U1577Z6","name":"Slatina, sídliště","arrival_time":"15:42:00","departure_time":"15:42:00","lat":49.18229,"lon":16.690089,"is_passed":false},{"stop_id":"U1068Z4","name":"Černovičky","arrival_time":"15:44:00","departure_time":"15:44:00","lat":49.183907,"lon":16.668247,"is_passed":false},{"stop_id":"U1677Z2","name":"Tržní","arrival_time":"15:49:00","departure_time":"15:49:00","lat":49.189407,"lon":16.629972,"is_passed":false},{"stop_id":"U1798Z5","name":"Zvonařka","arrival_time":"15:51:00","departure_time":"15:51:00","lat":49.18754,"lon":16.620139,"is_passed":false},{"stop_id":"U1716Z3","name":"Úzká","arrival_time":"15:53:00","departure_time":"16:08:00","lat":49.189244,"lon":16.613733,"is_passed":false}],"14743":[{"stop_id":"U1716Z11","name":"Úzká","arrival_time":"16:08:00","departure_time":"16:08:00","lat":49.188931,"lon":16.612782,"is_passed":false},{"stop_id":"U1463Z2","name":"Opuštěná","arrival_time":"16:11:00","departure_time":"16:11:00","lat":49.185245,"lon":16.613024,"is_passed":false},{"stop_id":"U1677Z1","name":"Tržní","arrival_time":"16:13:00","departure_time":"16:13:00","lat":49.189973,"lon":16.632193,"is_passed":false},{"stop_id":"U1068Z3","name":"Černovičky","arrival_time":"16:17:00","departure_time":"16:17:00","lat":49.183143,"lon":16.669108,"is_passed":false},