{"147":[{"stop_id":"U1696Z5","name":"ÚAN Zvonařka","arrival_time":"18:04:00","departure_time":"18:04:00","lat":49.185364,"lon":16.616151,"is_passed":false},{"stop_id":"U1677Z3","name":"Tržní","arrival_time":"18:08:00","departure_time":"18:08:00","lat":49.189342,"lon":16.630314,"is_passed":false},{"stop_id":"U17335Z2","name":"Rousínov, autobusová stanice","arrival_time":"18:28:00","departure_time":"18:29:00","lat":49.20291,"lon":16.88497,"is_passed":false},{"stop_id":"U17331Z1","name":"Rousínov, Čechyně, rozcestí","arrival_time":"18:31:00","departure_time":"18:31:00","lat":49.207062,"lon":16.891572,"is_passed":false},{"stop_id":"U17311Z3","name":"Komořany, EDP","arrival_time":"18:34:00","departure_time":"18:34:00","lat":49.220008,"lon":16.905058,"is_passed":false},{"stop_id":"U17344Z1","name":"Tučapy, rozcestí","arrival_time":"18:36:00","departure_time":"18:36:00","lat":49.227308,"lon":16.915917,"is_passed":false},{"stop_id":"U17328Z1","name":"Luleč, rozcestí","arrival_time":"18:38:00","departure_time":"18:38:00","lat":49.248113,"lon":16.944733,"is_passed":false},{"stop_id":"U17428Z1","name":"Vyškov, Drnovská Bioveta","arrival_time":"18:40:00","departure_time":"18:40:00","lat":49.254302,"lon":16.95682,"is_passed":false},{"stop_id":"U17435Z1","name":"Vyškov, Nouzka","arrival_time":"18:43:00","departure_time":"18:43:00","lat":49.267372,"lon":16.982268,"is_passed":false},{"stop_id":"U17429Z1","name":"Vyškov, garáže ČSAD","arrival_time":"18:44:00","departure_time":"18:44:00","lat":49.271332,"lon":16.989108,"is_passed":false},{"stop_id":"U17423Z21","name":"Vyškov, Autobusové nádraží","arrival_time":"18:46:00","departure_time":"19:16:00","lat":49.275819,"lon":16.992078,"is_passed":false}],"1470":[{"stop_id":"U19302Z12","name":"Moravský Písek, Kolonie, žel. stanice","arrival_time":"13:14:00","departure_time":"13:14:00","lat":48.977119,"lon":17.314582,"is_passed":false},{"stop_id":"U26901Z10","name":"Bzenec-Olšovec","arrival_time":"13:17:00","departure_time":"13:17:00","lat":48.970217,"lon":17.293339,"is_passed":false},{"stop_id":"U16908Z10","name":"Bzenec, železniční stanice","arrival_time":"13:20:00","departure_time":"13:39:00","lat":48.969173,"lon":17.263183,"is_passed":false}],"1471":[{"stop_id":"U16908Z13","name":"Bzenec, železniční stanice","arrival_time":"13:39:00","departure_time":"13:39:00","lat":48.969173,"lon":17.263183,"is_passed":false},{"stop_id":"U26901Z11","name":"Bzenec-Olšovec","arrival_time":"13:42:00","departure_time":"13:42:00","lat":48.970217,"lon":17.293339,"is_passed":false},{"stop_id":"U19302Z11","name":"Moravský Písek, Kolonie, žel. stanice","arrival_time":"13:45:00","departure_time":"13:52:00","lat":48.977119,"lon":17.314582,"is_passed":false}],"1472":[{"stop_id":"U19302Z12","name":"Moravský Písek, Kolonie, žel. stanice","arrival_time":"13:52:00","departure_time":"13:52:00","lat":48.977119,"lon":17.314582,"is_passed":false},{"stop_id":"U26901Z10","name":"Bzenec-Olšovec","arrival_time":"13:55:00","departure_time":"13:55:00","lat":48.970217,"lon":17.293339,"is_passed":false},{"stop_id":"U16908Z10","name":"Bzenec, železniční stanice","arrival_time":"13:58:00","departure_time":"14:01:00","lat":48.969173,"lon":17.263183,"is_passed":false}],"1473":[{"stop_id":"U16908Z13","name":"Bzenec, železniční stanice","arrival_time":"14:01:00","departure_time":"14:01:00","lat":48.969173,"lon":17.263183,"is_passed":false},{"stop_id":"U26901Z11","name":"Bzenec-Olšovec","arrival_time":"14:04:00","departure_time":"14:04:00","lat":48.970217,"lon":17.293339,"is_passed":false},{"stop_id":"U19302Z11","name":"Moravský Písek, Kolonie, žel. stanice","arrival_time":"14:07:00","departure_time":"14:14:00","lat":48.977119,"lon":17.314582,"is_passed":false}],"1474":[{"stop_id":"U19302Z12","name":"Moravský Písek, Kolonie, žel. stanice","arrival_time":"14:14:00","departure_time":"14:14:00","lat":48.977119,"lon":17.314582,"is_passed":false},{"stop_id":"U26901Z10","name":"Bzenec-Olšovec","arrival_time":"14:17:00","departure_time":"14:17:00","lat":48.970217,"lon":17.293339,"is_passed":false},{"stop_id":"U16908Z10","name":"Bzenec, železniční stanice","arrival_time":"14:20:00","departure_time":"14:35:00","lat":48.969173,"lon":17.263183,"is_passed":false}],"1475":[{"stop_id":"U16908Z13","name":"Bzenec, železniční stanice","arrival_time":"14:35:00","departure_time":"14:35:00","lat":48.969173,"lon":17.263183,"is_passed":false},{"stop_id":"U26901Z11","name":"Bzenec-Olšovec","arrival_time":"14:38:00","departure_time":"14:38:00","lat":48.970217,"lon":17.293339,"is_passed":false},{"stop_id":"U19302Z11","name":"Moravský Písek, Kolonie, žel. stanice","arrival_time":"14:41:00","departure_time":"14:51:00","lat":48.977119,"lon":17.314582,"is_passed":false}],"1476":[{"stop_id":"U19302Z12","name":"Moravský Písek, Kolonie, žel. stanice","arrival_time":"14:51:00","departure_time":"14:51:00","lat":48.977119,"lon":17.314582,"is_passed":false},{"stop_id":"U26901Z10","name":"Bzenec-Olšovec","arrival_time":"14:54:00","departure_time":"14:54:00","lat":48.970217,"lon":17.293339,"is_passed":false},{"stop_id":"U16908Z10","name":"Bzenec, železniční stanice","arrival_time":"14:57:00","departure_time":"15:01:00","lat":48.969173,"lon":17.263183,"is_passed":false}],"1477":[{"stop_id":"U16908Z13","name":"Bzenec, železniční stanice","arrival_time":"15:01:00","departure_time":"15:01:00","lat":48.969173,"lon":17.263183,"is_passed":false},{"stop_id":"U26901Z11","name":"Bzenec-Olšovec","arrival_time":"15:04:00","departure_time":"15:04:00","lat":48.970217,"lon":17.293339,"is_passed":false},{"stop_id":"U19302Z11","name":"Moravský Písek, Kolonie, žel. stanice","arrival_time":"15:07:00","departure_time":"15:14:00","lat":48.977119,"lon":17.314582,"is_passed":false}],"1478":[{"stop_id":"U19302Z12","name":"Moravský Písek, Kolonie, žel. stanice","arrival_time":"15:14:00","departure_time":"15:14:00","lat":48.977119,"lon":17.314582,"is_passed":false},{"stop_id":"U26901Z10","name":"Bzenec-Olšovec","arrival_time":"15:17:00","departure_time":"15:17:00","lat":48.970217,"lon":17.293339,"is_passed":false},{"stop_id":"U16908Z10","name":"Bzenec, železniční stanice","arrival_time":"15:20:00","departure_time":"15:39:00","lat":48.969173,"lon":17.263183,"is_passed":false}],"1479":[{"stop_id":"U16908Z13","name":"Bzenec, železniční stanice","arrival_time":"15:39:00","departure_time":"15:39:00","lat":48.969173,"lon":17.263183,"is_passed":false},{"stop_id":"U26901Z11","name":"Bzenec-Olšovec","arrival_time":"15:42:00","departure_time":"15:42:00","lat":48.970217,"lon":17.293339,"is_passed":false},{"stop_id":"U19302Z11","name":"Moravský Písek, Kolonie, žel. stanice","arrival_time":"15:45:00","departure_time":"15:52:00","lat":48.977119,"lon":17.314582,"is_passed":false}],"14700":[{"stop_id":"U1146Z98","name":"Hlavní nádraží","arrival_time":"19:28:00","departure_time":"19:28:00","lat":49.19035,"lon":16.612342,"is_passed":false},{"stop_id":"U16333Z11","name":"Slavkov u Brna, žel. st.","arrival_time":"19:52:00","departure_time":"19:53:00","lat":49.14495,"lon":16.873475,"is_passed":false},{"stop_id":"U16463Z51","name":"Bučovice, železniční stanice","arrival_time":"20:01:00","departure_time":"20:02:00","lat":49.145619,"lon":16.999658,"is_passed":false},{"stop_id":"U16509Z11","name":"Nesovice, železniční stanice","arrival_time":"20:09:00","departure_time":"20:10:00","lat":49.14916,"lon":17.079897,"is_passed":false},{"stop_id":"U16503Z11","name":"Nemotice, železniční stanice","arrival_time":"20:17:00","departure_time":"20:18:00","lat":49.132992,"lon":17.114242,"is_passed":false},{"stop_id":"U16650Z51","name":"Kyjov, železniční stanice","arrival_time":"20:31:00","departure_time":"20:32:00","lat":49.016263,"lon":17.122856,"is_passed":false},{"stop_id":"U26603Z2","name":"Kyjov zastávka","arrival_time":"20:35:00","departure_time":"20:35:00","lat":49.003383,"lon":17.123528,"is_passed":false},{"stop_id":"U26802Z11","name":"Vracov","arrival_time":"20:44:00","departure_time":"20:45:00","lat":48.976674,"lon":17.218698,"is_passed":false},{"stop_id":"U16908Z11","name":"Bzenec, železniční stanice","arrival_time":"20:48:00","departure_time":"20:49:00","lat":48.969173,"lon":17.263183,"is_passed":false},{"stop_id":"U19316Z13","name":"Veselí nad Moravou, železniční stanice","arrival_time":"20:58:00","departure_time":"21:00:00","lat":48.948694,"lon":17.382439,"is_passed":false}],"14701":[{"stop_id":"U19316Z13","name":"Veselí nad Moravou, železniční stanice","arrival_time":"21:00:00","departure_time":"21:00:00","lat":48.948694,"lon":17.382439,"is_passed":false},{"stop_id":"U29404Z11","name":"Uherský Ostroh","arrival_time":"21:04:00","departure_time":"21:05:00","lat":48.981817,"lon":17.403441,"is_passed":false},{"stop_id":"U30314Z1","name":"Ostrožská Nová Ves","arrival_time":"21:09:00","departure_time":"21:09:00","lat":49.009594,"lon":17.436368,"is_passed":false},{"stop_id":"U31025Z2","name":"Kunovice zastávka","arrival_time":"21:13:00","departure_time":"21:14:00","lat":49.038039,"lon":17.461023,"is_passed":false},{"stop_id":"U31027Z2","name":"Uherské Hradiště","arrival_time":"21:18:00","departure_time":"21:20:00","lat":49.066825,"lon":17.457085,"is_passed":false},{"stop_id":"U31028Z2","name":"Staré Město u Uherského Hradiště","arrival_time":"21:26:00","departure_time":"21:38:00","lat":49.076022,"lon":17.42271,"is_passed":false}],"14702":[{"stop_id":"U31028Z1","name":"Staré Město u Uherského Hradiště","arrival_time":"21:38:00","departure_time":"21:38:00","lat":49.076029,"lon":17.422624,"is_passed":false},{"stop_id":"U31027Z1","name":"Uherské Hradiště","arrival_time":"21:44:00","departure_time":"21:45:00","lat":49.066881,"lon":17.457171,"is_passed":false},{"stop_id":"U31025Z1","name":"Kunovice zastávka","arrival_time":"21:49:00","departure_time":"21:49:00","lat":49.038454,"lon":17.46113,"is_passed":false},{"stop_id":"U31103Z2","name":"Ostrožská Nová Ves lázně","arrival_time":"21:52:00","departure_time":"21:52:00","lat":49.018181,"lon":17.446255,"is_passed":false},{"stop_id":"U30314Z2","name":"Ostrožská Nová Ves","arrival_time":"21:54:00","departure_time":"21:55:00","lat":49.009975,"lon":17.436797,"is_passed":false},{"stop_id":"U29404Z10","name":"Uherský Ostroh","arrival_time":"21:59:00","departure_time":"22:00:00","lat":48.982198,"lon":17.403538,"is_passed":false},{"stop_id":"U19310Z11","name":"Veselí nad Moravou, Milokošť","arrival_time":"22:02:00","departure_time":"22:02:00","lat":48.966999,"lon":17.398828,"is_passed":false},{"stop_id":"U19316Z12","name":"Veselí nad Moravou, železniční stanice","arrival_time":"22:06:00","departure_time":"22:06:00","lat":48.948694,"lon":17.382439,"is_passed":false}],"14703":[{"stop_id":"U19316Z12","name":"Veselí nad Moravou, železniční stanice","arrival_time":"14:32:00","departure_time":"14:32:00","lat":48.948694,"lon":17.382439,"is_passed":false},{"stop_id":"U16908Z10","name":"Bzenec, železniční stanice","arrival_time":"14:40:00","departure_time":"14:41:00","lat":48.969173,"lon":17.263183,"is_passed":false},{"stop_id":"U26802Z10","name":"Vracov","arrival_time":"14:45:00","departure_time":"14:46:00","lat":48.97657,"lon":17.220097,"is_passed":false},{"stop_id":"U26801Z10","name":"Vlkoš","arrival_time":"14:50:00","departure_time":"14:50:00","lat":48.98791,"lon":17.166472,"is_passed":false},{"stop_id":"U26603Z1","name":"Kyjov zastávka","arrival_time":"14:54:00","departure_time":"14:55:00","lat":49.003312,"lon":17.123835,"is_passed":false},{"stop_id":"U16650Z50","name":"Kyjov, železniční stanice","arrival_time":"14:58:00","departure_time":"15:04:00","lat":49.016226,"lon":17.122949,"is_passed":false}],"14704":[{"stop_id":"U16650Z51","name":"Kyjov, železniční stanice","arrival_time":"15:04:00","departure_time":"15:04:00","lat":49.016263,"lon":17.122856,"is_passed":false},{"stop_id":"U26603Z2","name":"Kyjov zastávka","arrival_time":"15:07:00","departure_time":"15:07:00","lat":49.003383,"lon":17.123528,"is_passed":false},{"stop_id":"U26801Z11","name":"Vlkoš","arrival_time":"15:12:00","departure_time":"15:12:00","lat":48.987902,"lon":17.166624,"is_passed":false},{"stop_id":"U26802Z11","name":"Vracov","arrival_time":"15:16:00","departure_time":"15:17:00","lat":48.976674,"lon":17.218698,"is_passed":false},{"stop_id":"U16908Z11","name":"Bzenec, železniční stanice","arrival_time":"15:21:00","departure_time":"15:22:00","lat":48.969173,"lon":17.263183,"is_passed":false},{"stop_id":"U19316Z13","name":"Veselí nad Moravou, železniční stanice","arrival_time":"15:31:00","departure_time":"16:29:00","lat":48.948694,"lon":17.382439,"is_passed":false}],"14705":[{"stop_id":"U19316Z12","name":"Veselí nad Moravou, železniční stanice","arrival_time":"16:29:00","departure_time":"16:29:00","lat":48.948694,"lon":17.382439,"is_passed":false},{"stop_id":"U16908Z10","name":"Bzenec, železniční stanice","arrival_time":"16:37:00","departure_time":"16:38:00","lat":48.969173,"lon":17.263183,"is_passed":false},{"stop_id":"U26802Z10","name":"Vracov","arrival_time":"16:42:00","departure_time":"16:43:00","lat":48.97657,"lon":17.220097,"is_passed":false},{"stop_id":"U26801Z10","name":"Vlkoš","arrival_time":"16:47:00","departure_time":"16:47:00","lat":48.98791,"lon":17.166472,"is_passed":false},{"stop_id":"U26603Z1","name":"Kyjov zastávka","arrival_time":"16:51:00","departure_time":"16:52:00","lat":49.003312,"lon":17.123835,"is_passed":false},{"stop_id":"U16650Z50","name":"Kyjov, železniční stanice","arrival_time":"16:55:00","departure_time":"17:04:00","lat":49.016226,"lon":17.122949,"is_passed":false}],"14706":[{"stop_id":"U16650Z51","name":"Kyjov, železniční stanice","arrival_time":"17:04:00","departure_time":"17:04:00","lat":49.016263,"lon":17.122856,"is_passed":false},{"stop_id":"U26603Z2","name":"Kyjov zastávka","arrival_time":"17:07:00","departure_time":"17:07:00","lat":49.003383,"lon":17.123528,"is_passed":false},{"stop_id":"U26801Z11","name":"Vlkoš","arrival_time":"17:12:00","departure_time":"17:12:00","lat":48.987902,"lon":17.166624,"is_passed":false},{"stop_id":"U26802Z11","name":"Vracov","arrival_time":"17:16:00","departure_time":"17:17:00","lat":48.976674,"lon":17.218698,"is_passed":false},{"stop_id":"U16908Z11","name":"Bzenec, železniční stanice","arrival_time":"17:21:00","departure_time":"17:22:00","lat":48.969173,"lon":17.263183,"is_passed":false},{"stop_id":"U19316Z13","name":"Veselí nad Moravou, železniční stanice","arrival_time":"17:31:00","departure_time":"18:25:00","lat":48.948694,"lon":17.382439,"is_passed":false}],"14707":[{"stop_id":"U19316Z12","name":"Veselí nad Moravou, železniční stanice","arrival_time":"18:25:00","departure_time":"18:25:00","lat":48.948694,"lon":17.382439,"is_passed":false},{"stop_id":"U16908Z10","name":"Bzenec, železniční stanice","arrival_time":"18:33:00","departure_time":"18:34:00","lat":48.969173,"lon":17.263183,"is_passed":false},{"stop_id":"U26802Z10","name":"Vracov","arrival_time":"18:38:00","departure_time":"18:39:00","lat":48.97657,"lon":17.220097,"is_passed":false},{"stop_id":"U26801Z10","name":"Vlkoš","arrival_time":"18:43:00","departure_time":"18:43:00","lat":48.98791,"lon":17.166472,"is_passed":false},{"stop_id":"U26603Z1","name":"Kyjov zastávka","arrival_time":"18:47:00","departure_time":"18:48:00","lat":49.003312,"lon":17.123835,"is_passed":false},{"stop_id":"U16650Z50","name":"Kyjov, železniční stanice","arrival_time":"18:51:00","departure_time":"19:07:00","lat":49.016226,"lon":17.122949,"is_passed":false}],"14708":[{"stop_id":"U16650Z51","name":"Kyjov, železniční stanice","arrival_time":"19:07:00","departure_time":"19:07:00","lat":49.016263,"lon":17.122856,"is_passed":false},{"stop_id":"U26603Z2","name":"Kyjov zastávka","arrival_time":"19:10:00","departure_time":"19:10:00","lat":49.003383,"lon":17.123528,"is_passed":false},{"stop_id":"U26801Z11","name":"Vlkoš","arrival_time":"19:15:00","departure_time":"19:15:00","lat":48.987902,"lon":17.166624,"is_passed":false},{"stop_id":"U26802Z11","name":"Vracov","arrival_time":"19:19:00","departure_time":"19:20:00","lat":48.976674,"lon":17.218698,"is_passed":false},{"stop_id":"U16908Z11","name":"Bzenec, železniční stanice","arrival_time":"19:24:00","departure_time":"19:25:00","lat":48.969173,"lon":17.263183,"is_passed":false},{"stop_id":"U19316Z13","name":"Veselí nad Moravou, železniční stanice","arrival_time":"19:34:00","departure_time":"19:34:00","lat":48.948694,"lon":17.382439,"is_passed":false}],"14709":[{"stop_id":"U31027Z1","name":"Uherské Hradiště","arrival_time":"20:07:00","departure_time":"20:07:00","lat":49.066881,"lon":17.457171,"is_passed":false},{"stop_id":"U31025Z1","name":"Kunovice zastávka","arrival_time":"20:11:00","departure_time":"20:11:00","lat":49.038454,"lon":17.46113,"is_passed":false},{"stop_id":"U30314Z2","name":"Ostrožská Nová Ves","arrival_time":"20:15:00","departure_time":"20:20:00","lat":49.009975,"lon":17.436797,"is_passed":false},{"stop_id":"U29404Z10","name":"Uherský Ostroh","arrival_time":"20:24:00","departure_time":"20:25:00","lat":48.982198,"lon":17.403538,"is_passed":false},{"stop_id":"U19310Z11","name":"Veselí nad Moravou, Milokošť","arrival_time":"20:27:00","departure_time":"20:27:00","lat":48.966999,"lon":17.398828,"is_passed":false},{"stop_id":"U19316Z12","name":"Veselí nad Moravou, železniční stanice","arrival_time":"20:30:00","departure_time":"20:30:00","lat":48.948694,"lon":17.382439,"is_passed":false}],"14710":[{"stop_id":"U19316Z13","name":"Veselí nad Moravou, železniční stanice","arrival_time":"22:08:00","departure_time":"22:08:00","lat":48.948694,"lon":17.382439,"is_passed":false},{"stop_id":"U19310Z12","name":"Veselí nad Moravou, Milokošť","arrival_time":"22:10:00","departure_time":"22:10:00","lat":48.967085,"lon":17.398881,"is_passed":false},{"stop_id":"U29404Z11","name":"Uherský Ostroh","arrival_time":"22:12:00","departure_time":"22:13:00","lat":48.981817,"lon":17.403441,"is_passed":false},{"stop_id":"U30314Z1","name":"Ostrožská Nová Ves","arrival_time":"22:16:00","departure_time":"22:17:00","lat":49.009594,"lon":17.436368,"is_passed":false},{"stop_id":"U31025Z2","name":"Kunovice zastávka","arrival_time":"22:20:00","departure_time":"22:20:00","lat":49.038039,"lon":17.461023,"is_passed":false},{"stop_id":"U31027Z2","name":"Uherské Hradiště","arrival_time":"22:25:00","departure_time":"22:26:00","lat":49.066825,"lon":17.457085,"is_passed":false},{"stop_id":"U31028Z2","name":"Staré Město u Uherského Hradiště","arrival_time":"22:32:00","departure_time":"22:32:00","lat":49.076022,"lon":17.42271,"is_passed":false}],"14711":[{"stop_id":"U1146Z98","name":"Hlavní nádraží","arrival_time":"7:02:00","departure_time":"7:02:00","lat":49.19035,"lon":16.612342,"is_passed":false},{"stop_id":"U17446Z11","name":"Vyškov, železniční stanice","arrival_time":"7:39:00","departure_time":"7:40:00","lat":49.277222,"lon":16.990833,"is_passed":false}],"14712":[{"stop_id":"U17446Z10","name":"Vyškov, železniční stanice","arrival_time":"18:21:00","departure_time":"18:21:00","lat":49.277222,"lon":16.990833,"is_passed":false},{"stop_id":"U1146Z99","name":"Hlavní nádraží","arrival_time":"18:59:00","departure_time":"18:59:00","lat":49.19035,"lon":16.612342,"is_passed":false}],"14713":[{"stop_id":"U1146Z99","name":"Hlavní nádraží","arrival_time":"18:59:00","departure_time":"18:59:00","lat":49.19035,"lon":16.612342,"is_passed":false},{"stop_id":"U1286Z10","name":"Královo Pole, nádraží","arrival_time":"19:14:00","departure_time":"19:14:00","lat":49.231051,"lon":16.596651,"is_passed":false}],"14714":[{"stop_id":"U17446Z10","name":"Vyškov, železniční stanice","arrival_time":"21:20:00","departure_time":"21:20:00","lat":49.277222,"lon":16.990833,"is_passed":false},{"stop_id":"U1146Z99","name":"Hlavní nádraží","arrival_time":"21:58:00","departure_time":"21:58:00","lat":49.19035,"lon":16.612342,"is_passed":false}],"14715":[{"stop_id":"U1286Z11","name":"Královo Pole, nádraží","arrival_time":"19:45:00","departure_time":"19:45:00","lat":49.231051,"lon":16.596651,"is_passed":false},{"stop_id":"U1146Z98","name":"Hlavní nádraží","arrival_time":"19:56:00","departure_time":"20:02:00","lat":49.19035,"lon":16.612342,"is_passed":false},{"stop_id":"U17446Z11","name":"Vyškov, železniční stanice","arrival_time":"20:39:00","departure_time":"20:40:00","lat":49.277222,"lon":16.990833,"is_passed":false}],"14716":[{"stop_id":"U19316Z11","name":"Veselí nad Moravou, železniční stanice","arrival_time":"11:03:00","departure_time":"11:03:00","lat":48.948694,"lon":17.382439,"is_passed":false},{"stop_id":"U29403Z11","name":"Blatnice pod Sv. Antonínkem","arrival_time":"11:07:00","departure_time":"11:07:00","lat":48.941163,"lon":17.437706,"is_passed":false},{"stop_id":"U29402Z11","name":"Lipov","arrival_time":"11:12:00","departure_time":"11:12:00","lat":48.909806,"lon":17.457953,"is_passed":false},{"stop_id":"U29401Z11","name":"Louka u Ostrohu","arrival_time":"11:14:00","departure_time":"11:15:00","lat":48.912234,"lon":17.484226,"is_passed":false},{"stop_id":"U19530Z11","name":"Velká nad Veličkou, železniční stanice","arrival_time":"11:21:00","departure_time":"11:23:00","lat":48.878631,"lon":17.51092,"is_passed":false},{"stop_id":"U29502Z11","name":"Javorník nad Veličkou zastávka","arrival_time":"11:26:00","departure_time":"11:26:00","lat":48.860802,"lon":17.520722,"is_passed":false},{"stop_id":"U29501Z11","name":"Vrbovce","arrival_time":"11:31:00","departure_time":"11:40:00","lat":48.824439,"lon":17.516352,"is_passed":false},{"stop_id":"U29504Z2","name":"Vrbovce zastávka","arrival_time":"11:43:00","departure_time":"11:44:00","lat":48.804784,"lon":17.52869,"is_passed":false},{"stop_id":"U29601Z2","name":"Brestovec","arrival_time":"11:47:00","departure_time":"11:47:00","lat":48.786012,"lon":17.557593,"is_passed":false},{"stop_id":"U29602Z2","name":"Myjava","arrival_time":"11:51:00","departure_time":"12:07:00","lat":48.763641,"lon":17.570897,"is_passed":false}],"14717":[{"stop_id":"U29602Z1","name":"Myjava","arrival_time":"12:07:00","departure_time":"12:07:00","lat":48.763641,"lon":17.570897,"is_passed":false},{"stop_id":"U29601Z1","name":"Brestovec","arrival_time":"12:10:00","departure_time":"12:11:00","lat":48.786012,"lon":17.557593,"is_passed":false},{"stop_id":"U29504Z1","name":"Vrbovce zastávka","arrival_time":"12:14:00","departure_time":"12:14:00","lat":48.804784,"lon":17.52869,"is_passed":false},{"stop_id":"U29501Z10","name":"Vrbovce","arrival_time":"12:17:00","departure_time":"12:30:00","lat":48.824439,"lon":17.516352,"is_passed":false},{"stop_id":"U29502Z10","name":"Javorník nad Veličkou zastávka","arrival_time":"12:34:00","departure_time":"12:34:00","lat":48.860868,"lon":17.520699,"is_passed":false},{"stop_id":"U19530Z10","name":"Velká nad Veličkou, železniční stanice","arrival_time":"12:37:00","departure_time":"12:39:00","lat":48.878631,"lon":17.51092,"is_passed":false},{"stop_id":"U29401Z10","name":"Louka u Ostrohu","arrival_time":"12:43:00","departure_time":"12:43:00","lat":48.912234,"lon":17.484226,"is_passed":false},{"stop_id":"U29402Z10","name":"Lipov","arrival_time":"12:46:00","departure_time":"12:46:00","lat":48.909806,"lon":17.457953,"is_passed":false},{"stop_id":"U29403Z10","name":"Blatnice pod Sv. Antonínkem","arrival_time":"12:51:00","departure_time":"12:51:00","lat":48.941163,"lon":17.437706,"is_passed":false},{"stop_id":"U19316Z10","name":"Veselí nad Moravou, železniční stanice","arrival_time":"12:57:00","departure_time":"13:03:00","lat":48.948694,"lon":17.382439,"is_passed":false}],"14718":[{"stop_id":"U19316Z10","name":"Veselí nad Moravou, železniční stanice","arrival_time":"13:03:00","departure_time":"13:03:00","lat":48.948694,"lon":17.382439,"is_passed":false},{"stop_id":"U29302Z10","name":"Veselí nad Moravou-Zarazice","arrival_time":"13:05:00","departure_time":"13:06:00","lat":48.937236,"lon":17.361306,"is_passed":false},{"stop_id":"U29303Z10","name":"Vnorovy","arrival_time":"13:08:00","departure_time":"13:08:00","lat":48.931508,"lon":17.348464,"is_passed":false},{"stop_id":"U19205Z10","name":"Strážnice, aut. st.","arrival_time":"13:13:00","departure_time":"13:14:00","lat":48.897385,"lon":17.317688,"is_passed":false},{"stop_id":"U29201Z10","name":"Petrov","arrival_time":"13:18:00","departure_time":"13:18:00","lat":48.878911,"lon":17.273703,"is_passed":false},{"stop_id":"U29202Z10","name":"Sudoměřice nad Moravou","arrival_time":"13:21:00","departure_time":"13:22:00","lat":48.871653,"lon":17.243039,"is_passed":false},{"stop_id":"U29104Z10","name":"Rohatec kolonie","arrival_time":"13:27:00","departure_time":"13:27:00","lat":48.892642,"lon":17.212111,"is_passed":false},{"stop_id":"U29103Z10","name":"Rohatec","arrival_time":"13:30:00","departure_time":"13:30:00","lat":48.892515,"lon":17.197852,"is_passed":false},{"stop_id":"U29102Z10","name":"Rohatec zastávka","arrival_time":"13:32:00","departure_time":"13:33:00","lat":48.88309,"lon":17.178111,"is_passed":false},{"stop_id":"U19001Z20","name":"Hodonín, autobusové nádraží","arrival_time":"13:40:00","departure_time":"13:46:00","lat":48.85575,"lon":17.12069,"is_passed":false}],"14719":[{"stop_id":"U19001Z23","name":"Hodonín, autobusové nádraží","arrival_time":"13:46:00","departure_time":"13:46:00","lat":48.85575,"lon":17.12069,"is_passed":false},{"stop_id":"U29106Z10","name":"Mutěnice","arrival_time":"14:00:00","departure_time":"14:01:00","lat":48.904678,"lon":17.039875,"is_passed":false},{"stop_id":"U29105Z10","name":"Mutěnice zastávka","arrival_time":"14:03:00","departure_time":"14:10:00","lat":48.911986,"lon":17.027008,"is_passed":false},{"stop_id":"U16546Z10","name":"Čejč, železniční stanice","arrival_time":"14:19:00","departure_time":"14:20:00","lat":48.942189,"lon":16.958672,"is_passed":false},{"stop_id":"U16454Z10","name":"Brumovice, železniční stanice","arrival_time":"14:26:00","departure_time":"14:26:00","lat":48.947228,"lon":16.905767,"is_passed":false},{"stop_id":"U25504Z10","name":"Kobylí na Moravě","arrival_time":"14:30:00","departure_time":"14:33:00","lat":48.934022,"lon":16.881272,"is_passed":false},{"stop_id":"U15513Z10","name":"Bořetice, železniční stanice","arrival_time":"14:37:00","departure_time":"14:38:00","lat":48.916314,"lon":16.850139,"is_passed":false},{"stop_id":"U25503Z10","name":"Velké Pavlovice zastávka","arrival_time":"14:43:00","departure_time":"14:44:00","lat":48.901672,"lon":16.8224,"is_passed":false},{"stop_id":"U25502Z10","name":"Velké Pavlovice","arrival_time":"14:46:00","departure_time":"14:47:00","lat":48.88985,"lon":16.823672,"is_passed":false},{"stop_id":"U15537Z12","name":"Zaječí, železniční stanice","arrival_time":"14:53:00","departure_time":"15:06:00","lat":48.889637,"lon":16.781831,"is_passed":false}],"14720":[{"stop_id":"U15537Z13","name":"Zaječí, železniční stanice","arrival_time":"15:06:00","departure_time":"15:06:00","lat":48.889637,"lon":16.781831,"is_passed":false},{"stop_id":"U25502Z11","name":"Velké Pavlovice","arrival_time":"15:11:00","departure_time":"15:12:00","lat":48.88985,"lon":16.823672,"is_passed":false},{"stop_id":"U25503Z11","name":"Velké Pavlovice zastávka","arrival_time":"15:14:00","departure_time":"15:14:00","lat":48.901672,"lon":16.8224,"is_passed":false},{"stop_id":"U15513Z11","name":"Bořetice, železniční stanice","arrival_time":"15:19:00","departure_time":"15:20:00","lat":48.916314,"lon":16.850139,"is_passed":false},{"stop_id":"U25504Z11","name":"Kobylí na Moravě","arrival_time":"15:25:00","departure_time":"15:26:00","lat":48.934022,"lon":16.881272,"is_passed":false}],"14721":[{"stop_id":"U25504Z11","name":"Kobylí na Moravě","arrival_time":"15:26:00","departure_time":"15:26:00","lat":48.934022,"lon":16.881272,"is_passed":false},{"stop_id":"U16454Z11","name":"Brumovice, železniční stanice","arrival_time":"15:29:00","departure_time":"15:29:00","lat":48.947228,"lon":16.905767,"is_passed":false},{"stop_id":"U16546Z11","name":"Čejč, železniční stanice","arrival_time":"15:35:00","departure_time":"15:37:00","lat":48.942189,"lon":16.958672,"is_passed":false},{"stop_id":"U29105Z11","name":"Mutěnice zastávka","arrival_time":"15:46:00","departure_time":"15:55:00","lat":48.911986,"lon":17.027008,"is_passed":false},{"stop_id":"U29106Z11","name":"Mutěnice","arrival_time":"15:57:00","departure_time":"16:03:00","lat":48.904678,"lon":17.039875,"is_passed":false},{"stop_id":"U19001Z22","name":"Hodonín, autobusové nádraží","arrival_time":"16:17:00","departure_time":"16:22:00","lat":48.85575,"lon":17.12069,"is_passed":false}],"14722":[{"stop_id":"U19001Z21","name":"Hodonín, autobusové nádraží","arrival_time":"16:22:00","departure_time":"16:22:00","lat":48.85575,"lon":17.12069,"is_passed":false},{"stop_id":"U29102Z11","name":"Rohatec zastávka","arrival_time":"16:26:00","departure_time":"16:27:00","lat":48.88309,"lon":17.178111,"is_passed":false},{"stop_id":"U29103Z11","name":"Rohatec","arrival_time":"16:29:00","departure_time":"16:30:00","lat":48.892515,"lon":17.197852,"is_passed":false},{"stop_id":"U29104Z11","name":"Rohatec kolonie","arrival_time":"16:32:00","departure_time":"16:32:00","lat":48.892642,"lon":17.212111,"is_passed":false},{"stop_id":"U29202Z11","name":"Sudoměřice nad Moravou","arrival_time":"16:37:00","departure_time":"16:38:00","lat":48.871653,"lon":17.243039,"is_passed":false},{"stop_id":"U29201Z11","name":"Petrov","arrival_time":"16:41:00","departure_time":"16:41:00","lat":48.878911,"lon":17.273703,"is_passed":false},{"stop_id":"U19205Z11","name":"Strážnice, aut. st.","arrival_time":"16:45:00","departure_time":"16:46:00","lat":48.897385,"lon":17.317688,"is_passed":false},{"stop_id":"U29303Z11","name":"Vnorovy","arrival_time":"16:50:00","departure_time":"16:51:00","lat":48.931508,"lon":17.348464,"is_passed":false},{"stop_id":"U29302Z11","name":"Veselí nad Moravou-Zarazice","arrival_time":"16:53:00","departure_time":"16:53:00","lat":48.937236,"lon":17.361306,"is_passed":false},{"stop_id":"U19316Z11","name":"Veselí nad Moravou, železniční stanice","arrival_time":"16:56:00","departure_time":"17:03:00","lat":48.948694,"lon":17.382439,"is_passed":false}],"14723":[{"stop_id":"U19316Z11","name":"Veselí nad Moravou, železniční stanice","arrival_time":"17:03:00","departure_time":"17:03:00","lat":48.948694,"lon":17.382439,"is_passed":false},{"stop_id":"U29403Z11","name":"Blatnice pod Sv. Antonínkem","arrival_time":"17:07:00","departure_time":"17:07:00","lat":48.941163,"lon":17.437706,"is_passed":false},{"stop_id":"U29402Z11","name":"Lipov","arrival_time":"17:12:00","departure_time":"17:12:00","lat":48.909806,"lon":17.457953,"is_passed":false},{"stop_id":"U29401Z11","name":"Louka u Ostrohu","arrival_time":"17:14:00","departure_time":"17:15:00","lat":48.912234,"lon":17.484226,"is_passed":false},{"stop_id":"U19530Z11","name":"Velká nad Veličkou, železniční stanice","arrival_time":"17:21:00","departure_time":"17:23:00","lat":48.878631,"lon":17.51092,"is_passed":false},{"stop_id":"U29502Z11","name":"Javorník nad Veličkou zastávka","arrival_time":"17:26:00","departure_time":"17:26:00","lat":48.860802,"lon":17.520722,"is_passed":false},{"stop_id":"U29501Z11","name":"Vrbovce","arrival_time":"17:31:00","departure_time":"17:40:00","lat":48.824439,"lon":17.516352,"is_passed":false},{"stop_id":"U29504Z2","name":"Vrbovce zastávka","arrival_time":"17:43:00","departure_time":"17:44:00","lat":48.804784,"lon":17.52869,"is_passed":false},{"stop_id":"U29601Z2","name":"Brestovec","arrival_time":"17:47:00","departure_time":"17:47:00","lat":48.786012,"lon":17.557593,"is_passed":false},{"stop_id":"U29602Z2","name":"Myjava","arrival_time":"17:51:00","departure_time":"18:07:00","lat":48.763641,"lon":17.570897,"is_passed":false}],"14724":[{"stop_id":"U29602Z1","name":"Myjava","arrival_time":"18:07:00","departure_time":"18:07:00","lat":48.763641,"lon":17.570897,"is_passed":false},{"stop_id":"U29601Z1","name":"Brestovec","arrival_time":"18:10:00","departure_time":"18:11:00","lat":48.786012,"lon":17.557593,"is_passed":false},{"stop_id":"U29504Z1","name":"Vrbovce zastávka","arrival_time":"18:14:00","departure_time":"18:14:00","lat":48.804784,"lon":17.52869,"is_passed":false},{"stop_id":"U29501Z10","name":"Vrbovce","arrival_time":"18:17:00","departure_time":"18:30:00","lat":48.824439,"lon":17.516352,"is_passed":false},{"stop_id":"U29502Z10","name":"Javorník nad Veličkou zastávka","arrival_time":"18:34:00","departure_time":"18:34:00","lat":48.860868,"lon":17.520699,"is_passed":false},{"stop_id":"U19530Z10","name":"Velká nad Veličkou, železniční stanice","arrival_time":"18:37:00","departure_time":"18:39:00","lat":48.878631,"lon":17.51092,"is_passed":false},{"stop_id":"U29401Z10","name":"Louka u Ostrohu","arrival_time":"18:43:00","departure_time":"18:43:00","lat":48.912234,"lon":17.484226,"is_passed":false},{"stop_id":"U29402Z10","name":"Lipov","arrival_time":"18:46:00","departure_time":"18:46:00","lat":48.909806,"lon":17.457953,"is_passed":false},{"stop_id":"U29403Z10","name":"Blatnice pod Sv. Antonínkem","arrival_time":"18:51:00","departure_time":"18:51:00","lat":48.941163,"lon":17.437706,"is_passed":false},{"stop_id":"U19316Z10","name":"Veselí nad Moravou, železniční stanice","arrival_time":"18:57:00","departure_time":"19:03:00","lat":48.948694,"lon":17.382439,"is_passed":false}],"14725":[{"stop_id":"U19316Z10","name":"Veselí nad Moravou, železniční stanice","arrival_time":"19:03:00","departure_time":"19:03:00","lat":48.948694,"lon":17.382439,"is_passed":false},{"stop_id":"U29302Z10","name":"Veselí nad Moravou-Zarazice","arrival_time":"19:05:00","departure_time":"19:06:00","lat":48.937236,"lon":17.361306,"is_passed":false},{"stop_id":"U29303Z10","name":"Vnorovy","arrival_time":"19:08:00","departure_time":"19:08:00","lat":48.931508,"lon":17.348464,"is_passed":false},{"stop_id":"U19205Z10","name":"Strážnice, aut. st.","arrival_time":"19:12:00","departure_time":"19:13:00","lat":48.897385,"lon":17.317688,"is_passed":false},{"stop_id":"U29201Z10","name":"Petrov","arrival_time":"19:17:00","departure_time":"19:18:00","lat":48.878911,"lon":17.273703,"is_passed":false},{"stop_id":"U29202Z10","name":"Sudoměřice nad Moravou","arrival_time":"19:21:00","departure_time":"19:22:00","lat":48.871653,"lon":17.243039,"is_passed":false},{"stop_id":"U29104Z10","name":"Rohatec kolonie","arrival_time":"19:27:00","departure_time":"19:27:00","lat":48.892642,"lon":17.212111,"is_passed":false},{"stop_id":"U29103Z10","name":"Rohatec","arrival_time":"19:30:00","departure_time":"19:30:00","lat":48.892515,"lon":17.197852,"is_passed":false},{"stop_id":"U29102Z10","name":"Rohatec zastávka","arrival_time":"19:32:00","departure_time":"19:33:00","lat":48.88309,"lon":17.178111,"is_passed":false},{"stop_id":"U19001Z20","name":"Hodonín, autobusové nádraží","arrival_time":"19:38:00","departure_time":"19:46:00","lat":48.85575,"lon":17.12069,"is_passed":false}],"14726":[{"stop_id":"U19001Z23","name":"Hodonín, autobusové nádraží","arrival_time":"19:46:00","departure_time":"19:46:00","lat":48.85575,"lon":17.12069,"is_passed":false},{"stop_id":"U29106Z10","name":"Mutěnice","arrival_time":"20:00:00","departure_time":"20:01:00","lat":48.904678,"lon":17.039875,"is_passed":false},{"stop_id":"U29105Z10","name":"Mutěnice zastávka","arrival_time":"20:03:00","departure_time":"20:10:00","lat":48.911986,"lon":17.027008,"is_passed":false},{"stop_id":"U16546Z10","name":"Čejč, železniční stanice","arrival_time":"20:19:00","departure_time":"20:20:00","lat":48.942189,"lon":16.958672,"is_passed":false},{"stop_id":"U16454Z10","name":"Brumovice, železniční stanice","arrival_time":"20:26:00","departure_time":"20:26:00","lat":48.947228,"lon":16.905767,"is_passed":false},{"stop_id":"U25504Z10","name":"Kobylí na Moravě","arrival_time":"20:30:00","departure_time":"20:33:00","lat":48.934022,"lon":16.881272,"is_passed":false}],"14727":[{"stop_id":"U25504Z10","name":"Kobylí na Moravě","arrival_time":"20:33:00","departure_time":"20:33:00","lat":48.934022,"lon":16.881272,"is_passed":false},{"stop_id":"U15513Z10","name":"Bořetice, železniční stanice","arrival_time":"20:37:00","departure_time":"20:38:00","lat":48.916314,"lon":16.850139,"is_passed":false},{"stop_id":"U25503Z10","name":"Velké Pavlovice zastávka","arrival_time":"20:43:00","departure_time":"20:44:00","lat":48.901672,"lon":16.8224,"is_passed":false},{"stop_id":"U25502Z10","name":"Velké Pavlovice","arrival_time":"20:46:00","departure_time":"20:47:00","lat":48.88985,"lon":16.823672,"is_passed":false},{"stop_id":"U15537Z12","name":"Zaječí, železniční stanice","arrival_time":"20:53:00","departure_time":"21:07:00","lat":48.889637,"lon":16.781831,"is_passed":false}],"14728":[{"stop_id":"U15537Z13","name":"Zaječí, železniční stanice","arrival_time":"21:07:00","departure_time":"21:07:00","lat":48.889637,"lon":16.781831,"is_passed":false},{"stop_id":"U25502Z11","name":"Velké Pavlovice","arrival_time":"21:12:00","departure_time":"21:13:00","lat":48.88985,"lon":16.823672,"is_passed":false},{"stop_id":"U25503Z11","name":"Velké Pavlovice zastávka","arrival_time":"21:15:00","departure_time":"21:15:00","lat":48.901672,"lon":16.8224,"is_passed":false},{"stop_id":"U15513Z11","name":"Bořetice, železniční stanice","arrival_time":"21:20:00","departure_time":"21:21:00","lat":48.916314,"lon":16.850139,"is_passed":false},{"stop_id":"U25504Z11","name":"Kobylí na Moravě","arrival_time":"21:26:00","departure_time":"21:26:00","lat":48.934022,"lon":16.881272,"is_passed":false}],"14729":[{"stop_id":"U19316Z11","name":"Veselí nad Moravou, železniční stanice","arrival_time":"19:03:00","departure_time":"19:03:00","lat":48.948694,"lon":17.382439,"is_passed":false},{"stop_id":"U29403Z11","name":"Blatnice pod Sv. Antonínkem","arrival_time":"19:07:00","departure_time":"19:07:00","lat":48.941163,"lon":17.437706,"is_passed":false},{"stop_id":"U29402Z11","name":"Lipov","arrival_time":"19:12:00","departure_time":"19:12:00","lat":48.909806,"lon":17.457953,"is_passed":false},{"stop_id":"U29401Z11","name":"Louka u Ostrohu","arrival_time":"19:14:00","departure_time":"19:15:00","lat":48.912234,"lon":17.484226,"is_passed":false},{"stop_id":"U19530Z11","name":"Velká nad Veličkou, železniční stanice","arrival_time":"19:21:00","departure_time":"19:23:00","lat":48.878631,"lon":17.51092,"is_passed":false},{"stop_id":"U29502Z11","name":"Javorník nad Veličkou zastávka","arrival_time":"19:26:00","departure_time":"19:26:00","lat":48.860802,"lon":17.520722,"is_passed":false}],"14730":[{"stop_id":"U29502Z11","name":"Javorník nad Veličkou zastávka","arrival_time":"19:26:00","departure_time":"19:26:00","lat":48.860802,"lon":17.520722,"is_passed":false},{"stop_id":"U29501Z11","name":"Vrbovce","arrival_time":"19:31:00","departure_time":"19:40:00","lat":48.824439,"lon":17.516352,"is_passed":false},{"stop_id":"U29504Z2","name":"Vrbovce zastávka","arrival_time":"19:43:00","departure_time":"19:44:00","lat":48.804784,"lon":17.52869,"is_passed":false},{"stop_id":"U29601Z2","name":"Brestovec","arrival_time":"19:47:00","departure_time":"19:47:00","lat":48.786012,"lon":17.557593,"is_passed":false},{"stop_id":"U29602Z2","name":"Myjava","arrival_time":"19:51:00","departure_time":"20:07:00","lat":48.763641,"lon":17.570897,"is_passed":false}],"14731":[{"stop_id":"U29602Z1","name":"Myjava","arrival_time":"20:07:00","departure_time":"20:07:00","lat":48.763641,"lon":17.570897,"is_passed":false},{"stop_id":"U29601Z1","name":"Brestovec","arrival_time":"20:10:00","departure_time":"20:11:00","lat":48.786012,"lon":17.557593,"is_passed":false},{"stop_id":"U29504Z1","name":"Vrbovce zastávka","arrival_time":"20:14:00","departure_time":"20:14:00","lat":48.804784,"lon":17.52869,"is_passed":false},{"stop_id":"U29501Z10","name":"Vrbovce","arrival_time":"20:17:00","departure_time":"20:30:00","lat":48.824439,"lon":17.516352,"is_passed":false},{"stop_id":"U29502Z10","name":"Javorník nad Veličkou zastávka","arrival_time":"20:34:00","departure_time":"20:34:00","lat":48.860868,"lon":17.520699,"is_passed":false},{"stop_id":"U19530Z10","name":"Velká nad Veličkou, železniční stanice","arrival_time":"20:37:00","departure_time":"20:39:00","lat":48.878631,"lon":17.51092,"is_passed":false},{"stop_id":"U29401Z10","name":"Louka u Ostrohu","arrival_time":"20:43:00","departure_time":"20:43:00","lat":48.912234,"lon":17.484226,"is_passed":false},{"stop_id":"U29402Z10","name":"Lipov","arrival_time":"20:46:00","departure_time":"20:46:00","lat":48.909806,"lon":17.457953,"is_passed":false},{"stop_id":"U29403Z10","name":"Blatnice pod Sv. Antonínkem","arrival_time":"20:51:00","departure_time":"20:51:00","lat":48.941163,"lon":17.437706,"is_passed":false},{"stop_id":"U19316Z10","name":"Veselí nad Moravou, železniční stanice","arrival_time":"20:57:00","departure_time":"21:03:00","lat":48.948694,"lon":17.382439,"is_passed":false}],"14732":[{"stop_id":"U19316Z10","name":"Veselí nad Moravou, železniční stanice","arrival_time":"21:03:00","departure_time":"21:03:00","lat":48.948694,"lon":17.382439,"is_passed":false},{"stop_id":"U29302Z10","name":"Veselí nad Moravou-Zarazice","arrival_time":"21:05:00","departure_time":"21:05:00","lat":48.937236,"lon":17.361306,"is_passed":false},{"stop_id":"U29303Z10","name":"Vnorovy","arrival_time":"21:07:00","departure_time":"21:07:00","lat":48.931508,"lon":17.348464,"is_passed":false},{"stop_id":"U19205Z10","name":"Strážnice, aut. st.","arrival_time":"21:12:00","departure_time":"21:12:00","lat":48.897385,"lon":17.317688,"is_passed":false},{"stop_id":"U29201Z10","name":"Petrov","arrival_time":"21:16:00","departure_time":"21:16:00","lat":48.878911,"lon":17.273703,"is_passed":false},{"stop_id":"U29202Z10","name":"Sudoměřice nad Moravou","arrival_time":"21:19:00","departure_time":"21:19:00","lat":48.871653,"lon":17.243039,"is_passed":false},{"stop_id":"U29104Z10","name":"Rohatec kolonie","arrival_time":"21:25:00","departure_time":"21:25:00","lat":48.892642,"lon":17.212111,"is_passed":false},{"stop_id":"U29103Z10","name":"Rohatec","arrival_time":"21:27:00","departure_time":"21:28:00","lat":48.892515,"lon":17.197852,"is_passed":false},{"stop_id":"U29102Z10","name":"Rohatec zastávka","arrival_time":"21:30:00","departure_time":"21:30:00","lat":48.88309,"lon":17.178111,"is_passed":false},{"stop_id":"U19001Z20","name":"Hodonín, autobusové nádraží","arrival_time":"21:36:00","departure_time":"21:36:00","lat":48.85575,"lon":17.12069,"is_passed":false}],"14733":[{"stop_id":"U25504Z10","name":"Kobylí na Moravě","arrival_time":"22:33:00","departure_time":"22:33:00","lat":48.934022,"lon":16.881272,"is_passed":false},{"stop_id":"U15513Z10","name":"Bořetice, železniční stanice","arrival_time":"22:37:00","departure_time":"22:38:00","lat":48.916314,"lon":16.850139,"is_passed":false},{"stop_id":"U25503Z10","name":"Velké Pavlovice zastávka","arrival_time":"22:43:00","departure_time":"22:44:00","lat":48.901672,"lon":16.8224,"is_passed":false},{"stop_id":"U25502Z10","name":"Velké Pavlovice","arrival_time":"22:46:00","departure_time":"22:47:00","lat":48.88985,"lon":16.823672,"is_passed":false},{"stop_id":"U15537Z12","name":"Zaječí, železniční stanice","arrival_time":"22:53:00","departure_time":"23:06:00","lat":48.889637,"lon":16.781831,"is_passed":false}],"14734":[{"stop_id":"U15537Z13","name":"Zaječí, železniční stanice","arrival_time":"23:06:00","departure_time":"23:06:00","lat":48.889637,"lon":16.781831,"is_passed":false},{"stop_id":"U25502Z11","name":"Velké Pavlovice","arrival_time":"23:11:00","departure_time":"23:12:00","lat":48.88985,"lon":16.823672,"is_passed":false},{"stop_id":"U25503Z11","name":"Velké Pavlovice zastávka","arrival_time":"23:14:00","departure_time":"23:14:00","lat":48.901672,"lon":16.8224,"is_passed":false},{"stop_id":"U15513Z11","name":"Bořetice, železniční stanice","arrival_time":"23:19:00","departure_time":"23:20:00","lat":48.916314,"lon":16.850139,"is_passed":false},{"stop_id":"U25504Z11","name":"Kobylí na Moravě","arrival_time":"23:25:00","departure_time":"23:25:00","lat":48.934022,"lon":16.881272,"is_passed":false}],"14735":[{"stop_id":"U25504Z10","name":"Kobylí na Moravě","arrival_time":"5:33:00","departure_time":"5:33:00","lat":48.934022,"lon":16.881272,"is_passed":false},{"stop_id":"U15513Z10","name":"Bořetice, železniční stanice","arrival_time":"5:37:00","departure_time":"5:38:00","lat":48.916314,"lon":16.850139,"is_passed":false},{"stop_id":"U25503Z10","name":"Velké Pavlovice zastávka","arrival_time":"5:43:00","departure_time":"5:44:00","lat":48.901672,"lon":16.8224,"is_passed":false},{"stop_id":"U25502Z10","name":"Velké Pavlovice","arrival_time":"5:46:00","departure_time":"5:47:00","lat":48.88985,"lon":16.823672,"is_passed":false},{"stop_id":"U15537Z12","name":"Zaječí, železniční stanice","arrival_time":"5:53:00","departure_time":"6:12:00","lat":48.889637,"lon":16.781831,"is_passed":false}],"14736":[{"stop_id":"U15537Z13","name":"Zaječí, železniční stanice","arrival_time":"6:12:00","departure_time":"6:12:00","lat":48.889637,"lon":16.781831,"is_passed":false},{"stop_id":"U25502Z11","name":"Velké Pavlovice","arrival_time":"6:17:00","departure_time":"6:17:00","lat":48.88985,"lon":16.823672,"is_passed":false},{"stop_id":"U25503Z11","name":"Velké Pavlovice zastávka","arrival_time":"6:19:00","departure_time":"6:20:00","lat":48.901672,"lon":16.8224,"is_passed":false},{"stop_id":"U15513Z11","name":"Bořetice, železniční stanice","arrival_time":"6:25:00","departure_time":"6:25:00","lat":48.916314,"lon":16.850139,"is_passed":false},{"stop_id":"U25504Z11","name":"Kobylí na Moravě","arrival_time":"6:30:00","departure_time":"6:33:00","lat":48.934022,"lon":16.881272,"is_passed":false}],"14737":[{"stop_id":"U25504Z10","name":"Kobylí na Moravě","arrival_time":"6:33:00","departure_time":"6:33:00","lat":48.934022,"lon":16.881272,"is_passed":false},{"stop_id":"U15513Z10","name":"Bořetice, železniční stanice","arrival_time":"6:37:00","departure_time":"6:38:00","lat":48.916314,"lon":16.850139,"is_passed":false},{"stop_id":"U25503Z10","name":"Velké Pavlovice zastávka","arrival_time":"6:43:00","departure_time":"6:44:00","lat":48.901672,"lon":16.8224,"is_passed":false},{"stop_id":"U25502Z10","name":"Velké Pavlovice","arrival_time":"6:46:00","departure_time":"6:47:00","lat":48.88985,"lon":16.823672,"is_passed":false},{"stop_id":"U15537Z12","name":"Zaječí, železniční stanice","arrival_time":"6:53:00","departure_time":"7:06:00","lat":48.889637,"lon":16.781831,"is_passed":false}],"14738":[{"stop_id":"U15537Z13","name":"Zaječí, železniční stanice","arrival_time":"7:06:00","departure_time":"7:06:00","lat":48.889637,"lon":16.781831,"is_passed":false},{"stop_id":"U25502Z11","name":"Velké Pavlovice","arrival_time":"7:11:00","departure_time":"7:12:00","lat":48.88985,"lon":16.823672,"is_passed":false},{"stop_id":"U25503Z11","name":"Velké Pavlovice zastávka","arrival_time":"7:14:00","departure_time":"7:14:00","lat":48.901672,"lon":16.8224,"is_passed":false},{"stop_id":"U15513Z11","name":"Bořetice, železniční stanice","arrival_time":"7:19:00","departure_time":"7:20:00","lat":48.916314,"lon":16.850139,"is_passed":false},{"stop_id":"U25504Z11","name":"Kobylí na Moravě","arrival_time":"7:25:00","departure_time":"7:25:00","lat":48.934022,"lon":16.881272,"is_passed":false}],"14739":[{"stop_id":"U19001Z21","name":"Hodonín, autobusové nádraží","arrival_time":"8:22:00","departure_time":"8:22:00","lat":48.85575,"lon":17.12069,"is_passed":false},{"stop_id":"U29102Z11","name":"Rohatec zastávka","arrival_time":"8:26:00","departure_time":"8:27:00","lat":48.88309,"lon":17.178111,"is_passed":false},{"stop_id":"U29103Z11","name":"Rohatec","arrival_time":"8:29:00","departure_time":"8:29:00","lat":48.892515,"lon":17.197852,"is_passed":false},{"stop_id":"U29104Z11","name":"Rohatec kolonie","arrival_time":"8:31:00","departure_time":"8:31:00","lat":48.892642,"lon":17.212111,"is_passed":false},{"stop_id":"U29202Z11","name":"Sudoměřice nad Moravou","arrival_time":"8:37:00","departure_time":"8:37:00","lat":48.871653,"lon":17.243039,"is_passed":false},{"stop_id":"U29201Z11","name":"Petrov","arrival_time":"8:40:00","departure_time":"8:41:00","lat":48.878911,"lon":17.273703,"is_passed":false},{"stop_id":"U19205Z11","name":"Strážnice, aut. st.","arrival_time":"8:45:00","departure_time":"8:46:00","lat":48.897385,"lon":17.317688,"is_passed":false},{"stop_id":"U29303Z11","name":"Vnorovy","arrival_time":"8:50:00","departure_time":"8:50:00","lat":48.931508,"lon":17.348464,"is_passed":false},{"stop_id":"U29302Z11","name":"Veselí nad Moravou-Zarazice","arrival_time":"8:52:00","departure_time":"8:52:00","lat":48.937236,"lon":17.361306,"is_passed":false},{"stop_id":"U19316Z11","name":"Veselí nad Moravou, železniční stanice","arrival_time":"8:55:00","departure_time":"8:55:00","lat":48.948694,"lon":17.382439,"is_passed":false}],"14740":[{"stop_id":"U16116Z1","name":"Podolí","arrival_time":"4:52:00","departure_time":"4:52:00","lat":49.189832,"lon":16.725978,"is_passed":false},{"stop_id":"U16130Z3","name":"Šlapanice, Bedřichovice, rozc.","arrival_time":"4:54:00","departure_time":"4:57:00","lat":49.18336,"lon":16.722373,"is_passed":false},{"stop_id":"U16129Z1","name":"Šlapanice, Bedřichovice","arrival_time":"4:58:00","departure_time":"4:58:00","lat":49.17982,"lon":16.721481,"is_passed":false},{"stop_id":"U16163Z3","name":"Šlapanice, Riegrova","arrival_time":"5:01:00","departure_time":"5:01:00","lat":49.168445,"lon":16.726032,"is_passed":false}],"14741":[{"stop_id":"U16163Z1","name":"Šlapanice, Riegrova","arrival_time":"6:12:00","departure_time":"6:12:00","lat":49.168445,"lon":16.726032,"is_passed":false},{"stop_id":"U16159Z3","name":"Šlapanice, Kalvodova","arrival_time":"6:13:00","departure_time":"6:13:00","lat":49.165936,"lon":16.726067,"is_passed":false},{"stop_id":"U16120Z1","name":"Ponětovice","arrival_time":"6:16:00","departure_time":"6:16:00","lat":49.152352,"lon":16.740815,"is_passed":false},{"stop_id":"U16121Z1","name":"Ponětovice, železniční stanice","arrival_time":"6:17:00","departure_time":"6:17:00","lat":49.154645,"lon":16.747738,"is_passed":false},{"stop_id":"U16104Z1","name":"Jiříkovice","arrival_time":"6:21:00","departure_time":"6:21:00","lat":49.16632,"lon":16.757892,"is_passed":false},{"stop_id":"U16102Z1","name":"Blažovice, pod kostelem","arrival_time":"6:25:00","departure_time":"6:25:00","lat":49.162833,"lon":16.78274,"is_passed":false},{"stop_id":"U16101Z1","name":"Blažovice, hostinec","arrival_time":"6:26:00","departure_time":"6:28:00","lat":49.166001,"lon":16.786446,"is_passed":false}],"14742":[{"stop_id":"U16101Z2","name":"Blažovice, hostinec","arrival_time":"6:28:00","departure_time":"6:28:00","lat":49.166001,"lon":16.786446,"is_passed":false},{"stop_id":"U16102Z2","name":"Blažovice, pod kostelem","arrival_time":"6:29:00","departure_time":"6:29:00","lat":49.162842,"lon":16.783037,"is_passed":false},{"stop_id":"U16104Z2","name":"Jiříkovice","arrival_time":"6:33:00","departure_time":"6:33:00","lat":49.166323,"lon":16.757805,"is_passed":false},{"stop_id":"U16121Z2","name":"Ponětovice, železniční stanice","arrival_time":"6:36:00","departure_time":"6:36:00","lat":49.154698,"lon":16.747757,"is_passed":false},{"stop_id":"U16120Z2","name":"Ponětovice","arrival_time":"6:37:00","departure_time":"6:37:00","lat":49.152307,"lon":16.742117,"is_passed":false},{"stop_id":"U16159Z4","name":"Šlapanice, Kalvodova","arrival_time":"6:41:00","departure_time":"6:41:00","lat":49.166805,"lon":16.72634,"is_passed":false},{"stop_id":"U16163Z2","name":"Šlapanice, Riegrova","arrival_time":"6:42:00","departure_time":"6:42:00","lat":49.168445,"lon":16.726032,"is_passed":false}],"14743":[{"stop_id":"U16163Z2","name":"Šlapanice, Riegrova","arrival_time":"6:51:00","departure_time":"6:51:00","lat":49.168445,"lon":16.726032,"is_passed":false},{"stop_id":"U16129Z2","name":"Šlapanice, Bedřichovice","arrival_time":"6:54:00","departure_time":"6:54:00","lat":49.179845,"lon":16.721551,"is_passed":false},{"stop_id":"U16130Z4","name":"Šlapanice, Bedřichovice, rozc.","arrival_time":"6:55:00","departure_time":"6:57:00","lat":49.183532,"lon":16.722542,"is_passed":false},{"stop_id":"U16116Z2","name":"Podolí","arrival_time":"6:59:00","departure_time":"6:59:00","lat":49.189822,"lon":16.726255,"is_passed":false},{"stop_id":"U16118Z2","name":"Podolí, Líšeňská","arrival_time":"7:00:00","departure_time":"7:00:00","lat":49.191807,"lon":16.71978,"is_passed":false},{"stop_id":"U1497Z2","name":"Podolská","arrival_time":"7:04:00","departure_time":"7:04:00","lat":49.20311,"lon":16.713363,"is_passed":false},{"stop_id":"U1726Z2","name":"Velatická","arrival_time":"7:05:00","departure_time":"7:05:00","lat":49.204666,"lon":16.707253,"is_passed":false},{"stop_id":"U1350Z2","name":"Macháčkova","arrival_time":"7:06:00","departure_time":"7:06:00","lat":49.206174,"lon":16.701931,"is_passed":false},{"stop_id":"U1421Z4","name":"Náměstí Karla IV.","arrival_time":"7:08:00","departure_time":"7:08:00","lat":49.206991,"lon":16.695508,"is_passed":false},{"stop_id":"U1384Z3","name":"Mifkova","arrival_time":"7:09:00","departure_time":"7:09:00","lat":49.20716,"lon":16.692152,"is_passed":false},{"stop_id":"U1208Z6","name":"Jírova","arrival_time":"7:11:00","departure_time":"7:15:00","lat":49.209179,"lon":16.688685,"is_passed":false}],"14744":[{"stop_id":"U1208Z4","name":"Jírova","arrival_time":"7:15:00","departure_time":"7:15:00","lat":49.209099,"lon":16.688056,"is_passed":false},{"stop_id":"U1421Z3","name":"Náměstí Karla IV.","arrival_time":"7:16:00","departure_time":"7:16:00","lat":49.206713,"lon":16.694241,"is_passed":false},{"stop_id":"U1350Z1","name":"Macháčkova","arrival_time":"7:17:00","departure_time":"7:17:00","lat":49.206052,"lon":16.70193,"is_passed":false},{"stop_id":"U1726Z1","name":"Velatická","arrival_time":"7:18:00","departure_time":"7:18:00","lat":49.204129,"lon":16.708116,"is_passed":false},{"stop_id":"U1497Z1","name":"Podolská","arrival_time":"7:19:00","departure_time":"7:19:00","lat":49.203029,"lon":16.714223,"is_passed":false},{"stop_id":"U16118Z1","name":"Podolí, Líšeňská","arrival_time":"7:22:00","departure_time":"7:22:00","lat":49.191843,"lon":16.719825,"is_passed":false},{"stop_id":"U16116Z1","name":"Podolí","arrival_time":"7:24:00","departure_time":"7:24:00","lat":49.189832,"lon":16.725978,"is_passed":false},{"stop_id":"U16130Z3","name":"Šlapanice, Bedřichovice, rozc.","arrival_time":"7:27:00","departure_time":"7:29:00","lat":49.18336,"lon":16.722373,"is_passed":false},{"stop_id":"U16129Z1","name":"Šlapanice, Bedřichovice","arrival_time":"7:30:00","departure_time":"7:30:00","lat":49.17982,"lon":16.721481,"is_passed":false},{"stop_id":"U16163Z3","name":"Šlapanice, Riegrova","arrival_time":"7:33:00","departure_time":"7:33:00","lat":49.168445,"lon":16.726032,"is_passed":false}],"14745":[{"stop_id":"U16163Z1","name":"Šlapanice, Riegrova","arrival_time":"8:09:00","departure_time":"8:09:00","lat":49.168445,"lon":16.726032,"is_passed":false},{"stop_id":"U16159Z3","name":"Šlapanice, Kalvodova","arrival_time":"8:10:00","departure_time":"8:10:00","lat":49.165936,"lon":16.726067,"is_passed":false},{"stop_id":"U16104Z1","name":"Jiříkovice","arrival_time":"8:14:00","departure_time":"8:14:00","lat":49.16632,"lon":16.757892,"is_passed":false},{"stop_id":"U16102Z1","name":"Blažovice, pod kostelem","arrival_time":"8:18:00","departure_time":"8:18:00","lat":49.162833,"lon":16.78274,"is_passed":false},{"stop_id":"U16101Z1","name":"Blažovice, hostinec","arrival_time":"8:19:00","departure_time":"8:20:00","lat":49.166001,"lon":16.786446,"is_passed":false}],"14746":[{"stop_id":"U16101Z2","name":"Blažovice, hostinec","arrival_time":"8:20:00","departure_time":"8:20:00","lat":49.166001,"lon":16.786446,"is_passed":false},{"stop_id":"U16102Z2","name":"Blažovice, pod kostelem","arrival_time":"8:21:00","departure_time":"8:21:00","lat":49.162842,"lon":16.783037,"is_passed":false},{"stop_id":"U16104Z2","name":"Jiříkovice","arrival_time":"8:25:00","departure_time":"8:25:00","lat":49.166323,"lon":16.757805,"is_passed":false},{"stop_id":"U16121Z2","name":"Ponětovice, železniční stanice","arrival_time":"8:28:00","departure_time":"8:28:00","lat":49.154698,"lon":16.747757,"is_passed":false},{"stop_id":"U16120Z2","name":"Ponětovice","arrival_time":"8:29:00","departure_time":"8:29:00","lat":49.152307,"lon":16.742117,"is_passed":false},{"stop_id":"U16159Z4","name":"Šlapanice, Kalvodova","arrival_time":"8:33:00","departure_time":"8:33:00","lat":49.166805,"lon":16.72634,"is_passed":false},{"stop_id":"U16163Z2","name":"Šlapanice, Riegrova","arrival_time":"8:34:00","departure_time":"8:34:00","lat":49.168445,"lon":16.726032,"is_passed":false}],"14747":[{"stop_id":"U16163Z2","name":"Šlapanice, Riegrova","arrival_time":"8:51:00","departure_time":"8:51:00","lat":49.168445,"lon":16.726032,"is_passed":false},{"stop_id":"U16129Z2","name":"Šlapanice, Bedřichovice","arrival_time":"8:54:00","departure_time":"8:54:00","lat":49.179845,"lon":16.721551,"is_passed":false},{"stop_id":"U16130Z4","name":"Šlapanice, Bedřichovice, rozc.","arrival_time":"8:55:00","departure_time":"8:57:00","lat":49.183532,"lon":16.722542,"is_passed":false},{"stop_id":"U16116Z2","name":"Podolí","arrival_time":"8:59:00","departure_time":"8:59:00","lat":49.189822,"lon":16.726255,"is_passed":false},{"stop_id":"U16118Z2","name":"Podolí, Líšeňská","arrival_time":"9:00:00","departure_time":"9:00:00","lat":49.191807,"lon":16.71978,"is_passed":false},{"stop_id":"U1497Z2","name":"Podolská","arrival_time":"9:04:00","departure_time":"9:04:00","lat":49.20311,"lon":16.713363,"is_passed":false},{"stop_id":"U1726Z2","name":"Velatická","arrival_time":"9:05:00","departure_time":"9:05:00","lat":49.204666,"lon":16.707253,"is_passed":false},{"stop_id":"U1350Z2","name":"Macháčkova","arrival_time":"9:06:00","departure_time":"9:06:00","lat":49.206174,"lon":16.701931,"is_passed":false},{"stop_id":"U1421Z4","name":"Náměstí Karla IV.","arrival_time":"9:08:00","departure_time":"9:08:00","lat":49.206991,"lon":16.695508,"is_passed":false},{"stop_id":"U1384Z3","name":"Mifkova","arrival_time":"9:09:00","departure_time":"9:09:00","lat":49.20716,"lon":16.692152,"is_passed":false},{"stop_id":"U1208Z6","name":"Jírova","arrival_time":"9:11:00","departure_time":"9:15:00","lat":49.209179,"lon":16.688685,"is_passed":false}],"14748":[{"stop_id":"U1208Z4","name":"Jírova","arrival_time":"9:15:00","departure_time":"9:15:00","lat":49.209099,"lon":16.688056,"is_passed":false},{"stop_id":"U1421Z3","name":"Náměstí Karla IV.","arrival_time":"9:16:00","departure_time":"9:16:00","lat":49.206713,"lon":16.694241,"is_passed":false},{"stop_id":"U1350Z1","name":"Macháčkova","arrival_time":"9:17:00","departure_time":"9:17:00","lat":49.206052,"lon":16.70193,"is_passed":false},{"stop_id":"U1726Z1","name":"Velatická","arrival_time":"9:18:00","departure_time":"9:18:00","lat":49.204129,"lon":16.708116,"is_passed":false},{"stop_id":"U1497Z1","name":"Podolská","arrival_time":"9:19:00","departure_time":"9:19:00","lat":49.203029,"lon":16.714223,"is_passed":false},{"stop_id":"U16118Z1","name":"Podolí, Líšeňská","arrival_time":"9:22:00","departure_time":"9:22:00","lat":49.191843,"lon":16.719825,"is_passed":false},{"stop_id":"U16116Z1","name":"Podolí","arrival_time":"9:24:00","departure_time":"9:24:00","lat":49.189832,"lon":16.725978,"is_passed":false},{"stop_id":"U16130Z3","name":"Šlapanice, Bedřichovice, rozc.","arrival_time":"9:27:00","departure_time":"9:29:00","lat":49.18336,"lon":16.722373,"is_passed":false},{"stop_id":"U16129Z1","name":"Šlapanice, Bedřichovice","arrival_time":"9:30:00","departure_time":"9:30:00","lat":49.17982,"lon":16.721481,"is_passed":false},{"stop_id":"U16163Z3","name":"Šlapanice, Riegrova","arrival_time":"9:33:00","departure_time":"9:33:00","lat":49.168445,"lon":16.726032,"is_passed":false}],"14749":[{"stop_id":"U16163Z1","name":"Šlapanice, Riegrova","arrival_time":"10:02:00","departure_time":"10:02:00","lat":49.168445,"lon":16.726032,"is_passed":false},{"stop_id":"U16159Z3","name":"Šlapanice, Kalvodova","arrival_time":"10:03:00","departure_time":"10:03:00","lat":49.165936,"lon":16.726067,"is_passed":false},{"stop_id":"U16120Z1","name":"Ponětovice","arrival_time":"10:06:00","departure_time":"10:06:00","lat":49.152352,"lon":16.740815,"is_passed":false},{"stop_id":"U16121Z1","name":"Ponětovice, železniční stanice","arrival_time":"10:07:00","departure_time":"10:07:00","lat":49.154645,"lon":16.747738,"is_passed":false},{"stop_id":"U16104Z1","name":"Jiříkovice","arrival_time":"10:11:00","departure_time":"10:11:00","lat":49.16632,"lon":16.757892,"is_passed":false},{"stop_id":"U16102Z1","name":"Blažovice, pod kostelem","arrival_time":"10:15:00","departure_time":"10:15:00","lat":49.162833,"lon":16.78274,"is_passed":false},{"stop_id":"U16101Z1","name":"Blažovice, hostinec","arrival_time":"10:16:00","departure_time":"10:20:00","lat":49.166001,"lon":16.786446,"is_passed":false}],"14750":[{"stop_id":"U16101Z2","name":"Blažovice, hostinec","arrival_time":"10:20:00","departure_time":"10:20:00","lat":49.166001,"lon":16.786446,"is_passed":false},{"stop_id":"U16102Z2","name":"Blažovice, pod kostelem","arrival_time":"10:21:00","departure_time":"10:21:00","lat":49.162842,"lon":16.783037,"is_passed":false},{"stop_id":"U16104Z2","name":"Jiříkovice","arrival_time":"10:25:00","departure_time":"10:25:00","lat":49.166323,"lon":16.757805,"is_passed":false},{"stop_id":"U16121Z2","name":"Ponětovice, železniční stanice","arrival_time":"10:28:00","departure_time":"10:28:00","lat":49.154698,"lon":16.747757,"is_passed":false},{"stop_id":"U16120Z2","name":"Ponětovice","arrival_time":"10:29:00","departure_time":"10:29:00","lat":49.152307,"lon":16.742117,"is_passed":false},{"stop_id":"U16159Z4","name":"Šlapanice, Kalvodova","arrival_time":"10:33:00","departure_time":"10:33:00","lat":49.166805,"lon":16.72634,"is_passed":false},{"stop_id":"U16163Z2","name":"Šlapanice, Riegrova","arrival_time":"10:34:00","departure_time":"10:34:00","lat":49.168445,"lon":16.726032,"is_passed":false}],"14751":[{"stop_id":"U16163Z2","name":"Šlapanice, Riegrova","arrival_time":"10:51:00","departure_time":"10:51:00","lat":49.168445,"lon":16.726032,"is_passed":false},{"stop_id":"U16129Z2","name":"Šlapanice, Bedřichovice","arrival_time":"10:54:00","departure_time":"10:54:00","lat":49.179845,"lon":16.721551,"is_passed":false},{"stop_id":"U16130Z4","name":"Šlapanice, Bedřichovice, rozc.","arrival_time":"10:55:00","departure_time":"10:57:00","lat":49.183532,"lon":16.722542,"is_passed":false},{"stop_id":"U16116Z2","name":"Podolí","arrival_time":"10:59:00","departure_time":"10:59:00","lat":49.189822,"lon":16.726255,"is_passed":false},{"stop_id":"U16118Z2","name":"Podolí, Líšeňská","arrival_time":"11:00:00","departure_time":"11:00:00","lat":49.191807,"lon":16.71978,"is_passed":false},{"stop_id":"U1497Z2","name":"Podolská","arrival_time":"11:04:00","departure_time":"11:04:00","lat":49.20311,"lon":16.713363,"is_passed":false},{"stop_id":"U1726Z2","name":"Velatická","arrival_time":"11:05:00","departure_time":"11:05:00","lat":49.204666,"lon":16.707253,"is_passed":false},{"stop_id":"U1350Z2","name":"Macháčkova","arrival_time":"11:06:00","departure_time":"11:06:00","lat":49.206174,"lon":16.701931,"is_passed":false},{"stop_id":"U1421Z4","name":"Náměstí Karla IV.","arrival_time":"11:08:00","departure_time":"11:08:00","lat":49.206991,"lon":16.695508,"is_passed":false},{"stop_id":"U1384Z3","name":"Mifkova","arrival_time":"11:09:00","departure_time":"11:09:00","lat":49.20716,"lon":16.692152,"is_passed":false},{"stop_id":"U1208Z6","name":"Jírova","arrival_time":"11:11:00","departure_time":"12:15:00","lat":49.209179,"lon":16.688685,"is_passed":false}],"14752":[{"stop_id":"U1208Z4","name":"Jírova","arrival_time":"12:15:00","departure_time":"12:15:00","lat":49.209099,"lon":16.688056,"is_passed":false},{"stop_id":"U1421Z3","name":"Náměstí Karla IV.","arrival_time":"12:16:00","departure_time":"12:16:00","lat":49.206713,"lon":16.694241,"is_passed":false},{"stop_id":"U1350Z1","name":"Macháčkova","arrival_time":"12:17:00","departure_time":"12:17:00","lat":49.206052,"lon":16.70193,"is_passed":false},{"stop_id":"U1726Z1","name":"Velatická","arrival_time":"12:18:00","departure_time":"12:18:00","lat":49.204129,"lon":16.708116,"is_passed":false},{"stop_id":"U1497Z1","name":"Podolská","arrival_time":"12:19:00","departure_time":"12:19:00","lat":49.203029,"lon":16.714223,"is_passed":false},{"stop_id":"U16118Z1","name":"Podolí, Líšeňská","arrival_time":"12:22:00","departure_time":"12:22:00","lat":49.191843,"lon":16.719825,"is_passed":false},{"stop_id":"U16116Z1","name":"Podolí","arrival_time":"12:24:00","departure_time":"12:24:00","lat":49.189832,"lon":16.725978,"is_passed":false},{"stop_id":"U16130Z3","name":"Šlapanice, Bedřichovice, rozc.","arrival_time":"12:27:00","departure_time":"12:29:00","lat":49.18336,"lon":16.722373,"is_passed":false},{"stop_id":"U16129Z1","name":"Šlapanice, Bedřichovice","arrival_time":"12:30:00","departure_time":"12:30:00","lat":49.17982,"lon":16.721481,"is_passed":false},{"stop_id":"U16163Z3","name":"Šlapanice, Riegrova","arrival_time":"12:33:00","departure_time":"12:33:00","lat":49.168445,"lon":16.726032,"is_passed":false}],"14753":[{"stop_id":"U16163Z1","name":"Šlapanice, Riegrova","arrival_time":"12:39:00","departure_time":"12:39:00","lat":49.168445,"lon":16.726032,"is_passed":false},{"stop_id":"U16159Z3","name":"Šlapanice, Kalvodova","arrival_time":"12:40:00","departure_time":"12:40:00","lat":49.165936,"lon":16.726067,"is_passed":false},{"stop_id":"U16120Z1","name":"Ponětovice","arrival_time":"12:43:00","departure_time":"12:43:00","lat":49.152352,"lon":16.740815,"is_passed":false},{"stop_id":"U16121Z1","name":"Ponětovice, železniční stanice","arrival_time":"12:44:00","departure_time":"12:44:00","lat":49.154645,"lon":16.747738,"is_passed":false},{"stop_id":"U16104Z1","name":"Jiříkovice","arrival_time":"12:48:00","departure_time":"12:48:00","lat":49.16632,"lon":16.757892,"is_passed":false},{"stop_id":"U16102Z1","name":"Blažovice, pod kostelem","arrival_time":"12:52:00","departure_time":"12:52:00","lat":49.162833,"lon":16.78274,"is_passed":false},{"stop_id":"U16101Z1","name":"Blažovice, hostinec","arrival_time":"12:53:00","departure_time":"13:15:00","lat":49.166001,"lon":16.786446,"is_passed":false}],"14754":[{"stop_id":"U16101Z2","name":"Blažovice, hostinec","arrival_time":"13:15:00","departure_time":"13:15:00","lat":49.166001,"lon":16.786446,"is_passed":false},{"stop_id":"U16102Z2","name":"Blažovice, pod kostelem","arrival_time":"13:16:00","departure_time":"13:16:00","lat":49.162842,"lon":16.783037,"is_passed":false},{"stop_id":"U16104Z2","name":"Jiříkovice","arrival_time":"13:20:00","departure_time":"13:20:00","lat":49.166323,"lon":16.757805,"is_passed":false},{"stop_id":"U16121Z2","name":"Ponětovice, železniční stanice","arrival_time":"13:23:00","departure_time":"13:23:00","lat":49.154698,"lon":16.747757,"is_passed":false},{"stop_id":"U16120Z2","name":"Ponětovice","arrival_time":"13:24:00","departure_time":"13:24:00","lat":49.152307,"lon":16.742117,"is_passed":false},{"stop_id":"U16159Z4","name":"Šlapanice, Kalvodova","arrival_time":"13:28:00","departure_time":"13:28:00","lat":49.166805,"lon":16.72634,"is_passed":false},{"stop_id":"U16163Z2","name":"Šlapanice, Riegrova","arrival_time":"13:29:00","departure_time":"13:29:00","lat":49.168445,"lon":16.726032,"is_passed":false}],"14755":[{"stop_id":"U16163Z2","name":"Šlapanice, Riegrova","arrival_time":"13:51:00","departure_time":"13:51:00","lat":49.168445,"lon":16.726032,"is_passed":false},{"stop_id":"U16129Z2","name":"Šlapanice, Bedřichovice","arrival_time":"13:54:00","departure_time":"13:54:00","lat":49.179845,"lon":16.721551,"is_passed":false},{"stop_id":"U16130Z4","name":"Šlapanice, Bedřichovice, rozc.","arrival_time":"13:55:00","departure_time":"13:57:00","lat":49.183532,"lon":16.722542,"is_passed":false},{"stop_id":"U16116Z2","name":"Podolí","arrival_time":"13:59:00","departure_time":"13:59:00","lat":49.189822,"lon":16.726255,"is_passed":false},{"stop_id":"U16118Z2","name":"Podolí, Líšeňská","arrival_time":"14:00:00","departure_time":"14:00:00","lat":49.191807,"lon":16.71978,"is_passed":false},{"stop_id":"U1497Z2","name":"Podolská","arrival_time":"14:04:00","departure_time":"14:04:00","lat":49.20311,"lon":16.713363,"is_passed":false},{"stop_id":"U1726Z2","name":"Velatická","arrival_time":"14:05:00","departure_time":"14:05:00","lat":49.204666,"lon":16.707253,"is_passed":false},{"stop_id":"U1350Z2","name":"Macháčkova","arrival_time":"14:06:00","departure_time":"14:06:00","lat":49.206174,"lon":16.701931,"is_passed":false},{"stop_id":"U1421Z4","name":"Náměstí Karla IV.","arrival_time":"14:08:00","departure_time":"14:08:00","lat":49.206991,"lon":16.695508,"is_passed":false},{"stop_id":"U1384Z3","name":"Mifkova","arrival_time":"14:09:00","departure_time":"14:09:00","lat":49.20716,"lon":16.692152,"is_passed":false},{"stop_id":"U1208Z6","name":"Jírova","arrival_time":"14:11:00","departure_time":"14:15:00","lat":49.209179,"lon":16.688685,"is_passed":false}],"14756":[{"stop_id":"U1208Z4","name":"Jírova","arrival_time":"14:15:00","departure_time":"14:15:00","lat":49.209099,"lon":16.688056,"is_passed":false},{"stop_id":"U1421Z3","name":"Náměstí Karla IV.","arrival_time":"14:16:00","departure_time":"14:16:00","lat":49.206713,"lon":16.694241,"is_passed":false},{"stop_id":"U1350Z1","name":"Macháčkova","arrival_time":"14:17:00","departure_time":"14:17:00","lat":49.206052,"lon":16.70193,"is_passed":false},{"stop_id":"U1726Z1","name":"Velatická","arrival_time":"14:18:00","departure_time":"14:18:00","lat":49.204129,"lon":16.708116,"is_passed":false},{"stop_id":"U1497Z1","name":"Podolská","arrival_time":"14:19:00","departure_time":"14:19:00","lat":49.203029,"lon":16.714223,"is_passed":false},{"stop_id":"U16118Z1","name":"Podolí, Líšeňská","arrival_time":"14:22:00","departure_time":"14:22:00","lat":49.191843,"lon":16.719825,"is_passed":false},{"stop_id":"U16116Z1","name":"Podolí","arrival_time":"14:24:00","departure_time":"14:24:00","lat":49.189832,"lon":16.725978,"is_passed":false},{"stop_id":"U16130Z3","name":"Šlapanice, Bedřichovice, rozc.","arrival_time":"14:27:00","departure_time":"14:29:00","lat":49.18336,"lon":16.722373,"is_passed":false},{"stop_id":"U16129Z1","name":"Šlapanice, Bedřichovice","arrival_time":"14:30:00","departure_time":"14:30:00","lat":49.17982,"lon":16.721481,"is_passed":false},{"stop_id":"U16163Z3","name":"Šlapanice, Riegrova","arrival_time":"14:33:00","departure_time":"14:33:00","lat":49.168445,"lon":16.726032,"is_passed":false}],"14757":[{"stop_id":"U16163Z1","name":"Šlapanice, Riegrova","arrival_time":"14:39:00","departure_time":"14:39:00","lat":49.168445,"lon":16.726032,"is_passed":false},{"stop_id":"U16159Z3","name":"Šlapanice, Kalvodova","arrival_time":"14:40:00","departure_time":"14:40:00","lat":49.165936,"lon":16.726067,"is_passed":false},{"stop_id":"U16120Z1","name":"Ponětovice","arrival_time":"14:43:00","departure_time":"14:43:00","lat":49.152352,"lon":16.740815,"is_passed":false},{"stop_id":"U16121Z1","name":"Ponětovice, železniční stanice","arrival_time":"14:44:00","departure_time":"14:44:00","lat":49.154645,"lon":16.747738,"is_passed":false},{"stop_id":"U16104Z1","name":"Jiříkovice","arrival_time":"14:48:00","departure_time":"14:48:00","lat":49.16632,"lon":16.757892,"is_passed":false},{"stop_id":"U16102Z1","name":"Blažovice, pod kostelem","arrival_time":"14:52:00","departure_time":"14:52:00","lat":49.162833,"lon":16.78274,"is_passed":false},{"stop_id":"U16101Z1","name":"Blažovice, hostinec","arrival_time":"14:53:00","departure_time":"15:15:00","lat":49.166001,"lon":16.786446,"is_passed":false}],"14758":[{"stop_id":"U16101Z2","name":"Blažovice, hostinec","arrival_time":"15:15:00","departure_time":"15:15:00","lat":49.166001,"lon":16.786446,"is_passed":false},{"stop_id":"U16102Z2","name":"Blažovice, pod kostelem","arrival_time":"15:16:00","departure_time":"15:16:00","lat":49.162842,"lon":16.783037,"is_passed":false},{"stop_id":"U16104Z2","name":"Jiříkovice","arrival_time":"15:20:00","departure_time":"15:20:00","lat":49.166323,"lon":16.757805,"is_passed":false},{"stop_id":"U16121Z2","name":"Ponětovice, železniční stanice","arrival_time":"15:23:00","departure_time":"15:23:00","lat":49.154698,"lon":16.747757,"is_passed":false},{"stop_id":"U16120Z2","name":"Ponětovice","arrival_time":"15:24:00","departure_time":"15:24:00","lat":49.152307,"lon":16.742117,"is_passed":false},{"stop_id":"U16159Z4","name":"Šlapanice, Kalvodova","arrival_time":"15:28:00","departure_time":"15:28:00","lat":49.166805,"lon":16.72634,"is_passed":false},{"stop_id":"U16163Z2","name":"Šlapanice, Riegrova","arrival_time":"15:29:00","departure_time":"15:29:00","lat":49.168445,"lon":16.726032,"is_passed":false}],"14759":[{"stop_id":"U16163Z2","name":"Šlapanice, Riegrova","arrival_time":"15:51:00","departure_time":"15:51:00","lat":49.168445,"lon":16.726032,"is_passed":false},{"stop_id":"U16129Z2","name":"Šlapanice, Bedřichovice","arrival_time":"15:54:00","departure_time":"15:54:00","lat":49.179845,"lon":16.721551,"is_passed":false},{"stop_id":"U16130Z4","name":"Šlapanice, Bedřichovice, rozc.","arrival_time":"15:55:00","departure_time":"15:57:00","lat":49.183532,"lon":16.722542,"is_passed":false},{"stop_id":"U16116Z2","name":"Podolí","arrival_time":"15:59:00","departure_time":"15:59:00","lat":49.189822,"lon":16.726255,"is_passed":false},{"stop_id":"U16118Z2","name":"Podolí, Líšeňská","arrival_time":"16:00:00","departure_time":"16:00:00","lat":49.191807,"lon":16.71978,"is_passed":false},{"stop_id":"U1497Z2","name":"Podolská","arrival_time":"16:04:00","departure_time":"16:04:00","lat":49.20311,"lon":16.713363,"is_passed":false},{"stop_id":"U1726Z2","name":"Velatická","arrival_time":"16:05:00","departure_time":"16:05:00","lat":49.204666,"lon":16.707253,"is_passed":false},{"stop_id":"U1350Z2","name":"Macháčkova","arrival_time":"16:06:00","departure_time":"16:06:00","lat":49.206174,"lon":16.701931,"is_passed":false},{"stop_id":"U1421Z4","name":"Náměstí Karla IV.","arrival_time":"16:08:00","departure_time":"16:08:00","lat":49.206991,"lon":16.695508,"is_passed":false},{"stop_id":"U1384Z3","name":"Mifkova","arrival_time":"16:09:00","departure_time":"16:09:00","lat":49.20716,"lon":16.692152,"is_passed":false},{"stop_id":"U1208Z6","name":"Jírova","arrival_time":"16:11:00","departure_time":"16:15:00","lat":49.209179,"lon":16.688685,"is_passed":false}],"14760":[{"stop_id":"U1208Z4","name":"Jírova","arrival_time":"16:15:00","departure_time":"16:15:00","lat":49.209099,"lon":16.688056,"is_passed":false},{"stop_id":"U1421Z3","name":"Náměstí Karla IV.","arrival_time":"16:16:00","departure_time":"16:16:00","lat":49.206713,"lon":16.694241,"is_passed":false},{"stop_id":"U1350Z1","name":"Macháčkova","arrival_time":"16:17:00","departure_time":"16:17:00","lat":49.206052,"lon":16.70193,"is_passed":false},{"stop_id":"U1726Z1","name":"Velatická","arrival_time":"16:18:00","departure_time":"16:18:00","lat":49.204129,"lon":16.708116,"is_passed":false},{"stop_id":"U1497Z1","name":"Podolská","arrival_time":"16:19:00","departure_time":"16:19:00","lat":49.203029,"lon":16.714223,"is_passed":false},{"stop_id":"U16118Z1","name":"Podolí, Líšeňská","arrival_time":"16:22:00","departure_time":"16:22:00","lat":49.191843,"lon":16.719825,"is_passed":false},{"stop_id":"U16116Z1","name":"Podolí","arrival_time":"16:24:00","departure_time":"16:24:00","lat":49.189832,"lon":16.725978,"is_passed":false},{"stop_id":"U16130Z3","name":"Šlapanice, Bedřichovice, rozc.","arrival_time":"16:27:00","departure_time":"16:29:00","lat":49.18336,"lon":16.722373,"is_passed":false},{"stop_id":"U16129Z1","name":"Šlapanice, Bedřichovice","arrival_time":"16:30:00","departure_time":"16:30:00","lat":49.17982,"lon":16.721481,"is_passed":false},{"stop_id":"U16163Z3","name":"Šlapanice, Riegrova","arrival_time":"16:33:00","departure_time":"16:33:00","lat":49.168445,"lon":16.726032,"is_passed":false}],"14761":[{"stop_id":"U16163Z1","name":"Šlapanice, Riegrova","arrival_time":"16:39:00","departure_time":"16:39:00","lat":49.168445,"lon":16.726032,"is_passed":false},{"stop_id":"U16159Z3","name":"Šlapanice, Kalvodova","arrival_time":"16:40:00","departure_time":"16:40:00","lat":49.165936,"lon":16.726067,"is_passed":false},{"stop_id":"U16120Z1","name":"Ponětovice","arrival_time":"16:43:00","departure_time":"16:43:00","lat":49.152352,"lon":16.740815,"is_passed":false},{"stop_id":"U16121Z1","name":"Ponětovice, železniční stanice","arrival_time":"16:44:00","departure_time":"16:44:00","lat":49.154645,"lon":16.747738,"is_passed":false},{"stop_id":"U16104Z1","name":"Jiříkovice","arrival_time":"16:48:00","departure_time":"16:48:00","lat":49.16632,"lon":16.757892,"is_passed":false},{"stop_id":"U16102Z1","name":"Blažovice, pod kostelem","arrival_time":"16:52:00","departure_time":"16:52:00","lat":49.162833,"lon":16.78274,"is_passed":false},{"stop_id":"U16101Z1","name":"Blažovice, hostinec","arrival_time":"16:53:00","departure_time":"17:15:00","lat":49.166001,"lon":16.786446,"is_passed":false}],"14762":[{"stop_id":"U16101Z2","name":"Blažovice, hostinec","arrival_time":"17:15:00","departure_time":"17:15:00","lat":49.166001,"lon":16.786446,"is_passed":false},{"stop_id":"U16102Z2","name":"Blažovice, pod kostelem","arrival_time":"17:16:00","departure_time":"17:16:00","lat":49.162842,"lon":16.783037,"is_passed":false},{"stop_id":"U16104Z2","name":"Jiříkovice","arrival_time":"17:20:00","departure_time":"17:20:00","lat":49.166323,"lon":16.757805,"is_passed":false},{"stop_id":"U16121Z2","name":"Ponětovice, železniční stanice","arrival_time":"17:23:00","departure_time":"17:23:00","lat":49.154698,"lon":16.747757,"is_passed":false},{"stop_id":"U16120Z2","name":"Ponětovice","arrival_time":"17:24:00","departure_time":"17:24:00","lat":49.152307,"lon":16.742117,"is_passed":false},{"stop_id":"U16159Z4","name":"Šlapanice, Kalvodova","arrival_time":"17:28:00","departure_time":"17:28:00","lat":49.166805,"lon":16.72634,"is_passed":false},{"stop_id":"U16163Z2","name":"Šlapanice, Riegrova","arrival_time":"17:29:00","departure_time":"17:29:00","lat":49.168445,"lon":16.726032,"is_passed":false}],"14763":[{"stop_id":"U16163Z2","name":"Šlapanice, Riegrova","arrival_time":"17:55:00","departure_time":"17:55:00","lat":49.168445,"lon":16.726032,"is_passed":false},{"stop_id":"U16129Z2","name":"Šlapanice, Bedřichovice","arrival_time":"17:58:00","departure_time":"17:58:00","lat":49.179845,"lon":16.721551,"is_passed":false},{"stop_id":"U16130Z4","name":"Šlapanice, Bedřichovice, rozc.","arrival_time":"17:59:00","departure_time":"18:01:00","lat":49.183532,"lon":16.722542,"is_passed":false},{"stop_id":"U16116Z2","name":"Podolí","arrival_time":"18:03:00","departure_time":"18:03:00","lat":49.189822,"lon":16.726255,"is_passed":false},{"stop_id":"U16118Z2","name":"Podolí, Líšeňská","arrival_time":"18:04:00","departure_time":"18:04:00","lat":49.191807,"lon":16.71978,"is_passed":false},{"stop_id":"U1362Z1","name":"Mariánské údolí","arrival_time":"18:08:00","departure_time":"18:19:00","lat":49.203331,"lon":16.716449,"is_passed":false}],"14764":[{"stop_id":"U1362Z4","name":"Mariánské údolí","arrival_time":"18:19:00","departure_time":"18:19:00","lat":49.20332,"lon":16.71587,"is_passed":false},{"stop_id":"U16118Z1","name":"Podolí, Líšeňská","arrival_time":"18:22:00","departure_time":"18:22:00","lat":49.191843,"lon":16.719825,"is_passed":false},{"stop_id":"U16116Z1","name":"Podolí","arrival_time":"18:24:00","departure_time":"18:24:00","lat":49.189832,"lon":16.725978,"is_passed":false},{"stop_id":"U16130Z3","name":"Šlapanice, Bedřichovice, rozc.","arrival_time":"18:27:00","departure_time":"18:29:00","lat":49.18336,"lon":16.722373,"is_passed":false},{"stop_id":"U16129Z1","name":"Šlapanice, Bedřichovice","arrival_time":"18:30:00","departure_time":"18:30:00","lat":49.17982,"lon":16.721481,"is_passed":false},{"stop_id":"U16163Z3","name":"Šlapanice, Riegrova","arrival_time":"18:33:00","departure_time":"18:33:00","lat":49.168445,"lon":16.726032,"is_passed":false}],"14765":[{"stop_id":"U16163Z1","name":"Šlapanice, Riegrova","arrival_time":"18:39:00","departure_time":"18:39:00","lat":49.168445,"lon":16.726032,"is_passed":false},{"stop_id":"U16159Z3","name":"Šlapanice, Kalvodova","arrival_time":"18:40:00","departure_time":"18:40:00","lat":49.165936,"lon":16.726067,"is_passed":false},{"stop_id":"U16120Z1","name":"Ponětovice","arrival_time":"18:43:00","departure_time":"18:43:00","lat":49.152352,"lon":16.740815,"is_passed":false},{"stop_id":"U16121Z1","name":"Ponětovice, železniční stanice","arrival_time":"18:44:00","departure_time":"18:44:00","lat":49.154645,"lon":16.747738,"is_passed":false},{"stop_id":"U16104Z1","name":"Jiříkovice","arrival_time":"18:48:00","departure_time":"18:48:00","lat":49.16632,"lon":16.757892,"is_passed":false},{"stop_id":"U16102Z1","name":"Blažovice, pod kostelem","arrival_time":"18:52:00","departure_time":"18:52:00","lat":49.162833,"lon":16.78274,"is_passed":false},{"stop_id":"U16101Z1","name":"Blažovice, hostinec","arrival_time":"18:53:00","departure_time":"19:15:00","lat":49.166001,"lon":16.786446,"is_passed":false}],"14766":[{"stop_id":"U16101Z2","name":"Blažovice, hostinec","arrival_time":"19:15:00","departure_time":"19:15:00","lat":49.166001,"lon":16.786446,"is_passed":false},{"stop_id":"U16102Z2","name":"Blažovice, pod kostelem","arrival_time":"19:16:00","departure_time":"19:16:00","lat":49.162842,"lon":16.783037,"is_passed":false},{"stop_id":"U16104Z2","name":"Jiříkovice","arrival_time":"19:20:00","departure_time":"19:20:00","lat":49.166323,"lon":16.757805,"is_passed":false},{"stop_id":"U16121Z2","name":"Ponětovice, železniční stanice","arrival_time":"19:23:00","departure_time":"19:23:00","lat":49.154698,"lon":16.747757,"is_passed":false},{"stop_id":"U16120Z2","name":"Ponětovice","arrival_time":"19:24:00","departure_time":"19:24:00","lat":49.152307,"lon":16.742117,"is_passed":false},{"stop_id":"U16159Z4","name":"Šlapanice, Kalvodova","arrival_time":"19:28:00","departure_time":"19:28:00","lat":49.166805,"lon":16.72634,"is_passed":false},{"stop_id":"U16163Z2","name":"Šlapanice, Riegrova","arrival_time":"19:29:00","departure_time":"19:29:00","lat":49.168445,"lon":16.726032,"is_passed":false}],"14767":[{"stop_id":"U16163Z2","name":"Šlapanice, Riegrova","arrival_time":"19:55:00","departure_time":"19:55:00","lat":49.168445,"lon":16.726032,"is_passed":false},{"stop_id":"U16129Z2","name":"Šlapanice, Bedřichovice","arrival_time":"19:58:00","departure_time":"19:58:00","lat":49.179845,"lon":16.721551,"is_passed":false},{"stop_id":"U16130Z4","name":"Šlapanice, Bedřichovice, rozc.","arrival_time":"19:59:00","departure_time":"20:01:00","lat":49.183532,"lon":16.722542,"is_passed":false},{"stop_id":"U16116Z2","name":"Podolí","arrival_time":"20:03:00","departure_time":"20:03:00","lat":49.189822,"lon":16.726255,"is_passed":false},{"stop_id":"U16118Z2","name":"Podolí, Líšeňská","arrival_time":"20:04:00","departure_time":"20:04:00","lat":49.191807,"lon":16.71978,"is_passed":false},{"stop_id":"U1362Z1","name":"Mariánské údolí","arrival_time":"20:08:00","departure_time":"20:19:00","lat":49.203331,"lon":16.716449,"is_passed":false}],"14768":[{"stop_id":"U1362Z4","name":"Mariánské údolí","arrival_time":"20:19:00","departure_time":"20:19:00","lat":49.20332,"lon":16.71587,"is_passed":false},{"stop_id":"U16118Z1","name":"Podolí, Líšeňská","arrival_time":"20:22:00","departure_time":"20:22:00","lat":49.191843,"lon":16.719825,"is_passed":false},{"stop_id":"U16116Z1","name":"Podolí","arrival_time":"20:24:00","departure_time":"20:24:00","lat":49.189832,"lon":16.725978,"is_passed":false},{"stop_id":"U16130Z3","name":"Šlapanice, Bedřichovice, rozc.","arrival_time":"20:27:00","departure_time":"20:29:00","lat":49.18336,"lon":16.722373,"is_passed":false},{"stop_id":"U16129Z1","name":"Šlapanice, Bedřichovice","arrival_time":"20:30:00","departure_time":"20:30:00","lat":49.17982,"lon":16.721481,"is_passed":false},{"stop_id":"U16163Z3","name":"Šlapanice, Riegrova","arrival_time":"20:33:00","departure_time":"20:33:00","lat":49.168445,"lon":16.726032,"is_passed":false}],"14769":[{"stop_id":"U16163Z1","name":"Šlapanice, Riegrova","arrival_time":"21:42:00","departure_time":"21:42:00","lat":49.168445,"lon":16.726032,"is_passed":false},{"stop_id":"U16159Z3","name":"Šlapanice, Kalvodova","arrival_time":"21:43:00","departure_time":"21:43:00","lat":49.165936,"lon":16.726067,"is_passed":false},{"stop_id":"U16120Z1","name":"Ponětovice","arrival_time":"21:46:00","departure_time":"21:46:00","lat":49.152352,"lon":16.740815,"is_passed":false},{"stop_id":"U16121Z1","name":"Ponětovice, železniční stanice","arrival_time":"21:47:00","departure_time":"21:47:00","lat":49.154645,"lon":16.747738,"is_passed":false},{"stop_id":"U16104Z1","name":"Jiříkovice","arrival_time":"21:51:00","departure_time":"21:51:00","lat":49.16632,"lon":16.757892,"is_passed":false},{"stop_id":"U16102Z1","name":"Blažovice, pod kostelem","arrival_time":"21:55:00","departure_time":"21:55:00","lat":49.162833,"lon":16.78274,"is_passed":false},{"stop_id":"U16101Z1","name":"Blažovice, hostinec","arrival_time":"21:56:00","departure_time":"21:59:00","lat":49.166001,"lon":16.786446,"is_passed":false}],"14770":[{"stop_id":"U16101Z2","name":"Blažovice, hostinec","arrival_time":"21:59:00","departure_time":"21:59:00","lat":49.166001,"lon":16.786446,"is_passed":false},{"stop_id":"U16102Z2","name":"Blažovice, pod kostelem","arrival_time":"22:00:00","departure_time":"22:00:00","lat":49.162842,"lon":16.783037,"is_passed":false},{"stop_id":"U16104Z2","name":"Jiříkovice","arrival_time":"22:04:00","departure_time":"22:04:00","lat":49.166323,"lon":16.757805,"is_passed":false},{"stop_id":"U16121Z2","name":"Ponětovice, železniční stanice","arrival_time":"22:07:00","departure_time":"22:07:00","lat":49.154698,"lon":16.747757,"is_passed":false},{"stop_id":"U16120Z2","name":"Ponětovice","arrival_time":"22:08:00","departure_time":"22:08:00","lat":49.152307,"lon":16.742117,"is_passed":false},{"stop_id":"U16159Z4","name":"Šlapanice, Kalvodova","arrival_time":"22:12:00","departure_time":"22:12:00","lat":49.166805,"lon":16.72634,"is_passed":false},{"stop_id":"U16163Z2","name":"Šlapanice, Riegrova","arrival_time":"22:13:00","departure_time":"22:13:00","lat":49.168445,"lon":16.726032,"is_passed":false}],"14771":[{"stop_id":"U16163Z2","name":"Šlapanice, Riegrova","arrival_time":"22:55:00","departure_time":"22:55:00","lat":49.168445,"lon":16.726032,"is_passed":false},{"stop_id":"U16129Z2","name":"Šlapanice, Bedřichovice","arrival_time":"22:58:00","departure_time":"22:58:00","lat":49.179845,"lon":16.721551,"is_passed":false},{"stop_id":"U16130Z4","name":"Šlapanice, Bedřichovice, rozc.","arrival_time":"22:59:00","departure_time":"23:01:00","lat":49.183532,"lon":16.722542,"is_passed":false},{"stop_id":"U16116Z2","name":"Podolí","arrival_time":"23:03:00","departure_time":"23:24:00","lat":49.189822,"lon":16.726255,"is_passed":false}],"14772":[{"stop_id":"U16116Z1","name":"Podolí","arrival_time":"23:24:00","departure_time":"23:24:00","lat":49.189832,"lon":16.725978,"is_passed":false},{"stop_id":"U16130Z3","name":"Šlapanice, Bedřichovice, rozc.","arrival_time":"23:27:00","departure_time":"23:29:00","lat":49.18336,"lon":16.722373,"is_passed":false},{"stop_id":"U16129Z1","name":"Šlapanice, Bedřichovice","arrival_time":"23:30:00","departure_time":"23:30:00","lat":49.17982,"lon":16.721481,"is_passed":false},{"stop_id":"U16163Z3","name":"Šlapanice, Riegrova","arrival_time":"23:33:00","departure_time":"23:33:00","lat":49.168445,"lon":16.726032,"is_passed":false},{"stop_id":"U16159Z1","name":"Šlapanice, Kalvodova","arrival_time":"23:34:00","departure_time":"23:51:00","lat":49.166442,"lon":16.726521,"is_passed":false}],"14773":[{"stop_id":"U16159Z2","name":"Šlapanice, Kalvodova","arrival_time":"23:51:00","departure_time":"23:51:00","lat":49.166539,"lon":16.726218,"is_passed":false},{"stop_id":"U16163Z2","name":"Šlapanice, Riegrova","arrival_time":"23:52:00","departure_time":"23:52:00","lat":49.168445,"lon":16.726032,"is_passed":false},{"stop_id":"U16129Z2","name":"Šlapanice, Bedřichovice","arrival_time":"23:55:00","departure_time":"23:55:00","lat":49.179845,"lon":16.721551,"is_passed":false},{"stop_id":"U16130Z4","name":"Šlapanice, Bedřichovice, rozc.","arrival_time":"23:56:00","departure_time":"23:56:00","lat":49.183532,"lon":16.722542,"is_passed":false},{"stop_id":"U16116Z2","name":"Podolí","arrival_time":"23:58:00","departure_time":"23:58:00","lat":49.189822,"lon":16.726255,"is_passed":false}],"14774":[{"stop_id":"U12342Z5","name":"Blansko, aut. st.","arrival_time":"8:36:00","departure_time":"8:36:00","lat":49.353508,"lon":16.647103,"is_passed":false},{"stop_id":"U12041Z81","name":"Blansko, Komenského","arrival_time":"8:40:00","departure_time":"8:40:00","lat":49.359837,"lon":16.638651,"is_passed":false},{"stop_id":"U12343Z1","name":"Blansko, Brněnská","arrival_time":"8:41:00","departure_time":"8:41:00","lat":49.35642,"lon":16.639269,"is_passed":false},{"stop_id":"U12341Z1","name":"Blansko, Synthon","arrival_time":"8:41:00","departure_time":"8:41:00","lat":49.354082,"lon":16.640722,"is_passed":false},{"stop_id":"U12340Z1","name":"Blansko, rozvodna, točna","arrival_time":"8:42:00","departure_time":"8:42:00","lat":49.350642,"lon":16.644909,"is_passed":false},{"stop_id":"U12380Z3","name":"Blansko, Olešná","arrival_time":"8:45:00","departure_time":"8:45:00","lat":49.339567,"lon":16.636938,"is_passed":false},{"stop_id":"U12359Z1","name":"Blansko, Hořice","arrival_time":"8:48:00","departure_time":"9:00:00","lat":49.356217,"lon":16.623013,"is_passed":false}],"14775":[{"stop_id":"U12359Z1","name":"Blansko, Hořice","arrival_time":"9:00:00","departure_time":"9:00:00","lat":49.356217,"lon":16.623013,"is_passed":false},{"stop_id":"U12380Z1","name":"Blansko, Olešná","arrival_time":"9:04:00","departure_time":"9:04:00","lat":49.339693,"lon":16.637515,"is_passed":false},{"stop_id":"U12340Z2","name":"Blansko, rozvodna, točna","arrival_time":"9:06:00","departure_time":"9:06:00","lat":49.350642,"lon":16.644909,"is_passed":false},{"stop_id":"U12341Z2","name":"Blansko, Synthon","arrival_time":"9:07:00","departure_time":"9:07:00","lat":49.353202,"lon":16.642345,"is_passed":false},{"stop_id":"U12041Z81","name":"Blansko, Komenského","arrival_time":"9:09:00","departure_time":"9:09:00","lat":49.359837,"lon":16.638651,"is_passed":false},{"stop_id":"U12343Z1","name":"Blansko, Brněnská","arrival_time":"9:10:00","departure_time":"9:10:00","lat":49.35642,"lon":16.639269,"is_passed":false},{"stop_id":"U12342Z31","name":"Blansko, aut. st.","arrival_time":"9:13:00","departure_time":"9:13:00","lat":49.353401,"lon":16.64738,"is_passed":false}],"14776":[{"stop_id":"U12342Z3","name":"Blansko, aut. st.","arrival_time":"10:00:00","departure_time":"10:00:00","lat":49.353508,"lon":16.647103,"is_passed":false},{"stop_id":"U12389Z1","name":"Blansko, rozcestí Klepačov","arrival_time":"10:02:00","departure_time":"10:02:00","lat":49.346355,"lon":16.650873,"is_passed":false},{"stop_id":"U12008Z1","name":"Šebrov-Kateřina, Sv. Kateřina","arrival_time":"10:08:00","departure_time":"10:08:00","lat":49.330252,"lon":16.614607,"is_passed":false},{"stop_id":"U12009Z1","name":"Šebrov-Kateřina, Šebrov","arrival_time":"10:10:00","departure_time":"10:10:00","lat":49.328949,"lon":16.598162,"is_passed":false},{"stop_id":"U12006Z1","name":"Svinošice","arrival_time":"10:13:00","departure_time":"10:13:00","lat":49.333413,"lon":16.574056,"is_passed":false},{"stop_id":"U12005Z1","name":"Lipůvka, ZŠ","arrival_time":"10:16:00","departure_time":"10:16:00","lat":49.338205,"lon":16.557915,"is_passed":false},{"stop_id":"U12004Z2","name":"Lipůvka","arrival_time":"10:18:00","departure_time":"10:18:00","lat":49.338367,"lon":16.552513,"is_passed":false},{"stop_id":"U13131Z2","name":"Kuřim, Prefa rozcestí","arrival_time":"10:21:00","departure_time":"10:21:00","lat":49.316222,"lon":16.548481,"is_passed":false},{"stop_id":"U13127Z1","name":"Kuřim, TOS","arrival_time":"10:23:00","departure_time":"10:23:00","lat":49.312475,"lon":16.538187,"is_passed":false},{"stop_id":"U13128Z2","name":"Kuřim, poliklinika","arrival_time":"10:24:00","departure_time":"10:24:00","lat":49.309396,"lon":16.533817,"is_passed":false},{"stop_id":"U13123Z2","name":"Kuřim, kulturní dům","arrival_time":"10:25:00","departure_time":"10:25:00","lat":49.307705,"lon":16.531739,"is_passed":false},{"stop_id":"U13125Z2","name":"Kuřim, Popkova","arrival_time":"10:25:00","departure_time":"10:25:00","lat":49.304597,"lon":16.530972,"is_passed":false},{"stop_id":"U13143Z6","name":"Kuřim, železniční stanice","arrival_time":"10:28:00","departure_time":"11:30:00","lat":49.300544,"lon":16.534166,"is_passed":false}],"14777":[{"stop_id":"U13143Z2","name":"Kuřim, železniční stanice","arrival_time":"11:30:00","departure_time":"11:30:00","lat":49.300264,"lon":16.533575,"is_passed":false},{"stop_id":"U13125Z1","name":"Kuřim, Popkova","arrival_time":"11:32:00","departure_time":"11:32:00","lat":49.304727,"lon":16.531086,"is_passed":false},{"stop_id":"U13123Z1","name":"Kuřim, kulturní dům","arrival_time":"11:33:00","departure_time":"11:33:00","lat":49.307683,"lon":16.531878,"is_passed":false},{"stop_id":"U13128Z1","name":"Kuřim, poliklinika","arrival_time":"11:34:00","departure_time":"11:34:00","lat":49.310168,"lon":16.535507,"is_passed":false},{"stop_id":"U13127Z2","name":"Kuřim, TOS","arrival_time":"11:35:00","departure_time":"11:35:00","lat":49.312411,"lon":16.539181,"is_passed":false},{"stop_id":"U13131Z1","name":"Kuřim, Prefa rozcestí","arrival_time":"11:37:00","departure_time":"11:37:00","lat":49.316222,"lon":16.548481,"is_passed":false},{"stop_id":"U12004Z1","name":"Lipůvka","arrival_time":"11:41:00","departure_time":"11:41:00","lat":49.339155,"lon":16.552682,"is_passed":false},{"stop_id":"U12005Z2","name":"Lipůvka, ZŠ","arrival_time":"11:43:00","departure_time":"11:43:00","lat":49.338078,"lon":16.558143,"is_passed":false},{"stop_id":"U12006Z2","name":"Svinošice","arrival_time":"11:46:00","departure_time":"11:46:00","lat":49.333183,"lon":16.574847,"is_passed":false},{"stop_id":"U12009Z2","name":"Šebrov-Kateřina, Šebrov","arrival_time":"11:49:00","departure_time":"11:49:00","lat":49.328833,"lon":16.598548,"is_passed":false},{"stop_id":"U12008Z2","name":"Šebrov-Kateřina, Sv. Kateřina","arrival_time":"11:51:00","departure_time":"11:51:00","lat":49.330242,"lon":16.614127,"is_passed":false},{"stop_id":"U12389Z2","name":"Blansko, rozcestí Klepačov","arrival_time":"11:57:00","departure_time":"11:57:00","lat":49.346355,"lon":16.650873,"is_passed":false},{"stop_id":"U12342Z31","name":"Blansko, aut. st.","arrival_time":"11:59:00","departure_time":"13:00:00","lat":49.353401,"lon":16.64738,"is_passed":false}],"14778":[{"stop_id":"U12342Z3","name":"Blansko, aut. st.","arrival_time":"13:00:00","departure_time":"13:00:00","lat":49.353508,"lon":16.647103,"is_passed":false},{"stop_id":"U12389Z1","name":"Blansko, rozcestí Klepačov","arrival_time":"13:02:00","departure_time":"13:02:00","lat":49.346355,"lon":16.650873,"is_passed":false},{"stop_id":"U12008Z1","name":"Šebrov-Kateřina, Sv. Kateřina","arrival_time":"13:08:00","departure_time":"13:08:00","lat":49.330252,"lon":16.614607,"is_passed":false},{"stop_id":"U12009Z1","name":"Šebrov-Kateřina, Šebrov","arrival_time":"13:10:00","departure_time":"13:10:00","lat":49.328949,"lon":16.598162,"is_passed":false},{"stop_id":"U12006Z1","name":"Svinošice","arrival_time":"13:13:00","departure_time":"13:13:00","lat":49.333413,"lon":16.574056,"is_passed":false},{"stop_id":"U12005Z1","name":"Lipůvka, ZŠ","arrival_time":"13:16:00","departure_time":"13:16:00","lat":49.338205,"lon":16.557915,"is_passed":false},{"stop_id":"U12004Z2","name":"Lipůvka","arrival_time":"13:18:00","departure_time":"13:18:00","lat":49.338367,"lon":16.552513,"is_passed":false},{"stop_id":"U13131Z2","name":"Kuřim, Prefa rozcestí","arrival_time":"13:21:00","departure_time":"13:21:00","lat":49.316222,"lon":16.548481,"is_passed":false},{"stop_id":"U13127Z1","name":"Kuřim, TOS","arrival_time":"13:23:00","departure_time":"13:23:00","lat":49.312475,"lon":16.538187,"is_passed":false},{"stop_id":"U13128Z2","name":"Kuřim, poliklinika","arrival_time":"13:24:00","departure_time":"13:24:00","lat":49.309396,"lon":16.533817,"is_passed":false},{"stop_id":"U13123Z2","name":"Kuřim, kulturní dům","arrival_time":"13:25:00","departure_time":"13:25:00","lat":49.307705,"lon":16.531739,"is_passed":false},{"stop_id":"U13125Z2","name":"Kuřim, Popkova","arrival_time":"13:25:00","departure_time":"13:25:00","lat":49.304597,"lon":16.530972,"is_passed":false},{"stop_id":"U13143Z6","name":"Kuřim, železniční stanice","arrival_time":"13:28:00","departure_time":"13:30:00","lat":49.300544,"lon":16.534166,"is_passed":false}],"14779":[{"stop_id":"U13143Z2","name":"Kuřim, železniční stanice","arrival_time":"13:30:00","departure_time":"13:30:00","lat":49.300264,"lon":16.533575,"is_passed":false},{"stop_id":"U13125Z1","name":"Kuřim, Popkova","arrival_time":"13:32:00","departure_time":"13:32:00","lat":49.304727,"lon":16.531086,"is_passed":false},{"stop_id":"U13123Z1","name":"Kuřim, kulturní dům","arrival_time":"13:33:00","departure_time":"13:33:00","lat":49.307683,"lon":16.531878,"is_passed":false},{"stop_id":"U13128Z1","name":"Kuřim, poliklinika","arrival_time":"13:34:00","departure_time":"13:34:00","lat":49.310168,"lon":16.535507,"is_passed":false},{"stop_id":"U13127Z2","name":"Kuřim, TOS","arrival_time":"13:35:00","departure_time":"13:35:00","lat":49.312411,"lon":16.539181,"is_passed":false},{"stop_id":"U13131Z1","name":"Kuřim, Prefa rozcestí","arrival_time":"13:37:00","departure_time":"13:37:00","lat":49.316222,"lon":16.548481,"is_passed":false},{"stop_id":"U12004Z1","name":"Lipůvka","arrival_time":"13:41:00","departure_time":"13:41:00","lat":49.339155,"lon":16.552682,"is_passed":false},{"stop_id":"U12005Z2","name":"Lipůvka, ZŠ","arrival_time":"13:43:00","departure_time":"13:43:00","lat":49.338078,"lon":16.558143,"is_passed":false},{"stop_id":"U12006Z2","name":"Svinošice","arrival_time":"13:46:00","departure_time":"13:46:00","lat":49.333183,"lon":16.574847,"is_passed":false},{"stop_id":"U12009Z2","name":"Šebrov-Kateřina, Šebrov","arrival_time":"13:49:00","departure_time":"13:49:00","lat":49.328833,"lon":16.598548,"is_passed":false},{"stop_id":"U12008Z2","name":"Šebrov-Kateřina, Sv. Kateřina","arrival_time":"13:51:00","departure_time":"13:51:00","lat":49.330242,"lon":16.614127,"is_passed":false},{"stop_id":"U12389Z2","name":"Blansko, rozcestí Klepačov","arrival_time":"13:57:00","departure_time":"13:57:00","lat":49.346355,"lon":16.650873,"is_passed":false},{"stop_id":"U12342Z31","name":"Blansko, aut. st.","arrival_time":"13:59:00","departure_time":"13:59:00","lat":49.353401,"lon":16.64738,"is_passed":false}],"14780":[{"stop_id":"U12342Z14","name":"Blansko, aut. st.","arrival_time":"14:40:00","departure_time":"14:40:00","lat":49.353928,"lon":16.646513,"is_passed":false},{"stop_id":"U12389Z1","name":"Blansko, rozcestí Klepačov","arrival_time":"14:42:00","departure_time":"14:42:00","lat":49.346355,"lon":16.650873,"is_passed":false},{"stop_id":"U12323Z1","name":"Olomučany, dolní konec","arrival_time":"14:44:00","departure_time":"14:44:00","lat":49.337113,"lon":16.666925,"is_passed":false},{"stop_id":"U12326Z1","name":"Olomučany, škola","arrival_time":"14:46:00","departure_time":"14:46:00","lat":49.33313,"lon":16.66991,"is_passed":false},{"stop_id":"U12325Z1","name":"Olomučany, restaurace","arrival_time":"14:48:00","departure_time":"14:48:00","lat":49.32986,"lon":16.672372,"is_passed":false},{"stop_id":"U12324Z1","name":"Olomučany, horní konec","arrival_time":"14:49:00","departure_time":"14:49:00","lat":49.32544,"lon":16.677083,"is_passed":false},{"stop_id":"U12327Z1","name":"Olomučany, točna","arrival_time":"14:50:00","departure_time":"15:09:00","lat":49.322893,"lon":16.67993,"is_passed":false}],"14781":[{"stop_id":"U12327Z2","name":"Olomučany, točna","arrival_time":"15:09:00","departure_time":"15:09:00","lat":49.322893,"lon":16.67993,"is_passed":false},{"stop_id":"U12324Z2","name":"Olomučany, horní konec","arrival_time":"15:11:00","departure_time":"15:11:00","lat":49.325513,"lon":16.677135,"is_passed":false},{"stop_id":"U12325Z2","name":"Olomučany, restaurace","arrival_time":"15:13:00","departure_time":"15:13:00","lat":49.329975,"lon":16.672322,"is_passed":false},{"stop_id":"U12326Z2","name":"Olomučany, škola","arrival_time":"15:14:00","departure_time":"15:14:00","lat":49.33313,"lon":16.66991,"is_passed":false},