[{"stop_id":"U19316Z13","name":"Veselí nad Moravou, železniční stanice","arrival_time":"22:08:00","departure_time":"22:08:00","lat":48.948694,"lon":17.382439,"is_passed":false},{"stop_id":"U19310Z12","name":"Veselí nad Moravou, Milokošť","arrival_time":"22:10:00","departure_time":"22:10:00","lat":48.967085,"lon":17.398881,"is_passed":false},{"stop_id":"U29404Z11","name":"Uherský Ostroh","arrival_time":"22:12:00","departure_time":"22:13:00","lat":48.981817,"lon":17.403441,"is_passed":false},{"stop_id":"U30314Z1","name":"Ostrožská Nová Ves","arrival_time":"22:16:00","departure_time":"22:17:00","lat":49.009594,"lon":17.436368,"is_passed":false},{"stop_id":"U31025Z2","name":"Kunovice zastávka","arrival_time":"22:20:00","departure_time":"22:20:00","lat":49.038039,"lon":17.461023,"is_passed":false},{"stop_id":"U31027Z2","name":"Uherské Hradiště","arrival_time":"22:25:00","departure_time":"22:26:00","lat":49.066825,"lon":17.457085,"is_passed":false},{"stop_id":"U31028Z2","name":"Staré Město u Uherského Hradiště","arrival_time":"22:32:00","departure_time":"22:32:00","lat":49.076022,"lon":17.42271,"is_passed":false}]