[{"stop_id":"U12439Z3","name":"Rájec-Jestřebí, železniční stanice","arrival_time":"18:44:00","departure_time":"18:44:00","lat":49.409087,"lon":16.627157,"is_passed":false},{"stop_id":"U12435Z1","name":"Rájec-Jestřebí, lékárna","arrival_time":"18:46:00","departure_time":"18:46:00","lat":49.407637,"lon":16.631847,"is_passed":false},{"stop_id":"U12437Z2","name":"Rájec-Jestřebí, náměstí","arrival_time":"18:48:00","departure_time":"18:48:00","lat":49.411077,"lon":16.639236,"is_passed":false},{"stop_id":"U12434Z2","name":"Rájec-Jestřebí, Komenského","arrival_time":"18:50:00","departure_time":"18:50:00","lat":49.415923,"lon":16.632258,"is_passed":false},{"stop_id":"U12430Z2","name":"Doubravice, zahradnictví","arrival_time":"18:52:00","departure_time":"18:52:00","lat":49.431632,"lon":16.633024,"is_passed":false},{"stop_id":"U12429Z2","name":"Rájec-Jestřebí, Holešín","arrival_time":"18:55:00","departure_time":"18:55:00","lat":49.428315,"lon":16.654862,"is_passed":false},{"stop_id":"U12440Z1","name":"Rájec-Jestřebí, Lenčov, křiž.","arrival_time":"18:57:00","departure_time":"18:57:00","lat":49.421137,"lon":16.66587,"is_passed":false},{"stop_id":"U12427Z1","name":"Kuničky","arrival_time":"18:59:00","departure_time":"18:59:00","lat":49.43406,"lon":16.683617,"is_passed":false},{"stop_id":"U12440Z1","name":"Rájec-Jestřebí, Lenčov, křiž.","arrival_time":"19:01:00","departure_time":"19:01:00","lat":49.421137,"lon":16.66587,"is_passed":false},{"stop_id":"U12442Z1","name":"Žďár","arrival_time":"19:05:00","departure_time":"19:05:00","lat":49.421052,"lon":16.698148,"is_passed":false},{"stop_id":"U12428Z2","name":"Petrovice","arrival_time":"19:07:00","departure_time":"19:07:00","lat":49.413973,"lon":16.700938,"is_passed":false},{"stop_id":"U12424Z2","name":"Sloup, Nová čtvrť","arrival_time":"19:10:00","departure_time":"19:10:00","lat":49.413648,"lon":16.735368,"is_passed":false},{"stop_id":"U12423Z2","name":"Sloup","arrival_time":"19:12:00","departure_time":"19:12:00","lat":49.415403,"lon":16.739667,"is_passed":false}]