[{"stop_id":"U1286Z12","name":"Královo Pole, nádraží","arrival_time":"9:11:00","departure_time":"9:11:00","lat":49.23045,"lon":16.595801,"is_passed":false},{"stop_id":"U13126Z1","name":"Kuřim, Podlesí, rozc.","arrival_time":"9:21:00","departure_time":"9:21:00","lat":49.305568,"lon":16.554963,"is_passed":false},{"stop_id":"U13120Z1","name":"Kuřim, rozcestí 2.0","arrival_time":"9:23:00","departure_time":"9:23:00","lat":49.318142,"lon":16.551936,"is_passed":false},{"stop_id":"U12004Z1","name":"Lipůvka","arrival_time":"9:26:00","departure_time":"9:26:00","lat":49.339155,"lon":16.552682,"is_passed":false},{"stop_id":"U12239Z1","name":"Lažany","arrival_time":"9:28:00","departure_time":"9:28:00","lat":49.354925,"lon":16.551363,"is_passed":false},{"stop_id":"U12240Z1","name":"Lažany, rozcestí Újezd","arrival_time":"9:29:00","departure_time":"9:29:00","lat":49.359483,"lon":16.554537,"is_passed":false},{"stop_id":"U12014Z2","name":"Milonice","arrival_time":"9:31:00","departure_time":"9:31:00","lat":49.36813,"lon":16.565875,"is_passed":false},{"stop_id":"U12016Z1","name":"Závist","arrival_time":"9:33:00","departure_time":"9:33:00","lat":49.374753,"lon":16.573022,"is_passed":false},{"stop_id":"U12449Z1","name":"Černá Hora, Na kopci","arrival_time":"9:38:00","departure_time":"9:38:00","lat":49.410472,"lon":16.580877,"is_passed":false},{"stop_id":"U12450Z1","name":"Černá Hora, nám.","arrival_time":"9:39:00","departure_time":"9:39:00","lat":49.414767,"lon":16.582423,"is_passed":false}]