{"151":[{"stop_id":"U17335Z2","name":"Rousínov, autobusová stanice","arrival_time":"4:54:00","departure_time":"4:54:00","lat":49.20291,"lon":16.88497,"is_passed":false},{"stop_id":"U17331Z1","name":"Rousínov, Čechyně, rozcestí","arrival_time":"4:56:00","departure_time":"4:56:00","lat":49.207062,"lon":16.891572,"is_passed":false},{"stop_id":"U17311Z3","name":"Komořany, EDP","arrival_time":"4:59:00","departure_time":"4:59:00","lat":49.220008,"lon":16.905058,"is_passed":false},{"stop_id":"U17344Z1","name":"Tučapy, rozcestí","arrival_time":"5:01:00","departure_time":"5:01:00","lat":49.227308,"lon":16.915917,"is_passed":false},{"stop_id":"U17328Z1","name":"Luleč, rozcestí","arrival_time":"5:03:00","departure_time":"5:03:00","lat":49.248113,"lon":16.944733,"is_passed":false},{"stop_id":"U17428Z1","name":"Vyškov, Drnovská Bioveta","arrival_time":"5:05:00","departure_time":"5:05:00","lat":49.254302,"lon":16.95682,"is_passed":false},{"stop_id":"U17435Z1","name":"Vyškov, Nouzka","arrival_time":"5:08:00","departure_time":"5:08:00","lat":49.267372,"lon":16.982268,"is_passed":false},{"stop_id":"U17429Z1","name":"Vyškov, garáže ČSAD","arrival_time":"5:09:00","departure_time":"5:09:00","lat":49.271332,"lon":16.989108,"is_passed":false},{"stop_id":"U17423Z21","name":"Vyškov, Autobusové nádraží","arrival_time":"5:11:00","departure_time":"5:16:00","lat":49.275819,"lon":16.992078,"is_passed":false}],"1510":[{"stop_id":"U16156Z2","name":"Újezd u Brna, městský úřad","arrival_time":"14:08:00","departure_time":"14:08:00","lat":49.10469,"lon":16.757273,"is_passed":false},{"stop_id":"U16157Z2","name":"Újezd u Brna, Revoluční","arrival_time":"14:09:00","departure_time":"14:09:00","lat":49.106715,"lon":16.748685,"is_passed":false},{"stop_id":"U16149Z3","name":"Sokolnice, železniční stanice","arrival_time":"14:12:00","departure_time":"14:12:00","lat":49.108437,"lon":16.733573,"is_passed":false},{"stop_id":"U16145Z2","name":"Sokolnice, obecní úřad","arrival_time":"14:14:00","departure_time":"14:14:00","lat":49.114233,"lon":16.721202,"is_passed":false},{"stop_id":"U16173Z2","name":"Sokolnice, Brněnská","arrival_time":"14:15:00","departure_time":"14:15:00","lat":49.114426,"lon":16.71486,"is_passed":false},{"stop_id":"U16147Z2","name":"Sokolnice, rozvodna","arrival_time":"14:16:00","departure_time":"14:16:00","lat":49.114771,"lon":16.705095,"is_passed":false},{"stop_id":"U1592Z4","name":"Sokolnická","arrival_time":"14:19:00","departure_time":"14:19:00","lat":49.131434,"lon":16.684472,"is_passed":false},{"stop_id":"U1681Z4","name":"Tuřany, smyčka","arrival_time":"14:21:00","departure_time":"14:21:00","lat":49.142326,"lon":16.666375,"is_passed":false},{"stop_id":"U1186Z2","name":"Chrlická","arrival_time":"14:22:00","departure_time":"14:22:00","lat":49.143983,"lon":16.665097,"is_passed":false},{"stop_id":"U1131Z2","name":"Hanácká","arrival_time":"14:23:00","departure_time":"14:23:00","lat":49.146706,"lon":16.667371,"is_passed":false},{"stop_id":"U1538Z2","name":"Revoluční","arrival_time":"14:24:00","departure_time":"14:24:00","lat":49.150097,"lon":16.661811,"is_passed":false},{"stop_id":"U1118Z2","name":"Glocova","arrival_time":"14:25:00","departure_time":"14:25:00","lat":49.151351,"lon":16.659085,"is_passed":false},{"stop_id":"U1191Z2","name":"Ivanovické náměstí","arrival_time":"14:26:00","departure_time":"14:26:00","lat":49.153629,"lon":16.653755,"is_passed":false},{"stop_id":"U1511Z2","name":"Popelova","arrival_time":"14:28:00","departure_time":"14:28:00","lat":49.156919,"lon":16.646204,"is_passed":false},{"stop_id":"U1533Z2","name":"Ráječek","arrival_time":"14:29:00","departure_time":"14:29:00","lat":49.161397,"lon":16.637387,"is_passed":false},{"stop_id":"U1148Z2","name":"Hněvkovského","arrival_time":"14:31:00","departure_time":"14:31:00","lat":49.169618,"lon":16.626335,"is_passed":false},{"stop_id":"U1565Z2","name":"Sazenice","arrival_time":"14:32:00","departure_time":"14:32:00","lat":49.172877,"lon":16.623824,"is_passed":false},{"stop_id":"U1361Z4","name":"Mariánské náměstí","arrival_time":"14:34:00","departure_time":"14:34:00","lat":49.177094,"lon":16.621935,"is_passed":false},{"stop_id":"U1266Z4","name":"Konopná","arrival_time":"14:35:00","departure_time":"14:35:00","lat":49.179332,"lon":16.621811,"is_passed":false},{"stop_id":"U1807Z2","name":"Železniční","arrival_time":"14:36:00","departure_time":"14:36:00","lat":49.183322,"lon":16.619338,"is_passed":false},{"stop_id":"U1696Z21","name":"ÚAN Zvonařka","arrival_time":"14:37:00","departure_time":"14:37:00","lat":49.185364,"lon":16.616151,"is_passed":false}],"1511":[{"stop_id":"U1208Z4","name":"Jírova","arrival_time":"16:15:00","departure_time":"16:15:00","lat":49.209099,"lon":16.688056,"is_passed":false},{"stop_id":"U1421Z3","name":"Náměstí Karla IV.","arrival_time":"16:16:00","departure_time":"16:16:00","lat":49.206713,"lon":16.694241,"is_passed":false},{"stop_id":"U1350Z1","name":"Macháčkova","arrival_time":"16:17:00","departure_time":"16:17:00","lat":49.206052,"lon":16.70193,"is_passed":false},{"stop_id":"U1726Z1","name":"Velatická","arrival_time":"16:18:00","departure_time":"16:18:00","lat":49.204129,"lon":16.708116,"is_passed":false},{"stop_id":"U1497Z1","name":"Podolská","arrival_time":"16:19:00","departure_time":"16:19:00","lat":49.203029,"lon":16.714223,"is_passed":false},{"stop_id":"U16118Z1","name":"Podolí, Líšeňská","arrival_time":"16:22:00","departure_time":"16:22:00","lat":49.191843,"lon":16.719825,"is_passed":false},{"stop_id":"U16116Z1","name":"Podolí","arrival_time":"16:24:00","departure_time":"16:24:00","lat":49.189832,"lon":16.725978,"is_passed":false},{"stop_id":"U16130Z3","name":"Šlapanice, Bedřichovice, rozc.","arrival_time":"16:27:00","departure_time":"16:29:00","lat":49.18336,"lon":16.722373,"is_passed":false},{"stop_id":"U16129Z1","name":"Šlapanice, Bedřichovice","arrival_time":"16:30:00","departure_time":"16:30:00","lat":49.17982,"lon":16.721481,"is_passed":false},{"stop_id":"U16163Z3","name":"Šlapanice, Riegrova","arrival_time":"16:33:00","departure_time":"16:33:00","lat":49.168445,"lon":16.726032,"is_passed":false},{"stop_id":"U16159Z3","name":"Šlapanice, Kalvodova","arrival_time":"16:34:00","departure_time":"16:34:00","lat":49.165936,"lon":16.726067,"is_passed":false},{"stop_id":"U16137Z1","name":"Šlapanice, železniční stanice","arrival_time":"16:36:00","departure_time":"16:36:00","lat":49.15865,"lon":16.729037,"is_passed":false},{"stop_id":"U16111Z1","name":"Kobylnice","arrival_time":"16:41:00","departure_time":"16:41:00","lat":49.140325,"lon":16.731953,"is_passed":false},{"stop_id":"U16115Z1","name":"Kobylnice, obecní úřad","arrival_time":"16:42:00","departure_time":"16:42:00","lat":49.137533,"lon":16.732766,"is_passed":false}],"1512":[{"stop_id":"U16115Z2","name":"Kobylnice, obecní úřad","arrival_time":"16:42:00","departure_time":"16:42:00","lat":49.137579,"lon":16.732781,"is_passed":false},{"stop_id":"U16111Z2","name":"Kobylnice","arrival_time":"16:43:00","departure_time":"16:43:00","lat":49.140187,"lon":16.731883,"is_passed":false},{"stop_id":"U16137Z2","name":"Šlapanice, železniční stanice","arrival_time":"16:47:00","departure_time":"16:47:00","lat":49.159177,"lon":16.728893,"is_passed":false},{"stop_id":"U16159Z4","name":"Šlapanice, Kalvodova","arrival_time":"16:50:00","departure_time":"16:50:00","lat":49.166805,"lon":16.72634,"is_passed":false},{"stop_id":"U16163Z2","name":"Šlapanice, Riegrova","arrival_time":"16:51:00","departure_time":"16:51:00","lat":49.168445,"lon":16.726032,"is_passed":false},{"stop_id":"U16129Z2","name":"Šlapanice, Bedřichovice","arrival_time":"16:54:00","departure_time":"16:54:00","lat":49.179845,"lon":16.721551,"is_passed":false},{"stop_id":"U16130Z4","name":"Šlapanice, Bedřichovice, rozc.","arrival_time":"16:55:00","departure_time":"16:57:00","lat":49.183532,"lon":16.722542,"is_passed":false},{"stop_id":"U16116Z2","name":"Podolí","arrival_time":"16:59:00","departure_time":"16:59:00","lat":49.189822,"lon":16.726255,"is_passed":false},{"stop_id":"U16118Z2","name":"Podolí, Líšeňská","arrival_time":"17:00:00","departure_time":"17:00:00","lat":49.191807,"lon":16.71978,"is_passed":false},{"stop_id":"U1497Z2","name":"Podolská","arrival_time":"17:04:00","departure_time":"17:04:00","lat":49.20311,"lon":16.713363,"is_passed":false},{"stop_id":"U1726Z2","name":"Velatická","arrival_time":"17:05:00","departure_time":"17:05:00","lat":49.204666,"lon":16.707253,"is_passed":false},{"stop_id":"U1350Z2","name":"Macháčkova","arrival_time":"17:06:00","departure_time":"17:06:00","lat":49.206174,"lon":16.701931,"is_passed":false},{"stop_id":"U1421Z4","name":"Náměstí Karla IV.","arrival_time":"17:08:00","departure_time":"17:08:00","lat":49.206991,"lon":16.695508,"is_passed":false},{"stop_id":"U1384Z3","name":"Mifkova","arrival_time":"17:09:00","departure_time":"17:09:00","lat":49.20716,"lon":16.692152,"is_passed":false},{"stop_id":"U1208Z6","name":"Jírova","arrival_time":"17:11:00","departure_time":"17:45:00","lat":49.209179,"lon":16.688685,"is_passed":false}],"1513":[{"stop_id":"U1208Z4","name":"Jírova","arrival_time":"17:45:00","departure_time":"17:45:00","lat":49.209099,"lon":16.688056,"is_passed":false},{"stop_id":"U1421Z3","name":"Náměstí Karla IV.","arrival_time":"17:46:00","departure_time":"17:46:00","lat":49.206713,"lon":16.694241,"is_passed":false},{"stop_id":"U1350Z1","name":"Macháčkova","arrival_time":"17:47:00","departure_time":"17:47:00","lat":49.206052,"lon":16.70193,"is_passed":false},{"stop_id":"U1726Z1","name":"Velatická","arrival_time":"17:48:00","departure_time":"17:48:00","lat":49.204129,"lon":16.708116,"is_passed":false},{"stop_id":"U1497Z1","name":"Podolská","arrival_time":"17:49:00","departure_time":"17:49:00","lat":49.203029,"lon":16.714223,"is_passed":false},{"stop_id":"U16118Z1","name":"Podolí, Líšeňská","arrival_time":"17:52:00","departure_time":"17:52:00","lat":49.191843,"lon":16.719825,"is_passed":false},{"stop_id":"U16116Z1","name":"Podolí","arrival_time":"17:54:00","departure_time":"17:54:00","lat":49.189832,"lon":16.725978,"is_passed":false},{"stop_id":"U16130Z3","name":"Šlapanice, Bedřichovice, rozc.","arrival_time":"17:57:00","departure_time":"17:59:00","lat":49.18336,"lon":16.722373,"is_passed":false},{"stop_id":"U16129Z1","name":"Šlapanice, Bedřichovice","arrival_time":"18:00:00","departure_time":"18:00:00","lat":49.17982,"lon":16.721481,"is_passed":false},{"stop_id":"U16163Z3","name":"Šlapanice, Riegrova","arrival_time":"18:03:00","departure_time":"18:03:00","lat":49.168445,"lon":16.726032,"is_passed":false},{"stop_id":"U16159Z3","name":"Šlapanice, Kalvodova","arrival_time":"18:04:00","departure_time":"18:04:00","lat":49.165936,"lon":16.726067,"is_passed":false},{"stop_id":"U16137Z1","name":"Šlapanice, železniční stanice","arrival_time":"18:06:00","departure_time":"18:06:00","lat":49.15865,"lon":16.729037,"is_passed":false},{"stop_id":"U16111Z1","name":"Kobylnice","arrival_time":"18:11:00","departure_time":"18:11:00","lat":49.140325,"lon":16.731953,"is_passed":false},{"stop_id":"U16115Z1","name":"Kobylnice, obecní úřad","arrival_time":"18:12:00","departure_time":"18:42:00","lat":49.137533,"lon":16.732766,"is_passed":false}],"1514":[{"stop_id":"U16115Z2","name":"Kobylnice, obecní úřad","arrival_time":"18:42:00","departure_time":"18:42:00","lat":49.137579,"lon":16.732781,"is_passed":false},{"stop_id":"U16111Z2","name":"Kobylnice","arrival_time":"18:43:00","departure_time":"18:43:00","lat":49.140187,"lon":16.731883,"is_passed":false},{"stop_id":"U16137Z2","name":"Šlapanice, železniční stanice","arrival_time":"18:47:00","departure_time":"18:47:00","lat":49.159177,"lon":16.728893,"is_passed":false},{"stop_id":"U16159Z4","name":"Šlapanice, Kalvodova","arrival_time":"18:50:00","departure_time":"18:50:00","lat":49.166805,"lon":16.72634,"is_passed":false},{"stop_id":"U16163Z2","name":"Šlapanice, Riegrova","arrival_time":"18:51:00","departure_time":"18:51:00","lat":49.168445,"lon":16.726032,"is_passed":false},{"stop_id":"U16129Z2","name":"Šlapanice, Bedřichovice","arrival_time":"18:54:00","departure_time":"18:54:00","lat":49.179845,"lon":16.721551,"is_passed":false},{"stop_id":"U16130Z4","name":"Šlapanice, Bedřichovice, rozc.","arrival_time":"18:55:00","departure_time":"18:57:00","lat":49.183532,"lon":16.722542,"is_passed":false},{"stop_id":"U16116Z2","name":"Podolí","arrival_time":"18:59:00","departure_time":"18:59:00","lat":49.189822,"lon":16.726255,"is_passed":false},{"stop_id":"U16118Z2","name":"Podolí, Líšeňská","arrival_time":"19:00:00","departure_time":"19:00:00","lat":49.191807,"lon":16.71978,"is_passed":false},{"stop_id":"U1497Z2","name":"Podolská","arrival_time":"19:04:00","departure_time":"19:04:00","lat":49.20311,"lon":16.713363,"is_passed":false},{"stop_id":"U1726Z2","name":"Velatická","arrival_time":"19:05:00","departure_time":"19:05:00","lat":49.204666,"lon":16.707253,"is_passed":false},{"stop_id":"U1350Z2","name":"Macháčkova","arrival_time":"19:06:00","departure_time":"19:06:00","lat":49.206174,"lon":16.701931,"is_passed":false},{"stop_id":"U1421Z4","name":"Náměstí Karla IV.","arrival_time":"19:08:00","departure_time":"19:08:00","lat":49.206991,"lon":16.695508,"is_passed":false},{"stop_id":"U1384Z3","name":"Mifkova","arrival_time":"19:09:00","departure_time":"19:09:00","lat":49.20716,"lon":16.692152,"is_passed":false},{"stop_id":"U1208Z6","name":"Jírova","arrival_time":"19:11:00","departure_time":"19:15:00","lat":49.209179,"lon":16.688685,"is_passed":false}],"1515":[{"stop_id":"U1208Z4","name":"Jírova","arrival_time":"19:15:00","departure_time":"19:15:00","lat":49.209099,"lon":16.688056,"is_passed":false},{"stop_id":"U1421Z3","name":"Náměstí Karla IV.","arrival_time":"19:16:00","departure_time":"19:16:00","lat":49.206713,"lon":16.694241,"is_passed":false},{"stop_id":"U1350Z1","name":"Macháčkova","arrival_time":"19:17:00","departure_time":"19:17:00","lat":49.206052,"lon":16.70193,"is_passed":false},{"stop_id":"U1726Z1","name":"Velatická","arrival_time":"19:18:00","departure_time":"19:18:00","lat":49.204129,"lon":16.708116,"is_passed":false},{"stop_id":"U1497Z1","name":"Podolská","arrival_time":"19:19:00","departure_time":"19:19:00","lat":49.203029,"lon":16.714223,"is_passed":false},{"stop_id":"U16118Z1","name":"Podolí, Líšeňská","arrival_time":"19:22:00","departure_time":"19:22:00","lat":49.191843,"lon":16.719825,"is_passed":false},{"stop_id":"U16116Z1","name":"Podolí","arrival_time":"19:24:00","departure_time":"19:24:00","lat":49.189832,"lon":16.725978,"is_passed":false},{"stop_id":"U16130Z3","name":"Šlapanice, Bedřichovice, rozc.","arrival_time":"19:27:00","departure_time":"19:29:00","lat":49.18336,"lon":16.722373,"is_passed":false},{"stop_id":"U16129Z1","name":"Šlapanice, Bedřichovice","arrival_time":"19:30:00","departure_time":"19:30:00","lat":49.17982,"lon":16.721481,"is_passed":false},{"stop_id":"U16163Z3","name":"Šlapanice, Riegrova","arrival_time":"19:33:00","departure_time":"19:33:00","lat":49.168445,"lon":16.726032,"is_passed":false}],"1516":[{"stop_id":"U16163Z1","name":"Šlapanice, Riegrova","arrival_time":"20:03:00","departure_time":"20:03:00","lat":49.168445,"lon":16.726032,"is_passed":false},{"stop_id":"U16159Z3","name":"Šlapanice, Kalvodova","arrival_time":"20:04:00","departure_time":"20:04:00","lat":49.165936,"lon":16.726067,"is_passed":false},{"stop_id":"U16120Z1","name":"Ponětovice","arrival_time":"20:07:00","departure_time":"20:07:00","lat":49.152352,"lon":16.740815,"is_passed":false},{"stop_id":"U16121Z1","name":"Ponětovice, železniční stanice","arrival_time":"20:08:00","departure_time":"20:08:00","lat":49.154645,"lon":16.747738,"is_passed":false},{"stop_id":"U16104Z1","name":"Jiříkovice","arrival_time":"20:12:00","departure_time":"20:12:00","lat":49.16632,"lon":16.757892,"is_passed":false},{"stop_id":"U16102Z1","name":"Blažovice, pod kostelem","arrival_time":"20:16:00","departure_time":"20:16:00","lat":49.162833,"lon":16.78274,"is_passed":false},{"stop_id":"U16101Z1","name":"Blažovice, hostinec","arrival_time":"20:17:00","departure_time":"20:28:00","lat":49.166001,"lon":16.786446,"is_passed":false}],"1517":[{"stop_id":"U16101Z2","name":"Blažovice, hostinec","arrival_time":"20:28:00","departure_time":"20:28:00","lat":49.166001,"lon":16.786446,"is_passed":false},{"stop_id":"U16102Z2","name":"Blažovice, pod kostelem","arrival_time":"20:29:00","departure_time":"20:29:00","lat":49.162842,"lon":16.783037,"is_passed":false},{"stop_id":"U16104Z2","name":"Jiříkovice","arrival_time":"20:33:00","departure_time":"20:33:00","lat":49.166323,"lon":16.757805,"is_passed":false},{"stop_id":"U16121Z2","name":"Ponětovice, železniční stanice","arrival_time":"20:36:00","departure_time":"20:36:00","lat":49.154698,"lon":16.747757,"is_passed":false},{"stop_id":"U16120Z2","name":"Ponětovice","arrival_time":"20:37:00","departure_time":"20:37:00","lat":49.152307,"lon":16.742117,"is_passed":false},{"stop_id":"U16159Z4","name":"Šlapanice, Kalvodova","arrival_time":"20:41:00","departure_time":"20:41:00","lat":49.166805,"lon":16.72634,"is_passed":false},{"stop_id":"U16163Z2","name":"Šlapanice, Riegrova","arrival_time":"20:42:00","departure_time":"20:42:00","lat":49.168445,"lon":16.726032,"is_passed":false}],"1518":[{"stop_id":"U16163Z2","name":"Šlapanice, Riegrova","arrival_time":"20:49:00","departure_time":"20:49:00","lat":49.168445,"lon":16.726032,"is_passed":false},{"stop_id":"U16129Z2","name":"Šlapanice, Bedřichovice","arrival_time":"20:52:00","departure_time":"20:52:00","lat":49.179845,"lon":16.721551,"is_passed":false},{"stop_id":"U16130Z4","name":"Šlapanice, Bedřichovice, rozc.","arrival_time":"20:53:00","departure_time":"20:55:00","lat":49.183532,"lon":16.722542,"is_passed":false},{"stop_id":"U16116Z2","name":"Podolí","arrival_time":"20:57:00","departure_time":"20:57:00","lat":49.189822,"lon":16.726255,"is_passed":false},{"stop_id":"U16118Z2","name":"Podolí, Líšeňská","arrival_time":"20:58:00","departure_time":"20:58:00","lat":49.191807,"lon":16.71978,"is_passed":false},{"stop_id":"U1362Z1","name":"Mariánské údolí","arrival_time":"21:02:00","departure_time":"21:04:00","lat":49.203331,"lon":16.716449,"is_passed":false}],"1519":[{"stop_id":"U1362Z4","name":"Mariánské údolí","arrival_time":"21:04:00","departure_time":"21:04:00","lat":49.20332,"lon":16.71587,"is_passed":false},{"stop_id":"U16118Z1","name":"Podolí, Líšeňská","arrival_time":"21:07:00","departure_time":"21:07:00","lat":49.191843,"lon":16.719825,"is_passed":false},{"stop_id":"U16116Z1","name":"Podolí","arrival_time":"21:09:00","departure_time":"21:09:00","lat":49.189832,"lon":16.725978,"is_passed":false},{"stop_id":"U16130Z3","name":"Šlapanice, Bedřichovice, rozc.","arrival_time":"21:12:00","departure_time":"21:14:00","lat":49.18336,"lon":16.722373,"is_passed":false},{"stop_id":"U16129Z1","name":"Šlapanice, Bedřichovice","arrival_time":"21:15:00","departure_time":"21:15:00","lat":49.17982,"lon":16.721481,"is_passed":false},{"stop_id":"U16163Z3","name":"Šlapanice, Riegrova","arrival_time":"21:18:00","departure_time":"21:20:00","lat":49.168445,"lon":16.726032,"is_passed":false}],"15100":[{"stop_id":"U12736Z51","name":"Letovice, železniční stanice","arrival_time":"9:57:00","departure_time":"9:57:00","lat":49.555973,"lon":16.570906,"is_passed":false},{"stop_id":"U22702Z2","name":"Letovice zastávka","arrival_time":"9:59:00","departure_time":"10:00:00","lat":49.536152,"lon":16.576186,"is_passed":false},{"stop_id":"U22701Z2","name":"Zboněk","arrival_time":"10:02:00","departure_time":"10:02:00","lat":49.520482,"lon":16.584439,"is_passed":false},{"stop_id":"U22602Z2","name":"Svitávka","arrival_time":"10:05:00","departure_time":"10:05:00","lat":49.499434,"lon":16.599208,"is_passed":false},{"stop_id":"U12676Z51","name":"Skalice nad Svitavou, žel.st.","arrival_time":"10:08:00","departure_time":"10:13:00","lat":49.480123,"lon":16.609726,"is_passed":false},{"stop_id":"U12511Z51","name":"Doubravice, žel.st.","arrival_time":"10:18:00","departure_time":"10:18:00","lat":49.438707,"lon":16.621809,"is_passed":false},{"stop_id":"U12439Z51","name":"Rájec-Jestřebí, železniční stanice","arrival_time":"10:21:00","departure_time":"10:22:00","lat":49.408206,"lon":16.627711,"is_passed":false},{"stop_id":"U22301Z2","name":"Dolní Lhota","arrival_time":"10:24:00","departure_time":"10:25:00","lat":49.386917,"lon":16.633978,"is_passed":false},{"stop_id":"U22302Z2","name":"Blansko město","arrival_time":"10:27:00","departure_time":"10:28:00","lat":49.360996,"lon":16.639464,"is_passed":false},{"stop_id":"U12342Z29","name":"Blansko, aut. st.","arrival_time":"10:30:00","departure_time":"10:31:00","lat":49.352753,"lon":16.646848,"is_passed":false},{"stop_id":"U12231Z11","name":"Adamov, železniční zastávka","arrival_time":"10:36:00","departure_time":"10:37:00","lat":49.300671,"lon":16.650653,"is_passed":false},{"stop_id":"U12230Z11","name":"Adamov, železniční stanice","arrival_time":"10:38:00","departure_time":"10:39:00","lat":49.295341,"lon":16.663538,"is_passed":false},{"stop_id":"U22101Z2","name":"Babice nad Svitavou","arrival_time":"10:42:00","departure_time":"10:42:00","lat":49.276645,"lon":16.673012,"is_passed":false},{"stop_id":"U12158Z11","name":"Bílovice nad Svitavou, žel. stanice","arrival_time":"10:46:00","departure_time":"10:47:00","lat":49.242715,"lon":16.673677,"is_passed":false},{"stop_id":"U1809Z11","name":"Židenice, nádraží","arrival_time":"10:52:00","departure_time":"10:52:00","lat":49.204282,"lon":16.636042,"is_passed":false},{"stop_id":"U1146Z98","name":"Hlavní nádraží","arrival_time":"10:59:00","departure_time":"11:06:00","lat":49.19035,"lon":16.612342,"is_passed":false},{"stop_id":"U1183Z11","name":"Chrlice, nádraží","arrival_time":"11:14:00","departure_time":"11:17:00","lat":49.132031,"lon":16.657232,"is_passed":false},{"stop_id":"U16149Z11","name":"Sokolnice, železniční stanice","arrival_time":"11:23:00","departure_time":"11:24:00","lat":49.108029,"lon":16.733459,"is_passed":false},{"stop_id":"U26101Z2","name":"Újezd u Brna","arrival_time":"11:25:00","departure_time":"11:26:00","lat":49.107297,"lon":16.745564,"is_passed":false},{"stop_id":"U26102Z2","name":"Hostěrádky-Rešov","arrival_time":"11:29:00","departure_time":"11:29:00","lat":49.119822,"lon":16.782755,"is_passed":false},{"stop_id":"U26201Z2","name":"Zbýšov","arrival_time":"11:32:00","departure_time":"11:32:00","lat":49.132691,"lon":16.806859,"is_passed":false},{"stop_id":"U16212Z11","name":"Křenovice, hor. žel. st.","arrival_time":"11:35:00","departure_time":"11:58:00","lat":49.143553,"lon":16.824564,"is_passed":false}],"15101":[{"stop_id":"U16212Z10","name":"Křenovice, hor. žel. st.","arrival_time":"11:58:00","departure_time":"11:58:00","lat":49.143553,"lon":16.824564,"is_passed":false},{"stop_id":"U26201Z1","name":"Zbýšov","arrival_time":"12:00:00","departure_time":"12:01:00","lat":49.132691,"lon":16.806859,"is_passed":false},{"stop_id":"U26102Z1","name":"Hostěrádky-Rešov","arrival_time":"12:03:00","departure_time":"12:04:00","lat":49.119822,"lon":16.782755,"is_passed":false},{"stop_id":"U26101Z1","name":"Újezd u Brna","arrival_time":"12:07:00","departure_time":"12:07:00","lat":49.107297,"lon":16.745564,"is_passed":false},{"stop_id":"U16149Z10","name":"Sokolnice, železniční stanice","arrival_time":"12:09:00","departure_time":"12:10:00","lat":49.108029,"lon":16.733459,"is_passed":false},{"stop_id":"U1183Z10","name":"Chrlice, nádraží","arrival_time":"12:15:00","departure_time":"12:16:00","lat":49.132031,"lon":16.657232,"is_passed":false},{"stop_id":"U1146Z99","name":"Hlavní nádraží","arrival_time":"12:26:00","departure_time":"12:29:00","lat":49.19035,"lon":16.612342,"is_passed":false},{"stop_id":"U1809Z10","name":"Židenice, nádraží","arrival_time":"12:33:00","departure_time":"12:34:00","lat":49.204282,"lon":16.636042,"is_passed":false},{"stop_id":"U12158Z10","name":"Bílovice nad Svitavou, žel. stanice","arrival_time":"12:39:00","departure_time":"12:40:00","lat":49.242715,"lon":16.673677,"is_passed":false},{"stop_id":"U22101Z1","name":"Babice nad Svitavou","arrival_time":"12:44:00","departure_time":"12:44:00","lat":49.276645,"lon":16.673012,"is_passed":false},{"stop_id":"U12230Z10","name":"Adamov, železniční stanice","arrival_time":"12:47:00","departure_time":"12:48:00","lat":49.295341,"lon":16.663538,"is_passed":false},{"stop_id":"U12231Z10","name":"Adamov, železniční zastávka","arrival_time":"12:50:00","departure_time":"12:50:00","lat":49.300671,"lon":16.650653,"is_passed":false},{"stop_id":"U12342Z30","name":"Blansko, aut. st.","arrival_time":"12:56:00","departure_time":"12:57:00","lat":49.352753,"lon":16.646848,"is_passed":false},{"stop_id":"U22302Z1","name":"Blansko město","arrival_time":"12:59:00","departure_time":"13:00:00","lat":49.360996,"lon":16.639464,"is_passed":false},{"stop_id":"U22301Z1","name":"Dolní Lhota","arrival_time":"13:02:00","departure_time":"13:03:00","lat":49.386917,"lon":16.633978,"is_passed":false},{"stop_id":"U12439Z50","name":"Rájec-Jestřebí, železniční stanice","arrival_time":"13:06:00","departure_time":"13:10:00","lat":49.408206,"lon":16.627711,"is_passed":false},{"stop_id":"U12511Z50","name":"Doubravice, žel.st.","arrival_time":"13:13:00","departure_time":"13:13:00","lat":49.438707,"lon":16.621809,"is_passed":false},{"stop_id":"U12676Z50","name":"Skalice nad Svitavou, žel.st.","arrival_time":"13:19:00","departure_time":"13:40:00","lat":49.480123,"lon":16.609726,"is_passed":false}],"15102":[{"stop_id":"U12676Z51","name":"Skalice nad Svitavou, žel.st.","arrival_time":"13:40:00","departure_time":"13:40:00","lat":49.480123,"lon":16.609726,"is_passed":false},{"stop_id":"U12511Z51","name":"Doubravice, žel.st.","arrival_time":"13:45:00","departure_time":"13:45:00","lat":49.438707,"lon":16.621809,"is_passed":false},{"stop_id":"U12439Z51","name":"Rájec-Jestřebí, železniční stanice","arrival_time":"13:49:00","departure_time":"13:53:00","lat":49.408206,"lon":16.627711,"is_passed":false},{"stop_id":"U22301Z2","name":"Dolní Lhota","arrival_time":"13:55:00","departure_time":"13:56:00","lat":49.386917,"lon":16.633978,"is_passed":false},{"stop_id":"U22302Z2","name":"Blansko město","arrival_time":"13:58:00","departure_time":"13:59:00","lat":49.360996,"lon":16.639464,"is_passed":false},{"stop_id":"U12342Z29","name":"Blansko, aut. st.","arrival_time":"14:00:00","departure_time":"14:01:00","lat":49.352753,"lon":16.646848,"is_passed":false},{"stop_id":"U12231Z11","name":"Adamov, železniční zastávka","arrival_time":"14:06:00","departure_time":"14:07:00","lat":49.300671,"lon":16.650653,"is_passed":false},{"stop_id":"U12230Z11","name":"Adamov, železniční stanice","arrival_time":"14:09:00","departure_time":"14:10:00","lat":49.295341,"lon":16.663538,"is_passed":false},{"stop_id":"U22101Z2","name":"Babice nad Svitavou","arrival_time":"14:12:00","departure_time":"14:12:00","lat":49.276645,"lon":16.673012,"is_passed":false},{"stop_id":"U12158Z11","name":"Bílovice nad Svitavou, žel. stanice","arrival_time":"14:17:00","departure_time":"14:18:00","lat":49.242715,"lon":16.673677,"is_passed":false},{"stop_id":"U1809Z11","name":"Židenice, nádraží","arrival_time":"14:23:00","departure_time":"14:23:00","lat":49.204282,"lon":16.636042,"is_passed":false},{"stop_id":"U1146Z98","name":"Hlavní nádraží","arrival_time":"14:29:00","departure_time":"14:35:00","lat":49.19035,"lon":16.612342,"is_passed":false},{"stop_id":"U1183Z11","name":"Chrlice, nádraží","arrival_time":"14:43:00","departure_time":"14:47:00","lat":49.132031,"lon":16.657232,"is_passed":false},{"stop_id":"U16149Z11","name":"Sokolnice, železniční stanice","arrival_time":"14:53:00","departure_time":"15:40:00","lat":49.108029,"lon":16.733459,"is_passed":false}],"15103":[{"stop_id":"U16149Z10","name":"Sokolnice, železniční stanice","arrival_time":"15:40:00","departure_time":"15:40:00","lat":49.108029,"lon":16.733459,"is_passed":false},{"stop_id":"U1183Z10","name":"Chrlice, nádraží","arrival_time":"15:45:00","departure_time":"15:46:00","lat":49.132031,"lon":16.657232,"is_passed":false},{"stop_id":"U1146Z99","name":"Hlavní nádraží","arrival_time":"15:55:00","departure_time":"15:58:00","lat":49.19035,"lon":16.612342,"is_passed":false},{"stop_id":"U1809Z10","name":"Židenice, nádraží","arrival_time":"16:01:00","departure_time":"16:04:00","lat":49.204282,"lon":16.636042,"is_passed":false},{"stop_id":"U12158Z10","name":"Bílovice nad Svitavou, žel. stanice","arrival_time":"16:09:00","departure_time":"16:09:00","lat":49.242715,"lon":16.673677,"is_passed":false},{"stop_id":"U22101Z1","name":"Babice nad Svitavou","arrival_time":"16:13:00","departure_time":"16:13:00","lat":49.276645,"lon":16.673012,"is_passed":false},{"stop_id":"U12230Z10","name":"Adamov, železniční stanice","arrival_time":"16:16:00","departure_time":"16:17:00","lat":49.295341,"lon":16.663538,"is_passed":false},{"stop_id":"U12231Z10","name":"Adamov, železniční zastávka","arrival_time":"16:18:00","departure_time":"16:19:00","lat":49.300671,"lon":16.650653,"is_passed":false},{"stop_id":"U12342Z30","name":"Blansko, aut. st.","arrival_time":"16:24:00","departure_time":"16:25:00","lat":49.352753,"lon":16.646848,"is_passed":false},{"stop_id":"U22302Z1","name":"Blansko město","arrival_time":"16:27:00","departure_time":"16:28:00","lat":49.360996,"lon":16.639464,"is_passed":false},{"stop_id":"U22301Z1","name":"Dolní Lhota","arrival_time":"16:30:00","departure_time":"16:31:00","lat":49.386917,"lon":16.633978,"is_passed":false},{"stop_id":"U12439Z50","name":"Rájec-Jestřebí, železniční stanice","arrival_time":"16:33:00","departure_time":"16:34:00","lat":49.408206,"lon":16.627711,"is_passed":false},{"stop_id":"U12511Z50","name":"Doubravice, žel.st.","arrival_time":"16:37:00","departure_time":"16:37:00","lat":49.438707,"lon":16.621809,"is_passed":false},{"stop_id":"U12676Z50","name":"Skalice nad Svitavou, žel.st.","arrival_time":"16:43:00","departure_time":"16:51:00","lat":49.480123,"lon":16.609726,"is_passed":false},{"stop_id":"U22602Z1","name":"Svitávka","arrival_time":"16:53:00","departure_time":"16:54:00","lat":49.499434,"lon":16.599208,"is_passed":false},{"stop_id":"U22701Z1","name":"Zboněk","arrival_time":"16:56:00","departure_time":"16:56:00","lat":49.521608,"lon":16.583438,"is_passed":false},{"stop_id":"U22702Z1","name":"Letovice zastávka","arrival_time":"16:59:00","departure_time":"16:59:00","lat":49.535496,"lon":16.576998,"is_passed":false},{"stop_id":"U12736Z50","name":"Letovice, železniční stanice","arrival_time":"17:02:00","departure_time":"17:31:00","lat":49.555973,"lon":16.570906,"is_passed":false}],"15104":[{"stop_id":"U12736Z51","name":"Letovice, železniční stanice","arrival_time":"17:31:00","departure_time":"17:31:00","lat":49.555973,"lon":16.570906,"is_passed":false},{"stop_id":"U12676Z51","name":"Skalice nad Svitavou, žel.st.","arrival_time":"17:38:00","departure_time":"17:38:00","lat":49.480123,"lon":16.609726,"is_passed":false},{"stop_id":"U22302Z2","name":"Blansko město","arrival_time":"17:47:00","departure_time":"17:48:00","lat":49.360996,"lon":16.639464,"is_passed":false},{"stop_id":"U12342Z29","name":"Blansko, aut. st.","arrival_time":"17:50:00","departure_time":"17:51:00","lat":49.352753,"lon":16.646848,"is_passed":false},{"stop_id":"U12230Z11","name":"Adamov, železniční stanice","arrival_time":"17:58:00","departure_time":"18:04:00","lat":49.295341,"lon":16.663538,"is_passed":false},{"stop_id":"U1809Z11","name":"Židenice, nádraží","arrival_time":"18:14:00","departure_time":"18:14:00","lat":49.204282,"lon":16.636042,"is_passed":false},{"stop_id":"U1146Z98","name":"Hlavní nádraží","arrival_time":"18:18:00","departure_time":"18:18:00","lat":49.19035,"lon":16.612342,"is_passed":false}],"15105":[{"stop_id":"U12736Z51","name":"Letovice, železniční stanice","arrival_time":"4:29:00","departure_time":"4:29:00","lat":49.555973,"lon":16.570906,"is_passed":false},{"stop_id":"U22702Z2","name":"Letovice zastávka","arrival_time":"4:31:00","departure_time":"4:32:00","lat":49.536152,"lon":16.576186,"is_passed":false},{"stop_id":"U22701Z2","name":"Zboněk","arrival_time":"4:34:00","departure_time":"4:34:00","lat":49.520482,"lon":16.584439,"is_passed":false},{"stop_id":"U22602Z2","name":"Svitávka","arrival_time":"4:37:00","departure_time":"4:37:00","lat":49.499434,"lon":16.599208,"is_passed":false},{"stop_id":"U12676Z51","name":"Skalice nad Svitavou, žel.st.","arrival_time":"4:40:00","departure_time":"4:42:00","lat":49.480123,"lon":16.609726,"is_passed":false},{"stop_id":"U12511Z51","name":"Doubravice, žel.st.","arrival_time":"4:46:00","departure_time":"4:47:00","lat":49.438707,"lon":16.621809,"is_passed":false},{"stop_id":"U12439Z51","name":"Rájec-Jestřebí, železniční stanice","arrival_time":"4:50:00","departure_time":"4:51:00","lat":49.408206,"lon":16.627711,"is_passed":false},{"stop_id":"U22301Z2","name":"Dolní Lhota","arrival_time":"4:53:00","departure_time":"4:53:00","lat":49.386917,"lon":16.633978,"is_passed":false},{"stop_id":"U22302Z2","name":"Blansko město","arrival_time":"4:56:00","departure_time":"4:57:00","lat":49.360996,"lon":16.639464,"is_passed":false},{"stop_id":"U12342Z29","name":"Blansko, aut. st.","arrival_time":"4:58:00","departure_time":"5:01:00","lat":49.352753,"lon":16.646848,"is_passed":false},{"stop_id":"U12231Z11","name":"Adamov, železniční zastávka","arrival_time":"5:06:00","departure_time":"5:07:00","lat":49.300671,"lon":16.650653,"is_passed":false},{"stop_id":"U12230Z11","name":"Adamov, železniční stanice","arrival_time":"5:08:00","departure_time":"5:09:00","lat":49.295341,"lon":16.663538,"is_passed":false},{"stop_id":"U22101Z2","name":"Babice nad Svitavou","arrival_time":"5:12:00","departure_time":"5:12:00","lat":49.276645,"lon":16.673012,"is_passed":false},{"stop_id":"U12158Z11","name":"Bílovice nad Svitavou, žel. stanice","arrival_time":"5:16:00","departure_time":"5:17:00","lat":49.242715,"lon":16.673677,"is_passed":false},{"stop_id":"U1809Z11","name":"Židenice, nádraží","arrival_time":"5:22:00","departure_time":"5:22:00","lat":49.204282,"lon":16.636042,"is_passed":false},{"stop_id":"U1146Z98","name":"Hlavní nádraží","arrival_time":"5:27:00","departure_time":"5:35:00","lat":49.19035,"lon":16.612342,"is_passed":false},{"stop_id":"U1183Z11","name":"Chrlice, nádraží","arrival_time":"5:43:00","departure_time":"5:47:00","lat":49.132031,"lon":16.657232,"is_passed":false},{"stop_id":"U16149Z11","name":"Sokolnice, železniční stanice","arrival_time":"5:53:00","departure_time":"6:40:00","lat":49.108029,"lon":16.733459,"is_passed":false}],"15106":[{"stop_id":"U16149Z10","name":"Sokolnice, železniční stanice","arrival_time":"6:40:00","departure_time":"6:40:00","lat":49.108029,"lon":16.733459,"is_passed":false},{"stop_id":"U1183Z10","name":"Chrlice, nádraží","arrival_time":"6:45:00","departure_time":"6:46:00","lat":49.132031,"lon":16.657232,"is_passed":false},{"stop_id":"U1146Z99","name":"Hlavní nádraží","arrival_time":"6:55:00","departure_time":"6:59:00","lat":49.19035,"lon":16.612342,"is_passed":false},{"stop_id":"U1809Z10","name":"Židenice, nádraží","arrival_time":"7:03:00","departure_time":"7:04:00","lat":49.204282,"lon":16.636042,"is_passed":false},{"stop_id":"U12158Z10","name":"Bílovice nad Svitavou, žel. stanice","arrival_time":"7:09:00","departure_time":"7:10:00","lat":49.242715,"lon":16.673677,"is_passed":false},{"stop_id":"U22101Z1","name":"Babice nad Svitavou","arrival_time":"7:14:00","departure_time":"7:14:00","lat":49.276645,"lon":16.673012,"is_passed":false},{"stop_id":"U12230Z10","name":"Adamov, železniční stanice","arrival_time":"7:17:00","departure_time":"7:18:00","lat":49.295341,"lon":16.663538,"is_passed":false},{"stop_id":"U12231Z10","name":"Adamov, železniční zastávka","arrival_time":"7:19:00","departure_time":"7:20:00","lat":49.300671,"lon":16.650653,"is_passed":false},{"stop_id":"U12342Z30","name":"Blansko, aut. st.","arrival_time":"7:25:00","departure_time":"7:27:00","lat":49.352753,"lon":16.646848,"is_passed":false},{"stop_id":"U22302Z1","name":"Blansko město","arrival_time":"7:29:00","departure_time":"7:30:00","lat":49.360996,"lon":16.639464,"is_passed":false},{"stop_id":"U22301Z1","name":"Dolní Lhota","arrival_time":"7:32:00","departure_time":"7:33:00","lat":49.386917,"lon":16.633978,"is_passed":false},{"stop_id":"U12439Z50","name":"Rájec-Jestřebí, železniční stanice","arrival_time":"7:36:00","departure_time":"7:41:00","lat":49.408206,"lon":16.627711,"is_passed":false},{"stop_id":"U12511Z50","name":"Doubravice, žel.st.","arrival_time":"7:44:00","departure_time":"7:44:00","lat":49.438707,"lon":16.621809,"is_passed":false},{"stop_id":"U12676Z50","name":"Skalice nad Svitavou, žel.st.","arrival_time":"7:49:00","departure_time":"7:51:00","lat":49.480123,"lon":16.609726,"is_passed":false},{"stop_id":"U22602Z1","name":"Svitávka","arrival_time":"7:53:00","departure_time":"7:54:00","lat":49.499434,"lon":16.599208,"is_passed":false},{"stop_id":"U22701Z1","name":"Zboněk","arrival_time":"7:56:00","departure_time":"7:56:00","lat":49.521608,"lon":16.583438,"is_passed":false},{"stop_id":"U22702Z1","name":"Letovice zastávka","arrival_time":"7:59:00","departure_time":"7:59:00","lat":49.535496,"lon":16.576998,"is_passed":false},{"stop_id":"U12736Z50","name":"Letovice, železniční stanice","arrival_time":"8:02:00","departure_time":"8:57:00","lat":49.555973,"lon":16.570906,"is_passed":false}],"15107":[{"stop_id":"U12736Z51","name":"Letovice, železniční stanice","arrival_time":"8:57:00","departure_time":"8:57:00","lat":49.555973,"lon":16.570906,"is_passed":false},{"stop_id":"U22702Z2","name":"Letovice zastávka","arrival_time":"8:59:00","departure_time":"9:00:00","lat":49.536152,"lon":16.576186,"is_passed":false},{"stop_id":"U22701Z2","name":"Zboněk","arrival_time":"9:02:00","departure_time":"9:02:00","lat":49.520482,"lon":16.584439,"is_passed":false},{"stop_id":"U22602Z2","name":"Svitávka","arrival_time":"9:05:00","departure_time":"9:05:00","lat":49.499434,"lon":16.599208,"is_passed":false},{"stop_id":"U12676Z51","name":"Skalice nad Svitavou, žel.st.","arrival_time":"9:08:00","departure_time":"9:13:00","lat":49.480123,"lon":16.609726,"is_passed":false},{"stop_id":"U12511Z51","name":"Doubravice, žel.st.","arrival_time":"9:18:00","departure_time":"9:18:00","lat":49.438707,"lon":16.621809,"is_passed":false},{"stop_id":"U12439Z51","name":"Rájec-Jestřebí, železniční stanice","arrival_time":"9:21:00","departure_time":"9:22:00","lat":49.408206,"lon":16.627711,"is_passed":false},{"stop_id":"U22301Z2","name":"Dolní Lhota","arrival_time":"9:24:00","departure_time":"9:25:00","lat":49.386917,"lon":16.633978,"is_passed":false},{"stop_id":"U22302Z2","name":"Blansko město","arrival_time":"9:27:00","departure_time":"9:28:00","lat":49.360996,"lon":16.639464,"is_passed":false},{"stop_id":"U12342Z29","name":"Blansko, aut. st.","arrival_time":"9:30:00","departure_time":"9:31:00","lat":49.352753,"lon":16.646848,"is_passed":false},{"stop_id":"U12231Z11","name":"Adamov, železniční zastávka","arrival_time":"9:36:00","departure_time":"9:37:00","lat":49.300671,"lon":16.650653,"is_passed":false},{"stop_id":"U12230Z11","name":"Adamov, železniční stanice","arrival_time":"9:38:00","departure_time":"9:39:00","lat":49.295341,"lon":16.663538,"is_passed":false},{"stop_id":"U22101Z2","name":"Babice nad Svitavou","arrival_time":"9:42:00","departure_time":"9:42:00","lat":49.276645,"lon":16.673012,"is_passed":false},{"stop_id":"U12158Z11","name":"Bílovice nad Svitavou, žel. stanice","arrival_time":"9:46:00","departure_time":"9:47:00","lat":49.242715,"lon":16.673677,"is_passed":false},{"stop_id":"U1809Z11","name":"Židenice, nádraží","arrival_time":"9:52:00","departure_time":"9:52:00","lat":49.204282,"lon":16.636042,"is_passed":false},{"stop_id":"U1146Z98","name":"Hlavní nádraží","arrival_time":"9:59:00","departure_time":"10:06:00","lat":49.19035,"lon":16.612342,"is_passed":false},{"stop_id":"U1183Z11","name":"Chrlice, nádraží","arrival_time":"10:14:00","departure_time":"10:17:00","lat":49.132031,"lon":16.657232,"is_passed":false},{"stop_id":"U16149Z11","name":"Sokolnice, železniční stanice","arrival_time":"10:23:00","departure_time":"10:24:00","lat":49.108029,"lon":16.733459,"is_passed":false},{"stop_id":"U26101Z2","name":"Újezd u Brna","arrival_time":"10:25:00","departure_time":"10:26:00","lat":49.107297,"lon":16.745564,"is_passed":false},{"stop_id":"U26102Z2","name":"Hostěrádky-Rešov","arrival_time":"10:29:00","departure_time":"10:29:00","lat":49.119822,"lon":16.782755,"is_passed":false},{"stop_id":"U26201Z2","name":"Zbýšov","arrival_time":"10:32:00","departure_time":"10:32:00","lat":49.132691,"lon":16.806859,"is_passed":false},{"stop_id":"U16212Z11","name":"Křenovice, hor. žel. st.","arrival_time":"10:35:00","departure_time":"10:58:00","lat":49.143553,"lon":16.824564,"is_passed":false}],"15108":[{"stop_id":"U16212Z10","name":"Křenovice, hor. žel. st.","arrival_time":"10:58:00","departure_time":"10:58:00","lat":49.143553,"lon":16.824564,"is_passed":false},{"stop_id":"U26201Z1","name":"Zbýšov","arrival_time":"11:00:00","departure_time":"11:01:00","lat":49.132691,"lon":16.806859,"is_passed":false},{"stop_id":"U26102Z1","name":"Hostěrádky-Rešov","arrival_time":"11:03:00","departure_time":"11:04:00","lat":49.119822,"lon":16.782755,"is_passed":false},{"stop_id":"U26101Z1","name":"Újezd u Brna","arrival_time":"11:07:00","departure_time":"11:07:00","lat":49.107297,"lon":16.745564,"is_passed":false},{"stop_id":"U16149Z10","name":"Sokolnice, železniční stanice","arrival_time":"11:09:00","departure_time":"11:10:00","lat":49.108029,"lon":16.733459,"is_passed":false},{"stop_id":"U1183Z10","name":"Chrlice, nádraží","arrival_time":"11:15:00","departure_time":"11:16:00","lat":49.132031,"lon":16.657232,"is_passed":false},{"stop_id":"U1146Z99","name":"Hlavní nádraží","arrival_time":"11:26:00","departure_time":"11:29:00","lat":49.19035,"lon":16.612342,"is_passed":false},{"stop_id":"U1809Z10","name":"Židenice, nádraží","arrival_time":"11:33:00","departure_time":"11:35:00","lat":49.204282,"lon":16.636042,"is_passed":false},{"stop_id":"U12158Z10","name":"Bílovice nad Svitavou, žel. stanice","arrival_time":"11:40:00","departure_time":"11:41:00","lat":49.242715,"lon":16.673677,"is_passed":false},{"stop_id":"U12230Z10","name":"Adamov, železniční stanice","arrival_time":"11:47:00","departure_time":"11:48:00","lat":49.295341,"lon":16.663538,"is_passed":false},{"stop_id":"U12231Z10","name":"Adamov, železniční zastávka","arrival_time":"11:50:00","departure_time":"11:50:00","lat":49.300671,"lon":16.650653,"is_passed":false},{"stop_id":"U12342Z30","name":"Blansko, aut. st.","arrival_time":"11:56:00","departure_time":"11:57:00","lat":49.352753,"lon":16.646848,"is_passed":false},{"stop_id":"U22302Z1","name":"Blansko město","arrival_time":"11:59:00","departure_time":"12:00:00","lat":49.360996,"lon":16.639464,"is_passed":false},{"stop_id":"U22301Z1","name":"Dolní Lhota","arrival_time":"12:02:00","departure_time":"12:03:00","lat":49.386917,"lon":16.633978,"is_passed":false},{"stop_id":"U12439Z50","name":"Rájec-Jestřebí, železniční stanice","arrival_time":"12:06:00","departure_time":"12:53:00","lat":49.408206,"lon":16.627711,"is_passed":false}],"15109":[{"stop_id":"U12439Z51","name":"Rájec-Jestřebí, železniční stanice","arrival_time":"12:53:00","departure_time":"12:53:00","lat":49.408206,"lon":16.627711,"is_passed":false},{"stop_id":"U22301Z2","name":"Dolní Lhota","arrival_time":"12:55:00","departure_time":"12:56:00","lat":49.386917,"lon":16.633978,"is_passed":false},{"stop_id":"U22302Z2","name":"Blansko město","arrival_time":"12:58:00","departure_time":"12:59:00","lat":49.360996,"lon":16.639464,"is_passed":false},{"stop_id":"U12342Z29","name":"Blansko, aut. st.","arrival_time":"13:00:00","departure_time":"13:01:00","lat":49.352753,"lon":16.646848,"is_passed":false},{"stop_id":"U12231Z11","name":"Adamov, železniční zastávka","arrival_time":"13:07:00","departure_time":"13:07:00","lat":49.300671,"lon":16.650653,"is_passed":false},{"stop_id":"U12230Z11","name":"Adamov, železniční stanice","arrival_time":"13:09:00","departure_time":"13:10:00","lat":49.295341,"lon":16.663538,"is_passed":false},{"stop_id":"U12158Z11","name":"Bílovice nad Svitavou, žel. stanice","arrival_time":"13:16:00","departure_time":"13:17:00","lat":49.242715,"lon":16.673677,"is_passed":false},{"stop_id":"U1809Z11","name":"Židenice, nádraží","arrival_time":"13:22:00","departure_time":"13:22:00","lat":49.204282,"lon":16.636042,"is_passed":false},{"stop_id":"U1146Z98","name":"Hlavní nádraží","arrival_time":"13:28:00","departure_time":"13:35:00","lat":49.19035,"lon":16.612342,"is_passed":false},{"stop_id":"U1183Z11","name":"Chrlice, nádraží","arrival_time":"13:43:00","departure_time":"13:44:00","lat":49.132031,"lon":16.657232,"is_passed":false},{"stop_id":"U16149Z11","name":"Sokolnice, železniční stanice","arrival_time":"13:50:00","departure_time":"14:40:00","lat":49.108029,"lon":16.733459,"is_passed":false}],"15110":[{"stop_id":"U16149Z10","name":"Sokolnice, železniční stanice","arrival_time":"14:40:00","departure_time":"14:40:00","lat":49.108029,"lon":16.733459,"is_passed":false},{"stop_id":"U1183Z10","name":"Chrlice, nádraží","arrival_time":"14:45:00","departure_time":"14:46:00","lat":49.132031,"lon":16.657232,"is_passed":false},{"stop_id":"U1146Z99","name":"Hlavní nádraží","arrival_time":"14:55:00","departure_time":"15:00:00","lat":49.19035,"lon":16.612342,"is_passed":false},{"stop_id":"U1809Z10","name":"Židenice, nádraží","arrival_time":"15:04:00","departure_time":"15:05:00","lat":49.204282,"lon":16.636042,"is_passed":false},{"stop_id":"U12158Z10","name":"Bílovice nad Svitavou, žel. stanice","arrival_time":"15:10:00","departure_time":"15:11:00","lat":49.242715,"lon":16.673677,"is_passed":false},{"stop_id":"U22101Z1","name":"Babice nad Svitavou","arrival_time":"15:15:00","departure_time":"15:15:00","lat":49.276645,"lon":16.673012,"is_passed":false},{"stop_id":"U12230Z10","name":"Adamov, železniční stanice","arrival_time":"15:18:00","departure_time":"15:19:00","lat":49.295341,"lon":16.663538,"is_passed":false},{"stop_id":"U12231Z10","name":"Adamov, železniční zastávka","arrival_time":"15:20:00","departure_time":"15:21:00","lat":49.300671,"lon":16.650653,"is_passed":false},{"stop_id":"U12342Z30","name":"Blansko, aut. st.","arrival_time":"15:26:00","departure_time":"15:28:00","lat":49.352753,"lon":16.646848,"is_passed":false},{"stop_id":"U22302Z1","name":"Blansko město","arrival_time":"15:30:00","departure_time":"15:31:00","lat":49.360996,"lon":16.639464,"is_passed":false},{"stop_id":"U22301Z1","name":"Dolní Lhota","arrival_time":"15:33:00","departure_time":"15:34:00","lat":49.386917,"lon":16.633978,"is_passed":false},{"stop_id":"U12439Z50","name":"Rájec-Jestřebí, železniční stanice","arrival_time":"15:36:00","departure_time":"15:37:00","lat":49.408206,"lon":16.627711,"is_passed":false},{"stop_id":"U12511Z50","name":"Doubravice, žel.st.","arrival_time":"15:40:00","departure_time":"15:40:00","lat":49.438707,"lon":16.621809,"is_passed":false},{"stop_id":"U12676Z50","name":"Skalice nad Svitavou, žel.st.","arrival_time":"15:45:00","departure_time":"15:51:00","lat":49.480123,"lon":16.609726,"is_passed":false},{"stop_id":"U22602Z1","name":"Svitávka","arrival_time":"15:53:00","departure_time":"15:54:00","lat":49.499434,"lon":16.599208,"is_passed":false},{"stop_id":"U22701Z1","name":"Zboněk","arrival_time":"15:56:00","departure_time":"15:56:00","lat":49.521608,"lon":16.583438,"is_passed":false},{"stop_id":"U22702Z1","name":"Letovice zastávka","arrival_time":"15:59:00","departure_time":"15:59:00","lat":49.535496,"lon":16.576998,"is_passed":false},{"stop_id":"U12736Z50","name":"Letovice, železniční stanice","arrival_time":"16:02:00","departure_time":"17:57:00","lat":49.555973,"lon":16.570906,"is_passed":false}],"15111":[{"stop_id":"U12736Z51","name":"Letovice, železniční stanice","arrival_time":"17:57:00","departure_time":"17:57:00","lat":49.555973,"lon":16.570906,"is_passed":false},{"stop_id":"U22702Z2","name":"Letovice zastávka","arrival_time":"17:59:00","departure_time":"18:00:00","lat":49.536152,"lon":16.576186,"is_passed":false},{"stop_id":"U22701Z2","name":"Zboněk","arrival_time":"18:02:00","departure_time":"18:02:00","lat":49.520482,"lon":16.584439,"is_passed":false},{"stop_id":"U22602Z2","name":"Svitávka","arrival_time":"18:05:00","departure_time":"18:05:00","lat":49.499434,"lon":16.599208,"is_passed":false},{"stop_id":"U12676Z51","name":"Skalice nad Svitavou, žel.st.","arrival_time":"18:08:00","departure_time":"18:13:00","lat":49.480123,"lon":16.609726,"is_passed":false},{"stop_id":"U12511Z51","name":"Doubravice, žel.st.","arrival_time":"18:18:00","departure_time":"18:18:00","lat":49.438707,"lon":16.621809,"is_passed":false},{"stop_id":"U12439Z51","name":"Rájec-Jestřebí, železniční stanice","arrival_time":"18:21:00","departure_time":"18:22:00","lat":49.408206,"lon":16.627711,"is_passed":false},{"stop_id":"U22301Z2","name":"Dolní Lhota","arrival_time":"18:24:00","departure_time":"18:25:00","lat":49.386917,"lon":16.633978,"is_passed":false},{"stop_id":"U22302Z2","name":"Blansko město","arrival_time":"18:27:00","departure_time":"18:28:00","lat":49.360996,"lon":16.639464,"is_passed":false},{"stop_id":"U12342Z29","name":"Blansko, aut. st.","arrival_time":"18:30:00","departure_time":"18:31:00","lat":49.352753,"lon":16.646848,"is_passed":false},{"stop_id":"U12231Z11","name":"Adamov, železniční zastávka","arrival_time":"18:36:00","departure_time":"18:37:00","lat":49.300671,"lon":16.650653,"is_passed":false},{"stop_id":"U12230Z11","name":"Adamov, železniční stanice","arrival_time":"18:38:00","departure_time":"18:39:00","lat":49.295341,"lon":16.663538,"is_passed":false},{"stop_id":"U22101Z2","name":"Babice nad Svitavou","arrival_time":"18:42:00","departure_time":"18:42:00","lat":49.276645,"lon":16.673012,"is_passed":false},{"stop_id":"U12158Z11","name":"Bílovice nad Svitavou, žel. stanice","arrival_time":"18:46:00","departure_time":"18:47:00","lat":49.242715,"lon":16.673677,"is_passed":false},{"stop_id":"U1809Z11","name":"Židenice, nádraží","arrival_time":"18:52:00","departure_time":"18:52:00","lat":49.204282,"lon":16.636042,"is_passed":false},{"stop_id":"U1146Z98","name":"Hlavní nádraží","arrival_time":"18:59:00","departure_time":"19:06:00","lat":49.19035,"lon":16.612342,"is_passed":false},{"stop_id":"U1183Z11","name":"Chrlice, nádraží","arrival_time":"19:14:00","departure_time":"19:17:00","lat":49.132031,"lon":16.657232,"is_passed":false},{"stop_id":"U16149Z11","name":"Sokolnice, železniční stanice","arrival_time":"19:23:00","departure_time":"19:24:00","lat":49.108029,"lon":16.733459,"is_passed":false},{"stop_id":"U26101Z2","name":"Újezd u Brna","arrival_time":"19:25:00","departure_time":"19:26:00","lat":49.107297,"lon":16.745564,"is_passed":false},{"stop_id":"U26102Z2","name":"Hostěrádky-Rešov","arrival_time":"19:29:00","departure_time":"19:29:00","lat":49.119822,"lon":16.782755,"is_passed":false},{"stop_id":"U26201Z2","name":"Zbýšov","arrival_time":"19:32:00","departure_time":"19:32:00","lat":49.132691,"lon":16.806859,"is_passed":false},{"stop_id":"U16212Z11","name":"Křenovice, hor. žel. st.","arrival_time":"19:35:00","departure_time":"19:36:00","lat":49.143553,"lon":16.824564,"is_passed":false},{"stop_id":"U16228Z11","name":"Holubice, žel.st.","arrival_time":"19:40:00","departure_time":"19:53:00","lat":49.179869,"lon":16.824654,"is_passed":false}],"15112":[{"stop_id":"U16228Z12","name":"Holubice, žel.st.","arrival_time":"19:53:00","departure_time":"19:53:00","lat":49.179869,"lon":16.824654,"is_passed":false},{"stop_id":"U16212Z10","name":"Křenovice, hor. žel. st.","arrival_time":"19:57:00","departure_time":"19:58:00","lat":49.143553,"lon":16.824564,"is_passed":false},{"stop_id":"U26201Z1","name":"Zbýšov","arrival_time":"20:00:00","departure_time":"20:01:00","lat":49.132691,"lon":16.806859,"is_passed":false},{"stop_id":"U26102Z1","name":"Hostěrádky-Rešov","arrival_time":"20:03:00","departure_time":"20:04:00","lat":49.119822,"lon":16.782755,"is_passed":false},{"stop_id":"U26101Z1","name":"Újezd u Brna","arrival_time":"20:07:00","departure_time":"20:07:00","lat":49.107297,"lon":16.745564,"is_passed":false},{"stop_id":"U16149Z10","name":"Sokolnice, železniční stanice","arrival_time":"20:09:00","departure_time":"20:10:00","lat":49.108029,"lon":16.733459,"is_passed":false},{"stop_id":"U1183Z10","name":"Chrlice, nádraží","arrival_time":"20:15:00","departure_time":"20:16:00","lat":49.132031,"lon":16.657232,"is_passed":false},{"stop_id":"U1146Z99","name":"Hlavní nádraží","arrival_time":"20:26:00","departure_time":"20:30:00","lat":49.19035,"lon":16.612342,"is_passed":false},{"stop_id":"U1809Z10","name":"Židenice, nádraží","arrival_time":"20:34:00","departure_time":"20:34:00","lat":49.204282,"lon":16.636042,"is_passed":false},{"stop_id":"U12158Z10","name":"Bílovice nad Svitavou, žel. stanice","arrival_time":"20:39:00","departure_time":"20:40:00","lat":49.242715,"lon":16.673677,"is_passed":false},{"stop_id":"U12230Z10","name":"Adamov, železniční stanice","arrival_time":"20:47:00","departure_time":"20:48:00","lat":49.295341,"lon":16.663538,"is_passed":false},{"stop_id":"U12231Z10","name":"Adamov, železniční zastávka","arrival_time":"20:50:00","departure_time":"20:50:00","lat":49.300671,"lon":16.650653,"is_passed":false},{"stop_id":"U12342Z30","name":"Blansko, aut. st.","arrival_time":"20:56:00","departure_time":"20:57:00","lat":49.352753,"lon":16.646848,"is_passed":false},{"stop_id":"U22302Z1","name":"Blansko město","arrival_time":"20:59:00","departure_time":"20:59:00","lat":49.360996,"lon":16.639464,"is_passed":false},{"stop_id":"U22301Z1","name":"Dolní Lhota","arrival_time":"21:02:00","departure_time":"21:02:00","lat":49.386917,"lon":16.633978,"is_passed":false},{"stop_id":"U12439Z50","name":"Rájec-Jestřebí, železniční stanice","arrival_time":"21:04:00","departure_time":"21:05:00","lat":49.408206,"lon":16.627711,"is_passed":false},{"stop_id":"U12511Z50","name":"Doubravice, žel.st.","arrival_time":"21:08:00","departure_time":"21:08:00","lat":49.438707,"lon":16.621809,"is_passed":false},{"stop_id":"U12676Z50","name":"Skalice nad Svitavou, žel.st.","arrival_time":"21:14:00","departure_time":"22:13:00","lat":49.480123,"lon":16.609726,"is_passed":false}],"15113":[{"stop_id":"U12676Z51","name":"Skalice nad Svitavou, žel.st.","arrival_time":"22:13:00","departure_time":"22:13:00","lat":49.480123,"lon":16.609726,"is_passed":false},{"stop_id":"U12511Z51","name":"Doubravice, žel.st.","arrival_time":"22:18:00","departure_time":"22:18:00","lat":49.438707,"lon":16.621809,"is_passed":false},{"stop_id":"U12439Z51","name":"Rájec-Jestřebí, železniční stanice","arrival_time":"22:21:00","departure_time":"22:22:00","lat":49.408206,"lon":16.627711,"is_passed":false},{"stop_id":"U22301Z2","name":"Dolní Lhota","arrival_time":"22:24:00","departure_time":"22:25:00","lat":49.386917,"lon":16.633978,"is_passed":false},{"stop_id":"U22302Z2","name":"Blansko město","arrival_time":"22:27:00","departure_time":"22:28:00","lat":49.360996,"lon":16.639464,"is_passed":false},{"stop_id":"U12342Z29","name":"Blansko, aut. st.","arrival_time":"22:30:00","departure_time":"22:31:00","lat":49.352753,"lon":16.646848,"is_passed":false},{"stop_id":"U12231Z11","name":"Adamov, železniční zastávka","arrival_time":"22:36:00","departure_time":"22:37:00","lat":49.300671,"lon":16.650653,"is_passed":false},{"stop_id":"U12230Z11","name":"Adamov, železniční stanice","arrival_time":"22:38:00","departure_time":"22:39:00","lat":49.295341,"lon":16.663538,"is_passed":false},{"stop_id":"U22101Z2","name":"Babice nad Svitavou","arrival_time":"22:42:00","departure_time":"22:42:00","lat":49.276645,"lon":16.673012,"is_passed":false},{"stop_id":"U12158Z11","name":"Bílovice nad Svitavou, žel. stanice","arrival_time":"22:46:00","departure_time":"22:47:00","lat":49.242715,"lon":16.673677,"is_passed":false},{"stop_id":"U1809Z11","name":"Židenice, nádraží","arrival_time":"22:52:00","departure_time":"22:52:00","lat":49.204282,"lon":16.636042,"is_passed":false},{"stop_id":"U1146Z98","name":"Hlavní nádraží","arrival_time":"22:57:00","departure_time":"22:57:00","lat":49.19035,"lon":16.612342,"is_passed":false}],"15114":[{"stop_id":"U1146Z99","name":"Hlavní nádraží","arrival_time":"5:16:00","departure_time":"5:16:00","lat":49.19035,"lon":16.612342,"is_passed":false},{"stop_id":"U1286Z10","name":"Královo Pole, nádraží","arrival_time":"5:27:00","departure_time":"5:28:00","lat":49.231051,"lon":16.596651,"is_passed":false},{"stop_id":"U13334Z20","name":"Tišnov, železniční stanice","arrival_time":"5:43:00","departure_time":"5:44:00","lat":49.3475,"lon":16.41725,"is_passed":false}],"15115":[{"stop_id":"U15637Z10","name":"Hrušovany nad Jevišovkou, žel. st.","arrival_time":"4:53:00","departure_time":"4:53:00","lat":48.810029,"lon":16.383137,"is_passed":false},{"stop_id":"U18208Z10","name":"Božice, železniční stanice","arrival_time":"5:00:00","departure_time":"5:01:00","lat":48.823282,"lon":16.287832,"is_passed":false},{"stop_id":"U28101Z10","name":"Hodonice","arrival_time":"5:09:00","departure_time":"5:10:00","lat":48.841514,"lon":16.164403,"is_passed":false},{"stop_id":"U28102Z10","name":"Dyje","arrival_time":"5:13:00","departure_time":"5:13:00","lat":48.850047,"lon":16.1205,"is_passed":false},{"stop_id":"U18009Z20","name":"Znojmo, autobusové nádraží","arrival_time":"5:20:00","departure_time":"5:56:00","lat":48.852761,"lon":16.059287,"is_passed":false}],"15116":[{"stop_id":"U18009Z21","name":"Znojmo, autobusové nádraží","arrival_time":"5:56:00","departure_time":"5:56:00","lat":48.852761,"lon":16.059287,"is_passed":false},{"stop_id":"U28102Z11","name":"Dyje","arrival_time":"6:01:00","departure_time":"6:01:00","lat":48.850047,"lon":16.1205,"is_passed":false},{"stop_id":"U28101Z11","name":"Hodonice","arrival_time":"6:05:00","departure_time":"6:11:00","lat":48.841514,"lon":16.164403,"is_passed":false},{"stop_id":"U18208Z11","name":"Božice, železniční stanice","arrival_time":"6:19:00","departure_time":"6:20:00","lat":48.823282,"lon":16.287832,"is_passed":false},{"stop_id":"U15637Z11","name":"Hrušovany nad Jevišovkou, žel. st.","arrival_time":"6:26:00","departure_time":"6:27:00","lat":48.810029,"lon":16.383137,"is_passed":false},{"stop_id":"U25505Z11","name":"Jevišovka","arrival_time":"6:33:00","departure_time":"6:33:00","lat":48.820272,"lon":16.467125,"is_passed":false},{"stop_id":"U15563Z11","name":"Novosedly, železniční stanice","arrival_time":"6:36:00","departure_time":"6:40:00","lat":48.825719,"lon":16.49405,"is_passed":false},{"stop_id":"U25602Z11","name":"Dobré Pole","arrival_time":"6:44:00","departure_time":"6:44:00","lat":48.820008,"lon":16.533833,"is_passed":false},{"stop_id":"U25601Z11","name":"Březí","arrival_time":"6:46:00","departure_time":"6:47:00","lat":48.812925,"lon":16.554169,"is_passed":false},{"stop_id":"U15714Z11","name":"Mikulov, železniční stanice","arrival_time":"6:52:00","departure_time":"6:53:00","lat":48.802203,"lon":16.625492,"is_passed":false},{"stop_id":"U25701Z11","name":"Sedlec u Mikulova","arrival_time":"6:58:00","departure_time":"6:58:00","lat":48.774727,"lon":16.697093,"is_passed":false},{"stop_id":"U15828Z11","name":"Valtice, železniční zastávka","arrival_time":"7:04:00","departure_time":"7:04:00","lat":48.748776,"lon":16.762369,"is_passed":false},{"stop_id":"U15729Z15","name":"Břeclav, autobusové nádraží","arrival_time":"7:13:00","departure_time":"7:41:00","lat":48.753851,"lon":16.893169,"is_passed":false}],"15117":[{"stop_id":"U15729Z14","name":"Břeclav, autobusové nádraží","arrival_time":"7:41:00","departure_time":"7:41:00","lat":48.753851,"lon":16.893169,"is_passed":false},{"stop_id":"U25702Z10","name":"Boří les","arrival_time":"7:44:00","departure_time":"7:44:00","lat":48.737922,"lon":16.866996,"is_passed":false},{"stop_id":"U15828Z10","name":"Valtice, železniční zastávka","arrival_time":"7:51:00","departure_time":"7:51:00","lat":48.748776,"lon":16.762369,"is_passed":false},{"stop_id":"U15811Z10","name":"Valtice, železniční stanice","arrival_time":"7:53:00","departure_time":"7:54:00","lat":48.74752,"lon":16.742831,"is_passed":false},{"stop_id":"U25701Z10","name":"Sedlec u Mikulova","arrival_time":"7:58:00","departure_time":"7:58:00","lat":48.774739,"lon":16.696954,"is_passed":false},{"stop_id":"U15714Z10","name":"Mikulov, železniční stanice","arrival_time":"8:03:00","departure_time":"8:04:00","lat":48.802203,"lon":16.625492,"is_passed":false},{"stop_id":"U25601Z10","name":"Březí","arrival_time":"8:09:00","departure_time":"8:10:00","lat":48.812925,"lon":16.554169,"is_passed":false},{"stop_id":"U25602Z10","name":"Dobré Pole","arrival_time":"8:12:00","departure_time":"8:12:00","lat":48.820008,"lon":16.533833,"is_passed":false},{"stop_id":"U15563Z10","name":"Novosedly, železniční stanice","arrival_time":"8:16:00","departure_time":"8:17:00","lat":48.825719,"lon":16.49405,"is_passed":false},{"stop_id":"U25505Z10","name":"Jevišovka","arrival_time":"8:19:00","departure_time":"8:19:00","lat":48.820272,"lon":16.467125,"is_passed":false},{"stop_id":"U15637Z10","name":"Hrušovany nad Jevišovkou, žel. st.","arrival_time":"8:26:00","departure_time":"8:27:00","lat":48.810029,"lon":16.383137,"is_passed":false},{"stop_id":"U18208Z10","name":"Božice, železniční stanice","arrival_time":"8:35:00","departure_time":"8:35:00","lat":48.823282,"lon":16.287832,"is_passed":false},{"stop_id":"U28101Z10","name":"Hodonice","arrival_time":"8:44:00","departure_time":"8:44:00","lat":48.841514,"lon":16.164403,"is_passed":false},{"stop_id":"U28102Z10","name":"Dyje","arrival_time":"8:48:00","departure_time":"8:48:00","lat":48.850047,"lon":16.1205,"is_passed":false},{"stop_id":"U18009Z20","name":"Znojmo, autobusové nádraží","arrival_time":"8:54:00","departure_time":"12:59:00","lat":48.852761,"lon":16.059287,"is_passed":false}],"15118":[{"stop_id":"U18009Z21","name":"Znojmo, autobusové nádraží","arrival_time":"12:59:00","departure_time":"12:59:00","lat":48.852761,"lon":16.059287,"is_passed":false},{"stop_id":"U28102Z11","name":"Dyje","arrival_time":"13:04:00","departure_time":"13:04:00","lat":48.850047,"lon":16.1205,"is_passed":false},{"stop_id":"U28101Z11","name":"Hodonice","arrival_time":"13:08:00","departure_time":"13:09:00","lat":48.841514,"lon":16.164403,"is_passed":false},{"stop_id":"U18208Z11","name":"Božice, železniční stanice","arrival_time":"13:17:00","departure_time":"13:18:00","lat":48.823282,"lon":16.287832,"is_passed":false},{"stop_id":"U15637Z11","name":"Hrušovany nad Jevišovkou, žel. st.","arrival_time":"13:25:00","departure_time":"13:29:00","lat":48.810029,"lon":16.383137,"is_passed":false},{"stop_id":"U25505Z11","name":"Jevišovka","arrival_time":"13:35:00","departure_time":"13:35:00","lat":48.820272,"lon":16.467125,"is_passed":false},{"stop_id":"U15563Z11","name":"Novosedly, železniční stanice","arrival_time":"13:38:00","departure_time":"13:39:00","lat":48.825719,"lon":16.49405,"is_passed":false},{"stop_id":"U25602Z11","name":"Dobré Pole","arrival_time":"13:42:00","departure_time":"13:42:00","lat":48.820008,"lon":16.533833,"is_passed":false},{"stop_id":"U25601Z11","name":"Březí","arrival_time":"13:45:00","departure_time":"13:45:00","lat":48.812925,"lon":16.554169,"is_passed":false},{"stop_id":"U15714Z11","name":"Mikulov, železniční stanice","arrival_time":"13:50:00","departure_time":"13:53:00","lat":48.802203,"lon":16.625492,"is_passed":false},{"stop_id":"U25701Z11","name":"Sedlec u Mikulova","arrival_time":"13:58:00","departure_time":"13:59:00","lat":48.774727,"lon":16.697093,"is_passed":false},{"stop_id":"U15811Z11","name":"Valtice, železniční stanice","arrival_time":"14:03:00","departure_time":"14:03:00","lat":48.747484,"lon":16.742944,"is_passed":false},{"stop_id":"U15828Z11","name":"Valtice, železniční zastávka","arrival_time":"14:05:00","departure_time":"14:06:00","lat":48.748776,"lon":16.762369,"is_passed":false},{"stop_id":"U25702Z11","name":"Boří les","arrival_time":"14:12:00","departure_time":"14:12:00","lat":48.737912,"lon":16.867165,"is_passed":false},{"stop_id":"U15729Z15","name":"Břeclav, autobusové nádraží","arrival_time":"14:16:00","departure_time":"14:43:00","lat":48.753851,"lon":16.893169,"is_passed":false}],"15119":[{"stop_id":"U15729Z14","name":"Břeclav, autobusové nádraží","arrival_time":"14:43:00","departure_time":"14:43:00","lat":48.753851,"lon":16.893169,"is_passed":false},{"stop_id":"U15828Z10","name":"Valtice, železniční zastávka","arrival_time":"14:51:00","departure_time":"14:52:00","lat":48.748776,"lon":16.762369,"is_passed":false},{"stop_id":"U25701Z10","name":"Sedlec u Mikulova","arrival_time":"14:57:00","departure_time":"14:58:00","lat":48.774739,"lon":16.696954,"is_passed":false},{"stop_id":"U15714Z10","name":"Mikulov, železniční stanice","arrival_time":"15:03:00","departure_time":"15:04:00","lat":48.802203,"lon":16.625492,"is_passed":false},{"stop_id":"U25601Z10","name":"Březí","arrival_time":"15:09:00","departure_time":"15:10:00","lat":48.812925,"lon":16.554169,"is_passed":false},{"stop_id":"U25602Z10","name":"Dobré Pole","arrival_time":"15:12:00","departure_time":"15:12:00","lat":48.820008,"lon":16.533833,"is_passed":false},{"stop_id":"U15563Z10","name":"Novosedly, železniční stanice","arrival_time":"15:16:00","departure_time":"15:17:00","lat":48.825719,"lon":16.49405,"is_passed":false},{"stop_id":"U25505Z10","name":"Jevišovka","arrival_time":"15:19:00","departure_time":"15:19:00","lat":48.820272,"lon":16.467125,"is_passed":false},{"stop_id":"U15637Z10","name":"Hrušovany nad Jevišovkou, žel. st.","arrival_time":"15:26:00","departure_time":"15:27:00","lat":48.810029,"lon":16.383137,"is_passed":false},{"stop_id":"U18208Z10","name":"Božice, železniční stanice","arrival_time":"15:35:00","departure_time":"15:35:00","lat":48.823282,"lon":16.287832,"is_passed":false},{"stop_id":"U28101Z10","name":"Hodonice","arrival_time":"15:44:00","departure_time":"15:44:00","lat":48.841514,"lon":16.164403,"is_passed":false},{"stop_id":"U28102Z10","name":"Dyje","arrival_time":"15:48:00","departure_time":"15:48:00","lat":48.850047,"lon":16.1205,"is_passed":false},{"stop_id":"U18009Z20","name":"Znojmo, autobusové nádraží","arrival_time":"15:54:00","departure_time":"16:59:00","lat":48.852761,"lon":16.059287,"is_passed":false}],"15120":[{"stop_id":"U18009Z21","name":"Znojmo, autobusové nádraží","arrival_time":"16:59:00","departure_time":"16:59:00","lat":48.852761,"lon":16.059287,"is_passed":false},{"stop_id":"U28102Z11","name":"Dyje","arrival_time":"17:04:00","departure_time":"17:04:00","lat":48.850047,"lon":16.1205,"is_passed":false},{"stop_id":"U28101Z11","name":"Hodonice","arrival_time":"17:08:00","departure_time":"17:09:00","lat":48.841514,"lon":16.164403,"is_passed":false},{"stop_id":"U18208Z11","name":"Božice, železniční stanice","arrival_time":"17:17:00","departure_time":"17:18:00","lat":48.823282,"lon":16.287832,"is_passed":false},{"stop_id":"U15637Z11","name":"Hrušovany nad Jevišovkou, žel. st.","arrival_time":"17:25:00","departure_time":"17:29:00","lat":48.810029,"lon":16.383137,"is_passed":false},{"stop_id":"U25505Z11","name":"Jevišovka","arrival_time":"17:35:00","departure_time":"17:35:00","lat":48.820272,"lon":16.467125,"is_passed":false},{"stop_id":"U15563Z11","name":"Novosedly, železniční stanice","arrival_time":"17:38:00","departure_time":"17:38:00","lat":48.825719,"lon":16.49405,"is_passed":false},{"stop_id":"U25602Z11","name":"Dobré Pole","arrival_time":"17:42:00","departure_time":"17:42:00","lat":48.820008,"lon":16.533833,"is_passed":false},{"stop_id":"U25601Z11","name":"Březí","arrival_time":"17:45:00","departure_time":"17:45:00","lat":48.812925,"lon":16.554169,"is_passed":false},{"stop_id":"U15714Z11","name":"Mikulov, železniční stanice","arrival_time":"17:50:00","departure_time":"17:53:00","lat":48.802203,"lon":16.625492,"is_passed":false},{"stop_id":"U25701Z11","name":"Sedlec u Mikulova","arrival_time":"17:58:00","departure_time":"17:59:00","lat":48.774727,"lon":16.697093,"is_passed":false},{"stop_id":"U15811Z11","name":"Valtice, železniční stanice","arrival_time":"18:03:00","departure_time":"18:03:00","lat":48.747484,"lon":16.742944,"is_passed":false},{"stop_id":"U15828Z11","name":"Valtice, železniční zastávka","arrival_time":"18:05:00","departure_time":"18:06:00","lat":48.748776,"lon":16.762369,"is_passed":false},{"stop_id":"U25702Z11","name":"Boří les","arrival_time":"18:12:00","departure_time":"18:12:00","lat":48.737912,"lon":16.867165,"is_passed":false},{"stop_id":"U15729Z15","name":"Břeclav, autobusové nádraží","arrival_time":"18:16:00","departure_time":"18:45:00","lat":48.753851,"lon":16.893169,"is_passed":false}],"15121":[{"stop_id":"U15729Z14","name":"Břeclav, autobusové nádraží","arrival_time":"18:45:00","departure_time":"18:45:00","lat":48.753851,"lon":16.893169,"is_passed":false},{"stop_id":"U15828Z10","name":"Valtice, železniční zastávka","arrival_time":"18:53:00","departure_time":"18:53:00","lat":48.748776,"lon":16.762369,"is_passed":false},{"stop_id":"U25701Z10","name":"Sedlec u Mikulova","arrival_time":"18:58:00","departure_time":"18:59:00","lat":48.774739,"lon":16.696954,"is_passed":false},{"stop_id":"U15714Z10","name":"Mikulov, železniční stanice","arrival_time":"19:04:00","departure_time":"19:06:00","lat":48.802203,"lon":16.625492,"is_passed":false},{"stop_id":"U25601Z10","name":"Březí","arrival_time":"19:11:00","departure_time":"19:11:00","lat":48.812925,"lon":16.554169,"is_passed":false},{"stop_id":"U25602Z10","name":"Dobré Pole","arrival_time":"19:13:00","departure_time":"19:13:00","lat":48.820008,"lon":16.533833,"is_passed":false},{"stop_id":"U15563Z10","name":"Novosedly, železniční stanice","arrival_time":"19:18:00","departure_time":"19:18:00","lat":48.825719,"lon":16.49405,"is_passed":false},{"stop_id":"U25505Z10","name":"Jevišovka","arrival_time":"19:21:00","departure_time":"19:21:00","lat":48.820272,"lon":16.467125,"is_passed":false},{"stop_id":"U15637Z10","name":"Hrušovany nad Jevišovkou, žel. st.","arrival_time":"19:28:00","departure_time":"19:28:00","lat":48.810029,"lon":16.383137,"is_passed":false}],"15122":[{"stop_id":"U18009Z21","name":"Znojmo, autobusové nádraží","arrival_time":"4:04:00","departure_time":"4:04:00","lat":48.852761,"lon":16.059287,"is_passed":false},{"stop_id":"U28102Z11","name":"Dyje","arrival_time":"4:09:00","departure_time":"4:09:00","lat":48.850047,"lon":16.1205,"is_passed":false},{"stop_id":"U28101Z11","name":"Hodonice","arrival_time":"4:13:00","departure_time":"4:14:00","lat":48.841514,"lon":16.164403,"is_passed":false},{"stop_id":"U18208Z11","name":"Božice, železniční stanice","arrival_time":"4:22:00","departure_time":"4:23:00","lat":48.823282,"lon":16.287832,"is_passed":false},{"stop_id":"U15637Z11","name":"Hrušovany nad Jevišovkou, žel. st.","arrival_time":"4:30:00","departure_time":"4:31:00","lat":48.810029,"lon":16.383137,"is_passed":false}],"15123":[{"stop_id":"U15637Z11","name":"Hrušovany nad Jevišovkou, žel. st.","arrival_time":"4:31:00","departure_time":"4:31:00","lat":48.810029,"lon":16.383137,"is_passed":false},{"stop_id":"U25505Z11","name":"Jevišovka","arrival_time":"4:37:00","departure_time":"4:37:00","lat":48.820272,"lon":16.467125,"is_passed":false},{"stop_id":"U15563Z11","name":"Novosedly, železniční stanice","arrival_time":"4:40:00","departure_time":"4:41:00","lat":48.825719,"lon":16.49405,"is_passed":false},{"stop_id":"U25602Z11","name":"Dobré Pole","arrival_time":"4:45:00","departure_time":"4:45:00","lat":48.820008,"lon":16.533833,"is_passed":false},{"stop_id":"U25601Z11","name":"Březí","arrival_time":"4:47:00","departure_time":"4:48:00","lat":48.812925,"lon":16.554169,"is_passed":false},{"stop_id":"U15714Z11","name":"Mikulov, železniční stanice","arrival_time":"4:53:00","departure_time":"4:54:00","lat":48.802203,"lon":16.625492,"is_passed":false},{"stop_id":"U25701Z11","name":"Sedlec u Mikulova","arrival_time":"4:59:00","departure_time":"4:59:00","lat":48.774727,"lon":16.697093,"is_passed":false},{"stop_id":"U15811Z11","name":"Valtice, železniční stanice","arrival_time":"5:03:00","departure_time":"5:06:00","lat":48.747484,"lon":16.742944,"is_passed":false},{"stop_id":"U15828Z11","name":"Valtice, železniční zastávka","arrival_time":"5:08:00","departure_time":"5:08:00","lat":48.748776,"lon":16.762369,"is_passed":false},{"stop_id":"U25702Z11","name":"Boří les","arrival_time":"5:15:00","departure_time":"5:15:00","lat":48.737912,"lon":16.867165,"is_passed":false},{"stop_id":"U15729Z15","name":"Břeclav, autobusové nádraží","arrival_time":"5:19:00","departure_time":"5:19:00","lat":48.753851,"lon":16.893169,"is_passed":false}],"15124":[{"stop_id":"U30009Z2","name":"Křižanov","arrival_time":"6:00:00","departure_time":"6:00:00","lat":49.384694,"lon":16.080389,"is_passed":false},{"stop_id":"U30302Z2","name":"Ořechov","arrival_time":"6:04:00","departure_time":"6:04:00","lat":49.350447,"lon":16.136416,"is_passed":false},{"stop_id":"U30305Z2","name":"Osová Bítýška","arrival_time":"6:08:00","departure_time":"6:08:00","lat":49.329893,"lon":16.168305,"is_passed":false},{"stop_id":"U23501Z2","name":"Vlkov-Osová","arrival_time":"6:10:00","departure_time":"6:11:00","lat":49.326883,"lon":16.202114,"is_passed":false},{"stop_id":"U13454Z11","name":"Níhov, železniční stanice","arrival_time":"6:15:00","departure_time":"6:16:00","lat":49.33637,"lon":16.270573,"is_passed":false},{"stop_id":"U13425Z11","name":"Řikonín, železniční stanice","arrival_time":"6:19:00","departure_time":"6:20:00","lat":49.365833,"lon":16.305833,"is_passed":false},{"stop_id":"U13411Z11","name":"Dolní Loučky, železniční stanice","arrival_time":"6:22:00","departure_time":"6:22:00","lat":49.356389,"lon":16.346945,"is_passed":false},{"stop_id":"U13334Z21","name":"Tišnov, železniční stanice","arrival_time":"6:28:00","departure_time":"6:29:00","lat":49.3475,"lon":16.41725,"is_passed":false},{"stop_id":"U13306Z11","name":"Hradčany, železniční stanice","arrival_time":"6:31:00","departure_time":"6:32:00","lat":49.333878,"lon":16.437893,"is_passed":false},{"stop_id":"U13206Z11","name":"Čebín, železniční stanice","arrival_time":"6:34:00","departure_time":"6:35:00","lat":49.319722,"lon":16.465278,"is_passed":false},{"stop_id":"U13143Z11","name":"Kuřim, železniční stanice","arrival_time":"6:40:00","departure_time":"6:41:00","lat":49.301,"lon":16.534523,"is_passed":false},{"stop_id":"U13109Z11","name":"Česká, železniční stanice","arrival_time":"6:43:00","departure_time":"6:44:00","lat":49.284546,"lon":16.566731,"is_passed":false},{"stop_id":"U1557Z11","name":"Řečkovice, nádraží","arrival_time":"6:48:00","departure_time":"6:48:00","lat":49.250794,"lon":16.590446,"is_passed":false},{"stop_id":"U1286Z11","name":"Královo Pole, nádraží","arrival_time":"6:51:00","departure_time":"6:52:00","lat":49.231051,"lon":16.596651,"is_passed":false},{"stop_id":"U1331Z11","name":"Lesná, nádraží","arrival_time":"6:54:00","departure_time":"6:55:00","lat":49.220432,"lon":16.627505,"is_passed":false},{"stop_id":"U1809Z11","name":"Židenice, nádraží","arrival_time":"7:01:00","departure_time":"7:01:00","lat":49.204282,"lon":16.636042,"is_passed":false},{"stop_id":"U1146Z98","name":"Hlavní nádraží","arrival_time":"7:06:00","departure_time":"7:09:00","lat":49.19035,"lon":16.612342,"is_passed":false},{"stop_id":"U15140Z11","name":"Modřice, železniční stanice","arrival_time":"7:15:00","departure_time":"7:18:00","lat":49.133256,"lon":16.606209,"is_passed":false},{"stop_id":"U15181Z11","name":"Rajhrad, železniční stanice","arrival_time":"7:21:00","departure_time":"7:22:00","lat":49.084966,"lon":16.60532,"is_passed":false},{"stop_id":"U15222Z11","name":"Hrušovany u Brna, žel. st.","arrival_time":"7:26:00","departure_time":"7:30:00","lat":49.034228,"lon":16.591501,"is_passed":false},{"stop_id":"U15306Z11","name":"Žabčice, žel. st.","arrival_time":"7:33:00","departure_time":"7:33:00","lat":49.010857,"lon":16.594833,"is_passed":false},{"stop_id":"U15307Z11","name":"Vranovice, žel.st.","arrival_time":"7:37:00","departure_time":"7:38:00","lat":48.964528,"lon":16.604187,"is_passed":false},{"stop_id":"U25401Z11","name":"Pouzdřany","arrival_time":"7:40:00","departure_time":"7:41:00","lat":48.942025,"lon":16.630527,"is_passed":false},{"stop_id":"U25402Z11","name":"Popice","arrival_time":"7:44:00","departure_time":"7:44:00","lat":48.924332,"lon":16.668084,"is_passed":false},{"stop_id":"U15425Z11","name":"Šakvice, železniční stanice","arrival_time":"7:47:00","departure_time":"7:48:00","lat":48.912883,"lon":16.70557,"is_passed":false},{"stop_id":"U15403Z11","name":"Hustopeče, autobusové nádraží","arrival_time":"7:55:00","departure_time":"8:04:00","lat":48.93752,"lon":16.735901,"is_passed":false}],"15125":[{"stop_id":"U15403Z10","name":"Hustopeče, autobusové nádraží","arrival_time":"8:04:00","departure_time":"8:04:00","lat":48.93752,"lon":16.735901,"is_passed":false},{"stop_id":"U15425Z10","name":"Šakvice, železniční stanice","arrival_time":"8:10:00","departure_time":"8:11:00","lat":48.912883,"lon":16.70557,"is_passed":false},{"stop_id":"U25402Z10","name":"Popice","arrival_time":"8:13:00","departure_time":"8:14:00","lat":48.924332,"lon":16.668084,"is_passed":false},{"stop_id":"U25401Z10","name":"Pouzdřany","arrival_time":"8:17:00","departure_time":"8:17:00","lat":48.942025,"lon":16.630527,"is_passed":false},{"stop_id":"U15307Z10","name":"Vranovice, žel.st.","arrival_time":"8:20:00","departure_time":"8:21:00","lat":48.964528,"lon":16.604187,"is_passed":false},{"stop_id":"U15306Z10","name":"Žabčice, žel. st.","arrival_time":"8:24:00","departure_time":"8:25:00","lat":49.010865,"lon":16.594993,"is_passed":false},{"stop_id":"U15222Z10","name":"Hrušovany u Brna, žel. st.","arrival_time":"8:28:00","departure_time":"8:32:00","lat":49.034228,"lon":16.591501,"is_passed":false},{"stop_id":"U15181Z10","name":"Rajhrad, železniční stanice","arrival_time":"8:36:00","departure_time":"8:37:00","lat":49.084966,"lon":16.60532,"is_passed":false},{"stop_id":"U15140Z10","name":"Modřice, železniční stanice","arrival_time":"8:40:00","departure_time":"8:41:00","lat":49.133256,"lon":16.606209,"is_passed":false},{"stop_id":"U1146Z99","name":"Hlavní nádraží","arrival_time":"8:49:00","departure_time":"8:51:00","lat":49.19035,"lon":16.612342,"is_passed":false},{"stop_id":"U1809Z10","name":"Židenice, nádraží","arrival_time":"8:54:00","departure_time":"8:56:00","lat":49.204282,"lon":16.636042,"is_passed":false},{"stop_id":"U1331Z10","name":"Lesná, nádraží","arrival_time":"9:03:00","departure_time":"9:03:00","lat":49.220432,"lon":16.627505,"is_passed":false},{"stop_id":"U1286Z10","name":"Královo Pole, nádraží","arrival_time":"9:06:00","departure_time":"9:07:00","lat":49.231051,"lon":16.596651,"is_passed":false},{"stop_id":"U1557Z10","name":"Řečkovice, nádraží","arrival_time":"9:09:00","departure_time":"9:10:00","lat":49.250794,"lon":16.590446,"is_passed":false},{"stop_id":"U13109Z10","name":"Česká, železniční stanice","arrival_time":"9:13:00","departure_time":"9:14:00","lat":49.284546,"lon":16.566731,"is_passed":false},{"stop_id":"U13143Z10","name":"Kuřim, železniční stanice","arrival_time":"9:17:00","departure_time":"9:18:00","lat":49.301,"lon":16.534523,"is_passed":false},{"stop_id":"U13206Z10","name":"Čebín, železniční stanice","arrival_time":"9:23:00","departure_time":"9:23:00","lat":49.319722,"lon":16.465278,"is_passed":false},{"stop_id":"U13306Z10","name":"Hradčany, železniční stanice","arrival_time":"9:26:00","departure_time":"9:26:00","lat":49.334153,"lon":16.437807,"is_passed":false},{"stop_id":"U13334Z20","name":"Tišnov, železniční stanice","arrival_time":"9:29:00","departure_time":"10:29:00","lat":49.3475,"lon":16.41725,"is_passed":false}],"15126":[{"stop_id":"U13334Z21","name":"Tišnov, železniční stanice","arrival_time":"10:29:00","departure_time":"10:29:00","lat":49.3475,"lon":16.41725,"is_passed":false},{"stop_id":"U13306Z11","name":"Hradčany, železniční stanice","arrival_time":"10:31:00","departure_time":"10:32:00","lat":49.333878,"lon":16.437893,"is_passed":false},{"stop_id":"U13206Z11","name":"Čebín, železniční stanice","arrival_time":"10:34:00","departure_time":"10:35:00","lat":49.319722,"lon":16.465278,"is_passed":false},{"stop_id":"U13143Z11","name":"Kuřim, železniční stanice","arrival_time":"10:40:00","departure_time":"10:41:00","lat":49.301,"lon":16.534523,"is_passed":false},{"stop_id":"U13109Z11","name":"Česká, železniční stanice","arrival_time":"10:43:00","departure_time":"10:44:00","lat":49.284546,"lon":16.566731,"is_passed":false},{"stop_id":"U1557Z11","name":"Řečkovice, nádraží","arrival_time":"10:48:00","departure_time":"10:48:00","lat":49.250794,"lon":16.590446,"is_passed":false},{"stop_id":"U1286Z11","name":"Královo Pole, nádraží","arrival_time":"10:51:00","departure_time":"10:52:00","lat":49.231051,"lon":16.596651,"is_passed":false},{"stop_id":"U1331Z11","name":"Lesná, nádraží","arrival_time":"10:54:00","departure_time":"10:55:00","lat":49.220432,"lon":16.627505,"is_passed":false},{"stop_id":"U1809Z11","name":"Židenice, nádraží","arrival_time":"11:01:00","departure_time":"11:01:00","lat":49.204282,"lon":16.636042,"is_passed":false},{"stop_id":"U1146Z98","name":"Hlavní nádraží","arrival_time":"11:06:00","departure_time":"11:09:00","lat":49.19035,"lon":16.612342,"is_passed":false},{"stop_id":"U11002Z11","name":"Brno-Horní Heršpice","arrival_time":"11:13:00","departure_time":"11:14:00","lat":49.167404,"lon":16.60686,"is_passed":false},{"stop_id":"U15140Z11","name":"Modřice, železniční stanice","arrival_time":"11:17:00","departure_time":"11:18:00","lat":49.133256,"lon":16.606209,"is_passed":false},{"stop_id":"U15181Z11","name":"Rajhrad, železniční stanice","arrival_time":"11:21:00","departure_time":"11:22:00","lat":49.084966,"lon":16.60532,"is_passed":false},{"stop_id":"U15222Z11","name":"Hrušovany u Brna, žel. st.","arrival_time":"11:26:00","departure_time":"11:30:00","lat":49.034228,"lon":16.591501,"is_passed":false},{"stop_id":"U15306Z11","name":"Žabčice, žel. st.","arrival_time":"11:33:00","departure_time":"11:33:00","lat":49.010857,"lon":16.594833,"is_passed":false},{"stop_id":"U15307Z11","name":"Vranovice, žel.st.","arrival_time":"11:37:00","departure_time":"11:38:00","lat":48.964528,"lon":16.604187,"is_passed":false},{"stop_id":"U25401Z11","name":"Pouzdřany","arrival_time":"11:40:00","departure_time":"11:41:00","lat":48.942025,"lon":16.630527,"is_passed":false},{"stop_id":"U25402Z11","name":"Popice","arrival_time":"11:44:00","departure_time":"11:44:00","lat":48.924332,"lon":16.668084,"is_passed":false},{"stop_id":"U15425Z11","name":"Šakvice, železniční stanice","arrival_time":"11:47:00","departure_time":"11:48:00","lat":48.912883,"lon":16.70557,"is_passed":false},{"stop_id":"U15403Z11","name":"Hustopeče, autobusové nádraží","arrival_time":"11:55:00","departure_time":"12:04:00","lat":48.93752,"lon":16.735901,"is_passed":false}],"15127":[{"stop_id":"U15403Z10","name":"Hustopeče, autobusové nádraží","arrival_time":"12:04:00","departure_time":"12:04:00","lat":48.93752,"lon":16.735901,"is_passed":false},{"stop_id":"U15425Z10","name":"Šakvice, železniční stanice","arrival_time":"12:10:00","departure_time":"12:11:00","lat":48.912883,"lon":16.70557,"is_passed":false},{"stop_id":"U25402Z10","name":"Popice","arrival_time":"12:13:00","departure_time":"12:14:00","lat":48.924332,"lon":16.668084,"is_passed":false},{"stop_id":"U25401Z10","name":"Pouzdřany","arrival_time":"12:17:00","departure_time":"12:17:00","lat":48.942025,"lon":16.630527,"is_passed":false},{"stop_id":"U15307Z10","name":"Vranovice, žel.st.","arrival_time":"12:20:00","departure_time":"12:21:00","lat":48.964528,"lon":16.604187,"is_passed":false},{"stop_id":"U15306Z10","name":"Žabčice, žel. st.","arrival_time":"12:24:00","departure_time":"12:25:00","lat":49.010865,"lon":16.594993,"is_passed":false},{"stop_id":"U15222Z10","name":"Hrušovany u Brna, žel. st.","arrival_time":"12:28:00","departure_time":"12:32:00","lat":49.034228,"lon":16.591501,"is_passed":false},{"stop_id":"U15181Z10","name":"Rajhrad, železniční stanice","arrival_time":"12:36:00","departure_time":"12:37:00","lat":49.084966,"lon":16.60532,"is_passed":false},{"stop_id":"U15140Z10","name":"Modřice, železniční stanice","arrival_time":"12:40:00","departure_time":"12:41:00","lat":49.133256,"lon":16.606209,"is_passed":false},{"stop_id":"U1146Z99","name":"Hlavní nádraží","arrival_time":"12:48:00","departure_time":"12:53:00","lat":49.19035,"lon":16.612342,"is_passed":false},{"stop_id":"U1809Z10","name":"Židenice, nádraží","arrival_time":"12:56:00","departure_time":"12:57:00","lat":49.204282,"lon":16.636042,"is_passed":false},{"stop_id":"U1331Z10","name":"Lesná, nádraží","arrival_time":"13:02:00","departure_time":"13:03:00","lat":49.220432,"lon":16.627505,"is_passed":false},{"stop_id":"U1286Z10","name":"Královo Pole, nádraží","arrival_time":"13:06:00","departure_time":"13:07:00","lat":49.231051,"lon":16.596651,"is_passed":false},{"stop_id":"U1557Z10","name":"Řečkovice, nádraží","arrival_time":"13:09:00","departure_time":"13:10:00","lat":49.250794,"lon":16.590446,"is_passed":false},{"stop_id":"U13109Z10","name":"Česká, železniční stanice","arrival_time":"13:13:00","departure_time":"13:14:00","lat":49.284546,"lon":16.566731,"is_passed":false},{"stop_id":"U13143Z10","name":"Kuřim, železniční stanice","arrival_time":"13:17:00","departure_time":"13:18:00","lat":49.301,"lon":16.534523,"is_passed":false},{"stop_id":"U13206Z10","name":"Čebín, železniční stanice","arrival_time":"13:23:00","departure_time":"13:23:00","lat":49.319722,"lon":16.465278,"is_passed":false},{"stop_id":"U13306Z10","name":"Hradčany, železniční stanice","arrival_time":"13:26:00","departure_time":"13:26:00","lat":49.334153,"lon":16.437807,"is_passed":false},{"stop_id":"U13334Z20","name":"Tišnov, železniční stanice","arrival_time":"13:29:00","departure_time":"14:29:00","lat":49.3475,"lon":16.41725,"is_passed":false}],"15128":[{"stop_id":"U13334Z21","name":"Tišnov, železniční stanice","arrival_time":"14:29:00","departure_time":"14:29:00","lat":49.3475,"lon":16.41725,"is_passed":false},{"stop_id":"U13306Z11","name":"Hradčany, železniční stanice","arrival_time":"14:31:00","departure_time":"14:32:00","lat":49.333878,"lon":16.437893,"is_passed":false},{"stop_id":"U13206Z11","name":"Čebín, železniční stanice","arrival_time":"14:34:00","departure_time":"14:35:00","lat":49.319722,"lon":16.465278,"is_passed":false},{"stop_id":"U13143Z11","name":"Kuřim, železniční stanice","arrival_time":"14:40:00","departure_time":"14:41:00","lat":49.301,"lon":16.534523,"is_passed":false},{"stop_id":"U13109Z11","name":"Česká, železniční stanice","arrival_time":"14:43:00","departure_time":"14:44:00","lat":49.284546,"lon":16.566731,"is_passed":false},{"stop_id":"U1557Z11","name":"Řečkovice, nádraží","arrival_time":"14:48:00","departure_time":"14:48:00","lat":49.250794,"lon":16.590446,"is_passed":false},{"stop_id":"U1286Z11","name":"Královo Pole, nádraží","arrival_time":"14:51:00","departure_time":"14:52:00","lat":49.231051,"lon":16.596651,"is_passed":false},{"stop_id":"U1331Z11","name":"Lesná, nádraží","arrival_time":"14:54:00","departure_time":"14:55:00","lat":49.220432,"lon":16.627505,"is_passed":false},{"stop_id":"U1809Z11","name":"Židenice, nádraží","arrival_time":"15:01:00","departure_time":"15:01:00","lat":49.204282,"lon":16.636042,"is_passed":false},{"stop_id":"U1146Z98","name":"Hlavní nádraží","arrival_time":"15:06:00","departure_time":"15:09:00","lat":49.19035,"lon":16.612342,"is_passed":false},{"stop_id":"U11002Z11","name":"Brno-Horní Heršpice","arrival_time":"15:13:00","departure_time":"15:13:00","lat":49.167404,"lon":16.60686,"is_passed":false},{"stop_id":"U15140Z11","name":"Modřice, železniční stanice","arrival_time":"15:17:00","departure_time":"15:18:00","lat":49.133256,"lon":16.606209,"is_passed":false},{"stop_id":"U15181Z11","name":"Rajhrad, železniční stanice","arrival_time":"15:21:00","departure_time":"15:22:00","lat":49.084966,"lon":16.60532,"is_passed":false},{"stop_id":"U15222Z11","name":"Hrušovany u Brna, žel. st.","arrival_time":"15:26:00","departure_time":"15:30:00","lat":49.034228,"lon":16.591501,"is_passed":false},{"stop_id":"U15306Z11","name":"Žabčice, žel. st.","arrival_time":"15:33:00","departure_time":"15:33:00","lat":49.010857,"lon":16.594833,"is_passed":false},{"stop_id":"U15307Z11","name":"Vranovice, žel.st.","arrival_time":"15:37:00","departure_time":"15:38:00","lat":48.964528,"lon":16.604187,"is_passed":false},{"stop_id":"U25401Z11","name":"Pouzdřany","arrival_time":"15:40:00","departure_time":"15:41:00","lat":48.942025,"lon":16.630527,"is_passed":false},{"stop_id":"U25402Z11","name":"Popice","arrival_time":"15:44:00","departure_time":"15:44:00","lat":48.924332,"lon":16.668084,"is_passed":false},{"stop_id":"U15425Z11","name":"Šakvice, železniční stanice","arrival_time":"15:47:00","departure_time":"15:48:00","lat":48.912883,"lon":16.70557,"is_passed":false},{"stop_id":"U15403Z11","name":"Hustopeče, autobusové nádraží","arrival_time":"15:55:00","departure_time":"16:04:00","lat":48.93752,"lon":16.735901,"is_passed":false}],"15129":[{"stop_id":"U15403Z10","name":"Hustopeče, autobusové nádraží","arrival_time":"16:04:00","departure_time":"16:04:00","lat":48.93752,"lon":16.735901,"is_passed":false},{"stop_id":"U15425Z10","name":"Šakvice, železniční stanice","arrival_time":"16:10:00","departure_time":"16:11:00","lat":48.912883,"lon":16.70557,"is_passed":false},{"stop_id":"U25402Z10","name":"Popice","arrival_time":"16:13:00","departure_time":"16:14:00","lat":48.924332,"lon":16.668084,"is_passed":false},{"stop_id":"U25401Z10","name":"Pouzdřany","arrival_time":"16:17:00","departure_time":"16:17:00","lat":48.942025,"lon":16.630527,"is_passed":false},{"stop_id":"U15307Z10","name":"Vranovice, žel.st.","arrival_time":"16:20:00","departure_time":"16:21:00","lat":48.964528,"lon":16.604187,"is_passed":false},{"stop_id":"U15306Z10","name":"Žabčice, žel. st.","arrival_time":"16:24:00","departure_time":"16:25:00","lat":49.010865,"lon":16.594993,"is_passed":false},{"stop_id":"U15222Z10","name":"Hrušovany u Brna, žel. st.","arrival_time":"16:28:00","departure_time":"16:32:00","lat":49.034228,"lon":16.591501,"is_passed":false},{"stop_id":"U15181Z10","name":"Rajhrad, železniční stanice","arrival_time":"16:36:00","departure_time":"16:37:00","lat":49.084966,"lon":16.60532,"is_passed":false},{"stop_id":"U15140Z10","name":"Modřice, železniční stanice","arrival_time":"16:40:00","departure_time":"16:41:00","lat":49.133256,"lon":16.606209,"is_passed":false},{"stop_id":"U1146Z99","name":"Hlavní nádraží","arrival_time":"16:48:00","departure_time":"16:53:00","lat":49.19035,"lon":16.612342,"is_passed":false},{"stop_id":"U1809Z10","name":"Židenice, nádraží","arrival_time":"16:56:00","departure_time":"16:57:00","lat":49.204282,"lon":16.636042,"is_passed":false},{"stop_id":"U1331Z10","name":"Lesná, nádraží","arrival_time":"17:02:00","departure_time":"17:03:00","lat":49.220432,"lon":16.627505,"is_passed":false},{"stop_id":"U1286Z10","name":"Královo Pole, nádraží","arrival_time":"17:06:00","departure_time":"17:07:00","lat":49.231051,"lon":16.596651,"is_passed":false},{"stop_id":"U1557Z10","name":"Řečkovice, nádraží","arrival_time":"17:09:00","departure_time":"17:10:00","lat":49.250794,"lon":16.590446,"is_passed":false},{"stop_id":"U13109Z10","name":"Česká, železniční stanice","arrival_time":"17:13:00","departure_time":"17:14:00","lat":49.284546,"lon":16.566731,"is_passed":false},{"stop_id":"U13143Z10","name":"Kuřim, železniční stanice","arrival_time":"17:17:00","departure_time":"17:18:00","lat":49.301,"lon":16.534523,"is_passed":false},{"stop_id":"U13206Z10","name":"Čebín, železniční stanice","arrival_time":"17:23:00","departure_time":"17:23:00","lat":49.319722,"lon":16.465278,"is_passed":false},{"stop_id":"U13306Z10","name":"Hradčany, železniční stanice","arrival_time":"17:26:00","departure_time":"17:26:00","lat":49.334153,"lon":16.437807,"is_passed":false},{"stop_id":"U13334Z20","name":"Tišnov, železniční stanice","arrival_time":"17:29:00","departure_time":"17:30:00","lat":49.3475,"lon":16.41725,"is_passed":false},{"stop_id":"U13411Z10","name":"Dolní Loučky, železniční stanice","arrival_time":"17:34:00","departure_time":"17:34:00","lat":49.356389,"lon":16.346945,"is_passed":false},{"stop_id":"U13425Z10","name":"Řikonín, železniční stanice","arrival_time":"17:37:00","departure_time":"17:37:00","lat":49.365833,"lon":16.305833,"is_passed":false},{"stop_id":"U13454Z10","name":"Níhov, železniční stanice","arrival_time":"17:41:00","departure_time":"17:41:00","lat":49.336616,"lon":16.270487,"is_passed":false},{"stop_id":"U23501Z1","name":"Vlkov-Osová","arrival_time":"17:46:00","departure_time":"17:46:00","lat":49.326883,"lon":16.202114,"is_passed":false},{"stop_id":"U30305Z1","name":"Osová Bítýška","arrival_time":"17:49:00","departure_time":"17:49:00","lat":49.329893,"lon":16.168305,"is_passed":false},{"stop_id":"U30302Z1","name":"Ořechov","arrival_time":"17:52:00","departure_time":"17:52:00","lat":49.350503,"lon":16.136551,"is_passed":false},{"stop_id":"U30009Z1","name":"Křižanov","arrival_time":"17:58:00","departure_time":"19:00:00","lat":49.384877,"lon":16.080351,"is_passed":false}],"15130":[{"stop_id":"U30009Z2","name":"Křižanov","arrival_time":"19:00:00","departure_time":"19:00:00","lat":49.384694,"lon":16.080389,"is_passed":false},{"stop_id":"U30302Z2","name":"Ořechov","arrival_time":"19:04:00","departure_time":"19:04:00","lat":49.350447,"lon":16.136416,"is_passed":false},{"stop_id":"U30305Z2","name":"Osová Bítýška","arrival_time":"19:08:00","departure_time":"19:08:00","lat":49.329893,"lon":16.168305,"is_passed":false},{"stop_id":"U23501Z2","name":"Vlkov-Osová","arrival_time":"19:10:00","departure_time":"19:11:00","lat":49.326883,"lon":16.202114,"is_passed":false},{"stop_id":"U13454Z11","name":"Níhov, železniční stanice","arrival_time":"19:15:00","departure_time":"19:16:00","lat":49.33637,"lon":16.270573,"is_passed":false},{"stop_id":"U13425Z11","name":"Řikonín, železniční stanice","arrival_time":"19:19:00","departure_time":"19:20:00","lat":49.365833,"lon":16.305833,"is_passed":false},{"stop_id":"U13411Z11","name":"Dolní Loučky, železniční stanice","arrival_time":"19:22:00","departure_time":"19:22:00","lat":49.356389,"lon":16.346945,"is_passed":false},{"stop_id":"U13334Z21","name":"Tišnov, železniční stanice","arrival_time":"19:28:00","departure_time":"19:29:00","lat":49.3475,"lon":16.41725,"is_passed":false},{"stop_id":"U13306Z11","name":"Hradčany, železniční stanice","arrival_time":"19:31:00","departure_time":"19:32:00","lat":49.333878,"lon":16.437893,"is_passed":false},{"stop_id":"U13206Z11","name":"Čebín, železniční stanice","arrival_time":"19:34:00","departure_time":"19:35:00","lat":49.319722,"lon":16.465278,"is_passed":false},{"stop_id":"U13143Z11","name":"Kuřim, železniční stanice","arrival_time":"19:40:00","departure_time":"19:41:00","lat":49.301,"lon":16.534523,"is_passed":false},{"stop_id":"U13109Z11","name":"Česká, železniční stanice","arrival_time":"19:43:00","departure_time":"19:44:00","lat":49.284546,"lon":16.566731,"is_passed":false},{"stop_id":"U1557Z11","name":"Řečkovice, nádraží","arrival_time":"19:48:00","departure_time":"19:48:00","lat":49.250794,"lon":16.590446,"is_passed":false},{"stop_id":"U1286Z11","name":"Královo Pole, nádraží","arrival_time":"19:51:00","departure_time":"19:52:00","lat":49.231051,"lon":16.596651,"is_passed":false},{"stop_id":"U1331Z11","name":"Lesná, nádraží","arrival_time":"19:54:00","departure_time":"19:55:00","lat":49.220432,"lon":16.627505,"is_passed":false},{"stop_id":"U1809Z11","name":"Židenice, nádraží","arrival_time":"20:01:00","departure_time":"20:01:00","lat":49.204282,"lon":16.636042,"is_passed":false},{"stop_id":"U1146Z98","name":"Hlavní nádraží","arrival_time":"20:06:00","departure_time":"20:09:00","lat":49.19035,"lon":16.612342,"is_passed":false},{"stop_id":"U11002Z11","name":"Brno-Horní Heršpice","arrival_time":"20:13:00","departure_time":"20:14:00","lat":49.167404,"lon":16.60686,"is_passed":false},{"stop_id":"U15140Z11","name":"Modřice, železniční stanice","arrival_time":"20:17:00","departure_time":"20:18:00","lat":49.133256,"lon":16.606209,"is_passed":false},{"stop_id":"U15181Z11","name":"Rajhrad, železniční stanice","arrival_time":"20:21:00","departure_time":"20:22:00","lat":49.084966,"lon":16.60532,"is_passed":false},{"stop_id":"U15222Z11","name":"Hrušovany u Brna, žel. st.","arrival_time":"20:26:00","departure_time":"20:30:00","lat":49.034228,"lon":16.591501,"is_passed":false},{"stop_id":"U15306Z11","name":"Žabčice, žel. st.","arrival_time":"20:33:00","departure_time":"20:33:00","lat":49.010857,"lon":16.594833,"is_passed":false},{"stop_id":"U15307Z11","name":"Vranovice, žel.st.","arrival_time":"20:37:00","departure_time":"20:38:00","lat":48.964528,"lon":16.604187,"is_passed":false},{"stop_id":"U25401Z11","name":"Pouzdřany","arrival_time":"20:40:00","departure_time":"20:41:00","lat":48.942025,"lon":16.630527,"is_passed":false},{"stop_id":"U25402Z11","name":"Popice","arrival_time":"20:44:00","departure_time":"20:44:00","lat":48.924332,"lon":16.668084,"is_passed":false},{"stop_id":"U15425Z11","name":"Šakvice, železniční stanice","arrival_time":"20:47:00","departure_time":"20:48:00","lat":48.912883,"lon":16.70557,"is_passed":false},{"stop_id":"U15403Z11","name":"Hustopeče, autobusové nádraží","arrival_time":"20:55:00","departure_time":"21:04:00","lat":48.93752,"lon":16.735901,"is_passed":false}],"15131":[{"stop_id":"U15403Z10","name":"Hustopeče, autobusové nádraží","arrival_time":"21:04:00","departure_time":"21:04:00","lat":48.93752,"lon":16.735901,"is_passed":false},{"stop_id":"U15425Z10","name":"Šakvice, železniční stanice","arrival_time":"21:10:00","departure_time":"21:11:00","lat":48.912883,"lon":16.70557,"is_passed":false},{"stop_id":"U25402Z10","name":"Popice","arrival_time":"21:13:00","departure_time":"21:14:00","lat":48.924332,"lon":16.668084,"is_passed":false},{"stop_id":"U25401Z10","name":"Pouzdřany","arrival_time":"21:17:00","departure_time":"21:17:00","lat":48.942025,"lon":16.630527,"is_passed":false},{"stop_id":"U15307Z10","name":"Vranovice, žel.st.","arrival_time":"21:20:00","departure_time":"21:21:00","lat":48.964528,"lon":16.604187,"is_passed":false},{"stop_id":"U15306Z10","name":"Žabčice, žel. st.","arrival_time":"21:24:00","departure_time":"21:25:00","lat":49.010865,"lon":16.594993,"is_passed":false},{"stop_id":"U15222Z10","name":"Hrušovany u Brna, žel. st.","arrival_time":"21:28:00","departure_time":"21:32:00","lat":49.034228,"lon":16.591501,"is_passed":false},{"stop_id":"U15181Z10","name":"Rajhrad, železniční stanice","arrival_time":"21:36:00","departure_time":"21:37:00","lat":49.084966,"lon":16.60532,"is_passed":false},{"stop_id":"U15140Z10","name":"Modřice, železniční stanice","arrival_time":"21:40:00","departure_time":"21:41:00","lat":49.133256,"lon":16.606209,"is_passed":false},{"stop_id":"U11002Z10","name":"Brno-Horní Heršpice","arrival_time":"21:44:00","departure_time":"21:45:00","lat":49.167404,"lon":16.60686,"is_passed":false},{"stop_id":"U1146Z99","name":"Hlavní nádraží","arrival_time":"21:49:00","departure_time":"21:53:00","lat":49.19035,"lon":16.612342,"is_passed":false},{"stop_id":"U1809Z10","name":"Židenice, nádraží","arrival_time":"21:56:00","departure_time":"21:57:00","lat":49.204282,"lon":16.636042,"is_passed":false},{"stop_id":"U1331Z10","name":"Lesná, nádraží","arrival_time":"22:02:00","departure_time":"22:03:00","lat":49.220432,"lon":16.627505,"is_passed":false},{"stop_id":"U1286Z10","name":"Královo Pole, nádraží","arrival_time":"22:06:00","departure_time":"22:07:00","lat":49.231051,"lon":16.596651,"is_passed":false},{"stop_id":"U1557Z10","name":"Řečkovice, nádraží","arrival_time":"22:09:00","departure_time":"22:10:00","lat":49.250794,"lon":16.590446,"is_passed":false},{"stop_id":"U13109Z10","name":"Česká, železniční stanice","arrival_time":"22:13:00","departure_time":"22:14:00","lat":49.284546,"lon":16.566731,"is_passed":false},{"stop_id":"U13143Z10","name":"Kuřim, železniční stanice","arrival_time":"22:17:00","departure_time":"22:18:00","lat":49.301,"lon":16.534523,"is_passed":false},{"stop_id":"U13206Z10","name":"Čebín, železniční stanice","arrival_time":"22:23:00","departure_time":"22:23:00","lat":49.319722,"lon":16.465278,"is_passed":false},