[{"stop_id":"U13143Z4","name":"Kuřim, železniční stanice","arrival_time":"6:50:00","departure_time":"6:50:00","lat":49.300206,"lon":16.533816,"is_passed":false},{"stop_id":"U13133Z2","name":"Kuřim, sokolovna","arrival_time":"6:52:00","departure_time":"6:52:00","lat":49.298196,"lon":16.539863,"is_passed":false},{"stop_id":"U13121Z1","name":"Kuřim, Díly pod Sv. Jánem","arrival_time":"6:53:00","departure_time":"6:53:00","lat":49.296886,"lon":16.547631,"is_passed":false},{"stop_id":"U13107Z2","name":"Česká, UP závody","arrival_time":"6:55:00","departure_time":"6:55:00","lat":49.289299,"lon":16.560935,"is_passed":false},{"stop_id":"U13101Z2","name":"Česká, Hlavní","arrival_time":"6:57:00","departure_time":"6:57:00","lat":49.280512,"lon":16.565392,"is_passed":false},{"stop_id":"U13105Z2","name":"Česká, Nádavky","arrival_time":"6:58:00","departure_time":"6:58:00","lat":49.274161,"lon":16.567946,"is_passed":false},{"stop_id":"U1063Z2","name":"Černohorská","arrival_time":"6:59:00","departure_time":"6:59:00","lat":49.258654,"lon":16.57133,"is_passed":false},{"stop_id":"U1085Z2","name":"Díly","arrival_time":"7:00:00","departure_time":"7:00:00","lat":49.25425,"lon":16.574421,"is_passed":false},{"stop_id":"U1812Z2","name":"Žilkova","arrival_time":"7:01:00","departure_time":"7:01:00","lat":49.252181,"lon":16.576027,"is_passed":false},{"stop_id":"U1553Z6","name":"Řečkovice","arrival_time":"7:03:00","departure_time":"7:03:00","lat":49.247624,"lon":16.57912,"is_passed":false},{"stop_id":"U1476Z1","name":"Palackého náměstí","arrival_time":"7:04:00","departure_time":"7:04:00","lat":49.25084,"lon":16.581903,"is_passed":false},{"stop_id":"U1286Z8","name":"Královo Pole, nádraží","arrival_time":"7:09:00","departure_time":"7:34:00","lat":49.230335,"lon":16.595523,"is_passed":false}]