{"152":[{"stop_id":"U17423Z7","name":"Vyškov, Autobusové nádraží","arrival_time":"14:16:00","departure_time":"14:16:00","lat":49.275847,"lon":16.991949,"is_passed":false},{"stop_id":"U17429Z2","name":"Vyškov, garáže ČSAD","arrival_time":"14:18:00","departure_time":"14:18:00","lat":49.270982,"lon":16.988643,"is_passed":false},{"stop_id":"U17435Z2","name":"Vyškov, Nouzka","arrival_time":"14:19:00","departure_time":"14:19:00","lat":49.266834,"lon":16.980944,"is_passed":false},{"stop_id":"U17428Z2","name":"Vyškov, Drnovská Bioveta","arrival_time":"14:22:00","departure_time":"14:22:00","lat":49.25374,"lon":16.95539,"is_passed":false},{"stop_id":"U17328Z2","name":"Luleč, rozcestí","arrival_time":"14:24:00","departure_time":"14:24:00","lat":49.246772,"lon":16.941783,"is_passed":false},{"stop_id":"U17344Z2","name":"Tučapy, rozcestí","arrival_time":"14:26:00","departure_time":"14:26:00","lat":49.227053,"lon":16.915262,"is_passed":false},{"stop_id":"U17311Z4","name":"Komořany, EDP","arrival_time":"14:28:00","departure_time":"14:28:00","lat":49.219687,"lon":16.904328,"is_passed":false},{"stop_id":"U17331Z2","name":"Rousínov, Čechyně, rozcestí","arrival_time":"14:31:00","departure_time":"14:31:00","lat":49.207575,"lon":16.892772,"is_passed":false},{"stop_id":"U17335Z3","name":"Rousínov, autobusová stanice","arrival_time":"14:33:00","departure_time":"14:35:00","lat":49.203074,"lon":16.884769,"is_passed":false},{"stop_id":"U1677Z2","name":"Tržní","arrival_time":"14:54:00","departure_time":"14:54:00","lat":49.189407,"lon":16.629972,"is_passed":false},{"stop_id":"U1696Z5","name":"ÚAN Zvonařka","arrival_time":"14:58:00","departure_time":"15:34:00","lat":49.185364,"lon":16.616151,"is_passed":false}],"1520":[{"stop_id":"U16908Z13","name":"Bzenec, železniční stanice","arrival_time":"15:39:00","departure_time":"15:39:00","lat":48.969173,"lon":17.263183,"is_passed":false},{"stop_id":"U26901Z11","name":"Bzenec-Olšovec","arrival_time":"15:42:00","departure_time":"15:42:00","lat":48.970217,"lon":17.293339,"is_passed":false},{"stop_id":"U19302Z11","name":"Moravský Písek, Kolonie, žel. stanice","arrival_time":"15:45:00","departure_time":"15:52:00","lat":48.977119,"lon":17.314582,"is_passed":false}],"1521":[{"stop_id":"U19302Z12","name":"Moravský Písek, Kolonie, žel. stanice","arrival_time":"15:52:00","departure_time":"15:52:00","lat":48.977119,"lon":17.314582,"is_passed":false},{"stop_id":"U26901Z10","name":"Bzenec-Olšovec","arrival_time":"15:55:00","departure_time":"15:55:00","lat":48.970217,"lon":17.293339,"is_passed":false},{"stop_id":"U16908Z10","name":"Bzenec, železniční stanice","arrival_time":"15:58:00","departure_time":"16:01:00","lat":48.969173,"lon":17.263183,"is_passed":false}],"1522":[{"stop_id":"U16908Z13","name":"Bzenec, železniční stanice","arrival_time":"16:01:00","departure_time":"16:01:00","lat":48.969173,"lon":17.263183,"is_passed":false},{"stop_id":"U26901Z11","name":"Bzenec-Olšovec","arrival_time":"16:04:00","departure_time":"16:04:00","lat":48.970217,"lon":17.293339,"is_passed":false},{"stop_id":"U19302Z11","name":"Moravský Písek, Kolonie, žel. stanice","arrival_time":"16:07:00","departure_time":"16:14:00","lat":48.977119,"lon":17.314582,"is_passed":false}],"1523":[{"stop_id":"U19302Z12","name":"Moravský Písek, Kolonie, žel. stanice","arrival_time":"16:14:00","departure_time":"16:14:00","lat":48.977119,"lon":17.314582,"is_passed":false},{"stop_id":"U26901Z10","name":"Bzenec-Olšovec","arrival_time":"16:17:00","departure_time":"16:17:00","lat":48.970217,"lon":17.293339,"is_passed":false},{"stop_id":"U16908Z10","name":"Bzenec, železniční stanice","arrival_time":"16:20:00","departure_time":"16:35:00","lat":48.969173,"lon":17.263183,"is_passed":false}],"1524":[{"stop_id":"U16908Z13","name":"Bzenec, železniční stanice","arrival_time":"16:35:00","departure_time":"16:35:00","lat":48.969173,"lon":17.263183,"is_passed":false},{"stop_id":"U26901Z11","name":"Bzenec-Olšovec","arrival_time":"16:38:00","departure_time":"16:38:00","lat":48.970217,"lon":17.293339,"is_passed":false},{"stop_id":"U19302Z11","name":"Moravský Písek, Kolonie, žel. stanice","arrival_time":"16:41:00","departure_time":"16:51:00","lat":48.977119,"lon":17.314582,"is_passed":false}],"1525":[{"stop_id":"U19302Z12","name":"Moravský Písek, Kolonie, žel. stanice","arrival_time":"16:51:00","departure_time":"16:51:00","lat":48.977119,"lon":17.314582,"is_passed":false},{"stop_id":"U26901Z10","name":"Bzenec-Olšovec","arrival_time":"16:54:00","departure_time":"16:54:00","lat":48.970217,"lon":17.293339,"is_passed":false},{"stop_id":"U16908Z10","name":"Bzenec, železniční stanice","arrival_time":"16:57:00","departure_time":"17:01:00","lat":48.969173,"lon":17.263183,"is_passed":false}],"1526":[{"stop_id":"U16908Z13","name":"Bzenec, železniční stanice","arrival_time":"17:01:00","departure_time":"17:01:00","lat":48.969173,"lon":17.263183,"is_passed":false},{"stop_id":"U26901Z11","name":"Bzenec-Olšovec","arrival_time":"17:04:00","departure_time":"17:04:00","lat":48.970217,"lon":17.293339,"is_passed":false},{"stop_id":"U19302Z11","name":"Moravský Písek, Kolonie, žel. stanice","arrival_time":"17:07:00","departure_time":"17:14:00","lat":48.977119,"lon":17.314582,"is_passed":false}],"1527":[{"stop_id":"U19302Z12","name":"Moravský Písek, Kolonie, žel. stanice","arrival_time":"17:14:00","departure_time":"17:14:00","lat":48.977119,"lon":17.314582,"is_passed":false},{"stop_id":"U26901Z10","name":"Bzenec-Olšovec","arrival_time":"17:17:00","departure_time":"17:17:00","lat":48.970217,"lon":17.293339,"is_passed":false},{"stop_id":"U16908Z10","name":"Bzenec, železniční stanice","arrival_time":"17:20:00","departure_time":"17:39:00","lat":48.969173,"lon":17.263183,"is_passed":false}],"1528":[{"stop_id":"U16908Z13","name":"Bzenec, železniční stanice","arrival_time":"17:39:00","departure_time":"17:39:00","lat":48.969173,"lon":17.263183,"is_passed":false},{"stop_id":"U26901Z11","name":"Bzenec-Olšovec","arrival_time":"17:42:00","departure_time":"17:42:00","lat":48.970217,"lon":17.293339,"is_passed":false},{"stop_id":"U19302Z11","name":"Moravský Písek, Kolonie, žel. stanice","arrival_time":"17:45:00","departure_time":"18:07:00","lat":48.977119,"lon":17.314582,"is_passed":false}],"1529":[{"stop_id":"U19302Z12","name":"Moravský Písek, Kolonie, žel. stanice","arrival_time":"18:07:00","departure_time":"18:07:00","lat":48.977119,"lon":17.314582,"is_passed":false},{"stop_id":"U26901Z10","name":"Bzenec-Olšovec","arrival_time":"18:10:00","departure_time":"18:10:00","lat":48.970217,"lon":17.293339,"is_passed":false},{"stop_id":"U16908Z10","name":"Bzenec, železniční stanice","arrival_time":"18:13:00","departure_time":"18:42:00","lat":48.969173,"lon":17.263183,"is_passed":false}],"15200":[{"stop_id":"U12736Z50","name":"Letovice, železniční stanice","arrival_time":"5:12:00","departure_time":"5:12:00","lat":49.555973,"lon":16.570906,"is_passed":false},{"stop_id":"U12819Z10","name":"Rozhraní, železniční zastávka","arrival_time":"5:17:00","departure_time":"5:17:00","lat":49.601763,"lon":16.532438,"is_passed":false},{"stop_id":"U12804Z10","name":"Brněnec, Mor.Chrastová, žel.st.","arrival_time":"5:20:00","departure_time":"5:20:00","lat":49.622904,"lon":16.524586,"is_passed":false},{"stop_id":"U12936Z10","name":"Březová nad Svitavou, železniční stanice","arrival_time":"5:22:00","departure_time":"5:22:00","lat":49.633104,"lon":16.520656,"is_passed":false}],"15201":[{"stop_id":"U1146Z99","name":"Hlavní nádraží","arrival_time":"15:13:00","departure_time":"15:13:00","lat":49.19035,"lon":16.612342,"is_passed":false},{"stop_id":"U1286Z10","name":"Královo Pole, nádraží","arrival_time":"15:24:00","departure_time":"15:26:00","lat":49.231051,"lon":16.596651,"is_passed":false},{"stop_id":"U13334Z20","name":"Tišnov, železniční stanice","arrival_time":"15:42:00","departure_time":"15:44:00","lat":49.3475,"lon":16.41725,"is_passed":false}],"15202":[{"stop_id":"U13334Z21","name":"Tišnov, železniční stanice","arrival_time":"17:25:00","departure_time":"17:25:00","lat":49.3475,"lon":16.41725,"is_passed":false},{"stop_id":"U1286Z11","name":"Královo Pole, nádraží","arrival_time":"17:40:00","departure_time":"17:40:00","lat":49.231051,"lon":16.596651,"is_passed":false},{"stop_id":"U1146Z98","name":"Hlavní nádraží","arrival_time":"17:53:00","departure_time":"17:53:00","lat":49.19035,"lon":16.612342,"is_passed":false}],"15203":[{"stop_id":"U13334Z21","name":"Tišnov, železniční stanice","arrival_time":"20:25:00","departure_time":"20:25:00","lat":49.3475,"lon":16.41725,"is_passed":false},{"stop_id":"U1286Z11","name":"Královo Pole, nádraží","arrival_time":"20:40:00","departure_time":"20:40:00","lat":49.231051,"lon":16.596651,"is_passed":false},{"stop_id":"U1146Z98","name":"Hlavní nádraží","arrival_time":"20:53:00","departure_time":"20:53:00","lat":49.19035,"lon":16.612342,"is_passed":false}],"15204":[{"stop_id":"U1146Z99","name":"Hlavní nádraží","arrival_time":"15:55:00","departure_time":"15:55:00","lat":49.19035,"lon":16.612342,"is_passed":false},{"stop_id":"U12342Z30","name":"Blansko, aut. st.","arrival_time":"16:13:00","departure_time":"16:14:00","lat":49.352753,"lon":16.646848,"is_passed":false},{"stop_id":"U12676Z50","name":"Skalice nad Svitavou, žel.st.","arrival_time":"16:24:00","departure_time":"16:25:00","lat":49.480123,"lon":16.609726,"is_passed":false},{"stop_id":"U12736Z50","name":"Letovice, železniční stanice","arrival_time":"16:32:00","departure_time":"16:33:00","lat":49.555973,"lon":16.570906,"is_passed":false},{"stop_id":"U12819Z10","name":"Rozhraní, železniční zastávka","arrival_time":"16:37:00","departure_time":"16:38:00","lat":49.601763,"lon":16.532438,"is_passed":false},{"stop_id":"U12804Z10","name":"Brněnec, Mor.Chrastová, žel.st.","arrival_time":"16:40:00","departure_time":"16:41:00","lat":49.622904,"lon":16.524586,"is_passed":false},{"stop_id":"U12936Z10","name":"Březová nad Svitavou, železniční stanice","arrival_time":"16:42:00","departure_time":"16:43:00","lat":49.633104,"lon":16.520656,"is_passed":false}],"15205":[{"stop_id":"U17446Z11","name":"Vyškov, železniční stanice","arrival_time":"6:04:00","departure_time":"6:04:00","lat":49.277222,"lon":16.990833,"is_passed":false},{"stop_id":"U27501Z2","name":"Hoštice-Heroltice","arrival_time":"6:09:00","departure_time":"6:09:00","lat":49.291389,"lon":17.057778,"is_passed":false},{"stop_id":"U17514Z21","name":"Ivanovice na Hané, aut. st.","arrival_time":"6:13:00","departure_time":"6:15:00","lat":49.306111,"lon":17.086945,"is_passed":false},{"stop_id":"U27502Z2","name":"Chvalkovice na Hané","arrival_time":"6:18:00","departure_time":"6:18:00","lat":49.321667,"lon":17.111389,"is_passed":false},{"stop_id":"U27503Z2","name":"Nezamyslice","arrival_time":"6:22:00","departure_time":"6:25:00","lat":49.336,"lon":17.1625,"is_passed":false}],"15206":[{"stop_id":"U18009Z21","name":"Znojmo, autobusové nádraží","arrival_time":"5:34:00","departure_time":"5:34:00","lat":48.852761,"lon":16.059287,"is_passed":false},{"stop_id":"U28102Z11","name":"Dyje","arrival_time":"5:39:00","departure_time":"5:39:00","lat":48.850047,"lon":16.1205,"is_passed":false},{"stop_id":"U28101Z11","name":"Hodonice","arrival_time":"5:43:00","departure_time":"5:44:00","lat":48.841514,"lon":16.164403,"is_passed":false},{"stop_id":"U18208Z11","name":"Božice, železniční stanice","arrival_time":"5:52:00","departure_time":"5:53:00","lat":48.823282,"lon":16.287832,"is_passed":false},{"stop_id":"U15637Z11","name":"Hrušovany nad Jevišovkou, žel. st.","arrival_time":"6:00:00","departure_time":"6:02:00","lat":48.810029,"lon":16.383137,"is_passed":false},{"stop_id":"U25505Z11","name":"Jevišovka","arrival_time":"6:08:00","departure_time":"6:08:00","lat":48.820272,"lon":16.467125,"is_passed":false},{"stop_id":"U15563Z11","name":"Novosedly, železniční stanice","arrival_time":"6:11:00","departure_time":"6:12:00","lat":48.825719,"lon":16.49405,"is_passed":false},{"stop_id":"U25602Z11","name":"Dobré Pole","arrival_time":"6:16:00","departure_time":"6:16:00","lat":48.820008,"lon":16.533833,"is_passed":false},{"stop_id":"U25601Z11","name":"Březí","arrival_time":"6:18:00","departure_time":"6:19:00","lat":48.812925,"lon":16.554169,"is_passed":false},{"stop_id":"U15714Z11","name":"Mikulov, železniční stanice","arrival_time":"6:24:00","departure_time":"6:28:00","lat":48.802203,"lon":16.625492,"is_passed":false},{"stop_id":"U25701Z11","name":"Sedlec u Mikulova","arrival_time":"6:33:00","departure_time":"6:33:00","lat":48.774727,"lon":16.697093,"is_passed":false},{"stop_id":"U15811Z11","name":"Valtice, železniční stanice","arrival_time":"6:37:00","departure_time":"6:38:00","lat":48.747484,"lon":16.742944,"is_passed":false},{"stop_id":"U15828Z11","name":"Valtice, železniční zastávka","arrival_time":"6:40:00","departure_time":"6:40:00","lat":48.748776,"lon":16.762369,"is_passed":false},{"stop_id":"U25702Z11","name":"Boří les","arrival_time":"6:46:00","departure_time":"6:47:00","lat":48.737912,"lon":16.867165,"is_passed":false},{"stop_id":"U15729Z15","name":"Břeclav, autobusové nádraží","arrival_time":"6:50:00","departure_time":"7:41:00","lat":48.753851,"lon":16.893169,"is_passed":false}],"15207":[{"stop_id":"U15729Z14","name":"Břeclav, autobusové nádraží","arrival_time":"7:41:00","departure_time":"7:41:00","lat":48.753851,"lon":16.893169,"is_passed":false},{"stop_id":"U25702Z10","name":"Boří les","arrival_time":"7:44:00","departure_time":"7:44:00","lat":48.737922,"lon":16.866996,"is_passed":false},{"stop_id":"U15828Z10","name":"Valtice, železniční zastávka","arrival_time":"7:51:00","departure_time":"7:51:00","lat":48.748776,"lon":16.762369,"is_passed":false},{"stop_id":"U15811Z10","name":"Valtice, železniční stanice","arrival_time":"7:53:00","departure_time":"7:54:00","lat":48.74752,"lon":16.742831,"is_passed":false},{"stop_id":"U25701Z10","name":"Sedlec u Mikulova","arrival_time":"7:58:00","departure_time":"7:58:00","lat":48.774739,"lon":16.696954,"is_passed":false},{"stop_id":"U15714Z10","name":"Mikulov, železniční stanice","arrival_time":"8:03:00","departure_time":"8:04:00","lat":48.802203,"lon":16.625492,"is_passed":false},{"stop_id":"U25601Z10","name":"Březí","arrival_time":"8:09:00","departure_time":"8:10:00","lat":48.812925,"lon":16.554169,"is_passed":false},{"stop_id":"U25602Z10","name":"Dobré Pole","arrival_time":"8:12:00","departure_time":"8:12:00","lat":48.820008,"lon":16.533833,"is_passed":false},{"stop_id":"U15563Z10","name":"Novosedly, železniční stanice","arrival_time":"8:16:00","departure_time":"8:17:00","lat":48.825719,"lon":16.49405,"is_passed":false},{"stop_id":"U25505Z10","name":"Jevišovka","arrival_time":"8:19:00","departure_time":"8:19:00","lat":48.820272,"lon":16.467125,"is_passed":false},{"stop_id":"U15637Z10","name":"Hrušovany nad Jevišovkou, žel. st.","arrival_time":"8:26:00","departure_time":"8:27:00","lat":48.810029,"lon":16.383137,"is_passed":false},{"stop_id":"U18208Z10","name":"Božice, železniční stanice","arrival_time":"8:35:00","departure_time":"8:35:00","lat":48.823282,"lon":16.287832,"is_passed":false},{"stop_id":"U28101Z10","name":"Hodonice","arrival_time":"8:44:00","departure_time":"8:44:00","lat":48.841514,"lon":16.164403,"is_passed":false},{"stop_id":"U28102Z10","name":"Dyje","arrival_time":"8:48:00","departure_time":"8:48:00","lat":48.850047,"lon":16.1205,"is_passed":false},{"stop_id":"U18009Z20","name":"Znojmo, autobusové nádraží","arrival_time":"8:54:00","departure_time":"10:00:00","lat":48.852761,"lon":16.059287,"is_passed":false}],"15208":[{"stop_id":"U18009Z21","name":"Znojmo, autobusové nádraží","arrival_time":"10:00:00","departure_time":"10:00:00","lat":48.852761,"lon":16.059287,"is_passed":false},{"stop_id":"U28101Z11","name":"Hodonice","arrival_time":"10:09:00","departure_time":"10:10:00","lat":48.841514,"lon":16.164403,"is_passed":false},{"stop_id":"U15637Z11","name":"Hrušovany nad Jevišovkou, žel. st.","arrival_time":"10:25:00","departure_time":"10:28:00","lat":48.810029,"lon":16.383137,"is_passed":false},{"stop_id":"U25601Z11","name":"Březí","arrival_time":"10:40:00","departure_time":"10:40:00","lat":48.812925,"lon":16.554169,"is_passed":false},{"stop_id":"U15714Z11","name":"Mikulov, železniční stanice","arrival_time":"10:45:00","departure_time":"10:46:00","lat":48.802203,"lon":16.625492,"is_passed":false},{"stop_id":"U15828Z11","name":"Valtice, železniční zastávka","arrival_time":"10:58:00","departure_time":"10:59:00","lat":48.748776,"lon":16.762369,"is_passed":false},{"stop_id":"U15729Z15","name":"Břeclav, autobusové nádraží","arrival_time":"11:07:00","departure_time":"11:41:00","lat":48.753851,"lon":16.893169,"is_passed":false}],"15209":[{"stop_id":"U15729Z14","name":"Břeclav, autobusové nádraží","arrival_time":"11:41:00","departure_time":"11:41:00","lat":48.753851,"lon":16.893169,"is_passed":false},{"stop_id":"U25702Z10","name":"Boří les","arrival_time":"11:44:00","departure_time":"11:44:00","lat":48.737922,"lon":16.866996,"is_passed":false},{"stop_id":"U15828Z10","name":"Valtice, železniční zastávka","arrival_time":"11:51:00","departure_time":"11:51:00","lat":48.748776,"lon":16.762369,"is_passed":false},{"stop_id":"U15811Z10","name":"Valtice, železniční stanice","arrival_time":"11:53:00","departure_time":"11:54:00","lat":48.74752,"lon":16.742831,"is_passed":false},{"stop_id":"U25701Z10","name":"Sedlec u Mikulova","arrival_time":"11:58:00","departure_time":"11:58:00","lat":48.774739,"lon":16.696954,"is_passed":false},{"stop_id":"U15714Z10","name":"Mikulov, železniční stanice","arrival_time":"12:03:00","departure_time":"12:04:00","lat":48.802203,"lon":16.625492,"is_passed":false},{"stop_id":"U25601Z10","name":"Březí","arrival_time":"12:09:00","departure_time":"12:10:00","lat":48.812925,"lon":16.554169,"is_passed":false},{"stop_id":"U25602Z10","name":"Dobré Pole","arrival_time":"12:12:00","departure_time":"12:12:00","lat":48.820008,"lon":16.533833,"is_passed":false},{"stop_id":"U15563Z10","name":"Novosedly, železniční stanice","arrival_time":"12:16:00","departure_time":"12:17:00","lat":48.825719,"lon":16.49405,"is_passed":false},{"stop_id":"U25505Z10","name":"Jevišovka","arrival_time":"12:19:00","departure_time":"12:19:00","lat":48.820272,"lon":16.467125,"is_passed":false},{"stop_id":"U15637Z10","name":"Hrušovany nad Jevišovkou, žel. st.","arrival_time":"12:26:00","departure_time":"12:27:00","lat":48.810029,"lon":16.383137,"is_passed":false},{"stop_id":"U18208Z10","name":"Božice, železniční stanice","arrival_time":"12:35:00","departure_time":"12:35:00","lat":48.823282,"lon":16.287832,"is_passed":false},{"stop_id":"U28101Z10","name":"Hodonice","arrival_time":"12:44:00","departure_time":"12:44:00","lat":48.841514,"lon":16.164403,"is_passed":false},{"stop_id":"U28102Z10","name":"Dyje","arrival_time":"12:48:00","departure_time":"12:48:00","lat":48.850047,"lon":16.1205,"is_passed":false},{"stop_id":"U18009Z20","name":"Znojmo, autobusové nádraží","arrival_time":"12:54:00","departure_time":"14:00:00","lat":48.852761,"lon":16.059287,"is_passed":false}],"15210":[{"stop_id":"U18009Z21","name":"Znojmo, autobusové nádraží","arrival_time":"14:00:00","departure_time":"14:00:00","lat":48.852761,"lon":16.059287,"is_passed":false},{"stop_id":"U28101Z11","name":"Hodonice","arrival_time":"14:09:00","departure_time":"14:10:00","lat":48.841514,"lon":16.164403,"is_passed":false},{"stop_id":"U15637Z11","name":"Hrušovany nad Jevišovkou, žel. st.","arrival_time":"14:25:00","departure_time":"14:28:00","lat":48.810029,"lon":16.383137,"is_passed":false},{"stop_id":"U15714Z11","name":"Mikulov, železniční stanice","arrival_time":"14:45:00","departure_time":"14:46:00","lat":48.802203,"lon":16.625492,"is_passed":false},{"stop_id":"U15828Z11","name":"Valtice, železniční zastávka","arrival_time":"14:58:00","departure_time":"14:59:00","lat":48.748776,"lon":16.762369,"is_passed":false},{"stop_id":"U15729Z15","name":"Břeclav, autobusové nádraží","arrival_time":"15:07:00","departure_time":"15:41:00","lat":48.753851,"lon":16.893169,"is_passed":false}],"15211":[{"stop_id":"U15729Z14","name":"Břeclav, autobusové nádraží","arrival_time":"15:41:00","departure_time":"15:41:00","lat":48.753851,"lon":16.893169,"is_passed":false},{"stop_id":"U25702Z10","name":"Boří les","arrival_time":"15:44:00","departure_time":"15:44:00","lat":48.737922,"lon":16.866996,"is_passed":false},{"stop_id":"U15828Z10","name":"Valtice, železniční zastávka","arrival_time":"15:51:00","departure_time":"15:51:00","lat":48.748776,"lon":16.762369,"is_passed":false},{"stop_id":"U15811Z10","name":"Valtice, železniční stanice","arrival_time":"15:53:00","departure_time":"15:54:00","lat":48.74752,"lon":16.742831,"is_passed":false},{"stop_id":"U25701Z10","name":"Sedlec u Mikulova","arrival_time":"15:58:00","departure_time":"15:58:00","lat":48.774739,"lon":16.696954,"is_passed":false},{"stop_id":"U15714Z10","name":"Mikulov, železniční stanice","arrival_time":"16:03:00","departure_time":"16:04:00","lat":48.802203,"lon":16.625492,"is_passed":false},{"stop_id":"U25601Z10","name":"Březí","arrival_time":"16:09:00","departure_time":"16:10:00","lat":48.812925,"lon":16.554169,"is_passed":false},{"stop_id":"U25602Z10","name":"Dobré Pole","arrival_time":"16:12:00","departure_time":"16:12:00","lat":48.820008,"lon":16.533833,"is_passed":false},{"stop_id":"U15563Z10","name":"Novosedly, železniční stanice","arrival_time":"16:16:00","departure_time":"16:17:00","lat":48.825719,"lon":16.49405,"is_passed":false},{"stop_id":"U25505Z10","name":"Jevišovka","arrival_time":"16:19:00","departure_time":"16:19:00","lat":48.820272,"lon":16.467125,"is_passed":false},{"stop_id":"U15637Z10","name":"Hrušovany nad Jevišovkou, žel. st.","arrival_time":"16:26:00","departure_time":"16:27:00","lat":48.810029,"lon":16.383137,"is_passed":false},{"stop_id":"U18208Z10","name":"Božice, železniční stanice","arrival_time":"16:35:00","departure_time":"16:35:00","lat":48.823282,"lon":16.287832,"is_passed":false},{"stop_id":"U28101Z10","name":"Hodonice","arrival_time":"16:44:00","departure_time":"16:44:00","lat":48.841514,"lon":16.164403,"is_passed":false},{"stop_id":"U28102Z10","name":"Dyje","arrival_time":"16:48:00","departure_time":"16:48:00","lat":48.850047,"lon":16.1205,"is_passed":false},{"stop_id":"U18009Z20","name":"Znojmo, autobusové nádraží","arrival_time":"16:54:00","departure_time":"16:54:00","lat":48.852761,"lon":16.059287,"is_passed":false}],"15212":[{"stop_id":"U18009Z23","name":"Znojmo, autobusové nádraží","arrival_time":"17:29:00","departure_time":"17:29:00","lat":48.852761,"lon":16.059287,"is_passed":false},{"stop_id":"U28001Z1","name":"Znojmo-Nový Šaldorf","arrival_time":"17:33:00","departure_time":"17:33:00","lat":48.820061,"lon":16.044266,"is_passed":false},{"stop_id":"U18168Z11","name":"Šatov, železniční stanice","arrival_time":"17:39:00","departure_time":"17:47:00","lat":48.780786,"lon":16.026006,"is_passed":false}],"15213":[{"stop_id":"U18168Z10","name":"Šatov, železniční stanice","arrival_time":"17:47:00","departure_time":"17:47:00","lat":48.780786,"lon":16.026006,"is_passed":false},{"stop_id":"U28001Z2","name":"Znojmo-Nový Šaldorf","arrival_time":"17:52:00","departure_time":"17:53:00","lat":48.820061,"lon":16.044266,"is_passed":false},{"stop_id":"U18009Z22","name":"Znojmo, autobusové nádraží","arrival_time":"17:58:00","departure_time":"18:00:00","lat":48.852761,"lon":16.059287,"is_passed":false}],"15214":[{"stop_id":"U18009Z21","name":"Znojmo, autobusové nádraží","arrival_time":"18:00:00","departure_time":"18:00:00","lat":48.852761,"lon":16.059287,"is_passed":false},{"stop_id":"U28101Z11","name":"Hodonice","arrival_time":"18:09:00","departure_time":"18:10:00","lat":48.841514,"lon":16.164403,"is_passed":false},{"stop_id":"U15637Z11","name":"Hrušovany nad Jevišovkou, žel. st.","arrival_time":"18:25:00","departure_time":"18:28:00","lat":48.810029,"lon":16.383137,"is_passed":false},{"stop_id":"U15714Z11","name":"Mikulov, železniční stanice","arrival_time":"18:45:00","departure_time":"18:46:00","lat":48.802203,"lon":16.625492,"is_passed":false},{"stop_id":"U15828Z11","name":"Valtice, železniční zastávka","arrival_time":"18:58:00","departure_time":"18:59:00","lat":48.748776,"lon":16.762369,"is_passed":false},{"stop_id":"U15729Z15","name":"Břeclav, autobusové nádraží","arrival_time":"19:07:00","departure_time":"19:15:00","lat":48.753851,"lon":16.893169,"is_passed":false}],"15215":[{"stop_id":"U15729Z10","name":"Břeclav, autobusové nádraží","arrival_time":"19:15:00","departure_time":"19:15:00","lat":48.753851,"lon":16.893169,"is_passed":false},{"stop_id":"U15619Z10","name":"Podivín, železniční stanice","arrival_time":"19:22:00","departure_time":"19:23:00","lat":48.837726,"lon":16.853526,"is_passed":false},{"stop_id":"U1146Z99","name":"Hlavní nádraží","arrival_time":"19:53:00","departure_time":"21:35:00","lat":49.19035,"lon":16.612342,"is_passed":false}],"15216":[{"stop_id":"U1146Z98","name":"Hlavní nádraží","arrival_time":"21:35:00","departure_time":"21:35:00","lat":49.19035,"lon":16.612342,"is_passed":false},{"stop_id":"U15425Z11","name":"Šakvice, železniční stanice","arrival_time":"21:56:00","departure_time":"21:57:00","lat":48.912883,"lon":16.70557,"is_passed":false},{"stop_id":"U15537Z11","name":"Zaječí, železniční stanice","arrival_time":"22:01:00","departure_time":"22:02:00","lat":48.889637,"lon":16.781831,"is_passed":false},{"stop_id":"U25501Z11","name":"Rakvice","arrival_time":"22:06:00","departure_time":"22:06:00","lat":48.866893,"lon":16.821444,"is_passed":false},{"stop_id":"U15619Z11","name":"Podivín, železniční stanice","arrival_time":"22:10:00","departure_time":"22:11:00","lat":48.837726,"lon":16.853526,"is_passed":false},{"stop_id":"U15729Z11","name":"Břeclav, autobusové nádraží","arrival_time":"22:20:00","departure_time":"22:20:00","lat":48.753851,"lon":16.893169,"is_passed":false}],"15217":[{"stop_id":"U15637Z10","name":"Hrušovany nad Jevišovkou, žel. st.","arrival_time":"6:02:00","departure_time":"6:02:00","lat":48.810029,"lon":16.383137,"is_passed":false},{"stop_id":"U18208Z10","name":"Božice, železniční stanice","arrival_time":"6:09:00","departure_time":"6:10:00","lat":48.823282,"lon":16.287832,"is_passed":false},{"stop_id":"U28101Z10","name":"Hodonice","arrival_time":"6:18:00","departure_time":"6:19:00","lat":48.841514,"lon":16.164403,"is_passed":false},{"stop_id":"U28102Z10","name":"Dyje","arrival_time":"6:23:00","departure_time":"6:23:00","lat":48.850047,"lon":16.1205,"is_passed":false},{"stop_id":"U18009Z20","name":"Znojmo, autobusové nádraží","arrival_time":"6:29:00","departure_time":"6:56:00","lat":48.852761,"lon":16.059287,"is_passed":false}],"15218":[{"stop_id":"U18009Z21","name":"Znojmo, autobusové nádraží","arrival_time":"6:56:00","departure_time":"6:56:00","lat":48.852761,"lon":16.059287,"is_passed":false},{"stop_id":"U28102Z11","name":"Dyje","arrival_time":"7:01:00","departure_time":"7:01:00","lat":48.850047,"lon":16.1205,"is_passed":false},{"stop_id":"U28101Z11","name":"Hodonice","arrival_time":"7:05:00","departure_time":"7:11:00","lat":48.841514,"lon":16.164403,"is_passed":false},{"stop_id":"U18208Z11","name":"Božice, železniční stanice","arrival_time":"7:19:00","departure_time":"7:20:00","lat":48.823282,"lon":16.287832,"is_passed":false},{"stop_id":"U15637Z11","name":"Hrušovany nad Jevišovkou, žel. st.","arrival_time":"7:27:00","departure_time":"7:29:00","lat":48.810029,"lon":16.383137,"is_passed":false},{"stop_id":"U25505Z11","name":"Jevišovka","arrival_time":"7:35:00","departure_time":"7:35:00","lat":48.820272,"lon":16.467125,"is_passed":false},{"stop_id":"U15563Z11","name":"Novosedly, železniční stanice","arrival_time":"7:38:00","departure_time":"7:38:00","lat":48.825719,"lon":16.49405,"is_passed":false},{"stop_id":"U25602Z11","name":"Dobré Pole","arrival_time":"7:42:00","departure_time":"7:42:00","lat":48.820008,"lon":16.533833,"is_passed":false},{"stop_id":"U25601Z11","name":"Březí","arrival_time":"7:45:00","departure_time":"7:45:00","lat":48.812925,"lon":16.554169,"is_passed":false},{"stop_id":"U15714Z11","name":"Mikulov, železniční stanice","arrival_time":"7:50:00","departure_time":"7:53:00","lat":48.802203,"lon":16.625492,"is_passed":false},{"stop_id":"U25701Z11","name":"Sedlec u Mikulova","arrival_time":"7:58:00","departure_time":"7:59:00","lat":48.774727,"lon":16.697093,"is_passed":false},{"stop_id":"U15811Z11","name":"Valtice, železniční stanice","arrival_time":"8:03:00","departure_time":"8:03:00","lat":48.747484,"lon":16.742944,"is_passed":false},{"stop_id":"U15828Z11","name":"Valtice, železniční zastávka","arrival_time":"8:05:00","departure_time":"8:06:00","lat":48.748776,"lon":16.762369,"is_passed":false},{"stop_id":"U25702Z11","name":"Boří les","arrival_time":"8:12:00","departure_time":"8:12:00","lat":48.737912,"lon":16.867165,"is_passed":false},{"stop_id":"U15729Z15","name":"Břeclav, autobusové nádraží","arrival_time":"8:16:00","departure_time":"9:41:00","lat":48.753851,"lon":16.893169,"is_passed":false}],"15219":[{"stop_id":"U15729Z14","name":"Břeclav, autobusové nádraží","arrival_time":"9:41:00","departure_time":"9:41:00","lat":48.753851,"lon":16.893169,"is_passed":false},{"stop_id":"U25702Z10","name":"Boří les","arrival_time":"9:44:00","departure_time":"9:44:00","lat":48.737922,"lon":16.866996,"is_passed":false},{"stop_id":"U15828Z10","name":"Valtice, železniční zastávka","arrival_time":"9:51:00","departure_time":"9:51:00","lat":48.748776,"lon":16.762369,"is_passed":false},{"stop_id":"U15811Z10","name":"Valtice, železniční stanice","arrival_time":"9:53:00","departure_time":"9:54:00","lat":48.74752,"lon":16.742831,"is_passed":false},{"stop_id":"U25701Z10","name":"Sedlec u Mikulova","arrival_time":"9:58:00","departure_time":"9:58:00","lat":48.774739,"lon":16.696954,"is_passed":false},{"stop_id":"U15714Z10","name":"Mikulov, železniční stanice","arrival_time":"10:03:00","departure_time":"10:04:00","lat":48.802203,"lon":16.625492,"is_passed":false},{"stop_id":"U25601Z10","name":"Březí","arrival_time":"10:09:00","departure_time":"10:10:00","lat":48.812925,"lon":16.554169,"is_passed":false},{"stop_id":"U25602Z10","name":"Dobré Pole","arrival_time":"10:12:00","departure_time":"10:12:00","lat":48.820008,"lon":16.533833,"is_passed":false},{"stop_id":"U15563Z10","name":"Novosedly, železniční stanice","arrival_time":"10:16:00","departure_time":"10:17:00","lat":48.825719,"lon":16.49405,"is_passed":false},{"stop_id":"U25505Z10","name":"Jevišovka","arrival_time":"10:19:00","departure_time":"10:19:00","lat":48.820272,"lon":16.467125,"is_passed":false},{"stop_id":"U15637Z10","name":"Hrušovany nad Jevišovkou, žel. st.","arrival_time":"10:26:00","departure_time":"10:27:00","lat":48.810029,"lon":16.383137,"is_passed":false},{"stop_id":"U18208Z10","name":"Božice, železniční stanice","arrival_time":"10:35:00","departure_time":"10:35:00","lat":48.823282,"lon":16.287832,"is_passed":false},{"stop_id":"U28101Z10","name":"Hodonice","arrival_time":"10:44:00","departure_time":"10:44:00","lat":48.841514,"lon":16.164403,"is_passed":false},{"stop_id":"U28102Z10","name":"Dyje","arrival_time":"10:48:00","departure_time":"10:48:00","lat":48.850047,"lon":16.1205,"is_passed":false},{"stop_id":"U18009Z20","name":"Znojmo, autobusové nádraží","arrival_time":"10:54:00","departure_time":"12:00:00","lat":48.852761,"lon":16.059287,"is_passed":false}],"15220":[{"stop_id":"U18009Z21","name":"Znojmo, autobusové nádraží","arrival_time":"12:00:00","departure_time":"12:00:00","lat":48.852761,"lon":16.059287,"is_passed":false},{"stop_id":"U28101Z11","name":"Hodonice","arrival_time":"12:09:00","departure_time":"12:10:00","lat":48.841514,"lon":16.164403,"is_passed":false},{"stop_id":"U15637Z11","name":"Hrušovany nad Jevišovkou, žel. st.","arrival_time":"12:25:00","departure_time":"12:28:00","lat":48.810029,"lon":16.383137,"is_passed":false},{"stop_id":"U25601Z11","name":"Březí","arrival_time":"12:40:00","departure_time":"12:40:00","lat":48.812925,"lon":16.554169,"is_passed":false},{"stop_id":"U15714Z11","name":"Mikulov, železniční stanice","arrival_time":"12:45:00","departure_time":"12:46:00","lat":48.802203,"lon":16.625492,"is_passed":false},{"stop_id":"U15828Z11","name":"Valtice, železniční zastávka","arrival_time":"12:58:00","departure_time":"12:59:00","lat":48.748776,"lon":16.762369,"is_passed":false},{"stop_id":"U15729Z15","name":"Břeclav, autobusové nádraží","arrival_time":"13:07:00","departure_time":"13:41:00","lat":48.753851,"lon":16.893169,"is_passed":false}],"15221":[{"stop_id":"U15729Z14","name":"Břeclav, autobusové nádraží","arrival_time":"13:41:00","departure_time":"13:41:00","lat":48.753851,"lon":16.893169,"is_passed":false},{"stop_id":"U25702Z10","name":"Boří les","arrival_time":"13:44:00","departure_time":"13:44:00","lat":48.737922,"lon":16.866996,"is_passed":false},{"stop_id":"U15828Z10","name":"Valtice, železniční zastávka","arrival_time":"13:51:00","departure_time":"13:51:00","lat":48.748776,"lon":16.762369,"is_passed":false},{"stop_id":"U15811Z10","name":"Valtice, železniční stanice","arrival_time":"13:53:00","departure_time":"13:54:00","lat":48.74752,"lon":16.742831,"is_passed":false},{"stop_id":"U25701Z10","name":"Sedlec u Mikulova","arrival_time":"13:58:00","departure_time":"13:58:00","lat":48.774739,"lon":16.696954,"is_passed":false},{"stop_id":"U15714Z10","name":"Mikulov, železniční stanice","arrival_time":"14:03:00","departure_time":"14:04:00","lat":48.802203,"lon":16.625492,"is_passed":false},{"stop_id":"U25601Z10","name":"Březí","arrival_time":"14:09:00","departure_time":"14:10:00","lat":48.812925,"lon":16.554169,"is_passed":false},{"stop_id":"U25602Z10","name":"Dobré Pole","arrival_time":"14:12:00","departure_time":"14:12:00","lat":48.820008,"lon":16.533833,"is_passed":false},{"stop_id":"U15563Z10","name":"Novosedly, železniční stanice","arrival_time":"14:16:00","departure_time":"14:17:00","lat":48.825719,"lon":16.49405,"is_passed":false},{"stop_id":"U25505Z10","name":"Jevišovka","arrival_time":"14:19:00","departure_time":"14:19:00","lat":48.820272,"lon":16.467125,"is_passed":false},{"stop_id":"U15637Z10","name":"Hrušovany nad Jevišovkou, žel. st.","arrival_time":"14:26:00","departure_time":"14:27:00","lat":48.810029,"lon":16.383137,"is_passed":false},{"stop_id":"U18208Z10","name":"Božice, železniční stanice","arrival_time":"14:35:00","departure_time":"14:35:00","lat":48.823282,"lon":16.287832,"is_passed":false},{"stop_id":"U28101Z10","name":"Hodonice","arrival_time":"14:44:00","departure_time":"14:44:00","lat":48.841514,"lon":16.164403,"is_passed":false},{"stop_id":"U28102Z10","name":"Dyje","arrival_time":"14:48:00","departure_time":"14:48:00","lat":48.850047,"lon":16.1205,"is_passed":false},{"stop_id":"U18009Z20","name":"Znojmo, autobusové nádraží","arrival_time":"14:54:00","departure_time":"16:00:00","lat":48.852761,"lon":16.059287,"is_passed":false}],"15222":[{"stop_id":"U18009Z21","name":"Znojmo, autobusové nádraží","arrival_time":"16:00:00","departure_time":"16:00:00","lat":48.852761,"lon":16.059287,"is_passed":false},{"stop_id":"U28101Z11","name":"Hodonice","arrival_time":"16:09:00","departure_time":"16:10:00","lat":48.841514,"lon":16.164403,"is_passed":false},{"stop_id":"U15637Z11","name":"Hrušovany nad Jevišovkou, žel. st.","arrival_time":"16:25:00","departure_time":"16:28:00","lat":48.810029,"lon":16.383137,"is_passed":false},{"stop_id":"U15714Z11","name":"Mikulov, železniční stanice","arrival_time":"16:45:00","departure_time":"16:46:00","lat":48.802203,"lon":16.625492,"is_passed":false},{"stop_id":"U15828Z11","name":"Valtice, železniční zastávka","arrival_time":"16:58:00","departure_time":"16:59:00","lat":48.748776,"lon":16.762369,"is_passed":false},{"stop_id":"U15729Z15","name":"Břeclav, autobusové nádraží","arrival_time":"17:07:00","departure_time":"17:41:00","lat":48.753851,"lon":16.893169,"is_passed":false}],"15223":[{"stop_id":"U15729Z14","name":"Břeclav, autobusové nádraží","arrival_time":"17:41:00","departure_time":"17:41:00","lat":48.753851,"lon":16.893169,"is_passed":false},{"stop_id":"U25702Z10","name":"Boří les","arrival_time":"17:44:00","departure_time":"17:44:00","lat":48.737922,"lon":16.866996,"is_passed":false},{"stop_id":"U15828Z10","name":"Valtice, železniční zastávka","arrival_time":"17:51:00","departure_time":"17:51:00","lat":48.748776,"lon":16.762369,"is_passed":false},{"stop_id":"U15811Z10","name":"Valtice, železniční stanice","arrival_time":"17:53:00","departure_time":"17:54:00","lat":48.74752,"lon":16.742831,"is_passed":false},{"stop_id":"U25701Z10","name":"Sedlec u Mikulova","arrival_time":"17:58:00","departure_time":"17:58:00","lat":48.774739,"lon":16.696954,"is_passed":false},{"stop_id":"U15714Z10","name":"Mikulov, železniční stanice","arrival_time":"18:03:00","departure_time":"18:04:00","lat":48.802203,"lon":16.625492,"is_passed":false},{"stop_id":"U25601Z10","name":"Březí","arrival_time":"18:09:00","departure_time":"18:10:00","lat":48.812925,"lon":16.554169,"is_passed":false},{"stop_id":"U25602Z10","name":"Dobré Pole","arrival_time":"18:12:00","departure_time":"18:12:00","lat":48.820008,"lon":16.533833,"is_passed":false},{"stop_id":"U15563Z10","name":"Novosedly, železniční stanice","arrival_time":"18:16:00","departure_time":"18:17:00","lat":48.825719,"lon":16.49405,"is_passed":false},{"stop_id":"U25505Z10","name":"Jevišovka","arrival_time":"18:19:00","departure_time":"18:19:00","lat":48.820272,"lon":16.467125,"is_passed":false},{"stop_id":"U15637Z10","name":"Hrušovany nad Jevišovkou, žel. st.","arrival_time":"18:26:00","departure_time":"18:27:00","lat":48.810029,"lon":16.383137,"is_passed":false},{"stop_id":"U18208Z10","name":"Božice, železniční stanice","arrival_time":"18:35:00","departure_time":"18:35:00","lat":48.823282,"lon":16.287832,"is_passed":false},{"stop_id":"U28101Z10","name":"Hodonice","arrival_time":"18:44:00","departure_time":"18:44:00","lat":48.841514,"lon":16.164403,"is_passed":false},{"stop_id":"U28102Z10","name":"Dyje","arrival_time":"18:48:00","departure_time":"18:48:00","lat":48.850047,"lon":16.1205,"is_passed":false},{"stop_id":"U18009Z20","name":"Znojmo, autobusové nádraží","arrival_time":"18:54:00","departure_time":"18:59:00","lat":48.852761,"lon":16.059287,"is_passed":false}],"15224":[{"stop_id":"U18009Z21","name":"Znojmo, autobusové nádraží","arrival_time":"18:59:00","departure_time":"18:59:00","lat":48.852761,"lon":16.059287,"is_passed":false},{"stop_id":"U28102Z11","name":"Dyje","arrival_time":"19:04:00","departure_time":"19:04:00","lat":48.850047,"lon":16.1205,"is_passed":false},{"stop_id":"U28101Z11","name":"Hodonice","arrival_time":"19:08:00","departure_time":"19:09:00","lat":48.841514,"lon":16.164403,"is_passed":false},{"stop_id":"U18208Z11","name":"Božice, železniční stanice","arrival_time":"19:18:00","departure_time":"19:19:00","lat":48.823282,"lon":16.287832,"is_passed":false},{"stop_id":"U15637Z11","name":"Hrušovany nad Jevišovkou, žel. st.","arrival_time":"19:26:00","departure_time":"19:29:00","lat":48.810029,"lon":16.383137,"is_passed":false}],"15225":[{"stop_id":"U15637Z11","name":"Hrušovany nad Jevišovkou, žel. st.","arrival_time":"19:29:00","departure_time":"19:29:00","lat":48.810029,"lon":16.383137,"is_passed":false},{"stop_id":"U25505Z11","name":"Jevišovka","arrival_time":"19:35:00","departure_time":"19:35:00","lat":48.820272,"lon":16.467125,"is_passed":false},{"stop_id":"U15563Z11","name":"Novosedly, železniční stanice","arrival_time":"19:38:00","departure_time":"19:39:00","lat":48.825719,"lon":16.49405,"is_passed":false},{"stop_id":"U25602Z11","name":"Dobré Pole","arrival_time":"19:43:00","departure_time":"19:43:00","lat":48.820008,"lon":16.533833,"is_passed":false},{"stop_id":"U25601Z11","name":"Březí","arrival_time":"19:45:00","departure_time":"19:46:00","lat":48.812925,"lon":16.554169,"is_passed":false},{"stop_id":"U15714Z11","name":"Mikulov, železniční stanice","arrival_time":"19:51:00","departure_time":"19:52:00","lat":48.802203,"lon":16.625492,"is_passed":false},{"stop_id":"U25701Z11","name":"Sedlec u Mikulova","arrival_time":"19:57:00","departure_time":"19:59:00","lat":48.774727,"lon":16.697093,"is_passed":false},{"stop_id":"U15811Z11","name":"Valtice, železniční stanice","arrival_time":"20:03:00","departure_time":"20:03:00","lat":48.747484,"lon":16.742944,"is_passed":false},{"stop_id":"U15828Z11","name":"Valtice, železniční zastávka","arrival_time":"20:05:00","departure_time":"20:06:00","lat":48.748776,"lon":16.762369,"is_passed":false},{"stop_id":"U25702Z11","name":"Boří les","arrival_time":"20:12:00","departure_time":"20:13:00","lat":48.737912,"lon":16.867165,"is_passed":false},{"stop_id":"U15729Z15","name":"Břeclav, autobusové nádraží","arrival_time":"20:16:00","departure_time":"20:45:00","lat":48.753851,"lon":16.893169,"is_passed":false}],"15226":[{"stop_id":"U15729Z14","name":"Břeclav, autobusové nádraží","arrival_time":"20:45:00","departure_time":"20:45:00","lat":48.753851,"lon":16.893169,"is_passed":false},{"stop_id":"U15828Z10","name":"Valtice, železniční zastávka","arrival_time":"20:53:00","departure_time":"20:53:00","lat":48.748776,"lon":16.762369,"is_passed":false},{"stop_id":"U25701Z10","name":"Sedlec u Mikulova","arrival_time":"20:58:00","departure_time":"20:59:00","lat":48.774739,"lon":16.696954,"is_passed":false},{"stop_id":"U15714Z10","name":"Mikulov, železniční stanice","arrival_time":"21:04:00","departure_time":"21:05:00","lat":48.802203,"lon":16.625492,"is_passed":false},{"stop_id":"U25601Z10","name":"Březí","arrival_time":"21:10:00","departure_time":"21:10:00","lat":48.812925,"lon":16.554169,"is_passed":false},{"stop_id":"U25602Z10","name":"Dobré Pole","arrival_time":"21:12:00","departure_time":"21:12:00","lat":48.820008,"lon":16.533833,"is_passed":false},{"stop_id":"U15563Z10","name":"Novosedly, železniční stanice","arrival_time":"21:17:00","departure_time":"21:17:00","lat":48.825719,"lon":16.49405,"is_passed":false},{"stop_id":"U25505Z10","name":"Jevišovka","arrival_time":"21:20:00","departure_time":"21:20:00","lat":48.820272,"lon":16.467125,"is_passed":false},{"stop_id":"U15637Z10","name":"Hrušovany nad Jevišovkou, žel. st.","arrival_time":"21:27:00","departure_time":"21:27:00","lat":48.810029,"lon":16.383137,"is_passed":false}],"15227":[{"stop_id":"U15729Z14","name":"Břeclav, autobusové nádraží","arrival_time":"21:42:00","departure_time":"21:42:00","lat":48.753851,"lon":16.893169,"is_passed":false},{"stop_id":"U25702Z10","name":"Boří les","arrival_time":"21:45:00","departure_time":"21:45:00","lat":48.737922,"lon":16.866996,"is_passed":false},{"stop_id":"U15828Z10","name":"Valtice, železniční zastávka","arrival_time":"21:52:00","departure_time":"21:53:00","lat":48.748776,"lon":16.762369,"is_passed":false},{"stop_id":"U25701Z10","name":"Sedlec u Mikulova","arrival_time":"21:58:00","departure_time":"22:00:00","lat":48.774739,"lon":16.696954,"is_passed":false},{"stop_id":"U15714Z10","name":"Mikulov, železniční stanice","arrival_time":"22:05:00","departure_time":"22:10:00","lat":48.802203,"lon":16.625492,"is_passed":false},{"stop_id":"U25601Z10","name":"Březí","arrival_time":"22:15:00","departure_time":"22:15:00","lat":48.812925,"lon":16.554169,"is_passed":false},{"stop_id":"U25602Z10","name":"Dobré Pole","arrival_time":"22:17:00","departure_time":"22:17:00","lat":48.820008,"lon":16.533833,"is_passed":false},{"stop_id":"U15563Z10","name":"Novosedly, železniční stanice","arrival_time":"22:22:00","departure_time":"22:22:00","lat":48.825719,"lon":16.49405,"is_passed":false},{"stop_id":"U25505Z10","name":"Jevišovka","arrival_time":"22:25:00","departure_time":"22:25:00","lat":48.820272,"lon":16.467125,"is_passed":false},{"stop_id":"U15637Z10","name":"Hrušovany nad Jevišovkou, žel. st.","arrival_time":"22:32:00","departure_time":"22:33:00","lat":48.810029,"lon":16.383137,"is_passed":false},{"stop_id":"U18208Z10","name":"Božice, železniční stanice","arrival_time":"22:41:00","departure_time":"22:41:00","lat":48.823282,"lon":16.287832,"is_passed":false},{"stop_id":"U28101Z10","name":"Hodonice","arrival_time":"22:50:00","departure_time":"22:50:00","lat":48.841514,"lon":16.164403,"is_passed":false},{"stop_id":"U28102Z10","name":"Dyje","arrival_time":"22:54:00","departure_time":"22:54:00","lat":48.850047,"lon":16.1205,"is_passed":false},{"stop_id":"U18009Z20","name":"Znojmo, autobusové nádraží","arrival_time":"23:00:00","departure_time":"23:00:00","lat":48.852761,"lon":16.059287,"is_passed":false}],"15228":[{"stop_id":"U15403Z10","name":"Hustopeče, autobusové nádraží","arrival_time":"5:04:00","departure_time":"5:04:00","lat":48.93752,"lon":16.735901,"is_passed":false},{"stop_id":"U15425Z10","name":"Šakvice, železniční stanice","arrival_time":"5:10:00","departure_time":"5:11:00","lat":48.912883,"lon":16.70557,"is_passed":false},{"stop_id":"U25402Z10","name":"Popice","arrival_time":"5:13:00","departure_time":"5:14:00","lat":48.924332,"lon":16.668084,"is_passed":false},{"stop_id":"U25401Z10","name":"Pouzdřany","arrival_time":"5:17:00","departure_time":"5:17:00","lat":48.942025,"lon":16.630527,"is_passed":false},{"stop_id":"U15307Z10","name":"Vranovice, žel.st.","arrival_time":"5:20:00","departure_time":"5:21:00","lat":48.964528,"lon":16.604187,"is_passed":false},{"stop_id":"U15306Z10","name":"Žabčice, žel. st.","arrival_time":"5:24:00","departure_time":"5:25:00","lat":49.010865,"lon":16.594993,"is_passed":false},{"stop_id":"U15222Z10","name":"Hrušovany u Brna, žel. st.","arrival_time":"5:28:00","departure_time":"5:32:00","lat":49.034228,"lon":16.591501,"is_passed":false},{"stop_id":"U15181Z10","name":"Rajhrad, železniční stanice","arrival_time":"5:36:00","departure_time":"5:37:00","lat":49.084966,"lon":16.60532,"is_passed":false},{"stop_id":"U15140Z10","name":"Modřice, železniční stanice","arrival_time":"5:40:00","departure_time":"5:41:00","lat":49.133256,"lon":16.606209,"is_passed":false},{"stop_id":"U1146Z99","name":"Hlavní nádraží","arrival_time":"5:48:00","departure_time":"5:53:00","lat":49.19035,"lon":16.612342,"is_passed":false},{"stop_id":"U1809Z10","name":"Židenice, nádraží","arrival_time":"5:56:00","departure_time":"5:57:00","lat":49.204282,"lon":16.636042,"is_passed":false},{"stop_id":"U1331Z10","name":"Lesná, nádraží","arrival_time":"6:02:00","departure_time":"6:03:00","lat":49.220432,"lon":16.627505,"is_passed":false},{"stop_id":"U1286Z10","name":"Královo Pole, nádraží","arrival_time":"6:06:00","departure_time":"6:07:00","lat":49.231051,"lon":16.596651,"is_passed":false},{"stop_id":"U1557Z10","name":"Řečkovice, nádraží","arrival_time":"6:09:00","departure_time":"6:10:00","lat":49.250794,"lon":16.590446,"is_passed":false},{"stop_id":"U13109Z10","name":"Česká, železniční stanice","arrival_time":"6:13:00","departure_time":"6:14:00","lat":49.284546,"lon":16.566731,"is_passed":false},{"stop_id":"U13143Z10","name":"Kuřim, železniční stanice","arrival_time":"6:17:00","departure_time":"6:18:00","lat":49.301,"lon":16.534523,"is_passed":false},{"stop_id":"U13206Z10","name":"Čebín, železniční stanice","arrival_time":"6:23:00","departure_time":"6:23:00","lat":49.319722,"lon":16.465278,"is_passed":false},{"stop_id":"U13306Z10","name":"Hradčany, železniční stanice","arrival_time":"6:26:00","departure_time":"6:26:00","lat":49.334153,"lon":16.437807,"is_passed":false},{"stop_id":"U13334Z20","name":"Tišnov, železniční stanice","arrival_time":"6:29:00","departure_time":"6:30:00","lat":49.3475,"lon":16.41725,"is_passed":false},{"stop_id":"U13411Z10","name":"Dolní Loučky, železniční stanice","arrival_time":"6:34:00","departure_time":"6:34:00","lat":49.356389,"lon":16.346945,"is_passed":false},{"stop_id":"U13425Z10","name":"Řikonín, železniční stanice","arrival_time":"6:37:00","departure_time":"6:37:00","lat":49.365833,"lon":16.305833,"is_passed":false},{"stop_id":"U13454Z10","name":"Níhov, železniční stanice","arrival_time":"6:41:00","departure_time":"6:41:00","lat":49.336616,"lon":16.270487,"is_passed":false},{"stop_id":"U23501Z1","name":"Vlkov-Osová","arrival_time":"6:46:00","departure_time":"6:46:00","lat":49.326883,"lon":16.202114,"is_passed":false},{"stop_id":"U30305Z1","name":"Osová Bítýška","arrival_time":"6:49:00","departure_time":"6:49:00","lat":49.329893,"lon":16.168305,"is_passed":false},{"stop_id":"U30302Z1","name":"Ořechov","arrival_time":"6:52:00","departure_time":"6:52:00","lat":49.350503,"lon":16.136551,"is_passed":false},{"stop_id":"U30009Z1","name":"Křižanov","arrival_time":"6:58:00","departure_time":"9:00:00","lat":49.384877,"lon":16.080351,"is_passed":false}],"15229":[{"stop_id":"U30009Z2","name":"Křižanov","arrival_time":"9:00:00","departure_time":"9:00:00","lat":49.384694,"lon":16.080389,"is_passed":false},{"stop_id":"U30302Z2","name":"Ořechov","arrival_time":"9:04:00","departure_time":"9:04:00","lat":49.350447,"lon":16.136416,"is_passed":false},{"stop_id":"U30305Z2","name":"Osová Bítýška","arrival_time":"9:08:00","departure_time":"9:08:00","lat":49.329893,"lon":16.168305,"is_passed":false},{"stop_id":"U23501Z2","name":"Vlkov-Osová","arrival_time":"9:10:00","departure_time":"9:11:00","lat":49.326883,"lon":16.202114,"is_passed":false},{"stop_id":"U13454Z11","name":"Níhov, železniční stanice","arrival_time":"9:15:00","departure_time":"9:16:00","lat":49.33637,"lon":16.270573,"is_passed":false},{"stop_id":"U13425Z11","name":"Řikonín, železniční stanice","arrival_time":"9:19:00","departure_time":"9:20:00","lat":49.365833,"lon":16.305833,"is_passed":false},{"stop_id":"U13411Z11","name":"Dolní Loučky, železniční stanice","arrival_time":"9:22:00","departure_time":"9:22:00","lat":49.356389,"lon":16.346945,"is_passed":false},{"stop_id":"U13334Z21","name":"Tišnov, železniční stanice","arrival_time":"9:28:00","departure_time":"9:29:00","lat":49.3475,"lon":16.41725,"is_passed":false},{"stop_id":"U13306Z11","name":"Hradčany, železniční stanice","arrival_time":"9:31:00","departure_time":"9:32:00","lat":49.333878,"lon":16.437893,"is_passed":false},{"stop_id":"U13206Z11","name":"Čebín, železniční stanice","arrival_time":"9:34:00","departure_time":"9:35:00","lat":49.319722,"lon":16.465278,"is_passed":false},{"stop_id":"U13143Z11","name":"Kuřim, železniční stanice","arrival_time":"9:40:00","departure_time":"9:41:00","lat":49.301,"lon":16.534523,"is_passed":false},{"stop_id":"U13109Z11","name":"Česká, železniční stanice","arrival_time":"9:43:00","departure_time":"9:44:00","lat":49.284546,"lon":16.566731,"is_passed":false},{"stop_id":"U1557Z11","name":"Řečkovice, nádraží","arrival_time":"9:48:00","departure_time":"9:48:00","lat":49.250794,"lon":16.590446,"is_passed":false},{"stop_id":"U1286Z11","name":"Královo Pole, nádraží","arrival_time":"9:51:00","departure_time":"9:52:00","lat":49.231051,"lon":16.596651,"is_passed":false},{"stop_id":"U1331Z11","name":"Lesná, nádraží","arrival_time":"9:54:00","departure_time":"9:55:00","lat":49.220432,"lon":16.627505,"is_passed":false},{"stop_id":"U1809Z11","name":"Židenice, nádraží","arrival_time":"10:01:00","departure_time":"10:01:00","lat":49.204282,"lon":16.636042,"is_passed":false},{"stop_id":"U1146Z98","name":"Hlavní nádraží","arrival_time":"10:06:00","departure_time":"10:09:00","lat":49.19035,"lon":16.612342,"is_passed":false},{"stop_id":"U11002Z11","name":"Brno-Horní Heršpice","arrival_time":"10:13:00","departure_time":"10:14:00","lat":49.167404,"lon":16.60686,"is_passed":false},{"stop_id":"U15140Z11","name":"Modřice, železniční stanice","arrival_time":"10:17:00","departure_time":"10:18:00","lat":49.133256,"lon":16.606209,"is_passed":false},{"stop_id":"U15181Z11","name":"Rajhrad, železniční stanice","arrival_time":"10:21:00","departure_time":"10:22:00","lat":49.084966,"lon":16.60532,"is_passed":false},{"stop_id":"U15222Z11","name":"Hrušovany u Brna, žel. st.","arrival_time":"10:26:00","departure_time":"10:30:00","lat":49.034228,"lon":16.591501,"is_passed":false},{"stop_id":"U15306Z11","name":"Žabčice, žel. st.","arrival_time":"10:33:00","departure_time":"10:33:00","lat":49.010857,"lon":16.594833,"is_passed":false},{"stop_id":"U15307Z11","name":"Vranovice, žel.st.","arrival_time":"10:37:00","departure_time":"10:38:00","lat":48.964528,"lon":16.604187,"is_passed":false},{"stop_id":"U25401Z11","name":"Pouzdřany","arrival_time":"10:40:00","departure_time":"10:41:00","lat":48.942025,"lon":16.630527,"is_passed":false},{"stop_id":"U25402Z11","name":"Popice","arrival_time":"10:44:00","departure_time":"10:44:00","lat":48.924332,"lon":16.668084,"is_passed":false},{"stop_id":"U15425Z11","name":"Šakvice, železniční stanice","arrival_time":"10:47:00","departure_time":"10:48:00","lat":48.912883,"lon":16.70557,"is_passed":false},{"stop_id":"U15403Z11","name":"Hustopeče, autobusové nádraží","arrival_time":"10:55:00","departure_time":"11:04:00","lat":48.93752,"lon":16.735901,"is_passed":false}],"15230":[{"stop_id":"U15403Z10","name":"Hustopeče, autobusové nádraží","arrival_time":"11:04:00","departure_time":"11:04:00","lat":48.93752,"lon":16.735901,"is_passed":false},{"stop_id":"U15425Z10","name":"Šakvice, železniční stanice","arrival_time":"11:10:00","departure_time":"11:11:00","lat":48.912883,"lon":16.70557,"is_passed":false},{"stop_id":"U25402Z10","name":"Popice","arrival_time":"11:13:00","departure_time":"11:14:00","lat":48.924332,"lon":16.668084,"is_passed":false},{"stop_id":"U25401Z10","name":"Pouzdřany","arrival_time":"11:17:00","departure_time":"11:17:00","lat":48.942025,"lon":16.630527,"is_passed":false},{"stop_id":"U15307Z10","name":"Vranovice, žel.st.","arrival_time":"11:20:00","departure_time":"11:21:00","lat":48.964528,"lon":16.604187,"is_passed":false},{"stop_id":"U15306Z10","name":"Žabčice, žel. st.","arrival_time":"11:24:00","departure_time":"11:25:00","lat":49.010865,"lon":16.594993,"is_passed":false},{"stop_id":"U15222Z10","name":"Hrušovany u Brna, žel. st.","arrival_time":"11:28:00","departure_time":"11:32:00","lat":49.034228,"lon":16.591501,"is_passed":false},{"stop_id":"U15181Z10","name":"Rajhrad, železniční stanice","arrival_time":"11:36:00","departure_time":"11:37:00","lat":49.084966,"lon":16.60532,"is_passed":false},{"stop_id":"U15140Z10","name":"Modřice, železniční stanice","arrival_time":"11:40:00","departure_time":"11:41:00","lat":49.133256,"lon":16.606209,"is_passed":false},{"stop_id":"U1146Z99","name":"Hlavní nádraží","arrival_time":"11:48:00","departure_time":"11:53:00","lat":49.19035,"lon":16.612342,"is_passed":false},{"stop_id":"U1809Z10","name":"Židenice, nádraží","arrival_time":"11:56:00","departure_time":"11:57:00","lat":49.204282,"lon":16.636042,"is_passed":false},{"stop_id":"U1331Z10","name":"Lesná, nádraží","arrival_time":"12:02:00","departure_time":"12:03:00","lat":49.220432,"lon":16.627505,"is_passed":false},{"stop_id":"U1286Z10","name":"Královo Pole, nádraží","arrival_time":"12:06:00","departure_time":"12:07:00","lat":49.231051,"lon":16.596651,"is_passed":false},{"stop_id":"U1557Z10","name":"Řečkovice, nádraží","arrival_time":"12:09:00","departure_time":"12:10:00","lat":49.250794,"lon":16.590446,"is_passed":false},{"stop_id":"U13109Z10","name":"Česká, železniční stanice","arrival_time":"12:13:00","departure_time":"12:14:00","lat":49.284546,"lon":16.566731,"is_passed":false},{"stop_id":"U13143Z10","name":"Kuřim, železniční stanice","arrival_time":"12:17:00","departure_time":"12:18:00","lat":49.301,"lon":16.534523,"is_passed":false},{"stop_id":"U13206Z10","name":"Čebín, železniční stanice","arrival_time":"12:23:00","departure_time":"12:23:00","lat":49.319722,"lon":16.465278,"is_passed":false},{"stop_id":"U13306Z10","name":"Hradčany, železniční stanice","arrival_time":"12:26:00","departure_time":"12:26:00","lat":49.334153,"lon":16.437807,"is_passed":false},{"stop_id":"U13334Z20","name":"Tišnov, železniční stanice","arrival_time":"12:29:00","departure_time":"12:30:00","lat":49.3475,"lon":16.41725,"is_passed":false},{"stop_id":"U13411Z10","name":"Dolní Loučky, železniční stanice","arrival_time":"12:34:00","departure_time":"12:34:00","lat":49.356389,"lon":16.346945,"is_passed":false},{"stop_id":"U13425Z10","name":"Řikonín, železniční stanice","arrival_time":"12:37:00","departure_time":"12:37:00","lat":49.365833,"lon":16.305833,"is_passed":false},{"stop_id":"U13454Z10","name":"Níhov, železniční stanice","arrival_time":"12:41:00","departure_time":"12:41:00","lat":49.336616,"lon":16.270487,"is_passed":false},{"stop_id":"U23501Z1","name":"Vlkov-Osová","arrival_time":"12:46:00","departure_time":"12:46:00","lat":49.326883,"lon":16.202114,"is_passed":false},{"stop_id":"U30305Z1","name":"Osová Bítýška","arrival_time":"12:49:00","departure_time":"12:49:00","lat":49.329893,"lon":16.168305,"is_passed":false},{"stop_id":"U30302Z1","name":"Ořechov","arrival_time":"12:52:00","departure_time":"12:52:00","lat":49.350503,"lon":16.136551,"is_passed":false},{"stop_id":"U30009Z1","name":"Křižanov","arrival_time":"12:58:00","departure_time":"15:00:00","lat":49.384877,"lon":16.080351,"is_passed":false}],"15231":[{"stop_id":"U30009Z2","name":"Křižanov","arrival_time":"15:00:00","departure_time":"15:00:00","lat":49.384694,"lon":16.080389,"is_passed":false},{"stop_id":"U30302Z2","name":"Ořechov","arrival_time":"15:04:00","departure_time":"15:04:00","lat":49.350447,"lon":16.136416,"is_passed":false},{"stop_id":"U30305Z2","name":"Osová Bítýška","arrival_time":"15:08:00","departure_time":"15:08:00","lat":49.329893,"lon":16.168305,"is_passed":false},{"stop_id":"U23501Z2","name":"Vlkov-Osová","arrival_time":"15:10:00","departure_time":"15:11:00","lat":49.326883,"lon":16.202114,"is_passed":false},{"stop_id":"U13454Z11","name":"Níhov, železniční stanice","arrival_time":"15:15:00","departure_time":"15:16:00","lat":49.33637,"lon":16.270573,"is_passed":false},{"stop_id":"U13425Z11","name":"Řikonín, železniční stanice","arrival_time":"15:19:00","departure_time":"15:20:00","lat":49.365833,"lon":16.305833,"is_passed":false},{"stop_id":"U13411Z11","name":"Dolní Loučky, železniční stanice","arrival_time":"15:22:00","departure_time":"15:22:00","lat":49.356389,"lon":16.346945,"is_passed":false},{"stop_id":"U13334Z21","name":"Tišnov, železniční stanice","arrival_time":"15:28:00","departure_time":"15:29:00","lat":49.3475,"lon":16.41725,"is_passed":false},{"stop_id":"U13306Z11","name":"Hradčany, železniční stanice","arrival_time":"15:31:00","departure_time":"15:32:00","lat":49.333878,"lon":16.437893,"is_passed":false},{"stop_id":"U13206Z11","name":"Čebín, železniční stanice","arrival_time":"15:34:00","departure_time":"15:35:00","lat":49.319722,"lon":16.465278,"is_passed":false},{"stop_id":"U13143Z11","name":"Kuřim, železniční stanice","arrival_time":"15:40:00","departure_time":"15:41:00","lat":49.301,"lon":16.534523,"is_passed":false},{"stop_id":"U13109Z11","name":"Česká, železniční stanice","arrival_time":"15:43:00","departure_time":"15:44:00","lat":49.284546,"lon":16.566731,"is_passed":false},{"stop_id":"U1557Z11","name":"Řečkovice, nádraží","arrival_time":"15:48:00","departure_time":"15:48:00","lat":49.250794,"lon":16.590446,"is_passed":false},{"stop_id":"U1286Z11","name":"Královo Pole, nádraží","arrival_time":"15:51:00","departure_time":"15:52:00","lat":49.231051,"lon":16.596651,"is_passed":false},{"stop_id":"U1331Z11","name":"Lesná, nádraží","arrival_time":"15:54:00","departure_time":"15:55:00","lat":49.220432,"lon":16.627505,"is_passed":false},{"stop_id":"U1809Z11","name":"Židenice, nádraží","arrival_time":"16:01:00","departure_time":"16:01:00","lat":49.204282,"lon":16.636042,"is_passed":false},{"stop_id":"U1146Z98","name":"Hlavní nádraží","arrival_time":"16:06:00","departure_time":"16:09:00","lat":49.19035,"lon":16.612342,"is_passed":false},{"stop_id":"U11002Z11","name":"Brno-Horní Heršpice","arrival_time":"16:13:00","departure_time":"16:13:00","lat":49.167404,"lon":16.60686,"is_passed":false},{"stop_id":"U15140Z11","name":"Modřice, železniční stanice","arrival_time":"16:17:00","departure_time":"16:18:00","lat":49.133256,"lon":16.606209,"is_passed":false},{"stop_id":"U15181Z11","name":"Rajhrad, železniční stanice","arrival_time":"16:21:00","departure_time":"16:22:00","lat":49.084966,"lon":16.60532,"is_passed":false},{"stop_id":"U15222Z11","name":"Hrušovany u Brna, žel. st.","arrival_time":"16:26:00","departure_time":"16:30:00","lat":49.034228,"lon":16.591501,"is_passed":false},{"stop_id":"U15306Z11","name":"Žabčice, žel. st.","arrival_time":"16:33:00","departure_time":"16:33:00","lat":49.010857,"lon":16.594833,"is_passed":false},{"stop_id":"U15307Z11","name":"Vranovice, žel.st.","arrival_time":"16:37:00","departure_time":"16:38:00","lat":48.964528,"lon":16.604187,"is_passed":false},{"stop_id":"U25401Z11","name":"Pouzdřany","arrival_time":"16:40:00","departure_time":"16:41:00","lat":48.942025,"lon":16.630527,"is_passed":false},{"stop_id":"U25402Z11","name":"Popice","arrival_time":"16:44:00","departure_time":"16:44:00","lat":48.924332,"lon":16.668084,"is_passed":false},{"stop_id":"U15425Z11","name":"Šakvice, železniční stanice","arrival_time":"16:47:00","departure_time":"16:48:00","lat":48.912883,"lon":16.70557,"is_passed":false},{"stop_id":"U15403Z11","name":"Hustopeče, autobusové nádraží","arrival_time":"16:55:00","departure_time":"17:04:00","lat":48.93752,"lon":16.735901,"is_passed":false}],"15232":[{"stop_id":"U15403Z10","name":"Hustopeče, autobusové nádraží","arrival_time":"17:04:00","departure_time":"17:04:00","lat":48.93752,"lon":16.735901,"is_passed":false},{"stop_id":"U15425Z10","name":"Šakvice, železniční stanice","arrival_time":"17:10:00","departure_time":"17:11:00","lat":48.912883,"lon":16.70557,"is_passed":false},{"stop_id":"U25402Z10","name":"Popice","arrival_time":"17:13:00","departure_time":"17:14:00","lat":48.924332,"lon":16.668084,"is_passed":false},{"stop_id":"U25401Z10","name":"Pouzdřany","arrival_time":"17:17:00","departure_time":"17:17:00","lat":48.942025,"lon":16.630527,"is_passed":false},{"stop_id":"U15307Z10","name":"Vranovice, žel.st.","arrival_time":"17:20:00","departure_time":"17:21:00","lat":48.964528,"lon":16.604187,"is_passed":false},{"stop_id":"U15306Z10","name":"Žabčice, žel. st.","arrival_time":"17:24:00","departure_time":"17:25:00","lat":49.010865,"lon":16.594993,"is_passed":false},{"stop_id":"U15222Z10","name":"Hrušovany u Brna, žel. st.","arrival_time":"17:28:00","departure_time":"17:32:00","lat":49.034228,"lon":16.591501,"is_passed":false},{"stop_id":"U15181Z10","name":"Rajhrad, železniční stanice","arrival_time":"17:36:00","departure_time":"17:37:00","lat":49.084966,"lon":16.60532,"is_passed":false},{"stop_id":"U15140Z10","name":"Modřice, železniční stanice","arrival_time":"17:40:00","departure_time":"17:41:00","lat":49.133256,"lon":16.606209,"is_passed":false},{"stop_id":"U1146Z99","name":"Hlavní nádraží","arrival_time":"17:48:00","departure_time":"17:53:00","lat":49.19035,"lon":16.612342,"is_passed":false},{"stop_id":"U1809Z10","name":"Židenice, nádraží","arrival_time":"17:56:00","departure_time":"17:57:00","lat":49.204282,"lon":16.636042,"is_passed":false},{"stop_id":"U1331Z10","name":"Lesná, nádraží","arrival_time":"18:02:00","departure_time":"18:03:00","lat":49.220432,"lon":16.627505,"is_passed":false},{"stop_id":"U1286Z10","name":"Královo Pole, nádraží","arrival_time":"18:06:00","departure_time":"18:07:00","lat":49.231051,"lon":16.596651,"is_passed":false},{"stop_id":"U1557Z10","name":"Řečkovice, nádraží","arrival_time":"18:09:00","departure_time":"18:10:00","lat":49.250794,"lon":16.590446,"is_passed":false},{"stop_id":"U13109Z10","name":"Česká, železniční stanice","arrival_time":"18:13:00","departure_time":"18:14:00","lat":49.284546,"lon":16.566731,"is_passed":false},{"stop_id":"U13143Z10","name":"Kuřim, železniční stanice","arrival_time":"18:17:00","departure_time":"18:18:00","lat":49.301,"lon":16.534523,"is_passed":false},{"stop_id":"U13206Z10","name":"Čebín, železniční stanice","arrival_time":"18:23:00","departure_time":"18:23:00","lat":49.319722,"lon":16.465278,"is_passed":false},{"stop_id":"U13306Z10","name":"Hradčany, železniční stanice","arrival_time":"18:26:00","departure_time":"18:26:00","lat":49.334153,"lon":16.437807,"is_passed":false},{"stop_id":"U13334Z20","name":"Tišnov, železniční stanice","arrival_time":"18:29:00","departure_time":"18:30:00","lat":49.3475,"lon":16.41725,"is_passed":false},{"stop_id":"U13411Z10","name":"Dolní Loučky, železniční stanice","arrival_time":"18:34:00","departure_time":"18:34:00","lat":49.356389,"lon":16.346945,"is_passed":false},{"stop_id":"U13425Z10","name":"Řikonín, železniční stanice","arrival_time":"18:37:00","departure_time":"18:37:00","lat":49.365833,"lon":16.305833,"is_passed":false},{"stop_id":"U13454Z10","name":"Níhov, železniční stanice","arrival_time":"18:41:00","departure_time":"18:41:00","lat":49.336616,"lon":16.270487,"is_passed":false},{"stop_id":"U23501Z1","name":"Vlkov-Osová","arrival_time":"18:46:00","departure_time":"18:46:00","lat":49.326883,"lon":16.202114,"is_passed":false},{"stop_id":"U30305Z1","name":"Osová Bítýška","arrival_time":"18:49:00","departure_time":"18:49:00","lat":49.329893,"lon":16.168305,"is_passed":false},{"stop_id":"U30302Z1","name":"Ořechov","arrival_time":"18:52:00","departure_time":"18:52:00","lat":49.350503,"lon":16.136551,"is_passed":false},{"stop_id":"U30009Z1","name":"Křižanov","arrival_time":"18:58:00","departure_time":"21:00:00","lat":49.384877,"lon":16.080351,"is_passed":false}],"15233":[{"stop_id":"U30009Z2","name":"Křižanov","arrival_time":"21:00:00","departure_time":"21:00:00","lat":49.384694,"lon":16.080389,"is_passed":false},{"stop_id":"U30302Z2","name":"Ořechov","arrival_time":"21:04:00","departure_time":"21:04:00","lat":49.350447,"lon":16.136416,"is_passed":false},{"stop_id":"U30305Z2","name":"Osová Bítýška","arrival_time":"21:08:00","departure_time":"21:08:00","lat":49.329893,"lon":16.168305,"is_passed":false},{"stop_id":"U23501Z2","name":"Vlkov-Osová","arrival_time":"21:10:00","departure_time":"21:11:00","lat":49.326883,"lon":16.202114,"is_passed":false},{"stop_id":"U13454Z11","name":"Níhov, železniční stanice","arrival_time":"21:15:00","departure_time":"21:16:00","lat":49.33637,"lon":16.270573,"is_passed":false},{"stop_id":"U13425Z11","name":"Řikonín, železniční stanice","arrival_time":"21:19:00","departure_time":"21:20:00","lat":49.365833,"lon":16.305833,"is_passed":false},{"stop_id":"U13411Z11","name":"Dolní Loučky, železniční stanice","arrival_time":"21:22:00","departure_time":"21:22:00","lat":49.356389,"lon":16.346945,"is_passed":false},{"stop_id":"U13334Z21","name":"Tišnov, železniční stanice","arrival_time":"21:28:00","departure_time":"21:29:00","lat":49.3475,"lon":16.41725,"is_passed":false},{"stop_id":"U13306Z11","name":"Hradčany, železniční stanice","arrival_time":"21:31:00","departure_time":"21:32:00","lat":49.333878,"lon":16.437893,"is_passed":false},{"stop_id":"U13206Z11","name":"Čebín, železniční stanice","arrival_time":"21:34:00","departure_time":"21:35:00","lat":49.319722,"lon":16.465278,"is_passed":false},{"stop_id":"U13143Z11","name":"Kuřim, železniční stanice","arrival_time":"21:40:00","departure_time":"21:41:00","lat":49.301,"lon":16.534523,"is_passed":false},{"stop_id":"U13109Z11","name":"Česká, železniční stanice","arrival_time":"21:43:00","departure_time":"21:44:00","lat":49.284546,"lon":16.566731,"is_passed":false},{"stop_id":"U1557Z11","name":"Řečkovice, nádraží","arrival_time":"21:48:00","departure_time":"21:48:00","lat":49.250794,"lon":16.590446,"is_passed":false},{"stop_id":"U1286Z11","name":"Královo Pole, nádraží","arrival_time":"21:51:00","departure_time":"21:52:00","lat":49.231051,"lon":16.596651,"is_passed":false},{"stop_id":"U1331Z11","name":"Lesná, nádraží","arrival_time":"21:54:00","departure_time":"21:55:00","lat":49.220432,"lon":16.627505,"is_passed":false},{"stop_id":"U1809Z11","name":"Židenice, nádraží","arrival_time":"22:01:00","departure_time":"22:01:00","lat":49.204282,"lon":16.636042,"is_passed":false},{"stop_id":"U1146Z98","name":"Hlavní nádraží","arrival_time":"22:06:00","departure_time":"22:09:00","lat":49.19035,"lon":16.612342,"is_passed":false},{"stop_id":"U11002Z11","name":"Brno-Horní Heršpice","arrival_time":"22:13:00","departure_time":"22:14:00","lat":49.167404,"lon":16.60686,"is_passed":false},{"stop_id":"U15140Z11","name":"Modřice, železniční stanice","arrival_time":"22:17:00","departure_time":"22:18:00","lat":49.133256,"lon":16.606209,"is_passed":false},{"stop_id":"U15181Z11","name":"Rajhrad, železniční stanice","arrival_time":"22:21:00","departure_time":"22:22:00","lat":49.084966,"lon":16.60532,"is_passed":false},{"stop_id":"U15222Z11","name":"Hrušovany u Brna, žel. st.","arrival_time":"22:26:00","departure_time":"22:30:00","lat":49.034228,"lon":16.591501,"is_passed":false},{"stop_id":"U15306Z11","name":"Žabčice, žel. st.","arrival_time":"22:33:00","departure_time":"22:33:00","lat":49.010857,"lon":16.594833,"is_passed":false},{"stop_id":"U15307Z11","name":"Vranovice, žel.st.","arrival_time":"22:37:00","departure_time":"22:38:00","lat":48.964528,"lon":16.604187,"is_passed":false},{"stop_id":"U25401Z11","name":"Pouzdřany","arrival_time":"22:40:00","departure_time":"22:41:00","lat":48.942025,"lon":16.630527,"is_passed":false},{"stop_id":"U25402Z11","name":"Popice","arrival_time":"22:44:00","departure_time":"22:44:00","lat":48.924332,"lon":16.668084,"is_passed":false},{"stop_id":"U15425Z11","name":"Šakvice, železniční stanice","arrival_time":"22:47:00","departure_time":"22:48:00","lat":48.912883,"lon":16.70557,"is_passed":false},{"stop_id":"U15403Z11","name":"Hustopeče, autobusové nádraží","arrival_time":"22:55:00","departure_time":"22:55:00","lat":48.93752,"lon":16.735901,"is_passed":false}],"15234":[{"stop_id":"U30009Z2","name":"Křižanov","arrival_time":"5:00:00","departure_time":"5:00:00","lat":49.384694,"lon":16.080389,"is_passed":false},{"stop_id":"U30302Z2","name":"Ořechov","arrival_time":"5:04:00","departure_time":"5:04:00","lat":49.350447,"lon":16.136416,"is_passed":false},{"stop_id":"U30305Z2","name":"Osová Bítýška","arrival_time":"5:08:00","departure_time":"5:08:00","lat":49.329893,"lon":16.168305,"is_passed":false},{"stop_id":"U23501Z2","name":"Vlkov-Osová","arrival_time":"5:10:00","departure_time":"5:11:00","lat":49.326883,"lon":16.202114,"is_passed":false},{"stop_id":"U13454Z11","name":"Níhov, železniční stanice","arrival_time":"5:15:00","departure_time":"5:16:00","lat":49.33637,"lon":16.270573,"is_passed":false},{"stop_id":"U13425Z11","name":"Řikonín, železniční stanice","arrival_time":"5:19:00","departure_time":"5:20:00","lat":49.365833,"lon":16.305833,"is_passed":false},{"stop_id":"U13411Z11","name":"Dolní Loučky, železniční stanice","arrival_time":"5:22:00","departure_time":"5:22:00","lat":49.356389,"lon":16.346945,"is_passed":false},{"stop_id":"U13334Z21","name":"Tišnov, železniční stanice","arrival_time":"5:28:00","departure_time":"5:29:00","lat":49.3475,"lon":16.41725,"is_passed":false},{"stop_id":"U13306Z11","name":"Hradčany, železniční stanice","arrival_time":"5:31:00","departure_time":"5:32:00","lat":49.333878,"lon":16.437893,"is_passed":false},{"stop_id":"U13206Z11","name":"Čebín, železniční stanice","arrival_time":"5:34:00","departure_time":"5:35:00","lat":49.319722,"lon":16.465278,"is_passed":false},{"stop_id":"U13143Z11","name":"Kuřim, železniční stanice","arrival_time":"5:40:00","departure_time":"5:41:00","lat":49.301,"lon":16.534523,"is_passed":false},{"stop_id":"U13109Z11","name":"Česká, železniční stanice","arrival_time":"5:43:00","departure_time":"5:44:00","lat":49.284546,"lon":16.566731,"is_passed":false},{"stop_id":"U1557Z11","name":"Řečkovice, nádraží","arrival_time":"5:48:00","departure_time":"5:48:00","lat":49.250794,"lon":16.590446,"is_passed":false},{"stop_id":"U1286Z11","name":"Královo Pole, nádraží","arrival_time":"5:51:00","departure_time":"5:52:00","lat":49.231051,"lon":16.596651,"is_passed":false},{"stop_id":"U1331Z11","name":"Lesná, nádraží","arrival_time":"5:54:00","departure_time":"5:55:00","lat":49.220432,"lon":16.627505,"is_passed":false},{"stop_id":"U1809Z11","name":"Židenice, nádraží","arrival_time":"6:01:00","departure_time":"6:01:00","lat":49.204282,"lon":16.636042,"is_passed":false},{"stop_id":"U1146Z98","name":"Hlavní nádraží","arrival_time":"6:06:00","departure_time":"6:09:00","lat":49.19035,"lon":16.612342,"is_passed":false},{"stop_id":"U15140Z11","name":"Modřice, železniční stanice","arrival_time":"6:15:00","departure_time":"6:18:00","lat":49.133256,"lon":16.606209,"is_passed":false},{"stop_id":"U15181Z11","name":"Rajhrad, železniční stanice","arrival_time":"6:21:00","departure_time":"6:22:00","lat":49.084966,"lon":16.60532,"is_passed":false},{"stop_id":"U15222Z11","name":"Hrušovany u Brna, žel. st.","arrival_time":"6:26:00","departure_time":"6:30:00","lat":49.034228,"lon":16.591501,"is_passed":false},{"stop_id":"U15306Z11","name":"Žabčice, žel. st.","arrival_time":"6:33:00","departure_time":"6:33:00","lat":49.010857,"lon":16.594833,"is_passed":false},{"stop_id":"U15307Z11","name":"Vranovice, žel.st.","arrival_time":"6:37:00","departure_time":"6:38:00","lat":48.964528,"lon":16.604187,"is_passed":false},{"stop_id":"U25401Z11","name":"Pouzdřany","arrival_time":"6:40:00","departure_time":"6:41:00","lat":48.942025,"lon":16.630527,"is_passed":false},{"stop_id":"U25402Z11","name":"Popice","arrival_time":"6:44:00","departure_time":"6:44:00","lat":48.924332,"lon":16.668084,"is_passed":false},{"stop_id":"U15425Z11","name":"Šakvice, železniční stanice","arrival_time":"6:47:00","departure_time":"6:48:00","lat":48.912883,"lon":16.70557,"is_passed":false},{"stop_id":"U15403Z11","name":"Hustopeče, autobusové nádraží","arrival_time":"6:55:00","departure_time":"7:04:00","lat":48.93752,"lon":16.735901,"is_passed":false}],"15235":[{"stop_id":"U15403Z10","name":"Hustopeče, autobusové nádraží","arrival_time":"7:04:00","departure_time":"7:04:00","lat":48.93752,"lon":16.735901,"is_passed":false},{"stop_id":"U15425Z10","name":"Šakvice, železniční stanice","arrival_time":"7:10:00","departure_time":"7:11:00","lat":48.912883,"lon":16.70557,"is_passed":false},{"stop_id":"U25402Z10","name":"Popice","arrival_time":"7:13:00","departure_time":"7:14:00","lat":48.924332,"lon":16.668084,"is_passed":false},{"stop_id":"U25401Z10","name":"Pouzdřany","arrival_time":"7:17:00","departure_time":"7:17:00","lat":48.942025,"lon":16.630527,"is_passed":false},{"stop_id":"U15307Z10","name":"Vranovice, žel.st.","arrival_time":"7:20:00","departure_time":"7:21:00","lat":48.964528,"lon":16.604187,"is_passed":false},{"stop_id":"U15306Z10","name":"Žabčice, žel. st.","arrival_time":"7:24:00","departure_time":"7:25:00","lat":49.010865,"lon":16.594993,"is_passed":false},{"stop_id":"U15222Z10","name":"Hrušovany u Brna, žel. st.","arrival_time":"7:28:00","departure_time":"7:32:00","lat":49.034228,"lon":16.591501,"is_passed":false},{"stop_id":"U15181Z10","name":"Rajhrad, železniční stanice","arrival_time":"7:36:00","departure_time":"7:37:00","lat":49.084966,"lon":16.60532,"is_passed":false},{"stop_id":"U15140Z10","name":"Modřice, železniční stanice","arrival_time":"7:40:00","departure_time":"7:41:00","lat":49.133256,"lon":16.606209,"is_passed":false},{"stop_id":"U1146Z99","name":"Hlavní nádraží","arrival_time":"7:48:00","departure_time":"7:53:00","lat":49.19035,"lon":16.612342,"is_passed":false},{"stop_id":"U1809Z10","name":"Židenice, nádraží","arrival_time":"7:56:00","departure_time":"7:57:00","lat":49.204282,"lon":16.636042,"is_passed":false},{"stop_id":"U1331Z10","name":"Lesná, nádraží","arrival_time":"8:02:00","departure_time":"8:03:00","lat":49.220432,"lon":16.627505,"is_passed":false},{"stop_id":"U1286Z10","name":"Královo Pole, nádraží","arrival_time":"8:06:00","departure_time":"8:07:00","lat":49.231051,"lon":16.596651,"is_passed":false},{"stop_id":"U1557Z10","name":"Řečkovice, nádraží","arrival_time":"8:09:00","departure_time":"8:10:00","lat":49.250794,"lon":16.590446,"is_passed":false},{"stop_id":"U13109Z10","name":"Česká, železniční stanice","arrival_time":"8:13:00","departure_time":"8:14:00","lat":49.284546,"lon":16.566731,"is_passed":false},{"stop_id":"U13143Z10","name":"Kuřim, železniční stanice","arrival_time":"8:17:00","departure_time":"8:18:00","lat":49.301,"lon":16.534523,"is_passed":false},{"stop_id":"U13206Z10","name":"Čebín, železniční stanice","arrival_time":"8:23:00","departure_time":"8:23:00","lat":49.319722,"lon":16.465278,"is_passed":false},{"stop_id":"U13306Z10","name":"Hradčany, železniční stanice","arrival_time":"8:26:00","departure_time":"8:26:00","lat":49.334153,"lon":16.437807,"is_passed":false},{"stop_id":"U13334Z20","name":"Tišnov, železniční stanice","arrival_time":"8:29:00","departure_time":"8:30:00","lat":49.3475,"lon":16.41725,"is_passed":false},{"stop_id":"U13411Z10","name":"Dolní Loučky, železniční stanice","arrival_time":"8:34:00","departure_time":"8:34:00","lat":49.356389,"lon":16.346945,"is_passed":false},{"stop_id":"U13425Z10","name":"Řikonín, železniční stanice","arrival_time":"8:37:00","departure_time":"8:37:00","lat":49.365833,"lon":16.305833,"is_passed":false},{"stop_id":"U13454Z10","name":"Níhov, železniční stanice","arrival_time":"8:41:00","departure_time":"8:41:00","lat":49.336616,"lon":16.270487,"is_passed":false},{"stop_id":"U23501Z1","name":"Vlkov-Osová","arrival_time":"8:46:00","departure_time":"8:46:00","lat":49.326883,"lon":16.202114,"is_passed":false},{"stop_id":"U30305Z1","name":"Osová Bítýška","arrival_time":"8:49:00","departure_time":"8:49:00","lat":49.329893,"lon":16.168305,"is_passed":false},{"stop_id":"U30302Z1","name":"Ořechov","arrival_time":"8:52:00","departure_time":"8:52:00","lat":49.350503,"lon":16.136551,"is_passed":false},{"stop_id":"U30009Z1","name":"Křižanov","arrival_time":"8:58:00","departure_time":"11:00:00","lat":49.384877,"lon":16.080351,"is_passed":false}],"15236":[{"stop_id":"U30009Z2","name":"Křižanov","arrival_time":"11:00:00","departure_time":"11:00:00","lat":49.384694,"lon":16.080389,"is_passed":false},{"stop_id":"U30302Z2","name":"Ořechov","arrival_time":"11:04:00","departure_time":"11:04:00","lat":49.350447,"lon":16.136416,"is_passed":false},{"stop_id":"U30305Z2","name":"Osová Bítýška","arrival_time":"11:08:00","departure_time":"11:08:00","lat":49.329893,"lon":16.168305,"is_passed":false},{"stop_id":"U23501Z2","name":"Vlkov-Osová","arrival_time":"11:10:00","departure_time":"11:11:00","lat":49.326883,"lon":16.202114,"is_passed":false},{"stop_id":"U13454Z11","name":"Níhov, železniční stanice","arrival_time":"11:15:00","departure_time":"11:16:00","lat":49.33637,"lon":16.270573,"is_passed":false},{"stop_id":"U13425Z11","name":"Řikonín, železniční stanice","arrival_time":"11:19:00","departure_time":"11:20:00","lat":49.365833,"lon":16.305833,"is_passed":false},{"stop_id":"U13411Z11","name":"Dolní Loučky, železniční stanice","arrival_time":"11:22:00","departure_time":"11:22:00","lat":49.356389,"lon":16.346945,"is_passed":false},{"stop_id":"U13334Z21","name":"Tišnov, železniční stanice","arrival_time":"11:28:00","departure_time":"11:29:00","lat":49.3475,"lon":16.41725,"is_passed":false},{"stop_id":"U13306Z11","name":"Hradčany, železniční stanice","arrival_time":"11:31:00","departure_time":"11:32:00","lat":49.333878,"lon":16.437893,"is_passed":false},{"stop_id":"U13206Z11","name":"Čebín, železniční stanice","arrival_time":"11:34:00","departure_time":"11:35:00","lat":49.319722,"lon":16.465278,"is_passed":false},{"stop_id":"U13143Z11","name":"Kuřim, železniční stanice","arrival_time":"11:40:00","departure_time":"11:41:00","lat":49.301,"lon":16.534523,"is_passed":false},{"stop_id":"U13109Z11","name":"Česká, železniční stanice","arrival_time":"11:43:00","departure_time":"11:44:00","lat":49.284546,"lon":16.566731,"is_passed":false},{"stop_id":"U1557Z11","name":"Řečkovice, nádraží","arrival_time":"11:48:00","departure_time":"11:48:00","lat":49.250794,"lon":16.590446,"is_passed":false},{"stop_id":"U1286Z11","name":"Královo Pole, nádraží","arrival_time":"11:51:00","departure_time":"11:52:00","lat":49.231051,"lon":16.596651,"is_passed":false},{"stop_id":"U1331Z11","name":"Lesná, nádraží","arrival_time":"11:54:00","departure_time":"11:55:00","lat":49.220432,"lon":16.627505,"is_passed":false},{"stop_id":"U1809Z11","name":"Židenice, nádraží","arrival_time":"12:01:00","departure_time":"12:01:00","lat":49.204282,"lon":16.636042,"is_passed":false},{"stop_id":"U1146Z98","name":"Hlavní nádraží","arrival_time":"12:06:00","departure_time":"12:09:00","lat":49.19035,"lon":16.612342,"is_passed":false},{"stop_id":"U11002Z11","name":"Brno-Horní Heršpice","arrival_time":"12:13:00","departure_time":"12:14:00","lat":49.167404,"lon":16.60686,"is_passed":false},{"stop_id":"U15140Z11","name":"Modřice, železniční stanice","arrival_time":"12:17:00","departure_time":"12:18:00","lat":49.133256,"lon":16.606209,"is_passed":false},{"stop_id":"U15181Z11","name":"Rajhrad, železniční stanice","arrival_time":"12:21:00","departure_time":"12:22:00","lat":49.084966,"lon":16.60532,"is_passed":false},{"stop_id":"U15222Z11","name":"Hrušovany u Brna, žel. st.","arrival_time":"12:26:00","departure_time":"12:30:00","lat":49.034228,"lon":16.591501,"is_passed":false},{"stop_id":"U15306Z11","name":"Žabčice, žel. st.","arrival_time":"12:33:00","departure_time":"12:33:00","lat":49.010857,"lon":16.594833,"is_passed":false},{"stop_id":"U15307Z11","name":"Vranovice, žel.st.","arrival_time":"12:37:00","departure_time":"12:38:00","lat":48.964528,"lon":16.604187,"is_passed":false},{"stop_id":"U25401Z11","name":"Pouzdřany","arrival_time":"12:40:00","departure_time":"12:41:00","lat":48.942025,"lon":16.630527,"is_passed":false},{"stop_id":"U25402Z11","name":"Popice","arrival_time":"12:44:00","departure_time":"12:44:00","lat":48.924332,"lon":16.668084,"is_passed":false},{"stop_id":"U15425Z11","name":"Šakvice, železniční stanice","arrival_time":"12:47:00","departure_time":"12:48:00","lat":48.912883,"lon":16.70557,"is_passed":false},{"stop_id":"U15403Z11","name":"Hustopeče, autobusové nádraží","arrival_time":"12:55:00","departure_time":"13:04:00","lat":48.93752,"lon":16.735901,"is_passed":false}],"15237":[{"stop_id":"U15403Z10","name":"Hustopeče, autobusové nádraží","arrival_time":"13:04:00","departure_time":"13:04:00","lat":48.93752,"lon":16.735901,"is_passed":false},{"stop_id":"U15425Z10","name":"Šakvice, železniční stanice","arrival_time":"13:10:00","departure_time":"13:11:00","lat":48.912883,"lon":16.70557,"is_passed":false},{"stop_id":"U25402Z10","name":"Popice","arrival_time":"13:13:00","departure_time":"13:14:00","lat":48.924332,"lon":16.668084,"is_passed":false},{"stop_id":"U25401Z10","name":"Pouzdřany","arrival_time":"13:17:00","departure_time":"13:17:00","lat":48.942025,"lon":16.630527,"is_passed":false},{"stop_id":"U15307Z10","name":"Vranovice, žel.st.","arrival_time":"13:20:00","departure_time":"13:21:00","lat":48.964528,"lon":16.604187,"is_passed":false},{"stop_id":"U15306Z10","name":"Žabčice, žel. st.","arrival_time":"13:24:00","departure_time":"13:25:00","lat":49.010865,"lon":16.594993,"is_passed":false},{"stop_id":"U15222Z10","name":"Hrušovany u Brna, žel. st.","arrival_time":"13:28:00","departure_time":"13:32:00","lat":49.034228,"lon":16.591501,"is_passed":false},{"stop_id":"U15181Z10","name":"Rajhrad, železniční stanice","arrival_time":"13:36:00","departure_time":"13:37:00","lat":49.084966,"lon":16.60532,"is_passed":false},{"stop_id":"U15140Z10","name":"Modřice, železniční stanice","arrival_time":"13:40:00","departure_time":"13:41:00","lat":49.133256,"lon":16.606209,"is_passed":false},{"stop_id":"U1146Z99","name":"Hlavní nádraží","arrival_time":"13:48:00","departure_time":"13:53:00","lat":49.19035,"lon":16.612342,"is_passed":false},{"stop_id":"U1809Z10","name":"Židenice, nádraží","arrival_time":"13:56:00","departure_time":"13:57:00","lat":49.204282,"lon":16.636042,"is_passed":false},{"stop_id":"U1331Z10","name":"Lesná, nádraží","arrival_time":"14:02:00","departure_time":"14:03:00","lat":49.220432,"lon":16.627505,"is_passed":false},{"stop_id":"U1286Z10","name":"Královo Pole, nádraží","arrival_time":"14:06:00","departure_time":"14:07:00","lat":49.231051,"lon":16.596651,"is_passed":false},{"stop_id":"U1557Z10","name":"Řečkovice, nádraží","arrival_time":"14:09:00","departure_time":"14:10:00","lat":49.250794,"lon":16.590446,"is_passed":false},{"stop_id":"U13109Z10","name":"Česká, železniční stanice","arrival_time":"14:13:00","departure_time":"14:14:00","lat":49.284546,"lon":16.566731,"is_passed":false},{"stop_id":"U13143Z10","name":"Kuřim, železniční stanice","arrival_time":"14:17:00","departure_time":"14:18:00","lat":49.301,"lon":16.534523,"is_passed":false},{"stop_id":"U13206Z10","name":"Čebín, železniční stanice","arrival_time":"14:23:00","departure_time":"14:23:00","lat":49.319722,"lon":16.465278,"is_passed":false},{"stop_id":"U13306Z10","name":"Hradčany, železniční stanice","arrival_time":"14:26:00","departure_time":"14:26:00","lat":49.334153,"lon":16.437807,"is_passed":false},{"stop_id":"U13334Z20","name":"Tišnov, železniční stanice","arrival_time":"14:29:00","departure_time":"14:30:00","lat":49.3475,"lon":16.41725,"is_passed":false},{"stop_id":"U13411Z10","name":"Dolní Loučky, železniční stanice","arrival_time":"14:34:00","departure_time":"14:34:00","lat":49.356389,"lon":16.346945,"is_passed":false},{"stop_id":"U13425Z10","name":"Řikonín, železniční stanice","arrival_time":"14:37:00","departure_time":"14:37:00","lat":49.365833,"lon":16.305833,"is_passed":false},{"stop_id":"U13454Z10","name":"Níhov, železniční stanice","arrival_time":"14:41:00","departure_time":"14:41:00","lat":49.336616,"lon":16.270487,"is_passed":false},{"stop_id":"U23501Z1","name":"Vlkov-Osová","arrival_time":"14:46:00","departure_time":"14:46:00","lat":49.326883,"lon":16.202114,"is_passed":false},{"stop_id":"U30305Z1","name":"Osová Bítýška","arrival_time":"14:49:00","departure_time":"14:49:00","lat":49.329893,"lon":16.168305,"is_passed":false},{"stop_id":"U30302Z1","name":"Ořechov","arrival_time":"14:52:00","departure_time":"14:52:00","lat":49.350503,"lon":16.136551,"is_passed":false},{"stop_id":"U30009Z1","name":"Křižanov","arrival_time":"14:58:00","departure_time":"17:00:00","lat":49.384877,"lon":16.080351,"is_passed":false}],"15238":[{"stop_id":"U30009Z2","name":"Křižanov","arrival_time":"17:00:00","departure_time":"17:00:00","lat":49.384694,"lon":16.080389,"is_passed":false},{"stop_id":"U30302Z2","name":"Ořechov","arrival_time":"17:04:00","departure_time":"17:04:00","lat":49.350447,"lon":16.136416,"is_passed":false},{"stop_id":"U30305Z2","name":"Osová Bítýška","arrival_time":"17:08:00","departure_time":"17:08:00","lat":49.329893,"lon":16.168305,"is_passed":false},{"stop_id":"U23501Z2","name":"Vlkov-Osová","arrival_time":"17:10:00","departure_time":"17:11:00","lat":49.326883,"lon":16.202114,"is_passed":false},{"stop_id":"U13454Z11","name":"Níhov, železniční stanice","arrival_time":"17:15:00","departure_time":"17:16:00","lat":49.33637,"lon":16.270573,"is_passed":false},{"stop_id":"U13425Z11","name":"Řikonín, železniční stanice","arrival_time":"17:19:00","departure_time":"17:20:00","lat":49.365833,"lon":16.305833,"is_passed":false},{"stop_id":"U13411Z11","name":"Dolní Loučky, železniční stanice","arrival_time":"17:22:00","departure_time":"17:22:00","lat":49.356389,"lon":16.346945,"is_passed":false},{"stop_id":"U13334Z21","name":"Tišnov, železniční stanice","arrival_time":"17:28:00","departure_time":"17:29:00","lat":49.3475,"lon":16.41725,"is_passed":false},{"stop_id":"U13306Z11","name":"Hradčany, železniční stanice","arrival_time":"17:31:00","departure_time":"17:32:00","lat":49.333878,"lon":16.437893,"is_passed":false},{"stop_id":"U13206Z11","name":"Čebín, železniční stanice","arrival_time":"17:34:00","departure_time":"17:35:00","lat":49.319722,"lon":16.465278,"is_passed":false},{"stop_id":"U13143Z11","name":"Kuřim, železniční stanice","arrival_time":"17:40:00","departure_time":"17:41:00","lat":49.301,"lon":16.534523,"is_passed":false},{"stop_id":"U13109Z11","name":"Česká, železniční stanice","arrival_time":"17:43:00","departure_time":"17:44:00","lat":49.284546,"lon":16.566731,"is_passed":false},{"stop_id":"U1557Z11","name":"Řečkovice, nádraží","arrival_time":"17:48:00","departure_time":"17:48:00","lat":49.250794,"lon":16.590446,"is_passed":false},{"stop_id":"U1286Z11","name":"Královo Pole, nádraží","arrival_time":"17:51:00","departure_time":"17:52:00","lat":49.231051,"lon":16.596651,"is_passed":false},{"stop_id":"U1331Z11","name":"Lesná, nádraží","arrival_time":"17:54:00","departure_time":"17:55:00","lat":49.220432,"lon":16.627505,"is_passed":false},{"stop_id":"U1809Z11","name":"Židenice, nádraží","arrival_time":"18:01:00","departure_time":"18:01:00","lat":49.204282,"lon":16.636042,"is_passed":false},{"stop_id":"U1146Z98","name":"Hlavní nádraží","arrival_time":"18:06:00","departure_time":"18:09:00","lat":49.19035,"lon":16.612342,"is_passed":false},{"stop_id":"U11002Z11","name":"Brno-Horní Heršpice","arrival_time":"18:13:00","departure_time":"18:13:00","lat":49.167404,"lon":16.60686,"is_passed":false},{"stop_id":"U15140Z11","name":"Modřice, železniční stanice","arrival_time":"18:17:00","departure_time":"18:18:00","lat":49.133256,"lon":16.606209,"is_passed":false},{"stop_id":"U15181Z11","name":"Rajhrad, železniční stanice","arrival_time":"18:21:00","departure_time":"18:22:00","lat":49.084966,"lon":16.60532,"is_passed":false},{"stop_id":"U15222Z11","name":"Hrušovany u Brna, žel. st.","arrival_time":"18:26:00","departure_time":"18:30:00","lat":49.034228,"lon":16.591501,"is_passed":false},{"stop_id":"U15306Z11","name":"Žabčice, žel. st.","arrival_time":"18:33:00","departure_time":"18:33:00","lat":49.010857,"lon":16.594833,"is_passed":false},{"stop_id":"U15307Z11","name":"Vranovice, žel.st.","arrival_time":"18:37:00","departure_time":"18:38:00","lat":48.964528,"lon":16.604187,"is_passed":false},{"stop_id":"U25401Z11","name":"Pouzdřany","arrival_time":"18:40:00","departure_time":"18:41:00","lat":48.942025,"lon":16.630527,"is_passed":false},{"stop_id":"U25402Z11","name":"Popice","arrival_time":"18:44:00","departure_time":"18:44:00","lat":48.924332,"lon":16.668084,"is_passed":false},{"stop_id":"U15425Z11","name":"Šakvice, železniční stanice","arrival_time":"18:47:00","departure_time":"18:48:00","lat":48.912883,"lon":16.70557,"is_passed":false},{"stop_id":"U15403Z11","name":"Hustopeče, autobusové nádraží","arrival_time":"18:55:00","departure_time":"19:04:00","lat":48.93752,"lon":16.735901,"is_passed":false}],"15239":[{"stop_id":"U15403Z10","name":"Hustopeče, autobusové nádraží","arrival_time":"19:04:00","departure_time":"19:04:00","lat":48.93752,"lon":16.735901,"is_passed":false},{"stop_id":"U15425Z10","name":"Šakvice, železniční stanice","arrival_time":"19:10:00","departure_time":"19:11:00","lat":48.912883,"lon":16.70557,"is_passed":false},{"stop_id":"U25402Z10","name":"Popice","arrival_time":"19:13:00","departure_time":"19:14:00","lat":48.924332,"lon":16.668084,"is_passed":false},{"stop_id":"U25401Z10","name":"Pouzdřany","arrival_time":"19:17:00","departure_time":"19:17:00","lat":48.942025,"lon":16.630527,"is_passed":false},{"stop_id":"U15307Z10","name":"Vranovice, žel.st.","arrival_time":"19:20:00","departure_time":"19:21:00","lat":48.964528,"lon":16.604187,"is_passed":false},{"stop_id":"U15306Z10","name":"Žabčice, žel. st.","arrival_time":"19:24:00","departure_time":"19:25:00","lat":49.010865,"lon":16.594993,"is_passed":false},{"stop_id":"U15222Z10","name":"Hrušovany u Brna, žel. st.","arrival_time":"19:28:00","departure_time":"19:32:00","lat":49.034228,"lon":16.591501,"is_passed":false},{"stop_id":"U15181Z10","name":"Rajhrad, železniční stanice","arrival_time":"19:36:00","departure_time":"19:37:00","lat":49.084966,"lon":16.60532,"is_passed":false},{"stop_id":"U15140Z10","name":"Modřice, železniční stanice","arrival_time":"19:40:00","departure_time":"19:41:00","lat":49.133256,"lon":16.606209,"is_passed":false},{"stop_id":"U1146Z99","name":"Hlavní nádraží","arrival_time":"19:48:00","departure_time":"19:53:00","lat":49.19035,"lon":16.612342,"is_passed":false},{"stop_id":"U1809Z10","name":"Židenice, nádraží","arrival_time":"19:56:00","departure_time":"19:57:00","lat":49.204282,"lon":16.636042,"is_passed":false},{"stop_id":"U1331Z10","name":"Lesná, nádraží","arrival_time":"20:02:00","departure_time":"20:03:00","lat":49.220432,"lon":16.627505,"is_passed":false},{"stop_id":"U1286Z10","name":"Královo Pole, nádraží","arrival_time":"20:06:00","departure_time":"20:07:00","lat":49.231051,"lon":16.596651,"is_passed":false},{"stop_id":"U1557Z10","name":"Řečkovice, nádraží","arrival_time":"20:09:00","departure_time":"20:10:00","lat":49.250794,"lon":16.590446,"is_passed":false},{"stop_id":"U13109Z10","name":"Česká, železniční stanice","arrival_time":"20:13:00","departure_time":"20:14:00","lat":49.284546,"lon":16.566731,"is_passed":false},{"stop_id":"U13143Z10","name":"Kuřim, železniční stanice","arrival_time":"20:17:00","departure_time":"20:18:00","lat":49.301,"lon":16.534523,"is_passed":false},{"stop_id":"U13206Z10","name":"Čebín, železniční stanice","arrival_time":"20:23:00","departure_time":"20:23:00","lat":49.319722,"lon":16.465278,"is_passed":false},{"stop_id":"U13306Z10","name":"Hradčany, železniční stanice","arrival_time":"20:26:00","departure_time":"20:26:00","lat":49.334153,"lon":16.437807,"is_passed":false},{"stop_id":"U13334Z20","name":"Tišnov, železniční stanice","arrival_time":"20:29:00","departure_time":"20:30:00","lat":49.3475,"lon":16.41725,"is_passed":false},{"stop_id":"U13411Z10","name":"Dolní Loučky, železniční stanice","arrival_time":"20:34:00","departure_time":"20:34:00","lat":49.356389,"lon":16.346945,"is_passed":false},{"stop_id":"U13425Z10","name":"Řikonín, železniční stanice","arrival_time":"20:37:00","departure_time":"20:37:00","lat":49.365833,"lon":16.305833,"is_passed":false},{"stop_id":"U13454Z10","name":"Níhov, železniční stanice","arrival_time":"20:41:00","departure_time":"20:41:00","lat":49.336616,"lon":16.270487,"is_passed":false},{"stop_id":"U23501Z1","name":"Vlkov-Osová","arrival_time":"20:46:00","departure_time":"20:46:00","lat":49.326883,"lon":16.202114,"is_passed":false},{"stop_id":"U30305Z1","name":"Osová Bítýška","arrival_time":"20:49:00","departure_time":"20:49:00","lat":49.329893,"lon":16.168305,"is_passed":false},{"stop_id":"U30302Z1","name":"Ořechov","arrival_time":"20:52:00","departure_time":"20:52:00","lat":49.350503,"lon":16.136551,"is_passed":false},{"stop_id":"U30009Z1","name":"Křižanov","arrival_time":"20:58:00","departure_time":"20:58:00","lat":49.384877,"lon":16.080351,"is_passed":false}],"15240":[{"stop_id":"U13334Z21","name":"Tišnov, železniční stanice","arrival_time":"6:29:00","departure_time":"6:29:00","lat":49.3475,"lon":16.41725,"is_passed":false},{"stop_id":"U13306Z11","name":"Hradčany, železniční stanice","arrival_time":"6:31:00","departure_time":"6:32:00","lat":49.333878,"lon":16.437893,"is_passed":false},{"stop_id":"U13206Z11","name":"Čebín, železniční stanice","arrival_time":"6:34:00","departure_time":"6:35:00","lat":49.319722,"lon":16.465278,"is_passed":false},{"stop_id":"U13143Z11","name":"Kuřim, železniční stanice","arrival_time":"6:40:00","departure_time":"6:41:00","lat":49.301,"lon":16.534523,"is_passed":false},{"stop_id":"U13109Z11","name":"Česká, železniční stanice","arrival_time":"6:43:00","departure_time":"6:44:00","lat":49.284546,"lon":16.566731,"is_passed":false},{"stop_id":"U1557Z11","name":"Řečkovice, nádraží","arrival_time":"6:48:00","departure_time":"6:48:00","lat":49.250794,"lon":16.590446,"is_passed":false},{"stop_id":"U1286Z11","name":"Královo Pole, nádraží","arrival_time":"6:51:00","departure_time":"6:52:00","lat":49.231051,"lon":16.596651,"is_passed":false},{"stop_id":"U1331Z11","name":"Lesná, nádraží","arrival_time":"6:54:00","departure_time":"6:55:00","lat":49.220432,"lon":16.627505,"is_passed":false},{"stop_id":"U1809Z11","name":"Židenice, nádraží","arrival_time":"7:01:00","departure_time":"7:01:00","lat":49.204282,"lon":16.636042,"is_passed":false},{"stop_id":"U1146Z98","name":"Hlavní nádraží","arrival_time":"7:06:00","departure_time":"7:09:00","lat":49.19035,"lon":16.612342,"is_passed":false},{"stop_id":"U15140Z11","name":"Modřice, železniční stanice","arrival_time":"7:15:00","departure_time":"7:18:00","lat":49.133256,"lon":16.606209,"is_passed":false},{"stop_id":"U15181Z11","name":"Rajhrad, železniční stanice","arrival_time":"7:21:00","departure_time":"7:22:00","lat":49.084966,"lon":16.60532,"is_passed":false},{"stop_id":"U15222Z11","name":"Hrušovany u Brna, žel. st.","arrival_time":"7:26:00","departure_time":"7:30:00","lat":49.034228,"lon":16.591501,"is_passed":false},{"stop_id":"U15306Z11","name":"Žabčice, žel. st.","arrival_time":"7:33:00","departure_time":"7:33:00","lat":49.010857,"lon":16.594833,"is_passed":false},{"stop_id":"U15307Z11","name":"Vranovice, žel.st.","arrival_time":"7:37:00","departure_time":"7:38:00","lat":48.964528,"lon":16.604187,"is_passed":false},{"stop_id":"U25401Z11","name":"Pouzdřany","arrival_time":"7:40:00","departure_time":"7:41:00","lat":48.942025,"lon":16.630527,"is_passed":false},{"stop_id":"U25402Z11","name":"Popice","arrival_time":"7:44:00","departure_time":"7:44:00","lat":48.924332,"lon":16.668084,"is_passed":false},{"stop_id":"U15425Z11","name":"Šakvice, železniční stanice","arrival_time":"7:47:00","departure_time":"7:48:00","lat":48.912883,"lon":16.70557,"is_passed":false},{"stop_id":"U15403Z11","name":"Hustopeče, autobusové nádraží","arrival_time":"7:55:00","departure_time":"8:04:00","lat":48.93752,"lon":16.735901,"is_passed":false}],"15241":[{"stop_id":"U15403Z10","name":"Hustopeče, autobusové nádraží","arrival_time":"8:04:00","departure_time":"8:04:00","lat":48.93752,"lon":16.735901,"is_passed":false},{"stop_id":"U15425Z10","name":"Šakvice, železniční stanice","arrival_time":"8:10:00","departure_time":"8:11:00","lat":48.912883,"lon":16.70557,"is_passed":false},{"stop_id":"U25402Z10","name":"Popice","arrival_time":"8:13:00","departure_time":"8:14:00","lat":48.924332,"lon":16.668084,"is_passed":false},{"stop_id":"U25401Z10","name":"Pouzdřany","arrival_time":"8:17:00","departure_time":"8:17:00","lat":48.942025,"lon":16.630527,"is_passed":false},{"stop_id":"U15307Z10","name":"Vranovice, žel.st.","arrival_time":"8:20:00","departure_time":"8:21:00","lat":48.964528,"lon":16.604187,"is_passed":false},{"stop_id":"U15306Z10","name":"Žabčice, žel. st.","arrival_time":"8:24:00","departure_time":"8:25:00","lat":49.010865,"lon":16.594993,"is_passed":false},{"stop_id":"U15222Z10","name":"Hrušovany u Brna, žel. st.","arrival_time":"8:28:00","departure_time":"8:32:00","lat":49.034228,"lon":16.591501,"is_passed":false},{"stop_id":"U15181Z10","name":"Rajhrad, železniční stanice","arrival_time":"8:36:00","departure_time":"8:37:00","lat":49.084966,"lon":16.60532,"is_passed":false},{"stop_id":"U15140Z10","name":"Modřice, železniční stanice","arrival_time":"8:40:00","departure_time":"8:41:00","lat":49.133256,"lon":16.606209,"is_passed":false},{"stop_id":"U1146Z99","name":"Hlavní nádraží","arrival_time":"8:49:00","departure_time":"8:51:00","lat":49.19035,"lon":16.612342,"is_passed":false},{"stop_id":"U1809Z10","name":"Židenice, nádraží","arrival_time":"8:54:00","departure_time":"8:56:00","lat":49.204282,"lon":16.636042,"is_passed":false},{"stop_id":"U1331Z10","name":"Lesná, nádraží","arrival_time":"9:03:00","departure_time":"9:03:00","lat":49.220432,"lon":16.627505,"is_passed":false},{"stop_id":"U1286Z10","name":"Královo Pole, nádraží","arrival_time":"9:06:00","departure_time":"9:07:00","lat":49.231051,"lon":16.596651,"is_passed":false},{"stop_id":"U1557Z10","name":"Řečkovice, nádraží","arrival_time":"9:09:00","departure_time":"9:10:00","lat":49.250794,"lon":16.590446,"is_passed":false},{"stop_id":"U13109Z10","name":"Česká, železniční stanice","arrival_time":"9:13:00","departure_time":"9:14:00","lat":49.284546,"lon":16.566731,"is_passed":false},{"stop_id":"U13143Z10","name":"Kuřim, železniční stanice","arrival_time":"9:17:00","departure_time":"9:18:00","lat":49.301,"lon":16.534523,"is_passed":false},{"stop_id":"U13206Z10","name":"Čebín, železniční stanice","arrival_time":"9:23:00","departure_time":"9:23:00","lat":49.319722,"lon":16.465278,"is_passed":false},{"stop_id":"U13306Z10","name":"Hradčany, železniční stanice","arrival_time":"9:26:00","departure_time":"9:26:00","lat":49.334153,"lon":16.437807,"is_passed":false},