[{"stop_id":"U19530Z10","name":"Velká nad Veličkou, železniční stanice","arrival_time":"7:00:00","departure_time":"7:00:00","lat":48.878631,"lon":17.51092,"is_passed":false},{"stop_id":"U29401Z10","name":"Louka u Ostrohu","arrival_time":"7:04:00","departure_time":"7:05:00","lat":48.912234,"lon":17.484226,"is_passed":false},{"stop_id":"U29402Z10","name":"Lipov","arrival_time":"7:07:00","departure_time":"7:08:00","lat":48.909806,"lon":17.457953,"is_passed":false},{"stop_id":"U29403Z10","name":"Blatnice pod Sv. Antonínkem","arrival_time":"7:13:00","departure_time":"7:13:00","lat":48.941163,"lon":17.437706,"is_passed":false},{"stop_id":"U19316Z10","name":"Veselí nad Moravou, železniční stanice","arrival_time":"7:18:00","departure_time":"7:21:00","lat":48.948694,"lon":17.382439,"is_passed":false}]