{"157":[{"stop_id":"U17423Z7","name":"Vyškov, Autobusové nádraží","arrival_time":"6:36:00","departure_time":"6:36:00","lat":49.275847,"lon":16.991949,"is_passed":false},{"stop_id":"U17429Z2","name":"Vyškov, garáže ČSAD","arrival_time":"6:38:00","departure_time":"6:38:00","lat":49.270982,"lon":16.988643,"is_passed":false},{"stop_id":"U17435Z2","name":"Vyškov, Nouzka","arrival_time":"6:39:00","departure_time":"6:39:00","lat":49.266834,"lon":16.980944,"is_passed":false},{"stop_id":"U17428Z2","name":"Vyškov, Drnovská Bioveta","arrival_time":"6:42:00","departure_time":"6:42:00","lat":49.25374,"lon":16.95539,"is_passed":false},{"stop_id":"U17328Z2","name":"Luleč, rozcestí","arrival_time":"6:44:00","departure_time":"6:44:00","lat":49.246772,"lon":16.941783,"is_passed":false},{"stop_id":"U17344Z2","name":"Tučapy, rozcestí","arrival_time":"6:46:00","departure_time":"6:46:00","lat":49.227053,"lon":16.915262,"is_passed":false},{"stop_id":"U17311Z4","name":"Komořany, EDP","arrival_time":"6:48:00","departure_time":"6:48:00","lat":49.219687,"lon":16.904328,"is_passed":false},{"stop_id":"U17331Z2","name":"Rousínov, Čechyně, rozcestí","arrival_time":"6:51:00","departure_time":"6:51:00","lat":49.207575,"lon":16.892772,"is_passed":false},{"stop_id":"U17335Z3","name":"Rousínov, autobusová stanice","arrival_time":"6:53:00","departure_time":"6:55:00","lat":49.203074,"lon":16.884769,"is_passed":false},{"stop_id":"U1677Z2","name":"Tržní","arrival_time":"7:14:00","departure_time":"7:14:00","lat":49.189407,"lon":16.629972,"is_passed":false},{"stop_id":"U1696Z5","name":"ÚAN Zvonařka","arrival_time":"7:18:00","departure_time":"7:34:00","lat":49.185364,"lon":16.616151,"is_passed":false}],"1570":[{"stop_id":"U19001Z21","name":"Hodonín, autobusové nádraží","arrival_time":"16:17:00","departure_time":"16:17:00","lat":48.85575,"lon":17.12069,"is_passed":false},{"stop_id":"U29102Z11","name":"Rohatec zastávka","arrival_time":"16:21:00","departure_time":"16:21:00","lat":48.88309,"lon":17.178111,"is_passed":false},{"stop_id":"U29103Z11","name":"Rohatec","arrival_time":"16:24:00","departure_time":"16:24:00","lat":48.892515,"lon":17.197852,"is_passed":false},{"stop_id":"U29104Z11","name":"Rohatec kolonie","arrival_time":"16:26:00","departure_time":"16:26:00","lat":48.892642,"lon":17.212111,"is_passed":false},{"stop_id":"U29202Z11","name":"Sudoměřice nad Moravou","arrival_time":"16:32:00","departure_time":"16:32:00","lat":48.871653,"lon":17.243039,"is_passed":false},{"stop_id":"U29201Z11","name":"Petrov","arrival_time":"16:35:00","departure_time":"16:36:00","lat":48.878911,"lon":17.273703,"is_passed":false},{"stop_id":"U19205Z11","name":"Strážnice, aut. st.","arrival_time":"16:40:00","departure_time":"16:41:00","lat":48.897385,"lon":17.317688,"is_passed":false},{"stop_id":"U29303Z11","name":"Vnorovy","arrival_time":"16:45:00","departure_time":"16:45:00","lat":48.931508,"lon":17.348464,"is_passed":false},{"stop_id":"U29302Z11","name":"Veselí nad Moravou-Zarazice","arrival_time":"16:47:00","departure_time":"16:47:00","lat":48.937236,"lon":17.361306,"is_passed":false},{"stop_id":"U19316Z11","name":"Veselí nad Moravou, železniční stanice","arrival_time":"16:50:00","departure_time":"17:03:00","lat":48.948694,"lon":17.382439,"is_passed":false},{"stop_id":"U29403Z11","name":"Blatnice pod Sv. Antonínkem","arrival_time":"17:07:00","departure_time":"17:07:00","lat":48.941163,"lon":17.437706,"is_passed":false},{"stop_id":"U29402Z11","name":"Lipov","arrival_time":"17:12:00","departure_time":"17:12:00","lat":48.909806,"lon":17.457953,"is_passed":false},{"stop_id":"U29401Z11","name":"Louka u Ostrohu","arrival_time":"17:15:00","departure_time":"17:15:00","lat":48.912234,"lon":17.484226,"is_passed":false},{"stop_id":"U19530Z11","name":"Velká nad Veličkou, železniční stanice","arrival_time":"17:21:00","departure_time":"17:23:00","lat":48.878631,"lon":17.51092,"is_passed":false},{"stop_id":"U29502Z11","name":"Javorník nad Veličkou zastávka","arrival_time":"17:26:00","departure_time":"17:26:00","lat":48.860802,"lon":17.520722,"is_passed":false},{"stop_id":"U29501Z11","name":"Vrbovce","arrival_time":"17:31:00","departure_time":"17:40:00","lat":48.824439,"lon":17.516352,"is_passed":false},{"stop_id":"U29504Z2","name":"Vrbovce zastávka","arrival_time":"17:43:00","departure_time":"17:44:00","lat":48.804784,"lon":17.52869,"is_passed":false},{"stop_id":"U29601Z2","name":"Brestovec","arrival_time":"17:47:00","departure_time":"17:47:00","lat":48.786012,"lon":17.557593,"is_passed":false},{"stop_id":"U29602Z2","name":"Myjava","arrival_time":"17:51:00","departure_time":"18:07:00","lat":48.763641,"lon":17.570897,"is_passed":false}],"1571":[{"stop_id":"U29602Z1","name":"Myjava","arrival_time":"18:07:00","departure_time":"18:07:00","lat":48.763641,"lon":17.570897,"is_passed":false},{"stop_id":"U29601Z1","name":"Brestovec","arrival_time":"18:10:00","departure_time":"18:11:00","lat":48.786012,"lon":17.557593,"is_passed":false},{"stop_id":"U29504Z1","name":"Vrbovce zastávka","arrival_time":"18:14:00","departure_time":"18:14:00","lat":48.804784,"lon":17.52869,"is_passed":false},{"stop_id":"U29501Z10","name":"Vrbovce","arrival_time":"18:17:00","departure_time":"18:30:00","lat":48.824439,"lon":17.516352,"is_passed":false},{"stop_id":"U29502Z10","name":"Javorník nad Veličkou zastávka","arrival_time":"18:34:00","departure_time":"18:34:00","lat":48.860868,"lon":17.520699,"is_passed":false},{"stop_id":"U19530Z10","name":"Velká nad Veličkou, železniční stanice","arrival_time":"18:37:00","departure_time":"18:39:00","lat":48.878631,"lon":17.51092,"is_passed":false},{"stop_id":"U29401Z10","name":"Louka u Ostrohu","arrival_time":"18:43:00","departure_time":"18:43:00","lat":48.912234,"lon":17.484226,"is_passed":false},{"stop_id":"U29402Z10","name":"Lipov","arrival_time":"18:46:00","departure_time":"18:46:00","lat":48.909806,"lon":17.457953,"is_passed":false},{"stop_id":"U29403Z10","name":"Blatnice pod Sv. Antonínkem","arrival_time":"18:51:00","departure_time":"18:51:00","lat":48.941163,"lon":17.437706,"is_passed":false},{"stop_id":"U19316Z10","name":"Veselí nad Moravou, železniční stanice","arrival_time":"18:57:00","departure_time":"19:12:00","lat":48.948694,"lon":17.382439,"is_passed":false},{"stop_id":"U29302Z10","name":"Veselí nad Moravou-Zarazice","arrival_time":"19:14:00","departure_time":"19:15:00","lat":48.937236,"lon":17.361306,"is_passed":false},{"stop_id":"U29303Z10","name":"Vnorovy","arrival_time":"19:17:00","departure_time":"19:17:00","lat":48.931508,"lon":17.348464,"is_passed":false},{"stop_id":"U19205Z10","name":"Strážnice, aut. st.","arrival_time":"19:22:00","departure_time":"19:23:00","lat":48.897385,"lon":17.317688,"is_passed":false},{"stop_id":"U29201Z10","name":"Petrov","arrival_time":"19:27:00","departure_time":"19:27:00","lat":48.878911,"lon":17.273703,"is_passed":false},{"stop_id":"U29202Z10","name":"Sudoměřice nad Moravou","arrival_time":"19:30:00","departure_time":"19:38:00","lat":48.871653,"lon":17.243039,"is_passed":false},{"stop_id":"U29104Z10","name":"Rohatec kolonie","arrival_time":"19:44:00","departure_time":"19:44:00","lat":48.892642,"lon":17.212111,"is_passed":false},{"stop_id":"U29103Z10","name":"Rohatec","arrival_time":"19:46:00","departure_time":"19:47:00","lat":48.892515,"lon":17.197852,"is_passed":false},{"stop_id":"U29102Z10","name":"Rohatec zastávka","arrival_time":"19:49:00","departure_time":"19:50:00","lat":48.88309,"lon":17.178111,"is_passed":false},{"stop_id":"U19001Z20","name":"Hodonín, autobusové nádraží","arrival_time":"19:55:00","departure_time":"20:22:00","lat":48.85575,"lon":17.12069,"is_passed":false}],"1572":[{"stop_id":"U19001Z21","name":"Hodonín, autobusové nádraží","arrival_time":"20:22:00","departure_time":"20:22:00","lat":48.85575,"lon":17.12069,"is_passed":false},{"stop_id":"U29102Z11","name":"Rohatec zastávka","arrival_time":"20:26:00","departure_time":"20:26:00","lat":48.88309,"lon":17.178111,"is_passed":false},{"stop_id":"U29103Z11","name":"Rohatec","arrival_time":"20:29:00","departure_time":"20:30:00","lat":48.892515,"lon":17.197852,"is_passed":false},{"stop_id":"U29202Z11","name":"Sudoměřice nad Moravou","arrival_time":"20:37:00","departure_time":"20:38:00","lat":48.871653,"lon":17.243039,"is_passed":false},{"stop_id":"U29201Z11","name":"Petrov","arrival_time":"20:41:00","departure_time":"20:41:00","lat":48.878911,"lon":17.273703,"is_passed":false},{"stop_id":"U19205Z11","name":"Strážnice, aut. st.","arrival_time":"20:45:00","departure_time":"20:48:00","lat":48.897385,"lon":17.317688,"is_passed":false},{"stop_id":"U29303Z11","name":"Vnorovy","arrival_time":"20:52:00","departure_time":"20:52:00","lat":48.931508,"lon":17.348464,"is_passed":false},{"stop_id":"U29302Z11","name":"Veselí nad Moravou-Zarazice","arrival_time":"20:54:00","departure_time":"20:54:00","lat":48.937236,"lon":17.361306,"is_passed":false},{"stop_id":"U19316Z11","name":"Veselí nad Moravou, železniční stanice","arrival_time":"20:57:00","departure_time":"21:03:00","lat":48.948694,"lon":17.382439,"is_passed":false},{"stop_id":"U29403Z11","name":"Blatnice pod Sv. Antonínkem","arrival_time":"21:07:00","departure_time":"21:07:00","lat":48.941163,"lon":17.437706,"is_passed":false},{"stop_id":"U29402Z11","name":"Lipov","arrival_time":"21:12:00","departure_time":"21:12:00","lat":48.909806,"lon":17.457953,"is_passed":false},{"stop_id":"U29401Z11","name":"Louka u Ostrohu","arrival_time":"21:15:00","departure_time":"21:15:00","lat":48.912234,"lon":17.484226,"is_passed":false},{"stop_id":"U19530Z11","name":"Velká nad Veličkou, železniční stanice","arrival_time":"21:20:00","departure_time":"21:22:00","lat":48.878631,"lon":17.51092,"is_passed":false},{"stop_id":"U29502Z11","name":"Javorník nad Veličkou zastávka","arrival_time":"21:25:00","departure_time":"21:25:00","lat":48.860802,"lon":17.520722,"is_passed":false}],"1573":[{"stop_id":"U29502Z10","name":"Javorník nad Veličkou zastávka","arrival_time":"4:45:00","departure_time":"4:45:00","lat":48.860868,"lon":17.520699,"is_passed":false},{"stop_id":"U19530Z10","name":"Velká nad Veličkou, železniční stanice","arrival_time":"4:47:00","departure_time":"4:48:00","lat":48.878631,"lon":17.51092,"is_passed":false},{"stop_id":"U29401Z10","name":"Louka u Ostrohu","arrival_time":"4:52:00","departure_time":"4:53:00","lat":48.912234,"lon":17.484226,"is_passed":false},{"stop_id":"U29402Z10","name":"Lipov","arrival_time":"4:55:00","departure_time":"4:56:00","lat":48.909806,"lon":17.457953,"is_passed":false},{"stop_id":"U29403Z10","name":"Blatnice pod Sv. Antonínkem","arrival_time":"5:01:00","departure_time":"5:01:00","lat":48.941163,"lon":17.437706,"is_passed":false},{"stop_id":"U19316Z10","name":"Veselí nad Moravou, železniční stanice","arrival_time":"5:06:00","departure_time":"5:12:00","lat":48.948694,"lon":17.382439,"is_passed":false},{"stop_id":"U29302Z10","name":"Veselí nad Moravou-Zarazice","arrival_time":"5:14:00","departure_time":"5:15:00","lat":48.937236,"lon":17.361306,"is_passed":false},{"stop_id":"U29303Z10","name":"Vnorovy","arrival_time":"5:17:00","departure_time":"5:17:00","lat":48.931508,"lon":17.348464,"is_passed":false},{"stop_id":"U19205Z10","name":"Strážnice, aut. st.","arrival_time":"5:22:00","departure_time":"5:23:00","lat":48.897385,"lon":17.317688,"is_passed":false},{"stop_id":"U29201Z10","name":"Petrov","arrival_time":"5:27:00","departure_time":"5:27:00","lat":48.878911,"lon":17.273703,"is_passed":false},{"stop_id":"U29202Z10","name":"Sudoměřice nad Moravou","arrival_time":"5:30:00","departure_time":"5:33:00","lat":48.871653,"lon":17.243039,"is_passed":false},{"stop_id":"U29104Z10","name":"Rohatec kolonie","arrival_time":"5:38:00","departure_time":"5:38:00","lat":48.892642,"lon":17.212111,"is_passed":false},{"stop_id":"U29103Z10","name":"Rohatec","arrival_time":"5:40:00","departure_time":"5:41:00","lat":48.892515,"lon":17.197852,"is_passed":false},{"stop_id":"U29102Z10","name":"Rohatec zastávka","arrival_time":"5:43:00","departure_time":"5:44:00","lat":48.88309,"lon":17.178111,"is_passed":false},{"stop_id":"U19001Z20","name":"Hodonín, autobusové nádraží","arrival_time":"5:49:00","departure_time":"6:22:00","lat":48.85575,"lon":17.12069,"is_passed":false}],"1574":[{"stop_id":"U19001Z21","name":"Hodonín, autobusové nádraží","arrival_time":"6:22:00","departure_time":"6:22:00","lat":48.85575,"lon":17.12069,"is_passed":false},{"stop_id":"U29102Z11","name":"Rohatec zastávka","arrival_time":"6:26:00","departure_time":"6:27:00","lat":48.88309,"lon":17.178111,"is_passed":false},{"stop_id":"U29103Z11","name":"Rohatec","arrival_time":"6:29:00","departure_time":"6:30:00","lat":48.892515,"lon":17.197852,"is_passed":false},{"stop_id":"U29104Z11","name":"Rohatec kolonie","arrival_time":"6:33:00","departure_time":"6:33:00","lat":48.892642,"lon":17.212111,"is_passed":false},{"stop_id":"U29202Z11","name":"Sudoměřice nad Moravou","arrival_time":"6:38:00","departure_time":"6:39:00","lat":48.871653,"lon":17.243039,"is_passed":false},{"stop_id":"U29201Z11","name":"Petrov","arrival_time":"6:42:00","departure_time":"6:42:00","lat":48.878911,"lon":17.273703,"is_passed":false},{"stop_id":"U19205Z11","name":"Strážnice, aut. st.","arrival_time":"6:46:00","departure_time":"6:47:00","lat":48.897385,"lon":17.317688,"is_passed":false},{"stop_id":"U29303Z11","name":"Vnorovy","arrival_time":"6:51:00","departure_time":"6:52:00","lat":48.931508,"lon":17.348464,"is_passed":false},{"stop_id":"U29302Z11","name":"Veselí nad Moravou-Zarazice","arrival_time":"6:54:00","departure_time":"6:54:00","lat":48.937236,"lon":17.361306,"is_passed":false},{"stop_id":"U19316Z11","name":"Veselí nad Moravou, železniční stanice","arrival_time":"6:57:00","departure_time":"7:21:00","lat":48.948694,"lon":17.382439,"is_passed":false}],"1575":[{"stop_id":"U19316Z11","name":"Veselí nad Moravou, železniční stanice","arrival_time":"7:21:00","departure_time":"7:21:00","lat":48.948694,"lon":17.382439,"is_passed":false},{"stop_id":"U29402Z11","name":"Lipov","arrival_time":"7:30:00","departure_time":"7:30:00","lat":48.909806,"lon":17.457953,"is_passed":false},{"stop_id":"U29401Z11","name":"Louka u Ostrohu","arrival_time":"7:32:00","departure_time":"7:33:00","lat":48.912234,"lon":17.484226,"is_passed":false},{"stop_id":"U19530Z11","name":"Velká nad Veličkou, železniční stanice","arrival_time":"7:38:00","departure_time":"7:40:00","lat":48.878631,"lon":17.51092,"is_passed":false},{"stop_id":"U29502Z11","name":"Javorník nad Veličkou zastávka","arrival_time":"7:42:00","departure_time":"7:43:00","lat":48.860802,"lon":17.520722,"is_passed":false},{"stop_id":"U29501Z11","name":"Vrbovce","arrival_time":"7:47:00","departure_time":"7:48:00","lat":48.824439,"lon":17.516352,"is_passed":false},{"stop_id":"U29504Z2","name":"Vrbovce zastávka","arrival_time":"7:51:00","departure_time":"7:52:00","lat":48.804784,"lon":17.52869,"is_passed":false},{"stop_id":"U29601Z2","name":"Brestovec","arrival_time":"7:55:00","departure_time":"7:55:00","lat":48.786012,"lon":17.557593,"is_passed":false},{"stop_id":"U29602Z2","name":"Myjava","arrival_time":"7:59:00","departure_time":"8:07:00","lat":48.763641,"lon":17.570897,"is_passed":false}],"1576":[{"stop_id":"U29602Z1","name":"Myjava","arrival_time":"8:07:00","departure_time":"8:07:00","lat":48.763641,"lon":17.570897,"is_passed":false},{"stop_id":"U29601Z1","name":"Brestovec","arrival_time":"8:10:00","departure_time":"8:11:00","lat":48.786012,"lon":17.557593,"is_passed":false},{"stop_id":"U29504Z1","name":"Vrbovce zastávka","arrival_time":"8:14:00","departure_time":"8:14:00","lat":48.804784,"lon":17.52869,"is_passed":false},{"stop_id":"U29501Z10","name":"Vrbovce","arrival_time":"8:17:00","departure_time":"8:30:00","lat":48.824439,"lon":17.516352,"is_passed":false},{"stop_id":"U29502Z10","name":"Javorník nad Veličkou zastávka","arrival_time":"8:34:00","departure_time":"8:34:00","lat":48.860868,"lon":17.520699,"is_passed":false},{"stop_id":"U19530Z10","name":"Velká nad Veličkou, železniční stanice","arrival_time":"8:37:00","departure_time":"8:39:00","lat":48.878631,"lon":17.51092,"is_passed":false},{"stop_id":"U29401Z10","name":"Louka u Ostrohu","arrival_time":"8:43:00","departure_time":"8:43:00","lat":48.912234,"lon":17.484226,"is_passed":false},{"stop_id":"U29402Z10","name":"Lipov","arrival_time":"8:46:00","departure_time":"8:46:00","lat":48.909806,"lon":17.457953,"is_passed":false},{"stop_id":"U29403Z10","name":"Blatnice pod Sv. Antonínkem","arrival_time":"8:51:00","departure_time":"8:51:00","lat":48.941163,"lon":17.437706,"is_passed":false},{"stop_id":"U19316Z10","name":"Veselí nad Moravou, železniční stanice","arrival_time":"8:57:00","departure_time":"9:03:00","lat":48.948694,"lon":17.382439,"is_passed":false},{"stop_id":"U29302Z10","name":"Veselí nad Moravou-Zarazice","arrival_time":"9:05:00","departure_time":"9:06:00","lat":48.937236,"lon":17.361306,"is_passed":false},{"stop_id":"U29303Z10","name":"Vnorovy","arrival_time":"9:08:00","departure_time":"9:08:00","lat":48.931508,"lon":17.348464,"is_passed":false},{"stop_id":"U19205Z10","name":"Strážnice, aut. st.","arrival_time":"9:13:00","departure_time":"9:14:00","lat":48.897385,"lon":17.317688,"is_passed":false},{"stop_id":"U29201Z10","name":"Petrov","arrival_time":"9:18:00","departure_time":"9:18:00","lat":48.878911,"lon":17.273703,"is_passed":false},{"stop_id":"U29202Z10","name":"Sudoměřice nad Moravou","arrival_time":"9:21:00","departure_time":"9:22:00","lat":48.871653,"lon":17.243039,"is_passed":false},{"stop_id":"U29104Z10","name":"Rohatec kolonie","arrival_time":"9:27:00","departure_time":"9:27:00","lat":48.892642,"lon":17.212111,"is_passed":false},{"stop_id":"U29103Z10","name":"Rohatec","arrival_time":"9:30:00","departure_time":"9:30:00","lat":48.892515,"lon":17.197852,"is_passed":false},{"stop_id":"U29102Z10","name":"Rohatec zastávka","arrival_time":"9:32:00","departure_time":"9:33:00","lat":48.88309,"lon":17.178111,"is_passed":false},{"stop_id":"U19001Z20","name":"Hodonín, autobusové nádraží","arrival_time":"9:37:00","departure_time":"10:22:00","lat":48.85575,"lon":17.12069,"is_passed":false}],"1577":[{"stop_id":"U19001Z21","name":"Hodonín, autobusové nádraží","arrival_time":"10:22:00","departure_time":"10:22:00","lat":48.85575,"lon":17.12069,"is_passed":false},{"stop_id":"U29102Z11","name":"Rohatec zastávka","arrival_time":"10:26:00","departure_time":"10:27:00","lat":48.88309,"lon":17.178111,"is_passed":false},{"stop_id":"U29103Z11","name":"Rohatec","arrival_time":"10:29:00","departure_time":"10:29:00","lat":48.892515,"lon":17.197852,"is_passed":false},{"stop_id":"U29104Z11","name":"Rohatec kolonie","arrival_time":"10:32:00","departure_time":"10:32:00","lat":48.892642,"lon":17.212111,"is_passed":false},{"stop_id":"U29202Z11","name":"Sudoměřice nad Moravou","arrival_time":"10:37:00","departure_time":"10:38:00","lat":48.871653,"lon":17.243039,"is_passed":false},{"stop_id":"U29201Z11","name":"Petrov","arrival_time":"10:41:00","departure_time":"10:41:00","lat":48.878911,"lon":17.273703,"is_passed":false},{"stop_id":"U19205Z11","name":"Strážnice, aut. st.","arrival_time":"10:45:00","departure_time":"10:46:00","lat":48.897385,"lon":17.317688,"is_passed":false},{"stop_id":"U29303Z11","name":"Vnorovy","arrival_time":"10:50:00","departure_time":"10:51:00","lat":48.931508,"lon":17.348464,"is_passed":false},{"stop_id":"U29302Z11","name":"Veselí nad Moravou-Zarazice","arrival_time":"10:53:00","departure_time":"10:53:00","lat":48.937236,"lon":17.361306,"is_passed":false},{"stop_id":"U19316Z11","name":"Veselí nad Moravou, železniční stanice","arrival_time":"10:56:00","departure_time":"10:56:00","lat":48.948694,"lon":17.382439,"is_passed":false}],"1578":[{"stop_id":"U19001Z21","name":"Hodonín, autobusové nádraží","arrival_time":"18:18:00","departure_time":"18:18:00","lat":48.85575,"lon":17.12069,"is_passed":false},{"stop_id":"U29102Z11","name":"Rohatec zastávka","arrival_time":"18:22:00","departure_time":"18:22:00","lat":48.88309,"lon":17.178111,"is_passed":false},{"stop_id":"U29103Z11","name":"Rohatec","arrival_time":"18:25:00","departure_time":"18:25:00","lat":48.892515,"lon":17.197852,"is_passed":false},{"stop_id":"U29104Z11","name":"Rohatec kolonie","arrival_time":"18:27:00","departure_time":"18:27:00","lat":48.892642,"lon":17.212111,"is_passed":false},{"stop_id":"U29202Z11","name":"Sudoměřice nad Moravou","arrival_time":"18:33:00","departure_time":"18:33:00","lat":48.871653,"lon":17.243039,"is_passed":false},{"stop_id":"U29201Z11","name":"Petrov","arrival_time":"18:36:00","departure_time":"18:37:00","lat":48.878911,"lon":17.273703,"is_passed":false},{"stop_id":"U19205Z11","name":"Strážnice, aut. st.","arrival_time":"18:41:00","departure_time":"18:42:00","lat":48.897385,"lon":17.317688,"is_passed":false},{"stop_id":"U29303Z11","name":"Vnorovy","arrival_time":"18:46:00","departure_time":"18:46:00","lat":48.931508,"lon":17.348464,"is_passed":false},{"stop_id":"U29302Z11","name":"Veselí nad Moravou-Zarazice","arrival_time":"18:48:00","departure_time":"18:48:00","lat":48.937236,"lon":17.361306,"is_passed":false},{"stop_id":"U19316Z11","name":"Veselí nad Moravou, železniční stanice","arrival_time":"18:51:00","departure_time":"19:03:00","lat":48.948694,"lon":17.382439,"is_passed":false},{"stop_id":"U29403Z11","name":"Blatnice pod Sv. Antonínkem","arrival_time":"19:07:00","departure_time":"19:07:00","lat":48.941163,"lon":17.437706,"is_passed":false},{"stop_id":"U29402Z11","name":"Lipov","arrival_time":"19:12:00","departure_time":"19:12:00","lat":48.909806,"lon":17.457953,"is_passed":false},{"stop_id":"U29401Z11","name":"Louka u Ostrohu","arrival_time":"19:15:00","departure_time":"19:15:00","lat":48.912234,"lon":17.484226,"is_passed":false},{"stop_id":"U19530Z11","name":"Velká nad Veličkou, železniční stanice","arrival_time":"19:21:00","departure_time":"19:23:00","lat":48.878631,"lon":17.51092,"is_passed":false},{"stop_id":"U29502Z11","name":"Javorník nad Veličkou zastávka","arrival_time":"19:26:00","departure_time":"19:26:00","lat":48.860802,"lon":17.520722,"is_passed":false},{"stop_id":"U29501Z11","name":"Vrbovce","arrival_time":"19:31:00","departure_time":"19:40:00","lat":48.824439,"lon":17.516352,"is_passed":false},{"stop_id":"U29504Z2","name":"Vrbovce zastávka","arrival_time":"19:43:00","departure_time":"19:44:00","lat":48.804784,"lon":17.52869,"is_passed":false},{"stop_id":"U29601Z2","name":"Brestovec","arrival_time":"19:47:00","departure_time":"19:47:00","lat":48.786012,"lon":17.557593,"is_passed":false},{"stop_id":"U29602Z2","name":"Myjava","arrival_time":"19:51:00","departure_time":"20:07:00","lat":48.763641,"lon":17.570897,"is_passed":false}],"1579":[{"stop_id":"U29602Z1","name":"Myjava","arrival_time":"20:07:00","departure_time":"20:07:00","lat":48.763641,"lon":17.570897,"is_passed":false},{"stop_id":"U29601Z1","name":"Brestovec","arrival_time":"20:10:00","departure_time":"20:11:00","lat":48.786012,"lon":17.557593,"is_passed":false},{"stop_id":"U29504Z1","name":"Vrbovce zastávka","arrival_time":"20:14:00","departure_time":"20:14:00","lat":48.804784,"lon":17.52869,"is_passed":false},{"stop_id":"U29501Z10","name":"Vrbovce","arrival_time":"20:17:00","departure_time":"20:30:00","lat":48.824439,"lon":17.516352,"is_passed":false},{"stop_id":"U29502Z10","name":"Javorník nad Veličkou zastávka","arrival_time":"20:34:00","departure_time":"20:34:00","lat":48.860868,"lon":17.520699,"is_passed":false},{"stop_id":"U19530Z10","name":"Velká nad Veličkou, železniční stanice","arrival_time":"20:37:00","departure_time":"20:39:00","lat":48.878631,"lon":17.51092,"is_passed":false},{"stop_id":"U29401Z10","name":"Louka u Ostrohu","arrival_time":"20:43:00","departure_time":"20:43:00","lat":48.912234,"lon":17.484226,"is_passed":false},{"stop_id":"U29402Z10","name":"Lipov","arrival_time":"20:46:00","departure_time":"20:46:00","lat":48.909806,"lon":17.457953,"is_passed":false},{"stop_id":"U29403Z10","name":"Blatnice pod Sv. Antonínkem","arrival_time":"20:51:00","departure_time":"20:51:00","lat":48.941163,"lon":17.437706,"is_passed":false},{"stop_id":"U19316Z10","name":"Veselí nad Moravou, železniční stanice","arrival_time":"20:57:00","departure_time":"21:03:00","lat":48.948694,"lon":17.382439,"is_passed":false},{"stop_id":"U29302Z10","name":"Veselí nad Moravou-Zarazice","arrival_time":"21:05:00","departure_time":"21:05:00","lat":48.937236,"lon":17.361306,"is_passed":false},{"stop_id":"U29303Z10","name":"Vnorovy","arrival_time":"21:07:00","departure_time":"21:07:00","lat":48.931508,"lon":17.348464,"is_passed":false},{"stop_id":"U19205Z10","name":"Strážnice, aut. st.","arrival_time":"21:12:00","departure_time":"21:12:00","lat":48.897385,"lon":17.317688,"is_passed":false},{"stop_id":"U29201Z10","name":"Petrov","arrival_time":"21:16:00","departure_time":"21:16:00","lat":48.878911,"lon":17.273703,"is_passed":false},{"stop_id":"U29202Z10","name":"Sudoměřice nad Moravou","arrival_time":"21:19:00","departure_time":"21:19:00","lat":48.871653,"lon":17.243039,"is_passed":false},{"stop_id":"U29104Z10","name":"Rohatec kolonie","arrival_time":"21:25:00","departure_time":"21:25:00","lat":48.892642,"lon":17.212111,"is_passed":false},{"stop_id":"U29103Z10","name":"Rohatec","arrival_time":"21:27:00","departure_time":"21:28:00","lat":48.892515,"lon":17.197852,"is_passed":false},{"stop_id":"U29102Z10","name":"Rohatec zastávka","arrival_time":"21:30:00","departure_time":"21:30:00","lat":48.88309,"lon":17.178111,"is_passed":false},{"stop_id":"U19001Z20","name":"Hodonín, autobusové nádraží","arrival_time":"21:36:00","departure_time":"21:36:00","lat":48.85575,"lon":17.12069,"is_passed":false}],"15700":[{"stop_id":"U12417Z2","name":"Šošůvka, obecní úřad","arrival_time":"16:38:00","departure_time":"16:38:00","lat":49.410218,"lon":16.752143,"is_passed":false},{"stop_id":"U12416Z2","name":"Šošůvka, rozcestí 1.0","arrival_time":"16:39:00","departure_time":"16:39:00","lat":49.401761,"lon":16.751483,"is_passed":false},{"stop_id":"U12423Z2","name":"Sloup","arrival_time":"16:43:00","departure_time":"16:43:00","lat":49.415403,"lon":16.739667,"is_passed":false}],"15701":[{"stop_id":"U12423Z1","name":"Sloup","arrival_time":"16:43:00","departure_time":"16:43:00","lat":49.415503,"lon":16.739603,"is_passed":false},{"stop_id":"U12424Z1","name":"Sloup, Nová čtvrť","arrival_time":"16:44:00","departure_time":"16:44:00","lat":49.413733,"lon":16.735327,"is_passed":false},{"stop_id":"U12428Z1","name":"Petrovice","arrival_time":"16:47:00","departure_time":"16:47:00","lat":49.413973,"lon":16.700938,"is_passed":false},{"stop_id":"U12442Z12","name":"Žďár","arrival_time":"16:49:00","departure_time":"16:49:00","lat":49.421052,"lon":16.698148,"is_passed":false},{"stop_id":"U12440Z22","name":"Rájec-Jestřebí, Lenčov, křiž.","arrival_time":"16:52:00","departure_time":"16:52:00","lat":49.42104,"lon":16.665633,"is_passed":false},{"stop_id":"U12427Z11","name":"Kuničky","arrival_time":"16:54:00","departure_time":"16:54:00","lat":49.43406,"lon":16.683617,"is_passed":false},{"stop_id":"U12440Z3","name":"Rájec-Jestřebí, Lenčov, křiž.","arrival_time":"16:56:00","departure_time":"16:56:00","lat":49.421137,"lon":16.66587,"is_passed":false},{"stop_id":"U12429Z1","name":"Rájec-Jestřebí, Holešín","arrival_time":"16:58:00","departure_time":"16:58:00","lat":49.428315,"lon":16.654862,"is_passed":false},{"stop_id":"U12430Z1","name":"Doubravice, zahradnictví","arrival_time":"17:01:00","departure_time":"17:01:00","lat":49.431639,"lon":16.632842,"is_passed":false},{"stop_id":"U12434Z1","name":"Rájec-Jestřebí, Komenského","arrival_time":"17:03:00","departure_time":"17:03:00","lat":49.414869,"lon":16.632897,"is_passed":false},{"stop_id":"U12437Z1","name":"Rájec-Jestřebí, náměstí","arrival_time":"17:06:00","departure_time":"17:06:00","lat":49.41109,"lon":16.63913,"is_passed":false},{"stop_id":"U12435Z2","name":"Rájec-Jestřebí, lékárna","arrival_time":"17:08:00","departure_time":"17:08:00","lat":49.4075,"lon":16.632447,"is_passed":false},{"stop_id":"U12439Z10","name":"Rájec-Jestřebí, železniční stanice","arrival_time":"17:11:00","departure_time":"18:44:00","lat":49.409087,"lon":16.627157,"is_passed":false}],"15702":[{"stop_id":"U12439Z3","name":"Rájec-Jestřebí, železniční stanice","arrival_time":"18:44:00","departure_time":"18:44:00","lat":49.409087,"lon":16.627157,"is_passed":false},{"stop_id":"U12435Z1","name":"Rájec-Jestřebí, lékárna","arrival_time":"18:46:00","departure_time":"18:46:00","lat":49.407637,"lon":16.631847,"is_passed":false},{"stop_id":"U12437Z2","name":"Rájec-Jestřebí, náměstí","arrival_time":"18:48:00","departure_time":"18:48:00","lat":49.411077,"lon":16.639236,"is_passed":false},{"stop_id":"U12434Z2","name":"Rájec-Jestřebí, Komenského","arrival_time":"18:50:00","departure_time":"18:50:00","lat":49.415923,"lon":16.632258,"is_passed":false},{"stop_id":"U12430Z2","name":"Doubravice, zahradnictví","arrival_time":"18:52:00","departure_time":"18:52:00","lat":49.431632,"lon":16.633024,"is_passed":false},{"stop_id":"U12429Z2","name":"Rájec-Jestřebí, Holešín","arrival_time":"18:55:00","departure_time":"18:55:00","lat":49.428315,"lon":16.654862,"is_passed":false},{"stop_id":"U12440Z1","name":"Rájec-Jestřebí, Lenčov, křiž.","arrival_time":"18:57:00","departure_time":"18:57:00","lat":49.421137,"lon":16.66587,"is_passed":false},{"stop_id":"U12427Z1","name":"Kuničky","arrival_time":"18:59:00","departure_time":"18:59:00","lat":49.43406,"lon":16.683617,"is_passed":false},{"stop_id":"U12440Z1","name":"Rájec-Jestřebí, Lenčov, křiž.","arrival_time":"19:01:00","departure_time":"19:01:00","lat":49.421137,"lon":16.66587,"is_passed":false},{"stop_id":"U12442Z1","name":"Žďár","arrival_time":"19:05:00","departure_time":"19:05:00","lat":49.421052,"lon":16.698148,"is_passed":false},{"stop_id":"U12428Z2","name":"Petrovice","arrival_time":"19:07:00","departure_time":"19:07:00","lat":49.413973,"lon":16.700938,"is_passed":false},{"stop_id":"U12424Z2","name":"Sloup, Nová čtvrť","arrival_time":"19:10:00","departure_time":"19:10:00","lat":49.413648,"lon":16.735368,"is_passed":false},{"stop_id":"U12423Z2","name":"Sloup","arrival_time":"19:12:00","departure_time":"19:12:00","lat":49.415403,"lon":16.739667,"is_passed":false}],"15703":[{"stop_id":"U12423Z1","name":"Sloup","arrival_time":"19:20:00","departure_time":"19:20:00","lat":49.415503,"lon":16.739603,"is_passed":false},{"stop_id":"U12416Z1","name":"Šošůvka, rozcestí 1.0","arrival_time":"19:23:00","departure_time":"19:23:00","lat":49.401761,"lon":16.751483,"is_passed":false},{"stop_id":"U12417Z1","name":"Šošůvka, obecní úřad","arrival_time":"19:25:00","departure_time":"19:25:00","lat":49.410317,"lon":16.752255,"is_passed":false}],"15704":[{"stop_id":"U12633Z51","name":"Boskovice, 17. listopadu","arrival_time":"3:51:00","departure_time":"3:51:00","lat":49.489329,"lon":16.661724,"is_passed":false},{"stop_id":"U12655Z2","name":"Boskovice, Sokolská","arrival_time":"3:52:00","departure_time":"3:52:00","lat":49.49097,"lon":16.660723,"is_passed":false},{"stop_id":"U12644Z1","name":"Boskovice, Kras","arrival_time":"3:53:00","departure_time":"3:53:00","lat":49.491675,"lon":16.657418,"is_passed":false},{"stop_id":"U12635Z25","name":"Boskovice, aut.st.","arrival_time":"3:55:00","departure_time":"3:55:00","lat":49.491518,"lon":16.653113,"is_passed":false},{"stop_id":"U12650Z2","name":"Boskovice, nemocnice","arrival_time":"3:57:00","departure_time":"3:57:00","lat":49.49167,"lon":16.644917,"is_passed":false},{"stop_id":"U12648Z2","name":"Boskovice, Mladkov","arrival_time":"4:00:00","departure_time":"4:00:00","lat":49.490705,"lon":16.61905,"is_passed":false},{"stop_id":"U12649Z2","name":"Boskovice, Mladkov, pekárna","arrival_time":"4:01:00","departure_time":"4:01:00","lat":49.490322,"lon":16.61537,"is_passed":false},{"stop_id":"U12676Z11","name":"Skalice nad Svitavou, žel.st.","arrival_time":"4:03:00","departure_time":"4:22:00","lat":49.480519,"lon":16.608517,"is_passed":false}],"15705":[{"stop_id":"U12676Z1","name":"Skalice nad Svitavou, žel.st.","arrival_time":"4:22:00","departure_time":"4:22:00","lat":49.480276,"lon":16.609048,"is_passed":false},{"stop_id":"U12649Z1","name":"Boskovice, Mladkov, pekárna","arrival_time":"4:24:00","departure_time":"4:24:00","lat":49.49032,"lon":16.615547,"is_passed":false},{"stop_id":"U12648Z1","name":"Boskovice, Mladkov","arrival_time":"4:25:00","departure_time":"4:25:00","lat":49.490525,"lon":16.619477,"is_passed":false},{"stop_id":"U12650Z1","name":"Boskovice, nemocnice","arrival_time":"4:28:00","departure_time":"4:28:00","lat":49.491627,"lon":16.644028,"is_passed":false},{"stop_id":"U12635Z5","name":"Boskovice, aut.st.","arrival_time":"4:31:00","departure_time":"4:31:00","lat":49.491518,"lon":16.653113,"is_passed":false}],"15706":[{"stop_id":"U12635Z3","name":"Boskovice, aut.st.","arrival_time":"4:43:00","departure_time":"4:43:00","lat":49.491735,"lon":16.653057,"is_passed":false},{"stop_id":"U12647Z1","name":"Boskovice, Mánesova","arrival_time":"4:45:00","departure_time":"4:45:00","lat":49.484823,"lon":16.644158,"is_passed":false},{"stop_id":"U12513Z1","name":"Lhota Rapotina","arrival_time":"4:49:00","departure_time":"4:49:00","lat":49.465293,"lon":16.625152,"is_passed":false},{"stop_id":"U12510Z1","name":"Doubravice, ZD 0.3","arrival_time":"4:53:00","departure_time":"4:53:00","lat":49.439747,"lon":16.626292,"is_passed":false},{"stop_id":"U12509Z1","name":"Doubravice, nám.","arrival_time":"4:55:00","departure_time":"4:55:00","lat":49.434302,"lon":16.62947,"is_passed":false},{"stop_id":"U12430Z1","name":"Doubravice, zahradnictví","arrival_time":"4:56:00","departure_time":"4:56:00","lat":49.431639,"lon":16.632842,"is_passed":false},{"stop_id":"U12434Z1","name":"Rájec-Jestřebí, Komenského","arrival_time":"4:58:00","departure_time":"4:58:00","lat":49.414869,"lon":16.632897,"is_passed":false},{"stop_id":"U12437Z1","name":"Rájec-Jestřebí, náměstí","arrival_time":"5:01:00","departure_time":"5:01:00","lat":49.41109,"lon":16.63913,"is_passed":false},{"stop_id":"U12438Z1","name":"Rájec-Jestřebí, pošta","arrival_time":"5:03:00","departure_time":"5:03:00","lat":49.406058,"lon":16.637712,"is_passed":false},{"stop_id":"U12441Z1","name":"Ráječko","arrival_time":"5:06:00","departure_time":"5:06:00","lat":49.395248,"lon":16.642837,"is_passed":false},{"stop_id":"U12358Z1","name":"Blansko, Horní Lhota","arrival_time":"5:09:00","departure_time":"5:09:00","lat":49.384052,"lon":16.647172,"is_passed":false},{"stop_id":"U12373Z2","name":"Blansko, Bezručova","arrival_time":"5:12:00","departure_time":"5:12:00","lat":49.370585,"lon":16.645885,"is_passed":false},{"stop_id":"U12376Z2","name":"Blansko, náměstí Republiky","arrival_time":"5:15:00","departure_time":"5:15:00","lat":49.361613,"lon":16.644347,"is_passed":false},{"stop_id":"U12339Z2","name":"Blansko, Svitavská","arrival_time":"5:17:00","departure_time":"5:17:00","lat":49.358878,"lon":16.643105,"is_passed":false},{"stop_id":"U12342Z31","name":"Blansko, aut. st.","arrival_time":"5:19:00","departure_time":"5:20:00","lat":49.353401,"lon":16.64738,"is_passed":false}],"15707":[{"stop_id":"U12342Z3","name":"Blansko, aut. st.","arrival_time":"5:20:00","departure_time":"5:20:00","lat":49.353508,"lon":16.647103,"is_passed":false},{"stop_id":"U12389Z1","name":"Blansko, rozcestí Klepačov","arrival_time":"5:22:00","departure_time":"5:22:00","lat":49.346355,"lon":16.650873,"is_passed":false},{"stop_id":"U12008Z1","name":"Šebrov-Kateřina, Sv. Kateřina","arrival_time":"5:28:00","departure_time":"5:28:00","lat":49.330252,"lon":16.614607,"is_passed":false},{"stop_id":"U12009Z1","name":"Šebrov-Kateřina, Šebrov","arrival_time":"5:30:00","departure_time":"5:30:00","lat":49.328949,"lon":16.598162,"is_passed":false},{"stop_id":"U12006Z1","name":"Svinošice","arrival_time":"5:33:00","departure_time":"5:33:00","lat":49.333413,"lon":16.574056,"is_passed":false},{"stop_id":"U12005Z1","name":"Lipůvka, ZŠ","arrival_time":"5:36:00","departure_time":"5:36:00","lat":49.338205,"lon":16.557915,"is_passed":false},{"stop_id":"U12004Z2","name":"Lipůvka","arrival_time":"5:38:00","departure_time":"5:38:00","lat":49.338367,"lon":16.552513,"is_passed":false},{"stop_id":"U13131Z2","name":"Kuřim, Prefa rozcestí","arrival_time":"5:41:00","departure_time":"5:41:00","lat":49.316222,"lon":16.548481,"is_passed":false},{"stop_id":"U13129Z1","name":"Kuřim, TE","arrival_time":"5:43:00","departure_time":"5:43:00","lat":49.314291,"lon":16.547073,"is_passed":false},{"stop_id":"U13127Z1","name":"Kuřim, TOS","arrival_time":"5:45:00","departure_time":"5:45:00","lat":49.312475,"lon":16.538187,"is_passed":false},{"stop_id":"U13128Z2","name":"Kuřim, poliklinika","arrival_time":"5:46:00","departure_time":"5:46:00","lat":49.309396,"lon":16.533817,"is_passed":false},{"stop_id":"U13123Z2","name":"Kuřim, kulturní dům","arrival_time":"5:47:00","departure_time":"5:47:00","lat":49.307705,"lon":16.531739,"is_passed":false},{"stop_id":"U13125Z2","name":"Kuřim, Popkova","arrival_time":"5:47:00","departure_time":"5:47:00","lat":49.304597,"lon":16.530972,"is_passed":false},{"stop_id":"U13143Z6","name":"Kuřim, železniční stanice","arrival_time":"5:50:00","departure_time":"6:02:00","lat":49.300544,"lon":16.534166,"is_passed":false}],"15708":[{"stop_id":"U13143Z2","name":"Kuřim, železniční stanice","arrival_time":"6:02:00","departure_time":"6:02:00","lat":49.300264,"lon":16.533575,"is_passed":false},{"stop_id":"U13125Z1","name":"Kuřim, Popkova","arrival_time":"6:04:00","departure_time":"6:04:00","lat":49.304727,"lon":16.531086,"is_passed":false},{"stop_id":"U13123Z1","name":"Kuřim, kulturní dům","arrival_time":"6:05:00","departure_time":"6:05:00","lat":49.307683,"lon":16.531878,"is_passed":false},{"stop_id":"U13128Z1","name":"Kuřim, poliklinika","arrival_time":"6:06:00","departure_time":"6:06:00","lat":49.310168,"lon":16.535507,"is_passed":false},{"stop_id":"U13127Z2","name":"Kuřim, TOS","arrival_time":"6:07:00","departure_time":"6:07:00","lat":49.312411,"lon":16.539181,"is_passed":false},{"stop_id":"U13129Z3","name":"Kuřim, TE","arrival_time":"6:09:00","departure_time":"6:12:00","lat":49.314426,"lon":16.547293,"is_passed":false},{"stop_id":"U13131Z1","name":"Kuřim, Prefa rozcestí","arrival_time":"6:13:00","departure_time":"6:13:00","lat":49.316222,"lon":16.548481,"is_passed":false},{"stop_id":"U12004Z1","name":"Lipůvka","arrival_time":"6:17:00","departure_time":"6:17:00","lat":49.339155,"lon":16.552682,"is_passed":false},{"stop_id":"U12005Z2","name":"Lipůvka, ZŠ","arrival_time":"6:19:00","departure_time":"6:19:00","lat":49.338078,"lon":16.558143,"is_passed":false},{"stop_id":"U12006Z2","name":"Svinošice","arrival_time":"6:22:00","departure_time":"6:22:00","lat":49.333183,"lon":16.574847,"is_passed":false},{"stop_id":"U12009Z2","name":"Šebrov-Kateřina, Šebrov","arrival_time":"6:25:00","departure_time":"6:25:00","lat":49.328833,"lon":16.598548,"is_passed":false},{"stop_id":"U12008Z2","name":"Šebrov-Kateřina, Sv. Kateřina","arrival_time":"6:27:00","departure_time":"6:27:00","lat":49.330242,"lon":16.614127,"is_passed":false},{"stop_id":"U12389Z2","name":"Blansko, rozcestí Klepačov","arrival_time":"6:33:00","departure_time":"6:33:00","lat":49.346355,"lon":16.650873,"is_passed":false},{"stop_id":"U12342Z31","name":"Blansko, aut. st.","arrival_time":"6:35:00","departure_time":"6:36:00","lat":49.353401,"lon":16.64738,"is_passed":false}],"15709":[{"stop_id":"U12342Z5","name":"Blansko, aut. st.","arrival_time":"6:36:00","departure_time":"6:36:00","lat":49.353508,"lon":16.647103,"is_passed":false},{"stop_id":"U12041Z81","name":"Blansko, Komenského","arrival_time":"6:40:00","departure_time":"6:40:00","lat":49.359837,"lon":16.638651,"is_passed":false},{"stop_id":"U12343Z1","name":"Blansko, Brněnská","arrival_time":"6:41:00","departure_time":"6:41:00","lat":49.35642,"lon":16.639269,"is_passed":false},{"stop_id":"U12341Z1","name":"Blansko, Synthon","arrival_time":"6:41:00","departure_time":"6:41:00","lat":49.354082,"lon":16.640722,"is_passed":false},{"stop_id":"U12340Z1","name":"Blansko, rozvodna, točna","arrival_time":"6:42:00","departure_time":"6:42:00","lat":49.350642,"lon":16.644909,"is_passed":false},{"stop_id":"U12380Z3","name":"Blansko, Olešná","arrival_time":"6:45:00","departure_time":"6:45:00","lat":49.339567,"lon":16.636938,"is_passed":false},{"stop_id":"U12359Z1","name":"Blansko, Hořice","arrival_time":"6:48:00","departure_time":"6:50:00","lat":49.356217,"lon":16.623013,"is_passed":false}],"15710":[{"stop_id":"U12359Z1","name":"Blansko, Hořice","arrival_time":"6:50:00","departure_time":"6:50:00","lat":49.356217,"lon":16.623013,"is_passed":false},{"stop_id":"U12380Z1","name":"Blansko, Olešná","arrival_time":"6:54:00","departure_time":"6:54:00","lat":49.339693,"lon":16.637515,"is_passed":false},{"stop_id":"U12340Z2","name":"Blansko, rozvodna, točna","arrival_time":"6:56:00","departure_time":"6:56:00","lat":49.350642,"lon":16.644909,"is_passed":false},{"stop_id":"U12341Z2","name":"Blansko, Synthon","arrival_time":"6:57:00","departure_time":"6:57:00","lat":49.353202,"lon":16.642345,"is_passed":false},{"stop_id":"U12041Z81","name":"Blansko, Komenského","arrival_time":"6:59:00","departure_time":"6:59:00","lat":49.359837,"lon":16.638651,"is_passed":false},{"stop_id":"U12343Z1","name":"Blansko, Brněnská","arrival_time":"7:00:00","departure_time":"7:00:00","lat":49.35642,"lon":16.639269,"is_passed":false},{"stop_id":"U12342Z31","name":"Blansko, aut. st.","arrival_time":"7:03:00","departure_time":"7:05:00","lat":49.353401,"lon":16.64738,"is_passed":false}],"15711":[{"stop_id":"U12342Z16","name":"Blansko, aut. st.","arrival_time":"7:05:00","departure_time":"7:05:00","lat":49.354033,"lon":16.646223,"is_passed":false},{"stop_id":"U12339Z1","name":"Blansko, Svitavská","arrival_time":"7:07:00","departure_time":"7:07:00","lat":49.359623,"lon":16.642805,"is_passed":false},{"stop_id":"U12386Z1","name":"Blansko, Poříčí","arrival_time":"7:10:00","departure_time":"7:10:00","lat":49.362451,"lon":16.641309,"is_passed":false},{"stop_id":"U12373Z1","name":"Blansko, Bezručova","arrival_time":"7:12:00","departure_time":"7:12:00","lat":49.370599,"lon":16.645997,"is_passed":false},{"stop_id":"U12358Z2","name":"Blansko, Horní Lhota","arrival_time":"7:14:00","departure_time":"7:14:00","lat":49.384052,"lon":16.647172,"is_passed":false},{"stop_id":"U12441Z2","name":"Ráječko","arrival_time":"7:17:00","departure_time":"7:17:00","lat":49.395253,"lon":16.642972,"is_passed":false},{"stop_id":"U12438Z2","name":"Rájec-Jestřebí, pošta","arrival_time":"7:20:00","departure_time":"7:20:00","lat":49.406298,"lon":16.637625,"is_passed":false},{"stop_id":"U12437Z2","name":"Rájec-Jestřebí, náměstí","arrival_time":"7:22:00","departure_time":"7:22:00","lat":49.411077,"lon":16.639236,"is_passed":false},{"stop_id":"U12434Z2","name":"Rájec-Jestřebí, Komenského","arrival_time":"7:24:00","departure_time":"7:24:00","lat":49.415923,"lon":16.632258,"is_passed":false},{"stop_id":"U12430Z2","name":"Doubravice, zahradnictví","arrival_time":"7:26:00","departure_time":"7:26:00","lat":49.431632,"lon":16.633024,"is_passed":false},{"stop_id":"U12509Z2","name":"Doubravice, nám.","arrival_time":"7:28:00","departure_time":"7:28:00","lat":49.435657,"lon":16.629448,"is_passed":false},{"stop_id":"U12510Z2","name":"Doubravice, ZD 0.3","arrival_time":"7:29:00","departure_time":"7:29:00","lat":49.439353,"lon":16.626588,"is_passed":false},{"stop_id":"U12513Z2","name":"Lhota Rapotina","arrival_time":"7:33:00","departure_time":"7:33:00","lat":49.465392,"lon":16.625298,"is_passed":false},{"stop_id":"U12647Z2","name":"Boskovice, Mánesova","arrival_time":"7:37:00","departure_time":"7:37:00","lat":49.485087,"lon":16.644593,"is_passed":false},{"stop_id":"U12635Z23","name":"Boskovice, aut.st.","arrival_time":"7:40:00","departure_time":"7:40:00","lat":49.491735,"lon":16.653057,"is_passed":false},{"stop_id":"U12633Z31","name":"Boskovice, 17. listopadu","arrival_time":"7:43:00","departure_time":"7:43:00","lat":49.488891,"lon":16.661476,"is_passed":false}],"15712":[{"stop_id":"U12633Z51","name":"Boskovice, 17. listopadu","arrival_time":"7:48:00","departure_time":"7:48:00","lat":49.489329,"lon":16.661724,"is_passed":false},{"stop_id":"U12655Z2","name":"Boskovice, Sokolská","arrival_time":"7:49:00","departure_time":"7:49:00","lat":49.49097,"lon":16.660723,"is_passed":false},{"stop_id":"U12644Z1","name":"Boskovice, Kras","arrival_time":"7:50:00","departure_time":"7:50:00","lat":49.491675,"lon":16.657418,"is_passed":false},{"stop_id":"U12635Z25","name":"Boskovice, aut.st.","arrival_time":"7:52:00","departure_time":"7:52:00","lat":49.491518,"lon":16.653113,"is_passed":false},{"stop_id":"U12650Z2","name":"Boskovice, nemocnice","arrival_time":"7:54:00","departure_time":"7:54:00","lat":49.49167,"lon":16.644917,"is_passed":false},{"stop_id":"U12634Z2","name":"Boskovice, Kaufland","arrival_time":"7:56:00","departure_time":"7:56:00","lat":49.49056,"lon":16.64198,"is_passed":false},{"stop_id":"U12648Z2","name":"Boskovice, Mladkov","arrival_time":"8:00:00","departure_time":"8:00:00","lat":49.490705,"lon":16.61905,"is_passed":false},{"stop_id":"U12649Z2","name":"Boskovice, Mladkov, pekárna","arrival_time":"8:01:00","departure_time":"8:01:00","lat":49.490322,"lon":16.61537,"is_passed":false},{"stop_id":"U12676Z4","name":"Skalice nad Svitavou, žel.st.","arrival_time":"8:03:00","departure_time":"8:03:00","lat":49.480519,"lon":16.608517,"is_passed":false},{"stop_id":"U12663Z2","name":"Jabloňany, rozc.","arrival_time":"8:06:00","departure_time":"8:06:00","lat":49.47452,"lon":16.59455,"is_passed":false},{"stop_id":"U12665Z2","name":"Krhov","arrival_time":"8:09:00","departure_time":"8:09:00","lat":49.463333,"lon":16.58325,"is_passed":false},{"stop_id":"U12523Z2","name":"Lysice, Perná","arrival_time":"8:12:00","departure_time":"8:12:00","lat":49.446505,"lon":16.574543,"is_passed":false},{"stop_id":"U12445Z2","name":"Bořitov, ZD","arrival_time":"8:15:00","departure_time":"8:15:00","lat":49.423147,"lon":16.583069,"is_passed":false},{"stop_id":"U12450Z2","name":"Černá Hora, nám.","arrival_time":"8:18:00","departure_time":"8:20:00","lat":49.414678,"lon":16.582145,"is_passed":false}],"15713":[{"stop_id":"U12450Z2","name":"Černá Hora, nám.","arrival_time":"8:20:00","departure_time":"8:20:00","lat":49.414678,"lon":16.582145,"is_passed":false},{"stop_id":"U12449Z2","name":"Černá Hora, Na kopci","arrival_time":"8:21:00","departure_time":"8:21:00","lat":49.410245,"lon":16.58076,"is_passed":false},{"stop_id":"U12016Z2","name":"Závist","arrival_time":"8:25:00","departure_time":"8:25:00","lat":49.37451,"lon":16.572602,"is_passed":false},{"stop_id":"U12014Z1","name":"Milonice","arrival_time":"8:27:00","departure_time":"8:27:00","lat":49.36803,"lon":16.565543,"is_passed":false},{"stop_id":"U12240Z2","name":"Lažany, rozcestí Újezd","arrival_time":"8:29:00","departure_time":"8:29:00","lat":49.359442,"lon":16.554392,"is_passed":false},{"stop_id":"U12239Z2","name":"Lažany","arrival_time":"8:30:00","departure_time":"8:30:00","lat":49.353032,"lon":16.55062,"is_passed":false},{"stop_id":"U12004Z2","name":"Lipůvka","arrival_time":"8:33:00","departure_time":"8:33:00","lat":49.338367,"lon":16.552513,"is_passed":false},{"stop_id":"U13120Z2","name":"Kuřim, rozcestí 2.0","arrival_time":"8:35:00","departure_time":"8:35:00","lat":49.317569,"lon":16.551447,"is_passed":false},{"stop_id":"U13126Z2","name":"Kuřim, Podlesí, rozc.","arrival_time":"8:37:00","departure_time":"8:37:00","lat":49.305549,"lon":16.554781,"is_passed":false},{"stop_id":"U1286Z8","name":"Královo Pole, nádraží","arrival_time":"8:47:00","departure_time":"9:11:00","lat":49.230335,"lon":16.595523,"is_passed":false}],"15714":[{"stop_id":"U1286Z12","name":"Královo Pole, nádraží","arrival_time":"9:11:00","departure_time":"9:11:00","lat":49.23045,"lon":16.595801,"is_passed":false},{"stop_id":"U13126Z1","name":"Kuřim, Podlesí, rozc.","arrival_time":"9:21:00","departure_time":"9:21:00","lat":49.305568,"lon":16.554963,"is_passed":false},{"stop_id":"U13120Z1","name":"Kuřim, rozcestí 2.0","arrival_time":"9:23:00","departure_time":"9:23:00","lat":49.318142,"lon":16.551936,"is_passed":false},{"stop_id":"U12004Z1","name":"Lipůvka","arrival_time":"9:26:00","departure_time":"9:26:00","lat":49.339155,"lon":16.552682,"is_passed":false},{"stop_id":"U12239Z1","name":"Lažany","arrival_time":"9:28:00","departure_time":"9:28:00","lat":49.354925,"lon":16.551363,"is_passed":false},{"stop_id":"U12240Z1","name":"Lažany, rozcestí Újezd","arrival_time":"9:29:00","departure_time":"9:29:00","lat":49.359483,"lon":16.554537,"is_passed":false},{"stop_id":"U12014Z2","name":"Milonice","arrival_time":"9:31:00","departure_time":"9:31:00","lat":49.36813,"lon":16.565875,"is_passed":false},{"stop_id":"U12016Z1","name":"Závist","arrival_time":"9:33:00","departure_time":"9:33:00","lat":49.374753,"lon":16.573022,"is_passed":false},{"stop_id":"U12449Z1","name":"Černá Hora, Na kopci","arrival_time":"9:38:00","departure_time":"9:38:00","lat":49.410472,"lon":16.580877,"is_passed":false},{"stop_id":"U12450Z1","name":"Černá Hora, nám.","arrival_time":"9:39:00","departure_time":"9:39:00","lat":49.414767,"lon":16.582423,"is_passed":false}],"15715":[{"stop_id":"U12450Z1","name":"Černá Hora, nám.","arrival_time":"9:39:00","departure_time":"9:39:00","lat":49.414767,"lon":16.582423,"is_passed":false},{"stop_id":"U12445Z1","name":"Bořitov, ZD","arrival_time":"9:41:00","departure_time":"9:41:00","lat":49.425028,"lon":16.582243,"is_passed":false},{"stop_id":"U12523Z1","name":"Lysice, Perná","arrival_time":"9:44:00","departure_time":"9:44:00","lat":49.44743,"lon":16.574607,"is_passed":false},{"stop_id":"U12665Z1","name":"Krhov","arrival_time":"9:46:00","departure_time":"9:46:00","lat":49.463333,"lon":16.58325,"is_passed":false},{"stop_id":"U12663Z1","name":"Jabloňany, rozc.","arrival_time":"9:49:00","departure_time":"9:49:00","lat":49.474687,"lon":16.594285,"is_passed":false},{"stop_id":"U12676Z1","name":"Skalice nad Svitavou, žel.st.","arrival_time":"9:52:00","departure_time":"9:52:00","lat":49.480276,"lon":16.609048,"is_passed":false},{"stop_id":"U12649Z1","name":"Boskovice, Mladkov, pekárna","arrival_time":"9:54:00","departure_time":"9:54:00","lat":49.49032,"lon":16.615547,"is_passed":false},{"stop_id":"U12648Z1","name":"Boskovice, Mladkov","arrival_time":"9:55:00","departure_time":"9:55:00","lat":49.490525,"lon":16.619477,"is_passed":false},{"stop_id":"U12634Z1","name":"Boskovice, Kaufland","arrival_time":"9:59:00","departure_time":"9:59:00","lat":49.49056,"lon":16.64198,"is_passed":false},{"stop_id":"U12650Z1","name":"Boskovice, nemocnice","arrival_time":"10:01:00","departure_time":"10:01:00","lat":49.491627,"lon":16.644028,"is_passed":false},{"stop_id":"U12635Z5","name":"Boskovice, aut.st.","arrival_time":"10:04:00","departure_time":"10:05:00","lat":49.491518,"lon":16.653113,"is_passed":false},{"stop_id":"U12651Z1","name":"Boskovice, Pod Oborou","arrival_time":"10:07:00","departure_time":"10:07:00","lat":49.486997,"lon":16.653119,"is_passed":false},{"stop_id":"U12633Z3","name":"Boskovice, 17. listopadu","arrival_time":"10:09:00","departure_time":"10:09:00","lat":49.489329,"lon":16.661724,"is_passed":false},{"stop_id":"U12646Z1","name":"Boskovice, Lidická","arrival_time":"10:12:00","departure_time":"10:12:00","lat":49.486955,"lon":16.665463,"is_passed":false},{"stop_id":"U12643Z1","name":"Boskovice, Kosmonautů","arrival_time":"10:14:00","departure_time":"10:14:00","lat":49.485878,"lon":16.673002,"is_passed":false},{"stop_id":"U12645Z1","name":"Boskovice, Ludvíka Vojtěcha","arrival_time":"10:16:00","departure_time":"10:16:00","lat":49.484998,"lon":16.681002,"is_passed":false},{"stop_id":"U12637Z1","name":"Boskovice, Gagarinova","arrival_time":"10:18:00","departure_time":"10:18:00","lat":49.484847,"lon":16.67519,"is_passed":false},{"stop_id":"U12643Z11","name":"Boskovice, Kosmonautů","arrival_time":"10:20:00","departure_time":"10:20:00","lat":49.485878,"lon":16.673002,"is_passed":false},{"stop_id":"U12641Z1","name":"Boskovice, Hybešova","arrival_time":"10:21:00","departure_time":"10:21:00","lat":49.487828,"lon":16.671618,"is_passed":false},{"stop_id":"U12640Z2","name":"Boskovice, Na Výsluní","arrival_time":"10:23:00","departure_time":"10:23:00","lat":49.489517,"lon":16.66621,"is_passed":false},{"stop_id":"U12658Z1","name":"Boskovice, Svat.Čecha","arrival_time":"10:25:00","departure_time":"10:25:00","lat":49.492133,"lon":16.66902,"is_passed":false},{"stop_id":"U12638Z1","name":"Boskovice, hřbitov","arrival_time":"10:28:00","departure_time":"11:30:00","lat":49.493698,"lon":16.677302,"is_passed":false}],"15716":[{"stop_id":"U12638Z1","name":"Boskovice, hřbitov","arrival_time":"11:30:00","departure_time":"11:30:00","lat":49.493698,"lon":16.677302,"is_passed":false},{"stop_id":"U12658Z2","name":"Boskovice, Svat.Čecha","arrival_time":"11:32:00","departure_time":"11:32:00","lat":49.492133,"lon":16.66902,"is_passed":false},{"stop_id":"U12646Z1","name":"Boskovice, Lidická","arrival_time":"11:35:00","departure_time":"11:35:00","lat":49.486955,"lon":16.665463,"is_passed":false},{"stop_id":"U12643Z1","name":"Boskovice, Kosmonautů","arrival_time":"11:37:00","departure_time":"11:37:00","lat":49.485878,"lon":16.673002,"is_passed":false},{"stop_id":"U12645Z1","name":"Boskovice, Ludvíka Vojtěcha","arrival_time":"11:39:00","departure_time":"11:39:00","lat":49.484998,"lon":16.681002,"is_passed":false},{"stop_id":"U12637Z1","name":"Boskovice, Gagarinova","arrival_time":"11:41:00","departure_time":"11:41:00","lat":49.484847,"lon":16.67519,"is_passed":false},{"stop_id":"U12643Z2","name":"Boskovice, Kosmonautů","arrival_time":"11:43:00","departure_time":"11:43:00","lat":49.485878,"lon":16.673002,"is_passed":false},{"stop_id":"U12641Z1","name":"Boskovice, Hybešova","arrival_time":"11:44:00","departure_time":"11:44:00","lat":49.487828,"lon":16.671618,"is_passed":false},{"stop_id":"U12640Z22","name":"Boskovice, Na Výsluní","arrival_time":"11:46:00","departure_time":"11:46:00","lat":49.489517,"lon":16.66621,"is_passed":false},{"stop_id":"U12655Z2","name":"Boskovice, Sokolská","arrival_time":"11:48:00","departure_time":"11:48:00","lat":49.49097,"lon":16.660723,"is_passed":false},{"stop_id":"U12644Z1","name":"Boskovice, Kras","arrival_time":"11:49:00","departure_time":"11:49:00","lat":49.491675,"lon":16.657418,"is_passed":false},{"stop_id":"U12635Z25","name":"Boskovice, aut.st.","arrival_time":"11:51:00","departure_time":"11:52:00","lat":49.491518,"lon":16.653113,"is_passed":false},{"stop_id":"U12650Z2","name":"Boskovice, nemocnice","arrival_time":"11:54:00","departure_time":"11:54:00","lat":49.49167,"lon":16.644917,"is_passed":false},{"stop_id":"U12634Z2","name":"Boskovice, Kaufland","arrival_time":"11:56:00","departure_time":"11:56:00","lat":49.49056,"lon":16.64198,"is_passed":false},{"stop_id":"U12648Z2","name":"Boskovice, Mladkov","arrival_time":"12:00:00","departure_time":"12:00:00","lat":49.490705,"lon":16.61905,"is_passed":false},{"stop_id":"U12649Z2","name":"Boskovice, Mladkov, pekárna","arrival_time":"12:01:00","departure_time":"12:01:00","lat":49.490322,"lon":16.61537,"is_passed":false},{"stop_id":"U12676Z11","name":"Skalice nad Svitavou, žel.st.","arrival_time":"12:03:00","departure_time":"12:03:00","lat":49.480519,"lon":16.608517,"is_passed":false}],"15717":[{"stop_id":"U12676Z4","name":"Skalice nad Svitavou, žel.st.","arrival_time":"13:30:00","departure_time":"13:30:00","lat":49.480519,"lon":16.608517,"is_passed":false},{"stop_id":"U12512Z2","name":"Jabloňany","arrival_time":"13:35:00","departure_time":"13:35:00","lat":49.46638,"lon":16.604912,"is_passed":false},{"stop_id":"U12515Z2","name":"Obora","arrival_time":"13:40:00","departure_time":"13:42:00","lat":49.452277,"lon":16.604263,"is_passed":false}],"15718":[{"stop_id":"U12515Z1","name":"Obora","arrival_time":"13:42:00","departure_time":"13:42:00","lat":49.452277,"lon":16.604263,"is_passed":false},{"stop_id":"U12512Z1","name":"Jabloňany","arrival_time":"13:46:00","departure_time":"13:46:00","lat":49.466297,"lon":16.604993,"is_passed":false},{"stop_id":"U12676Z1","name":"Skalice nad Svitavou, žel.st.","arrival_time":"13:50:00","departure_time":"13:52:00","lat":49.480276,"lon":16.609048,"is_passed":false}],"15719":[{"stop_id":"U12676Z1","name":"Skalice nad Svitavou, žel.st.","arrival_time":"13:52:00","departure_time":"13:52:00","lat":49.480276,"lon":16.609048,"is_passed":false},{"stop_id":"U12649Z1","name":"Boskovice, Mladkov, pekárna","arrival_time":"13:54:00","departure_time":"13:54:00","lat":49.49032,"lon":16.615547,"is_passed":false},{"stop_id":"U12648Z1","name":"Boskovice, Mladkov","arrival_time":"13:55:00","departure_time":"13:55:00","lat":49.490525,"lon":16.619477,"is_passed":false},{"stop_id":"U12634Z1","name":"Boskovice, Kaufland","arrival_time":"13:59:00","departure_time":"13:59:00","lat":49.49056,"lon":16.64198,"is_passed":false},{"stop_id":"U12650Z1","name":"Boskovice, nemocnice","arrival_time":"14:01:00","departure_time":"14:01:00","lat":49.491627,"lon":16.644028,"is_passed":false},{"stop_id":"U12635Z5","name":"Boskovice, aut.st.","arrival_time":"14:04:00","departure_time":"14:05:00","lat":49.491518,"lon":16.653113,"is_passed":false},{"stop_id":"U12651Z1","name":"Boskovice, Pod Oborou","arrival_time":"14:07:00","departure_time":"14:07:00","lat":49.486997,"lon":16.653119,"is_passed":false},{"stop_id":"U12633Z3","name":"Boskovice, 17. listopadu","arrival_time":"14:09:00","departure_time":"14:09:00","lat":49.489329,"lon":16.661724,"is_passed":false},{"stop_id":"U12646Z1","name":"Boskovice, Lidická","arrival_time":"14:12:00","departure_time":"14:12:00","lat":49.486955,"lon":16.665463,"is_passed":false},{"stop_id":"U12643Z1","name":"Boskovice, Kosmonautů","arrival_time":"14:14:00","departure_time":"14:14:00","lat":49.485878,"lon":16.673002,"is_passed":false},{"stop_id":"U12645Z1","name":"Boskovice, Ludvíka Vojtěcha","arrival_time":"14:16:00","departure_time":"14:16:00","lat":49.484998,"lon":16.681002,"is_passed":false},{"stop_id":"U12637Z1","name":"Boskovice, Gagarinova","arrival_time":"14:18:00","departure_time":"14:18:00","lat":49.484847,"lon":16.67519,"is_passed":false},{"stop_id":"U12643Z11","name":"Boskovice, Kosmonautů","arrival_time":"14:20:00","departure_time":"14:20:00","lat":49.485878,"lon":16.673002,"is_passed":false},{"stop_id":"U12641Z1","name":"Boskovice, Hybešova","arrival_time":"14:21:00","departure_time":"14:21:00","lat":49.487828,"lon":16.671618,"is_passed":false},{"stop_id":"U12640Z2","name":"Boskovice, Na Výsluní","arrival_time":"14:23:00","departure_time":"14:23:00","lat":49.489517,"lon":16.66621,"is_passed":false},{"stop_id":"U12658Z1","name":"Boskovice, Svat.Čecha","arrival_time":"14:25:00","departure_time":"14:25:00","lat":49.492133,"lon":16.66902,"is_passed":false},{"stop_id":"U12638Z1","name":"Boskovice, hřbitov","arrival_time":"14:28:00","departure_time":"15:30:00","lat":49.493698,"lon":16.677302,"is_passed":false}],"15720":[{"stop_id":"U12638Z1","name":"Boskovice, hřbitov","arrival_time":"15:30:00","departure_time":"15:30:00","lat":49.493698,"lon":16.677302,"is_passed":false},{"stop_id":"U12658Z2","name":"Boskovice, Svat.Čecha","arrival_time":"15:32:00","departure_time":"15:32:00","lat":49.492133,"lon":16.66902,"is_passed":false},{"stop_id":"U12646Z1","name":"Boskovice, Lidická","arrival_time":"15:35:00","departure_time":"15:35:00","lat":49.486955,"lon":16.665463,"is_passed":false},{"stop_id":"U12643Z1","name":"Boskovice, Kosmonautů","arrival_time":"15:37:00","departure_time":"15:37:00","lat":49.485878,"lon":16.673002,"is_passed":false},{"stop_id":"U12645Z1","name":"Boskovice, Ludvíka Vojtěcha","arrival_time":"15:39:00","departure_time":"15:39:00","lat":49.484998,"lon":16.681002,"is_passed":false},{"stop_id":"U12637Z1","name":"Boskovice, Gagarinova","arrival_time":"15:41:00","departure_time":"15:41:00","lat":49.484847,"lon":16.67519,"is_passed":false},{"stop_id":"U12643Z2","name":"Boskovice, Kosmonautů","arrival_time":"15:43:00","departure_time":"15:43:00","lat":49.485878,"lon":16.673002,"is_passed":false},{"stop_id":"U12641Z1","name":"Boskovice, Hybešova","arrival_time":"15:44:00","departure_time":"15:44:00","lat":49.487828,"lon":16.671618,"is_passed":false},{"stop_id":"U12640Z22","name":"Boskovice, Na Výsluní","arrival_time":"15:46:00","departure_time":"15:46:00","lat":49.489517,"lon":16.66621,"is_passed":false},{"stop_id":"U12655Z2","name":"Boskovice, Sokolská","arrival_time":"15:48:00","departure_time":"15:48:00","lat":49.49097,"lon":16.660723,"is_passed":false},{"stop_id":"U12644Z1","name":"Boskovice, Kras","arrival_time":"15:49:00","departure_time":"15:49:00","lat":49.491675,"lon":16.657418,"is_passed":false},{"stop_id":"U12635Z25","name":"Boskovice, aut.st.","arrival_time":"15:51:00","departure_time":"15:52:00","lat":49.491518,"lon":16.653113,"is_passed":false},{"stop_id":"U12650Z2","name":"Boskovice, nemocnice","arrival_time":"15:54:00","departure_time":"15:54:00","lat":49.49167,"lon":16.644917,"is_passed":false},{"stop_id":"U12634Z2","name":"Boskovice, Kaufland","arrival_time":"15:56:00","departure_time":"15:56:00","lat":49.49056,"lon":16.64198,"is_passed":false},{"stop_id":"U12648Z2","name":"Boskovice, Mladkov","arrival_time":"16:00:00","departure_time":"16:00:00","lat":49.490705,"lon":16.61905,"is_passed":false},{"stop_id":"U12649Z2","name":"Boskovice, Mladkov, pekárna","arrival_time":"16:01:00","departure_time":"16:01:00","lat":49.490322,"lon":16.61537,"is_passed":false},{"stop_id":"U12676Z4","name":"Skalice nad Svitavou, žel.st.","arrival_time":"16:03:00","departure_time":"16:03:00","lat":49.480519,"lon":16.608517,"is_passed":false},{"stop_id":"U12663Z2","name":"Jabloňany, rozc.","arrival_time":"16:06:00","departure_time":"16:06:00","lat":49.47452,"lon":16.59455,"is_passed":false},{"stop_id":"U12665Z2","name":"Krhov","arrival_time":"16:09:00","departure_time":"16:09:00","lat":49.463333,"lon":16.58325,"is_passed":false},{"stop_id":"U12523Z2","name":"Lysice, Perná","arrival_time":"16:12:00","departure_time":"16:12:00","lat":49.446505,"lon":16.574543,"is_passed":false},{"stop_id":"U12445Z2","name":"Bořitov, ZD","arrival_time":"16:15:00","departure_time":"16:15:00","lat":49.423147,"lon":16.583069,"is_passed":false},{"stop_id":"U12450Z2","name":"Černá Hora, nám.","arrival_time":"16:18:00","departure_time":"16:20:00","lat":49.414678,"lon":16.582145,"is_passed":false}],"15721":[{"stop_id":"U12450Z2","name":"Černá Hora, nám.","arrival_time":"16:20:00","departure_time":"16:20:00","lat":49.414678,"lon":16.582145,"is_passed":false},{"stop_id":"U12449Z2","name":"Černá Hora, Na kopci","arrival_time":"16:21:00","departure_time":"16:21:00","lat":49.410245,"lon":16.58076,"is_passed":false},{"stop_id":"U12016Z2","name":"Závist","arrival_time":"16:25:00","departure_time":"16:25:00","lat":49.37451,"lon":16.572602,"is_passed":false},{"stop_id":"U12014Z1","name":"Milonice","arrival_time":"16:27:00","departure_time":"16:27:00","lat":49.36803,"lon":16.565543,"is_passed":false},{"stop_id":"U12240Z2","name":"Lažany, rozcestí Újezd","arrival_time":"16:29:00","departure_time":"16:29:00","lat":49.359442,"lon":16.554392,"is_passed":false},{"stop_id":"U12239Z2","name":"Lažany","arrival_time":"16:30:00","departure_time":"16:30:00","lat":49.353032,"lon":16.55062,"is_passed":false},{"stop_id":"U12004Z2","name":"Lipůvka","arrival_time":"16:33:00","departure_time":"16:33:00","lat":49.338367,"lon":16.552513,"is_passed":false},{"stop_id":"U13120Z2","name":"Kuřim, rozcestí 2.0","arrival_time":"16:35:00","departure_time":"16:35:00","lat":49.317569,"lon":16.551447,"is_passed":false},{"stop_id":"U13126Z2","name":"Kuřim, Podlesí, rozc.","arrival_time":"16:37:00","departure_time":"16:37:00","lat":49.305549,"lon":16.554781,"is_passed":false},{"stop_id":"U1286Z8","name":"Královo Pole, nádraží","arrival_time":"16:47:00","departure_time":"16:51:00","lat":49.230335,"lon":16.595523,"is_passed":false}],"15722":[{"stop_id":"U1286Z12","name":"Královo Pole, nádraží","arrival_time":"16:51:00","departure_time":"16:51:00","lat":49.23045,"lon":16.595801,"is_passed":false},{"stop_id":"U13126Z1","name":"Kuřim, Podlesí, rozc.","arrival_time":"17:01:00","departure_time":"17:01:00","lat":49.305568,"lon":16.554963,"is_passed":false},{"stop_id":"U13120Z1","name":"Kuřim, rozcestí 2.0","arrival_time":"17:03:00","departure_time":"17:03:00","lat":49.318142,"lon":16.551936,"is_passed":false},{"stop_id":"U12004Z1","name":"Lipůvka","arrival_time":"17:06:00","departure_time":"17:06:00","lat":49.339155,"lon":16.552682,"is_passed":false},{"stop_id":"U12239Z1","name":"Lažany","arrival_time":"17:08:00","departure_time":"17:08:00","lat":49.354925,"lon":16.551363,"is_passed":false},{"stop_id":"U12240Z1","name":"Lažany, rozcestí Újezd","arrival_time":"17:09:00","departure_time":"17:09:00","lat":49.359483,"lon":16.554537,"is_passed":false},{"stop_id":"U12014Z2","name":"Milonice","arrival_time":"17:11:00","departure_time":"17:11:00","lat":49.36813,"lon":16.565875,"is_passed":false},{"stop_id":"U12016Z1","name":"Závist","arrival_time":"17:13:00","departure_time":"17:13:00","lat":49.374753,"lon":16.573022,"is_passed":false},{"stop_id":"U12449Z1","name":"Černá Hora, Na kopci","arrival_time":"17:18:00","departure_time":"17:18:00","lat":49.410472,"lon":16.580877,"is_passed":false},{"stop_id":"U12450Z1","name":"Černá Hora, nám.","arrival_time":"17:19:00","departure_time":"17:19:00","lat":49.414767,"lon":16.582423,"is_passed":false}],"15723":[{"stop_id":"U12450Z1","name":"Černá Hora, nám.","arrival_time":"17:19:00","departure_time":"17:19:00","lat":49.414767,"lon":16.582423,"is_passed":false},{"stop_id":"U12445Z1","name":"Bořitov, ZD","arrival_time":"17:21:00","departure_time":"17:21:00","lat":49.425028,"lon":16.582243,"is_passed":false},{"stop_id":"U12523Z1","name":"Lysice, Perná","arrival_time":"17:24:00","departure_time":"17:24:00","lat":49.44743,"lon":16.574607,"is_passed":false},{"stop_id":"U12665Z1","name":"Krhov","arrival_time":"17:26:00","departure_time":"17:26:00","lat":49.463333,"lon":16.58325,"is_passed":false},{"stop_id":"U12663Z1","name":"Jabloňany, rozc.","arrival_time":"17:29:00","departure_time":"17:29:00","lat":49.474687,"lon":16.594285,"is_passed":false},{"stop_id":"U12676Z1","name":"Skalice nad Svitavou, žel.st.","arrival_time":"17:32:00","departure_time":"17:32:00","lat":49.480276,"lon":16.609048,"is_passed":false},{"stop_id":"U12649Z1","name":"Boskovice, Mladkov, pekárna","arrival_time":"17:34:00","departure_time":"17:34:00","lat":49.49032,"lon":16.615547,"is_passed":false},{"stop_id":"U12648Z1","name":"Boskovice, Mladkov","arrival_time":"17:35:00","departure_time":"17:35:00","lat":49.490525,"lon":16.619477,"is_passed":false},{"stop_id":"U12650Z1","name":"Boskovice, nemocnice","arrival_time":"17:38:00","departure_time":"17:38:00","lat":49.491627,"lon":16.644028,"is_passed":false},{"stop_id":"U12635Z5","name":"Boskovice, aut.st.","arrival_time":"17:41:00","departure_time":"17:41:00","lat":49.491518,"lon":16.653113,"is_passed":false},{"stop_id":"U12642Z1","name":"Boskovice, Komenského","arrival_time":"17:42:00","departure_time":"17:42:00","lat":49.48951,"lon":16.655473,"is_passed":false},{"stop_id":"U12633Z3","name":"Boskovice, 17. listopadu","arrival_time":"17:44:00","departure_time":"17:50:00","lat":49.489329,"lon":16.661724,"is_passed":false}],"15724":[{"stop_id":"U12633Z51","name":"Boskovice, 17. listopadu","arrival_time":"17:50:00","departure_time":"17:50:00","lat":49.489329,"lon":16.661724,"is_passed":false},{"stop_id":"U12655Z2","name":"Boskovice, Sokolská","arrival_time":"17:51:00","departure_time":"17:51:00","lat":49.49097,"lon":16.660723,"is_passed":false},{"stop_id":"U12644Z1","name":"Boskovice, Kras","arrival_time":"17:52:00","departure_time":"17:52:00","lat":49.491675,"lon":16.657418,"is_passed":false},{"stop_id":"U12635Z25","name":"Boskovice, aut.st.","arrival_time":"17:54:00","departure_time":"17:55:00","lat":49.491518,"lon":16.653113,"is_passed":false},{"stop_id":"U12650Z2","name":"Boskovice, nemocnice","arrival_time":"17:57:00","departure_time":"17:57:00","lat":49.49167,"lon":16.644917,"is_passed":false},{"stop_id":"U12648Z2","name":"Boskovice, Mladkov","arrival_time":"18:00:00","departure_time":"18:00:00","lat":49.490705,"lon":16.61905,"is_passed":false},{"stop_id":"U12649Z2","name":"Boskovice, Mladkov, pekárna","arrival_time":"18:01:00","departure_time":"18:01:00","lat":49.490322,"lon":16.61537,"is_passed":false},{"stop_id":"U12676Z4","name":"Skalice nad Svitavou, žel.st.","arrival_time":"18:03:00","departure_time":"18:03:00","lat":49.480519,"lon":16.608517,"is_passed":false},{"stop_id":"U12663Z2","name":"Jabloňany, rozc.","arrival_time":"18:06:00","departure_time":"18:06:00","lat":49.47452,"lon":16.59455,"is_passed":false},{"stop_id":"U12665Z2","name":"Krhov","arrival_time":"18:09:00","departure_time":"18:09:00","lat":49.463333,"lon":16.58325,"is_passed":false},{"stop_id":"U12523Z2","name":"Lysice, Perná","arrival_time":"18:12:00","departure_time":"18:12:00","lat":49.446505,"lon":16.574543,"is_passed":false},{"stop_id":"U12445Z2","name":"Bořitov, ZD","arrival_time":"18:15:00","departure_time":"18:15:00","lat":49.423147,"lon":16.583069,"is_passed":false},{"stop_id":"U12450Z2","name":"Černá Hora, nám.","arrival_time":"18:18:00","departure_time":"18:20:00","lat":49.414678,"lon":16.582145,"is_passed":false}],"15725":[{"stop_id":"U12450Z2","name":"Černá Hora, nám.","arrival_time":"18:20:00","departure_time":"18:20:00","lat":49.414678,"lon":16.582145,"is_passed":false},{"stop_id":"U12449Z2","name":"Černá Hora, Na kopci","arrival_time":"18:21:00","departure_time":"18:21:00","lat":49.410245,"lon":16.58076,"is_passed":false},{"stop_id":"U12016Z2","name":"Závist","arrival_time":"18:25:00","departure_time":"18:25:00","lat":49.37451,"lon":16.572602,"is_passed":false},{"stop_id":"U12014Z1","name":"Milonice","arrival_time":"18:27:00","departure_time":"18:27:00","lat":49.36803,"lon":16.565543,"is_passed":false},{"stop_id":"U12240Z2","name":"Lažany, rozcestí Újezd","arrival_time":"18:29:00","departure_time":"18:29:00","lat":49.359442,"lon":16.554392,"is_passed":false},{"stop_id":"U12239Z2","name":"Lažany","arrival_time":"18:30:00","departure_time":"18:30:00","lat":49.353032,"lon":16.55062,"is_passed":false},{"stop_id":"U12004Z2","name":"Lipůvka","arrival_time":"18:33:00","departure_time":"18:33:00","lat":49.338367,"lon":16.552513,"is_passed":false},{"stop_id":"U13120Z2","name":"Kuřim, rozcestí 2.0","arrival_time":"18:35:00","departure_time":"18:35:00","lat":49.317569,"lon":16.551447,"is_passed":false},{"stop_id":"U13126Z2","name":"Kuřim, Podlesí, rozc.","arrival_time":"18:37:00","departure_time":"18:37:00","lat":49.305549,"lon":16.554781,"is_passed":false},{"stop_id":"U1286Z8","name":"Královo Pole, nádraží","arrival_time":"18:47:00","departure_time":"19:11:00","lat":49.230335,"lon":16.595523,"is_passed":false}],"15726":[{"stop_id":"U1286Z12","name":"Královo Pole, nádraží","arrival_time":"19:11:00","departure_time":"19:11:00","lat":49.23045,"lon":16.595801,"is_passed":false},{"stop_id":"U13126Z1","name":"Kuřim, Podlesí, rozc.","arrival_time":"19:21:00","departure_time":"19:21:00","lat":49.305568,"lon":16.554963,"is_passed":false},{"stop_id":"U13120Z1","name":"Kuřim, rozcestí 2.0","arrival_time":"19:23:00","departure_time":"19:23:00","lat":49.318142,"lon":16.551936,"is_passed":false},{"stop_id":"U12004Z1","name":"Lipůvka","arrival_time":"19:26:00","departure_time":"19:26:00","lat":49.339155,"lon":16.552682,"is_passed":false},{"stop_id":"U12239Z1","name":"Lažany","arrival_time":"19:28:00","departure_time":"19:28:00","lat":49.354925,"lon":16.551363,"is_passed":false},{"stop_id":"U12240Z1","name":"Lažany, rozcestí Újezd","arrival_time":"19:29:00","departure_time":"19:29:00","lat":49.359483,"lon":16.554537,"is_passed":false},{"stop_id":"U12014Z2","name":"Milonice","arrival_time":"19:31:00","departure_time":"19:31:00","lat":49.36813,"lon":16.565875,"is_passed":false},{"stop_id":"U12016Z1","name":"Závist","arrival_time":"19:33:00","departure_time":"19:33:00","lat":49.374753,"lon":16.573022,"is_passed":false},{"stop_id":"U12449Z1","name":"Černá Hora, Na kopci","arrival_time":"19:38:00","departure_time":"19:38:00","lat":49.410472,"lon":16.580877,"is_passed":false},{"stop_id":"U12450Z1","name":"Černá Hora, nám.","arrival_time":"19:39:00","departure_time":"19:39:00","lat":49.414767,"lon":16.582423,"is_passed":false}],"15727":[{"stop_id":"U12450Z1","name":"Černá Hora, nám.","arrival_time":"19:39:00","departure_time":"19:39:00","lat":49.414767,"lon":16.582423,"is_passed":false},{"stop_id":"U12445Z1","name":"Bořitov, ZD","arrival_time":"19:41:00","departure_time":"19:41:00","lat":49.425028,"lon":16.582243,"is_passed":false},{"stop_id":"U12523Z1","name":"Lysice, Perná","arrival_time":"19:44:00","departure_time":"19:44:00","lat":49.44743,"lon":16.574607,"is_passed":false},{"stop_id":"U12665Z1","name":"Krhov","arrival_time":"19:46:00","departure_time":"19:46:00","lat":49.463333,"lon":16.58325,"is_passed":false},{"stop_id":"U12663Z1","name":"Jabloňany, rozc.","arrival_time":"19:49:00","departure_time":"19:49:00","lat":49.474687,"lon":16.594285,"is_passed":false},{"stop_id":"U12676Z1","name":"Skalice nad Svitavou, žel.st.","arrival_time":"19:52:00","departure_time":"19:52:00","lat":49.480276,"lon":16.609048,"is_passed":false},{"stop_id":"U12649Z1","name":"Boskovice, Mladkov, pekárna","arrival_time":"19:54:00","departure_time":"19:54:00","lat":49.49032,"lon":16.615547,"is_passed":false},{"stop_id":"U12648Z1","name":"Boskovice, Mladkov","arrival_time":"19:55:00","departure_time":"19:55:00","lat":49.490525,"lon":16.619477,"is_passed":false},{"stop_id":"U12650Z1","name":"Boskovice, nemocnice","arrival_time":"19:58:00","departure_time":"19:58:00","lat":49.491627,"lon":16.644028,"is_passed":false},{"stop_id":"U12635Z5","name":"Boskovice, aut.st.","arrival_time":"20:01:00","departure_time":"20:01:00","lat":49.491518,"lon":16.653113,"is_passed":false},{"stop_id":"U12642Z1","name":"Boskovice, Komenského","arrival_time":"20:02:00","departure_time":"20:02:00","lat":49.48951,"lon":16.655473,"is_passed":false},{"stop_id":"U12633Z3","name":"Boskovice, 17. listopadu","arrival_time":"20:04:00","departure_time":"20:04:00","lat":49.489329,"lon":16.661724,"is_passed":false}],"15728":[{"stop_id":"U12633Z2","name":"Boskovice, 17. listopadu","arrival_time":"21:01:00","departure_time":"21:01:00","lat":49.489111,"lon":16.66161,"is_passed":false},{"stop_id":"U12635Z1","name":"Boskovice, aut.st.","arrival_time":"21:06:00","departure_time":"21:08:00","lat":49.491367,"lon":16.652925,"is_passed":false},{"stop_id":"U12650Z2","name":"Boskovice, nemocnice","arrival_time":"21:10:00","departure_time":"21:10:00","lat":49.49167,"lon":16.644917,"is_passed":false},{"stop_id":"U12648Z2","name":"Boskovice, Mladkov","arrival_time":"21:13:00","departure_time":"21:13:00","lat":49.490705,"lon":16.61905,"is_passed":false},{"stop_id":"U12037Z2","name":"Sebranice, ALPS","arrival_time":"21:17:00","departure_time":"21:19:00","lat":49.491011,"lon":16.58875,"is_passed":false}],"15729":[{"stop_id":"U12676Z2","name":"Skalice nad Svitavou, žel.st.","arrival_time":"21:24:00","departure_time":"21:24:00","lat":49.48041,"lon":16.608657,"is_passed":false},{"stop_id":"U12671Z2","name":"Skalice nad Svitavou, ACHP","arrival_time":"21:26:00","departure_time":"21:26:00","lat":49.482506,"lon":16.599886,"is_passed":false},{"stop_id":"U12037Z2","name":"Sebranice, ALPS","arrival_time":"21:29:00","departure_time":"21:30:00","lat":49.491011,"lon":16.58875,"is_passed":false}],"15730":[{"stop_id":"U12037Z1","name":"Sebranice, ALPS","arrival_time":"21:30:00","departure_time":"21:30:00","lat":49.491011,"lon":16.58875,"is_passed":false},{"stop_id":"U12648Z1","name":"Boskovice, Mladkov","arrival_time":"21:34:00","departure_time":"21:34:00","lat":49.490525,"lon":16.619477,"is_passed":false},{"stop_id":"U12650Z1","name":"Boskovice, nemocnice","arrival_time":"21:37:00","departure_time":"21:37:00","lat":49.491627,"lon":16.644028,"is_passed":false},{"stop_id":"U12635Z31","name":"Boskovice, aut.st.","arrival_time":"21:39:00","departure_time":"21:39:00","lat":49.491878,"lon":16.653408,"is_passed":false},{"stop_id":"U12633Z31","name":"Boskovice, 17. listopadu","arrival_time":"21:42:00","departure_time":"21:42:00","lat":49.488891,"lon":16.661476,"is_passed":false}],"15731":[{"stop_id":"U12633Z51","name":"Boskovice, 17. listopadu","arrival_time":"21:50:00","departure_time":"21:50:00","lat":49.489329,"lon":16.661724,"is_passed":false},{"stop_id":"U12655Z2","name":"Boskovice, Sokolská","arrival_time":"21:51:00","departure_time":"21:51:00","lat":49.49097,"lon":16.660723,"is_passed":false},{"stop_id":"U12644Z1","name":"Boskovice, Kras","arrival_time":"21:52:00","departure_time":"21:52:00","lat":49.491675,"lon":16.657418,"is_passed":false},{"stop_id":"U12635Z25","name":"Boskovice, aut.st.","arrival_time":"21:54:00","departure_time":"21:55:00","lat":49.491518,"lon":16.653113,"is_passed":false},{"stop_id":"U12650Z2","name":"Boskovice, nemocnice","arrival_time":"21:57:00","departure_time":"21:57:00","lat":49.49167,"lon":16.644917,"is_passed":false},{"stop_id":"U12648Z2","name":"Boskovice, Mladkov","arrival_time":"22:00:00","departure_time":"22:00:00","lat":49.490705,"lon":16.61905,"is_passed":false},{"stop_id":"U12649Z2","name":"Boskovice, Mladkov, pekárna","arrival_time":"22:01:00","departure_time":"22:01:00","lat":49.490322,"lon":16.61537,"is_passed":false},{"stop_id":"U12676Z11","name":"Skalice nad Svitavou, žel.st.","arrival_time":"22:03:00","departure_time":"22:52:00","lat":49.480519,"lon":16.608517,"is_passed":false}],"15732":[{"stop_id":"U12676Z1","name":"Skalice nad Svitavou, žel.st.","arrival_time":"22:52:00","departure_time":"22:52:00","lat":49.480276,"lon":16.609048,"is_passed":false},{"stop_id":"U12649Z1","name":"Boskovice, Mladkov, pekárna","arrival_time":"22:54:00","departure_time":"22:54:00","lat":49.49032,"lon":16.615547,"is_passed":false},{"stop_id":"U12648Z1","name":"Boskovice, Mladkov","arrival_time":"22:55:00","departure_time":"22:55:00","lat":49.490525,"lon":16.619477,"is_passed":false},{"stop_id":"U12650Z1","name":"Boskovice, nemocnice","arrival_time":"22:58:00","departure_time":"22:58:00","lat":49.491627,"lon":16.644028,"is_passed":false},{"stop_id":"U12635Z5","name":"Boskovice, aut.st.","arrival_time":"23:01:00","departure_time":"23:01:00","lat":49.491518,"lon":16.653113,"is_passed":false},{"stop_id":"U12642Z1","name":"Boskovice, Komenského","arrival_time":"23:02:00","departure_time":"23:02:00","lat":49.48951,"lon":16.655473,"is_passed":false},{"stop_id":"U12633Z3","name":"Boskovice, 17. listopadu","arrival_time":"23:04:00","departure_time":"23:28:00","lat":49.489329,"lon":16.661724,"is_passed":false}],"15733":[{"stop_id":"U12633Z51","name":"Boskovice, 17. listopadu","arrival_time":"23:28:00","departure_time":"23:28:00","lat":49.489329,"lon":16.661724,"is_passed":false},{"stop_id":"U12655Z2","name":"Boskovice, Sokolská","arrival_time":"23:29:00","departure_time":"23:29:00","lat":49.49097,"lon":16.660723,"is_passed":false},{"stop_id":"U12644Z1","name":"Boskovice, Kras","arrival_time":"23:30:00","departure_time":"23:30:00","lat":49.491675,"lon":16.657418,"is_passed":false},{"stop_id":"U12635Z25","name":"Boskovice, aut.st.","arrival_time":"23:32:00","departure_time":"23:32:00","lat":49.491518,"lon":16.653113,"is_passed":false},{"stop_id":"U12650Z2","name":"Boskovice, nemocnice","arrival_time":"23:34:00","departure_time":"23:34:00","lat":49.49167,"lon":16.644917,"is_passed":false},{"stop_id":"U12648Z2","name":"Boskovice, Mladkov","arrival_time":"23:37:00","departure_time":"23:37:00","lat":49.490705,"lon":16.61905,"is_passed":false},{"stop_id":"U12649Z2","name":"Boskovice, Mladkov, pekárna","arrival_time":"23:38:00","departure_time":"23:38:00","lat":49.490322,"lon":16.61537,"is_passed":false},{"stop_id":"U12676Z11","name":"Skalice nad Svitavou, žel.st.","arrival_time":"23:40:00","departure_time":"23:52:00","lat":49.480519,"lon":16.608517,"is_passed":false}],"15734":[{"stop_id":"U12676Z1","name":"Skalice nad Svitavou, žel.st.","arrival_time":"23:52:00","departure_time":"23:52:00","lat":49.480276,"lon":16.609048,"is_passed":false},{"stop_id":"U12649Z1","name":"Boskovice, Mladkov, pekárna","arrival_time":"23:54:00","departure_time":"23:54:00","lat":49.49032,"lon":16.615547,"is_passed":false},{"stop_id":"U12648Z1","name":"Boskovice, Mladkov","arrival_time":"23:55:00","departure_time":"23:55:00","lat":49.490525,"lon":16.619477,"is_passed":false},{"stop_id":"U12650Z1","name":"Boskovice, nemocnice","arrival_time":"23:58:00","departure_time":"23:58:00","lat":49.491627,"lon":16.644028,"is_passed":false},{"stop_id":"U12635Z5","name":"Boskovice, aut.st.","arrival_time":"24:01:00","departure_time":"24:01:00","lat":49.491518,"lon":16.653113,"is_passed":false},{"stop_id":"U12642Z1","name":"Boskovice, Komenského","arrival_time":"24:02:00","departure_time":"24:02:00","lat":49.48951,"lon":16.655473,"is_passed":false},{"stop_id":"U12633Z3","name":"Boskovice, 17. listopadu","arrival_time":"24:04:00","departure_time":"24:04:00","lat":49.489329,"lon":16.661724,"is_passed":false}],"15735":[{"stop_id":"U12909Z2","name":"Jevíčko, nám.","arrival_time":"6:08:00","departure_time":"6:08:00","lat":49.632649,"lon":16.711559,"is_passed":false},{"stop_id":"U12927Z2","name":"Jevíčko, Brněnská","arrival_time":"6:09:00","departure_time":"6:09:00","lat":49.628988,"lon":16.711722,"is_passed":false},{"stop_id":"U12922Z1","name":"Velké Opatovice, sídliště","arrival_time":"6:13:00","departure_time":"6:13:00","lat":49.614488,"lon":16.67997,"is_passed":false},{"stop_id":"U12919Z3","name":"Velké Opatovice, aut.st.","arrival_time":"6:15:00","departure_time":"6:15:00","lat":49.610978,"lon":16.673748,"is_passed":false},{"stop_id":"U12925Z2","name":"Velké Opatovice, závod","arrival_time":"6:17:00","departure_time":"6:17:00","lat":49.611702,"lon":16.685438,"is_passed":false},{"stop_id":"U12807Z1","name":"Borotín","arrival_time":"6:22:00","departure_time":"6:22:00","lat":49.583038,"lon":16.676638,"is_passed":false},{"stop_id":"U12812Z1","name":"Cetkovice, žel.st.","arrival_time":"6:25:00","departure_time":"6:25:00","lat":49.588443,"lon":16.705057,"is_passed":false},{"stop_id":"U12810Z1","name":"Cetkovice","arrival_time":"6:28:00","departure_time":"6:28:00","lat":49.577921,"lon":16.721165,"is_passed":false},{"stop_id":"U12821Z1","name":"Světlá","arrival_time":"6:30:00","departure_time":"6:30:00","lat":49.565807,"lon":16.717958,"is_passed":false},{"stop_id":"U12745Z2","name":"Šebetov","arrival_time":"6:33:00","departure_time":"6:33:00","lat":49.549295,"lon":16.70985,"is_passed":false},{"stop_id":"U12705Z1","name":"Knínice, horní zastávka","arrival_time":"6:35:00","departure_time":"6:35:00","lat":49.539683,"lon":16.702813,"is_passed":false},{"stop_id":"U12704Z1","name":"Knínice, Městečko","arrival_time":"6:37:00","departure_time":"6:37:00","lat":49.539615,"lon":16.69428,"is_passed":false},{"stop_id":"U12711Z1","name":"Knínice, U Nádraží","arrival_time":"6:38:00","departure_time":"6:38:00","lat":49.535502,"lon":16.689879,"is_passed":false},{"stop_id":"U12752Z1","name":"Vážany","arrival_time":"6:39:00","departure_time":"6:39:00","lat":49.530415,"lon":16.685962,"is_passed":false},{"stop_id":"U12741Z1","name":"Sudice","arrival_time":"6:41:00","departure_time":"6:41:00","lat":49.529338,"lon":16.669178,"is_passed":false},{"stop_id":"U12744Z1","name":"Sudice, zast.","arrival_time":"6:43:00","departure_time":"6:43:00","lat":49.525527,"lon":16.66957,"is_passed":false},{"stop_id":"U12742Z1","name":"Sudice, samota","arrival_time":"6:45:00","departure_time":"6:45:00","lat":49.517825,"lon":16.664367,"is_passed":false},{"stop_id":"U12659Z1","name":"Boskovice, podnikatelský park","arrival_time":"6:47:00","departure_time":"6:47:00","lat":49.498843,"lon":16.665685,"is_passed":false},{"stop_id":"U12655Z2","name":"Boskovice, Sokolská","arrival_time":"6:50:00","departure_time":"6:50:00","lat":49.49097,"lon":16.660723,"is_passed":false},{"stop_id":"U12635Z22","name":"Boskovice, aut.st.","arrival_time":"6:52:00","departure_time":"8:05:00","lat":49.491367,"lon":16.652925,"is_passed":false}],"15736":[{"stop_id":"U12635Z2","name":"Boskovice, aut.st.","arrival_time":"8:05:00","departure_time":"8:05:00","lat":49.491547,"lon":16.652987,"is_passed":false},{"stop_id":"U12633Z6","name":"Boskovice, 17. listopadu","arrival_time":"8:09:00","departure_time":"8:09:00","lat":49.489965,"lon":16.662222,"is_passed":false},{"stop_id":"U12659Z2","name":"Boskovice, podnikatelský park","arrival_time":"8:11:00","departure_time":"8:11:00","lat":49.498835,"lon":16.665792,"is_passed":false},{"stop_id":"U12742Z2","name":"Sudice, samota","arrival_time":"8:13:00","departure_time":"8:13:00","lat":49.517825,"lon":16.664367,"is_passed":false},{"stop_id":"U12744Z2","name":"Sudice, zast.","arrival_time":"8:15:00","departure_time":"8:15:00","lat":49.525527,"lon":16.66957,"is_passed":false},{"stop_id":"U12741Z2","name":"Sudice","arrival_time":"8:16:00","departure_time":"8:16:00","lat":49.529338,"lon":16.669178,"is_passed":false},{"stop_id":"U12752Z2","name":"Vážany","arrival_time":"8:18:00","departure_time":"8:18:00","lat":49.530408,"lon":16.686083,"is_passed":false},{"stop_id":"U12711Z2","name":"Knínice, U Nádraží","arrival_time":"8:19:00","departure_time":"8:19:00","lat":49.535469,"lon":16.689975,"is_passed":false},{"stop_id":"U12704Z2","name":"Knínice, Městečko","arrival_time":"8:20:00","departure_time":"8:20:00","lat":49.539403,"lon":16.69412,"is_passed":false},{"stop_id":"U12705Z2","name":"Knínice, horní zastávka","arrival_time":"8:22:00","departure_time":"8:22:00","lat":49.539622,"lon":16.702802,"is_passed":false},{"stop_id":"U12745Z1","name":"Šebetov","arrival_time":"8:24:00","departure_time":"8:24:00","lat":49.549292,"lon":16.70999,"is_passed":false},{"stop_id":"U12821Z2","name":"Světlá","arrival_time":"8:27:00","departure_time":"8:27:00","lat":49.565088,"lon":16.718312,"is_passed":false},{"stop_id":"U12810Z2","name":"Cetkovice","arrival_time":"8:30:00","departure_time":"8:30:00","lat":49.578071,"lon":16.721229,"is_passed":false},{"stop_id":"U12812Z2","name":"Cetkovice, žel.st.","arrival_time":"8:32:00","departure_time":"8:32:00","lat":49.588443,"lon":16.705057,"is_passed":false},{"stop_id":"U12807Z2","name":"Borotín","arrival_time":"8:36:00","departure_time":"8:36:00","lat":49.583038,"lon":16.676638,"is_passed":false},{"stop_id":"U12925Z1","name":"Velké Opatovice, závod","arrival_time":"8:41:00","departure_time":"8:41:00","lat":49.61169,"lon":16.685717,"is_passed":false},{"stop_id":"U12919Z1","name":"Velké Opatovice, aut.st.","arrival_time":"8:43:00","departure_time":"8:43:00","lat":49.610978,"lon":16.673748,"is_passed":false},{"stop_id":"U12922Z2","name":"Velké Opatovice, sídliště","arrival_time":"8:45:00","departure_time":"8:45:00","lat":49.614439,"lon":16.679973,"is_passed":false},{"stop_id":"U12927Z1","name":"Jevíčko, Brněnská","arrival_time":"8:49:00","departure_time":"8:49:00","lat":49.628988,"lon":16.711722,"is_passed":false},{"stop_id":"U12909Z5","name":"Jevíčko, nám.","arrival_time":"8:50:00","departure_time":"9:12:00","lat":49.632649,"lon":16.711559,"is_passed":false}],"15737":[{"stop_id":"U12909Z2","name":"Jevíčko, nám.","arrival_time":"9:12:00","departure_time":"9:12:00","lat":49.632649,"lon":16.711559,"is_passed":false},{"stop_id":"U12927Z2","name":"Jevíčko, Brněnská","arrival_time":"9:13:00","departure_time":"9:13:00","lat":49.628988,"lon":16.711722,"is_passed":false},{"stop_id":"U12922Z1","name":"Velké Opatovice, sídliště","arrival_time":"9:17:00","departure_time":"9:17:00","lat":49.614488,"lon":16.67997,"is_passed":false},{"stop_id":"U12919Z3","name":"Velké Opatovice, aut.st.","arrival_time":"9:19:00","departure_time":"9:19:00","lat":49.610978,"lon":16.673748,"is_passed":false},{"stop_id":"U12925Z2","name":"Velké Opatovice, závod","arrival_time":"9:21:00","departure_time":"9:21:00","lat":49.611702,"lon":16.685438,"is_passed":false},{"stop_id":"U12812Z1","name":"Cetkovice, žel.st.","arrival_time":"9:25:00","departure_time":"9:25:00","lat":49.588443,"lon":16.705057,"is_passed":false},{"stop_id":"U12810Z1","name":"Cetkovice","arrival_time":"9:28:00","departure_time":"9:28:00","lat":49.577921,"lon":16.721165,"is_passed":false},{"stop_id":"U12821Z1","name":"Světlá","arrival_time":"9:30:00","departure_time":"9:30:00","lat":49.565807,"lon":16.717958,"is_passed":false},{"stop_id":"U12745Z2","name":"Šebetov","arrival_time":"9:33:00","departure_time":"9:33:00","lat":49.549295,"lon":16.70985,"is_passed":false},{"stop_id":"U12705Z1","name":"Knínice, horní zastávka","arrival_time":"9:35:00","departure_time":"9:35:00","lat":49.539683,"lon":16.702813,"is_passed":false},{"stop_id":"U12704Z1","name":"Knínice, Městečko","arrival_time":"9:37:00","departure_time":"9:37:00","lat":49.539615,"lon":16.69428,"is_passed":false},{"stop_id":"U12711Z1","name":"Knínice, U Nádraží","arrival_time":"9:38:00","departure_time":"9:38:00","lat":49.535502,"lon":16.689879,"is_passed":false},{"stop_id":"U12752Z1","name":"Vážany","arrival_time":"9:39:00","departure_time":"9:39:00","lat":49.530415,"lon":16.685962,"is_passed":false},{"stop_id":"U12741Z1","name":"Sudice","arrival_time":"9:41:00","departure_time":"9:41:00","lat":49.529338,"lon":16.669178,"is_passed":false},{"stop_id":"U12744Z1","name":"Sudice, zast.","arrival_time":"9:43:00","departure_time":"9:43:00","lat":49.525527,"lon":16.66957,"is_passed":false},{"stop_id":"U12742Z1","name":"Sudice, samota","arrival_time":"9:45:00","departure_time":"9:45:00","lat":49.517825,"lon":16.664367,"is_passed":false},{"stop_id":"U12659Z1","name":"Boskovice, podnikatelský park","arrival_time":"9:47:00","departure_time":"9:47:00","lat":49.498843,"lon":16.665685,"is_passed":false},{"stop_id":"U12655Z2","name":"Boskovice, Sokolská","arrival_time":"9:50:00","departure_time":"9:50:00","lat":49.49097,"lon":16.660723,"is_passed":false},{"stop_id":"U12635Z22","name":"Boskovice, aut.st.","arrival_time":"9:52:00","departure_time":"10:05:00","lat":49.491367,"lon":16.652925,"is_passed":false}],"15738":[{"stop_id":"U12635Z2","name":"Boskovice, aut.st.","arrival_time":"10:05:00","departure_time":"10:05:00","lat":49.491547,"lon":16.652987,"is_passed":false},{"stop_id":"U12633Z6","name":"Boskovice, 17. listopadu","arrival_time":"10:09:00","departure_time":"10:09:00","lat":49.489965,"lon":16.662222,"is_passed":false},{"stop_id":"U12659Z2","name":"Boskovice, podnikatelský park","arrival_time":"10:11:00","departure_time":"10:11:00","lat":49.498835,"lon":16.665792,"is_passed":false},{"stop_id":"U12742Z2","name":"Sudice, samota","arrival_time":"10:13:00","departure_time":"10:13:00","lat":49.517825,"lon":16.664367,"is_passed":false},{"stop_id":"U12744Z2","name":"Sudice, zast.","arrival_time":"10:15:00","departure_time":"10:15:00","lat":49.525527,"lon":16.66957,"is_passed":false},{"stop_id":"U12741Z2","name":"Sudice","arrival_time":"10:16:00","departure_time":"10:16:00","lat":49.529338,"lon":16.669178,"is_passed":false},{"stop_id":"U12752Z2","name":"Vážany","arrival_time":"10:18:00","departure_time":"10:18:00","lat":49.530408,"lon":16.686083,"is_passed":false},{"stop_id":"U12711Z2","name":"Knínice, U Nádraží","arrival_time":"10:19:00","departure_time":"10:19:00","lat":49.535469,"lon":16.689975,"is_passed":false},{"stop_id":"U12704Z2","name":"Knínice, Městečko","arrival_time":"10:20:00","departure_time":"10:20:00","lat":49.539403,"lon":16.69412,"is_passed":false},{"stop_id":"U12705Z2","name":"Knínice, horní zastávka","arrival_time":"10:22:00","departure_time":"10:22:00","lat":49.539622,"lon":16.702802,"is_passed":false},{"stop_id":"U12745Z1","name":"Šebetov","arrival_time":"10:24:00","departure_time":"10:24:00","lat":49.549292,"lon":16.70999,"is_passed":false},{"stop_id":"U12821Z2","name":"Světlá","arrival_time":"10:27:00","departure_time":"10:27:00","lat":49.565088,"lon":16.718312,"is_passed":false},{"stop_id":"U12810Z2","name":"Cetkovice","arrival_time":"10:30:00","departure_time":"10:30:00","lat":49.578071,"lon":16.721229,"is_passed":false},{"stop_id":"U12812Z2","name":"Cetkovice, žel.st.","arrival_time":"10:32:00","departure_time":"10:32:00","lat":49.588443,"lon":16.705057,"is_passed":false},{"stop_id":"U12925Z1","name":"Velké Opatovice, závod","arrival_time":"10:37:00","departure_time":"10:37:00","lat":49.61169,"lon":16.685717,"is_passed":false},{"stop_id":"U12919Z1","name":"Velké Opatovice, aut.st.","arrival_time":"10:39:00","departure_time":"10:39:00","lat":49.610978,"lon":16.673748,"is_passed":false},{"stop_id":"U12922Z2","name":"Velké Opatovice, sídliště","arrival_time":"10:41:00","departure_time":"10:41:00","lat":49.614439,"lon":16.679973,"is_passed":false},{"stop_id":"U12927Z1","name":"Jevíčko, Brněnská","arrival_time":"10:45:00","departure_time":"10:45:00","lat":49.628988,"lon":16.711722,"is_passed":false},{"stop_id":"U12909Z5","name":"Jevíčko, nám.","arrival_time":"10:46:00","departure_time":"11:12:00","lat":49.632649,"lon":16.711559,"is_passed":false}],"15739":[{"stop_id":"U12909Z2","name":"Jevíčko, nám.","arrival_time":"11:12:00","departure_time":"11:12:00","lat":49.632649,"lon":16.711559,"is_passed":false},{"stop_id":"U12927Z2","name":"Jevíčko, Brněnská","arrival_time":"11:13:00","departure_time":"11:13:00","lat":49.628988,"lon":16.711722,"is_passed":false},{"stop_id":"U12922Z1","name":"Velké Opatovice, sídliště","arrival_time":"11:17:00","departure_time":"11:17:00","lat":49.614488,"lon":16.67997,"is_passed":false},{"stop_id":"U12919Z3","name":"Velké Opatovice, aut.st.","arrival_time":"11:19:00","departure_time":"11:19:00","lat":49.610978,"lon":16.673748,"is_passed":false},{"stop_id":"U12925Z2","name":"Velké Opatovice, závod","arrival_time":"11:21:00","departure_time":"11:21:00","lat":49.611702,"lon":16.685438,"is_passed":false},{"stop_id":"U12812Z1","name":"Cetkovice, žel.st.","arrival_time":"11:25:00","departure_time":"11:25:00","lat":49.588443,"lon":16.705057,"is_passed":false},{"stop_id":"U12810Z1","name":"Cetkovice","arrival_time":"11:28:00","departure_time":"11:28:00","lat":49.577921,"lon":16.721165,"is_passed":false},{"stop_id":"U12821Z1","name":"Světlá","arrival_time":"11:30:00","departure_time":"11:30:00","lat":49.565807,"lon":16.717958,"is_passed":false},{"stop_id":"U12745Z2","name":"Šebetov","arrival_time":"11:33:00","departure_time":"11:33:00","lat":49.549295,"lon":16.70985,"is_passed":false},{"stop_id":"U12705Z1","name":"Knínice, horní zastávka","arrival_time":"11:35:00","departure_time":"11:35:00","lat":49.539683,"lon":16.702813,"is_passed":false},{"stop_id":"U12704Z1","name":"Knínice, Městečko","arrival_time":"11:37:00","departure_time":"11:37:00","lat":49.539615,"lon":16.69428,"is_passed":false},{"stop_id":"U12711Z1","name":"Knínice, U Nádraží","arrival_time":"11:38:00","departure_time":"11:38:00","lat":49.535502,"lon":16.689879,"is_passed":false},{"stop_id":"U12752Z1","name":"Vážany","arrival_time":"11:39:00","departure_time":"11:39:00","lat":49.530415,"lon":16.685962,"is_passed":false},{"stop_id":"U12741Z1","name":"Sudice","arrival_time":"11:41:00","departure_time":"11:41:00","lat":49.529338,"lon":16.669178,"is_passed":false},{"stop_id":"U12744Z1","name":"Sudice, zast.","arrival_time":"11:43:00","departure_time":"11:43:00","lat":49.525527,"lon":16.66957,"is_passed":false},{"stop_id":"U12742Z1","name":"Sudice, samota","arrival_time":"11:45:00","departure_time":"11:45:00","lat":49.517825,"lon":16.664367,"is_passed":false},{"stop_id":"U12659Z1","name":"Boskovice, podnikatelský park","arrival_time":"11:47:00","departure_time":"11:47:00","lat":49.498843,"lon":16.665685,"is_passed":false},{"stop_id":"U12655Z2","name":"Boskovice, Sokolská","arrival_time":"11:50:00","departure_time":"11:50:00","lat":49.49097,"lon":16.660723,"is_passed":false},{"stop_id":"U12635Z22","name":"Boskovice, aut.st.","arrival_time":"11:52:00","departure_time":"12:05:00","lat":49.491367,"lon":16.652925,"is_passed":false}],"15740":[{"stop_id":"U12635Z2","name":"Boskovice, aut.st.","arrival_time":"12:05:00","departure_time":"12:05:00","lat":49.491547,"lon":16.652987,"is_passed":false},{"stop_id":"U12633Z6","name":"Boskovice, 17. listopadu","arrival_time":"12:09:00","departure_time":"12:09:00","lat":49.489965,"lon":16.662222,"is_passed":false},{"stop_id":"U12659Z2","name":"Boskovice, podnikatelský park","arrival_time":"12:11:00","departure_time":"12:11:00","lat":49.498835,"lon":16.665792,"is_passed":false},{"stop_id":"U12742Z2","name":"Sudice, samota","arrival_time":"12:13:00","departure_time":"12:13:00","lat":49.517825,"lon":16.664367,"is_passed":false},{"stop_id":"U12744Z2","name":"Sudice, zast.","arrival_time":"12:15:00","departure_time":"12:15:00","lat":49.525527,"lon":16.66957,"is_passed":false},{"stop_id":"U12741Z2","name":"Sudice","arrival_time":"12:16:00","departure_time":"12:16:00","lat":49.529338,"lon":16.669178,"is_passed":false},{"stop_id":"U12752Z2","name":"Vážany","arrival_time":"12:18:00","departure_time":"12:18:00","lat":49.530408,"lon":16.686083,"is_passed":false},{"stop_id":"U12711Z2","name":"Knínice, U Nádraží","arrival_time":"12:19:00","departure_time":"12:19:00","lat":49.535469,"lon":16.689975,"is_passed":false},{"stop_id":"U12704Z2","name":"Knínice, Městečko","arrival_time":"12:20:00","departure_time":"12:20:00","lat":49.539403,"lon":16.69412,"is_passed":false},{"stop_id":"U12705Z2","name":"Knínice, horní zastávka","arrival_time":"12:22:00","departure_time":"12:22:00","lat":49.539622,"lon":16.702802,"is_passed":false},{"stop_id":"U12745Z1","name":"Šebetov","arrival_time":"12:24:00","departure_time":"12:24:00","lat":49.549292,"lon":16.70999,"is_passed":false},{"stop_id":"U12821Z2","name":"Světlá","arrival_time":"12:27:00","departure_time":"12:27:00","lat":49.565088,"lon":16.718312,"is_passed":false},{"stop_id":"U12810Z2","name":"Cetkovice","arrival_time":"12:30:00","departure_time":"12:30:00","lat":49.578071,"lon":16.721229,"is_passed":false},{"stop_id":"U12812Z2","name":"Cetkovice, žel.st.","arrival_time":"12:32:00","departure_time":"12:32:00","lat":49.588443,"lon":16.705057,"is_passed":false},{"stop_id":"U12925Z1","name":"Velké Opatovice, závod","arrival_time":"12:37:00","departure_time":"12:37:00","lat":49.61169,"lon":16.685717,"is_passed":false},{"stop_id":"U12919Z1","name":"Velké Opatovice, aut.st.","arrival_time":"12:39:00","departure_time":"12:39:00","lat":49.610978,"lon":16.673748,"is_passed":false},{"stop_id":"U12922Z2","name":"Velké Opatovice, sídliště","arrival_time":"12:41:00","departure_time":"12:41:00","lat":49.614439,"lon":16.679973,"is_passed":false},{"stop_id":"U12927Z1","name":"Jevíčko, Brněnská","arrival_time":"12:45:00","departure_time":"12:45:00","lat":49.628988,"lon":16.711722,"is_passed":false},{"stop_id":"U12909Z5","name":"Jevíčko, nám.","arrival_time":"12:46:00","departure_time":"13:12:00","lat":49.632649,"lon":16.711559,"is_passed":false}],"15741":[{"stop_id":"U12909Z2","name":"Jevíčko, nám.","arrival_time":"13:12:00","departure_time":"13:12:00","lat":49.632649,"lon":16.711559,"is_passed":false},{"stop_id":"U12927Z2","name":"Jevíčko, Brněnská","arrival_time":"13:13:00","departure_time":"13:13:00","lat":49.628988,"lon":16.711722,"is_passed":false},{"stop_id":"U12922Z1","name":"Velké Opatovice, sídliště","arrival_time":"13:17:00","departure_time":"13:17:00","lat":49.614488,"lon":16.67997,"is_passed":false},{"stop_id":"U12919Z3","name":"Velké Opatovice, aut.st.","arrival_time":"13:19:00","departure_time":"13:19:00","lat":49.610978,"lon":16.673748,"is_passed":false},{"stop_id":"U12925Z2","name":"Velké Opatovice, závod","arrival_time":"13:21:00","departure_time":"13:21:00","lat":49.611702,"lon":16.685438,"is_passed":false},{"stop_id":"U12812Z1","name":"Cetkovice, žel.st.","arrival_time":"13:25:00","departure_time":"13:25:00","lat":49.588443,"lon":16.705057,"is_passed":false},{"stop_id":"U12810Z1","name":"Cetkovice","arrival_time":"13:28:00","departure_time":"13:28:00","lat":49.577921,"lon":16.721165,"is_passed":false},{"stop_id":"U12821Z1","name":"Světlá","arrival_time":"13:30:00","departure_time":"13:30:00","lat":49.565807,"lon":16.717958,"is_passed":false},{"stop_id":"U12745Z2","name":"Šebetov","arrival_time":"13:33:00","departure_time":"13:33:00","lat":49.549295,"lon":16.70985,"is_passed":false},