{"161":[{"stop_id":"U17423Z7","name":"Vyškov, Autobusové nádraží","arrival_time":"8:46:00","departure_time":"8:46:00","lat":49.275847,"lon":16.991949,"is_passed":false},{"stop_id":"U17429Z2","name":"Vyškov, garáže ČSAD","arrival_time":"8:48:00","departure_time":"8:48:00","lat":49.270982,"lon":16.988643,"is_passed":false},{"stop_id":"U17435Z2","name":"Vyškov, Nouzka","arrival_time":"8:49:00","departure_time":"8:49:00","lat":49.266834,"lon":16.980944,"is_passed":false},{"stop_id":"U17428Z2","name":"Vyškov, Drnovská Bioveta","arrival_time":"8:52:00","departure_time":"8:52:00","lat":49.25374,"lon":16.95539,"is_passed":false},{"stop_id":"U17328Z2","name":"Luleč, rozcestí","arrival_time":"8:54:00","departure_time":"8:54:00","lat":49.246772,"lon":16.941783,"is_passed":false},{"stop_id":"U17344Z2","name":"Tučapy, rozcestí","arrival_time":"8:56:00","departure_time":"8:56:00","lat":49.227053,"lon":16.915262,"is_passed":false},{"stop_id":"U17311Z4","name":"Komořany, EDP","arrival_time":"8:58:00","departure_time":"8:58:00","lat":49.219687,"lon":16.904328,"is_passed":false},{"stop_id":"U17331Z2","name":"Rousínov, Čechyně, rozcestí","arrival_time":"9:01:00","departure_time":"9:01:00","lat":49.207575,"lon":16.892772,"is_passed":false},{"stop_id":"U17335Z3","name":"Rousínov, autobusová stanice","arrival_time":"9:03:00","departure_time":"9:05:00","lat":49.203074,"lon":16.884769,"is_passed":false},{"stop_id":"U1677Z2","name":"Tržní","arrival_time":"9:24:00","departure_time":"9:24:00","lat":49.189407,"lon":16.629972,"is_passed":false},{"stop_id":"U1696Z5","name":"ÚAN Zvonařka","arrival_time":"9:28:00","departure_time":"13:49:00","lat":49.185364,"lon":16.616151,"is_passed":false}],"1610":[{"stop_id":"U16115Z2","name":"Kobylnice, obecní úřad","arrival_time":"7:48:00","departure_time":"7:48:00","lat":49.137579,"lon":16.732781,"is_passed":false},{"stop_id":"U16111Z2","name":"Kobylnice","arrival_time":"7:49:00","departure_time":"7:49:00","lat":49.140187,"lon":16.731883,"is_passed":false},{"stop_id":"U16112Z2","name":"Kobylnice, Na Rybníku","arrival_time":"7:50:00","departure_time":"7:50:00","lat":49.142864,"lon":16.726626,"is_passed":false},{"stop_id":"U1098Z2","name":"Dvorska, smyčka","arrival_time":"7:52:00","departure_time":"7:52:00","lat":49.143433,"lon":16.706723,"is_passed":false},{"stop_id":"U1742Z2","name":"Vlčkova","arrival_time":"7:53:00","departure_time":"7:53:00","lat":49.141158,"lon":16.70137,"is_passed":false},{"stop_id":"U1513Z2","name":"Pratecká","arrival_time":"7:55:00","departure_time":"7:55:00","lat":49.146305,"lon":16.681206,"is_passed":false},{"stop_id":"U1738Z2","name":"Vítězná","arrival_time":"7:56:00","departure_time":"7:56:00","lat":49.147316,"lon":16.670949,"is_passed":false},{"stop_id":"U1131Z4","name":"Hanácká","arrival_time":"7:58:00","departure_time":"7:58:00","lat":49.147804,"lon":16.66765,"is_passed":false},{"stop_id":"U1538Z2","name":"Revoluční","arrival_time":"7:59:00","departure_time":"7:59:00","lat":49.150097,"lon":16.661811,"is_passed":false},{"stop_id":"U1154Z1","name":"Holásecká","arrival_time":"8:00:00","departure_time":"8:00:00","lat":49.147496,"lon":16.661062,"is_passed":false},{"stop_id":"U1543Z2","name":"Rolencova","arrival_time":"8:01:00","departure_time":"8:01:00","lat":49.145353,"lon":16.655599,"is_passed":false},{"stop_id":"U1151Z4","name":"Holásky","arrival_time":"8:02:00","departure_time":"8:02:00","lat":49.143524,"lon":16.650636,"is_passed":false},{"stop_id":"U1717Z2","name":"V aleji","arrival_time":"8:03:00","departure_time":"8:03:00","lat":49.148,"lon":16.648573,"is_passed":false},{"stop_id":"U1518Z2","name":"Prodloužená","arrival_time":"8:04:00","departure_time":"8:04:00","lat":49.152176,"lon":16.647669,"is_passed":false},{"stop_id":"U1511Z2","name":"Popelova","arrival_time":"8:06:00","departure_time":"8:06:00","lat":49.156919,"lon":16.646204,"is_passed":false},{"stop_id":"U1533Z2","name":"Ráječek","arrival_time":"8:07:00","departure_time":"8:07:00","lat":49.161397,"lon":16.637387,"is_passed":false},{"stop_id":"U1148Z2","name":"Hněvkovského","arrival_time":"8:09:00","departure_time":"8:09:00","lat":49.169618,"lon":16.626335,"is_passed":false},{"stop_id":"U1565Z2","name":"Sazenice","arrival_time":"8:10:00","departure_time":"8:10:00","lat":49.172877,"lon":16.623824,"is_passed":false},{"stop_id":"U1361Z4","name":"Mariánské náměstí","arrival_time":"8:12:00","departure_time":"8:12:00","lat":49.177094,"lon":16.621935,"is_passed":false},{"stop_id":"U1266Z4","name":"Konopná","arrival_time":"8:13:00","departure_time":"8:13:00","lat":49.179332,"lon":16.621811,"is_passed":false},{"stop_id":"U1807Z2","name":"Železniční","arrival_time":"8:14:00","departure_time":"8:14:00","lat":49.183322,"lon":16.619338,"is_passed":false},{"stop_id":"U1696Z14","name":"ÚAN Zvonařka","arrival_time":"8:15:00","departure_time":"8:15:00","lat":49.185364,"lon":16.616151,"is_passed":false},{"stop_id":"U1716Z7","name":"Úzká","arrival_time":"8:19:00","departure_time":"8:19:00","lat":49.188863,"lon":16.613326,"is_passed":false}],"1611":[{"stop_id":"U1208Z4","name":"Jírova","arrival_time":"9:15:00","departure_time":"9:15:00","lat":49.209099,"lon":16.688056,"is_passed":false},{"stop_id":"U1421Z3","name":"Náměstí Karla IV.","arrival_time":"9:16:00","departure_time":"9:16:00","lat":49.206713,"lon":16.694241,"is_passed":false},{"stop_id":"U1350Z1","name":"Macháčkova","arrival_time":"9:17:00","departure_time":"9:17:00","lat":49.206052,"lon":16.70193,"is_passed":false},{"stop_id":"U1726Z1","name":"Velatická","arrival_time":"9:18:00","departure_time":"9:18:00","lat":49.204129,"lon":16.708116,"is_passed":false},{"stop_id":"U1497Z1","name":"Podolská","arrival_time":"9:19:00","departure_time":"9:19:00","lat":49.203029,"lon":16.714223,"is_passed":false},{"stop_id":"U16118Z1","name":"Podolí, Líšeňská","arrival_time":"9:22:00","departure_time":"9:22:00","lat":49.191843,"lon":16.719825,"is_passed":false},{"stop_id":"U16116Z1","name":"Podolí","arrival_time":"9:24:00","departure_time":"9:24:00","lat":49.189832,"lon":16.725978,"is_passed":false},{"stop_id":"U16130Z3","name":"Šlapanice, Bedřichovice, rozc.","arrival_time":"9:27:00","departure_time":"9:29:00","lat":49.18336,"lon":16.722373,"is_passed":false},{"stop_id":"U16129Z1","name":"Šlapanice, Bedřichovice","arrival_time":"9:30:00","departure_time":"9:30:00","lat":49.17982,"lon":16.721481,"is_passed":false},{"stop_id":"U16163Z3","name":"Šlapanice, Riegrova","arrival_time":"9:33:00","departure_time":"9:51:00","lat":49.168445,"lon":16.726032,"is_passed":false}],"1612":[{"stop_id":"U16163Z2","name":"Šlapanice, Riegrova","arrival_time":"9:51:00","departure_time":"9:51:00","lat":49.168445,"lon":16.726032,"is_passed":false},{"stop_id":"U16129Z2","name":"Šlapanice, Bedřichovice","arrival_time":"9:54:00","departure_time":"9:54:00","lat":49.179845,"lon":16.721551,"is_passed":false},{"stop_id":"U16130Z4","name":"Šlapanice, Bedřichovice, rozc.","arrival_time":"9:55:00","departure_time":"9:57:00","lat":49.183532,"lon":16.722542,"is_passed":false},{"stop_id":"U16116Z2","name":"Podolí","arrival_time":"9:59:00","departure_time":"9:59:00","lat":49.189822,"lon":16.726255,"is_passed":false},{"stop_id":"U16118Z2","name":"Podolí, Líšeňská","arrival_time":"10:00:00","departure_time":"10:00:00","lat":49.191807,"lon":16.71978,"is_passed":false},{"stop_id":"U1497Z2","name":"Podolská","arrival_time":"10:04:00","departure_time":"10:04:00","lat":49.20311,"lon":16.713363,"is_passed":false},{"stop_id":"U1726Z2","name":"Velatická","arrival_time":"10:05:00","departure_time":"10:05:00","lat":49.204666,"lon":16.707253,"is_passed":false},{"stop_id":"U1350Z2","name":"Macháčkova","arrival_time":"10:06:00","departure_time":"10:06:00","lat":49.206174,"lon":16.701931,"is_passed":false},{"stop_id":"U1421Z4","name":"Náměstí Karla IV.","arrival_time":"10:08:00","departure_time":"10:08:00","lat":49.206991,"lon":16.695508,"is_passed":false},{"stop_id":"U1384Z3","name":"Mifkova","arrival_time":"10:09:00","departure_time":"10:09:00","lat":49.20716,"lon":16.692152,"is_passed":false},{"stop_id":"U1208Z6","name":"Jírova","arrival_time":"10:11:00","departure_time":"11:15:00","lat":49.209179,"lon":16.688685,"is_passed":false}],"1613":[{"stop_id":"U1208Z4","name":"Jírova","arrival_time":"11:15:00","departure_time":"11:15:00","lat":49.209099,"lon":16.688056,"is_passed":false},{"stop_id":"U1421Z3","name":"Náměstí Karla IV.","arrival_time":"11:16:00","departure_time":"11:16:00","lat":49.206713,"lon":16.694241,"is_passed":false},{"stop_id":"U1350Z1","name":"Macháčkova","arrival_time":"11:17:00","departure_time":"11:17:00","lat":49.206052,"lon":16.70193,"is_passed":false},{"stop_id":"U1726Z1","name":"Velatická","arrival_time":"11:18:00","departure_time":"11:18:00","lat":49.204129,"lon":16.708116,"is_passed":false},{"stop_id":"U1497Z1","name":"Podolská","arrival_time":"11:19:00","departure_time":"11:19:00","lat":49.203029,"lon":16.714223,"is_passed":false},{"stop_id":"U16118Z1","name":"Podolí, Líšeňská","arrival_time":"11:22:00","departure_time":"11:22:00","lat":49.191843,"lon":16.719825,"is_passed":false},{"stop_id":"U16116Z1","name":"Podolí","arrival_time":"11:24:00","departure_time":"11:24:00","lat":49.189832,"lon":16.725978,"is_passed":false},{"stop_id":"U16130Z3","name":"Šlapanice, Bedřichovice, rozc.","arrival_time":"11:27:00","departure_time":"11:29:00","lat":49.18336,"lon":16.722373,"is_passed":false},{"stop_id":"U16129Z1","name":"Šlapanice, Bedřichovice","arrival_time":"11:30:00","departure_time":"11:30:00","lat":49.17982,"lon":16.721481,"is_passed":false},{"stop_id":"U16163Z3","name":"Šlapanice, Riegrova","arrival_time":"11:33:00","departure_time":"11:33:00","lat":49.168445,"lon":16.726032,"is_passed":false}],"1614":[{"stop_id":"U16163Z1","name":"Šlapanice, Riegrova","arrival_time":"11:54:00","departure_time":"11:54:00","lat":49.168445,"lon":16.726032,"is_passed":false},{"stop_id":"U16159Z3","name":"Šlapanice, Kalvodova","arrival_time":"11:55:00","departure_time":"11:55:00","lat":49.165936,"lon":16.726067,"is_passed":false},{"stop_id":"U16120Z1","name":"Ponětovice","arrival_time":"11:58:00","departure_time":"11:58:00","lat":49.152352,"lon":16.740815,"is_passed":false},{"stop_id":"U16121Z1","name":"Ponětovice, železniční stanice","arrival_time":"11:59:00","departure_time":"11:59:00","lat":49.154645,"lon":16.747738,"is_passed":false},{"stop_id":"U16104Z1","name":"Jiříkovice","arrival_time":"12:03:00","departure_time":"12:03:00","lat":49.16632,"lon":16.757892,"is_passed":false},{"stop_id":"U16102Z1","name":"Blažovice, pod kostelem","arrival_time":"12:07:00","departure_time":"12:07:00","lat":49.162833,"lon":16.78274,"is_passed":false},{"stop_id":"U16101Z1","name":"Blažovice, hostinec","arrival_time":"12:08:00","departure_time":"12:14:00","lat":49.166001,"lon":16.786446,"is_passed":false}],"1615":[{"stop_id":"U16101Z2","name":"Blažovice, hostinec","arrival_time":"12:14:00","departure_time":"12:14:00","lat":49.166001,"lon":16.786446,"is_passed":false},{"stop_id":"U16102Z2","name":"Blažovice, pod kostelem","arrival_time":"12:15:00","departure_time":"12:15:00","lat":49.162842,"lon":16.783037,"is_passed":false},{"stop_id":"U16104Z2","name":"Jiříkovice","arrival_time":"12:19:00","departure_time":"12:19:00","lat":49.166323,"lon":16.757805,"is_passed":false},{"stop_id":"U16121Z2","name":"Ponětovice, železniční stanice","arrival_time":"12:22:00","departure_time":"12:22:00","lat":49.154698,"lon":16.747757,"is_passed":false},{"stop_id":"U16120Z2","name":"Ponětovice","arrival_time":"12:23:00","departure_time":"12:23:00","lat":49.152307,"lon":16.742117,"is_passed":false},{"stop_id":"U16159Z4","name":"Šlapanice, Kalvodova","arrival_time":"12:27:00","departure_time":"12:27:00","lat":49.166805,"lon":16.72634,"is_passed":false},{"stop_id":"U16163Z2","name":"Šlapanice, Riegrova","arrival_time":"12:28:00","departure_time":"12:28:00","lat":49.168445,"lon":16.726032,"is_passed":false}],"1616":[{"stop_id":"U1208Z4","name":"Jírova","arrival_time":"13:45:00","departure_time":"13:45:00","lat":49.209099,"lon":16.688056,"is_passed":false},{"stop_id":"U1421Z3","name":"Náměstí Karla IV.","arrival_time":"13:46:00","departure_time":"13:46:00","lat":49.206713,"lon":16.694241,"is_passed":false},{"stop_id":"U1350Z1","name":"Macháčkova","arrival_time":"13:47:00","departure_time":"13:47:00","lat":49.206052,"lon":16.70193,"is_passed":false},{"stop_id":"U1726Z1","name":"Velatická","arrival_time":"13:48:00","departure_time":"13:48:00","lat":49.204129,"lon":16.708116,"is_passed":false},{"stop_id":"U1497Z1","name":"Podolská","arrival_time":"13:49:00","departure_time":"13:49:00","lat":49.203029,"lon":16.714223,"is_passed":false},{"stop_id":"U16118Z1","name":"Podolí, Líšeňská","arrival_time":"13:52:00","departure_time":"13:52:00","lat":49.191843,"lon":16.719825,"is_passed":false},{"stop_id":"U16116Z1","name":"Podolí","arrival_time":"13:54:00","departure_time":"13:54:00","lat":49.189832,"lon":16.725978,"is_passed":false},{"stop_id":"U16130Z3","name":"Šlapanice, Bedřichovice, rozc.","arrival_time":"13:57:00","departure_time":"13:57:00","lat":49.18336,"lon":16.722373,"is_passed":false},{"stop_id":"U16129Z1","name":"Šlapanice, Bedřichovice","arrival_time":"13:58:00","departure_time":"13:58:00","lat":49.17982,"lon":16.721481,"is_passed":false},{"stop_id":"U16163Z3","name":"Šlapanice, Riegrova","arrival_time":"14:01:00","departure_time":"14:01:00","lat":49.168445,"lon":16.726032,"is_passed":false},{"stop_id":"U16159Z3","name":"Šlapanice, Kalvodova","arrival_time":"14:02:00","departure_time":"14:02:00","lat":49.165936,"lon":16.726067,"is_passed":false},{"stop_id":"U16137Z1","name":"Šlapanice, železniční stanice","arrival_time":"14:04:00","departure_time":"14:04:00","lat":49.15865,"lon":16.729037,"is_passed":false},{"stop_id":"U16111Z1","name":"Kobylnice","arrival_time":"14:09:00","departure_time":"14:09:00","lat":49.140325,"lon":16.731953,"is_passed":false},{"stop_id":"U16115Z1","name":"Kobylnice, obecní úřad","arrival_time":"14:10:00","departure_time":"14:12:00","lat":49.137533,"lon":16.732766,"is_passed":false}],"1617":[{"stop_id":"U16115Z2","name":"Kobylnice, obecní úřad","arrival_time":"14:12:00","departure_time":"14:12:00","lat":49.137579,"lon":16.732781,"is_passed":false},{"stop_id":"U16111Z2","name":"Kobylnice","arrival_time":"14:13:00","departure_time":"14:13:00","lat":49.140187,"lon":16.731883,"is_passed":false},{"stop_id":"U16137Z2","name":"Šlapanice, železniční stanice","arrival_time":"14:17:00","departure_time":"14:17:00","lat":49.159177,"lon":16.728893,"is_passed":false},{"stop_id":"U16159Z4","name":"Šlapanice, Kalvodova","arrival_time":"14:20:00","departure_time":"14:20:00","lat":49.166805,"lon":16.72634,"is_passed":false},{"stop_id":"U16163Z2","name":"Šlapanice, Riegrova","arrival_time":"14:21:00","departure_time":"14:21:00","lat":49.168445,"lon":16.726032,"is_passed":false},{"stop_id":"U16129Z2","name":"Šlapanice, Bedřichovice","arrival_time":"14:24:00","departure_time":"14:24:00","lat":49.179845,"lon":16.721551,"is_passed":false},{"stop_id":"U16130Z4","name":"Šlapanice, Bedřichovice, rozc.","arrival_time":"14:25:00","departure_time":"14:27:00","lat":49.183532,"lon":16.722542,"is_passed":false},{"stop_id":"U16116Z2","name":"Podolí","arrival_time":"14:29:00","departure_time":"14:29:00","lat":49.189822,"lon":16.726255,"is_passed":false},{"stop_id":"U16118Z2","name":"Podolí, Líšeňská","arrival_time":"14:30:00","departure_time":"14:30:00","lat":49.191807,"lon":16.71978,"is_passed":false},{"stop_id":"U1497Z2","name":"Podolská","arrival_time":"14:34:00","departure_time":"14:34:00","lat":49.20311,"lon":16.713363,"is_passed":false},{"stop_id":"U1726Z2","name":"Velatická","arrival_time":"14:35:00","departure_time":"14:35:00","lat":49.204666,"lon":16.707253,"is_passed":false},{"stop_id":"U1350Z2","name":"Macháčkova","arrival_time":"14:36:00","departure_time":"14:36:00","lat":49.206174,"lon":16.701931,"is_passed":false},{"stop_id":"U1421Z4","name":"Náměstí Karla IV.","arrival_time":"14:38:00","departure_time":"14:38:00","lat":49.206991,"lon":16.695508,"is_passed":false},{"stop_id":"U1384Z3","name":"Mifkova","arrival_time":"14:39:00","departure_time":"14:39:00","lat":49.20716,"lon":16.692152,"is_passed":false},{"stop_id":"U1208Z6","name":"Jírova","arrival_time":"14:41:00","departure_time":"14:45:00","lat":49.209179,"lon":16.688685,"is_passed":false}],"1618":[{"stop_id":"U1208Z4","name":"Jírova","arrival_time":"14:45:00","departure_time":"14:45:00","lat":49.209099,"lon":16.688056,"is_passed":false},{"stop_id":"U1421Z3","name":"Náměstí Karla IV.","arrival_time":"14:46:00","departure_time":"14:46:00","lat":49.206713,"lon":16.694241,"is_passed":false},{"stop_id":"U1350Z1","name":"Macháčkova","arrival_time":"14:47:00","departure_time":"14:47:00","lat":49.206052,"lon":16.70193,"is_passed":false},{"stop_id":"U1726Z1","name":"Velatická","arrival_time":"14:48:00","departure_time":"14:48:00","lat":49.204129,"lon":16.708116,"is_passed":false},{"stop_id":"U1497Z1","name":"Podolská","arrival_time":"14:49:00","departure_time":"14:49:00","lat":49.203029,"lon":16.714223,"is_passed":false},{"stop_id":"U16118Z1","name":"Podolí, Líšeňská","arrival_time":"14:52:00","departure_time":"14:52:00","lat":49.191843,"lon":16.719825,"is_passed":false},{"stop_id":"U16116Z1","name":"Podolí","arrival_time":"14:54:00","departure_time":"14:54:00","lat":49.189832,"lon":16.725978,"is_passed":false},{"stop_id":"U16130Z3","name":"Šlapanice, Bedřichovice, rozc.","arrival_time":"14:57:00","departure_time":"14:59:00","lat":49.18336,"lon":16.722373,"is_passed":false},{"stop_id":"U16129Z1","name":"Šlapanice, Bedřichovice","arrival_time":"15:00:00","departure_time":"15:00:00","lat":49.17982,"lon":16.721481,"is_passed":false},{"stop_id":"U16163Z3","name":"Šlapanice, Riegrova","arrival_time":"15:03:00","departure_time":"15:03:00","lat":49.168445,"lon":16.726032,"is_passed":false},{"stop_id":"U16159Z3","name":"Šlapanice, Kalvodova","arrival_time":"15:04:00","departure_time":"15:04:00","lat":49.165936,"lon":16.726067,"is_passed":false},{"stop_id":"U16137Z1","name":"Šlapanice, železniční stanice","arrival_time":"15:06:00","departure_time":"15:06:00","lat":49.15865,"lon":16.729037,"is_passed":false},{"stop_id":"U16111Z1","name":"Kobylnice","arrival_time":"15:11:00","departure_time":"15:11:00","lat":49.140325,"lon":16.731953,"is_passed":false},{"stop_id":"U16115Z1","name":"Kobylnice, obecní úřad","arrival_time":"15:12:00","departure_time":"15:12:00","lat":49.137533,"lon":16.732766,"is_passed":false}],"1619":[{"stop_id":"U16115Z2","name":"Kobylnice, obecní úřad","arrival_time":"15:12:00","departure_time":"15:12:00","lat":49.137579,"lon":16.732781,"is_passed":false},{"stop_id":"U16111Z2","name":"Kobylnice","arrival_time":"15:13:00","departure_time":"15:13:00","lat":49.140187,"lon":16.731883,"is_passed":false},{"stop_id":"U16137Z2","name":"Šlapanice, železniční stanice","arrival_time":"15:17:00","departure_time":"15:17:00","lat":49.159177,"lon":16.728893,"is_passed":false},{"stop_id":"U16159Z4","name":"Šlapanice, Kalvodova","arrival_time":"15:20:00","departure_time":"15:20:00","lat":49.166805,"lon":16.72634,"is_passed":false},{"stop_id":"U16163Z2","name":"Šlapanice, Riegrova","arrival_time":"15:21:00","departure_time":"15:21:00","lat":49.168445,"lon":16.726032,"is_passed":false},{"stop_id":"U16129Z2","name":"Šlapanice, Bedřichovice","arrival_time":"15:24:00","departure_time":"15:24:00","lat":49.179845,"lon":16.721551,"is_passed":false},{"stop_id":"U16130Z4","name":"Šlapanice, Bedřichovice, rozc.","arrival_time":"15:25:00","departure_time":"15:27:00","lat":49.183532,"lon":16.722542,"is_passed":false},{"stop_id":"U16116Z2","name":"Podolí","arrival_time":"15:29:00","departure_time":"15:29:00","lat":49.189822,"lon":16.726255,"is_passed":false},{"stop_id":"U16118Z2","name":"Podolí, Líšeňská","arrival_time":"15:30:00","departure_time":"15:30:00","lat":49.191807,"lon":16.71978,"is_passed":false},{"stop_id":"U1497Z2","name":"Podolská","arrival_time":"15:34:00","departure_time":"15:34:00","lat":49.20311,"lon":16.713363,"is_passed":false},{"stop_id":"U1726Z2","name":"Velatická","arrival_time":"15:35:00","departure_time":"15:35:00","lat":49.204666,"lon":16.707253,"is_passed":false},{"stop_id":"U1350Z2","name":"Macháčkova","arrival_time":"15:36:00","departure_time":"15:36:00","lat":49.206174,"lon":16.701931,"is_passed":false},{"stop_id":"U1421Z4","name":"Náměstí Karla IV.","arrival_time":"15:38:00","departure_time":"15:38:00","lat":49.206991,"lon":16.695508,"is_passed":false},{"stop_id":"U1384Z3","name":"Mifkova","arrival_time":"15:39:00","departure_time":"15:39:00","lat":49.20716,"lon":16.692152,"is_passed":false},{"stop_id":"U1208Z6","name":"Jírova","arrival_time":"15:41:00","departure_time":"15:45:00","lat":49.209179,"lon":16.688685,"is_passed":false}],"16100":[{"stop_id":"U15537Z13","name":"Zaječí, železniční stanice","arrival_time":"20:06:00","departure_time":"20:06:00","lat":48.889637,"lon":16.781831,"is_passed":false},{"stop_id":"U25502Z11","name":"Velké Pavlovice","arrival_time":"20:11:00","departure_time":"20:12:00","lat":48.88985,"lon":16.823672,"is_passed":false},{"stop_id":"U25503Z11","name":"Velké Pavlovice zastávka","arrival_time":"20:14:00","departure_time":"20:14:00","lat":48.901672,"lon":16.8224,"is_passed":false},{"stop_id":"U15513Z11","name":"Bořetice, železniční stanice","arrival_time":"20:19:00","departure_time":"20:20:00","lat":48.916314,"lon":16.850139,"is_passed":false},{"stop_id":"U25504Z11","name":"Kobylí na Moravě","arrival_time":"20:25:00","departure_time":"20:33:00","lat":48.934022,"lon":16.881272,"is_passed":false}],"16101":[{"stop_id":"U25504Z10","name":"Kobylí na Moravě","arrival_time":"20:33:00","departure_time":"20:33:00","lat":48.934022,"lon":16.881272,"is_passed":false},{"stop_id":"U15513Z10","name":"Bořetice, železniční stanice","arrival_time":"20:37:00","departure_time":"20:38:00","lat":48.916314,"lon":16.850139,"is_passed":false},{"stop_id":"U25503Z10","name":"Velké Pavlovice zastávka","arrival_time":"20:43:00","departure_time":"20:44:00","lat":48.901672,"lon":16.8224,"is_passed":false},{"stop_id":"U25502Z10","name":"Velké Pavlovice","arrival_time":"20:46:00","departure_time":"20:47:00","lat":48.88985,"lon":16.823672,"is_passed":false},{"stop_id":"U15537Z12","name":"Zaječí, železniční stanice","arrival_time":"20:53:00","departure_time":"21:07:00","lat":48.889637,"lon":16.781831,"is_passed":false}],"16102":[{"stop_id":"U15537Z13","name":"Zaječí, železniční stanice","arrival_time":"21:07:00","departure_time":"21:07:00","lat":48.889637,"lon":16.781831,"is_passed":false},{"stop_id":"U25502Z11","name":"Velké Pavlovice","arrival_time":"21:12:00","departure_time":"21:13:00","lat":48.88985,"lon":16.823672,"is_passed":false},{"stop_id":"U25503Z11","name":"Velké Pavlovice zastávka","arrival_time":"21:15:00","departure_time":"21:15:00","lat":48.901672,"lon":16.8224,"is_passed":false},{"stop_id":"U15513Z11","name":"Bořetice, železniční stanice","arrival_time":"21:20:00","departure_time":"21:21:00","lat":48.916314,"lon":16.850139,"is_passed":false},{"stop_id":"U25504Z11","name":"Kobylí na Moravě","arrival_time":"21:26:00","departure_time":"22:33:00","lat":48.934022,"lon":16.881272,"is_passed":false}],"16103":[{"stop_id":"U25504Z10","name":"Kobylí na Moravě","arrival_time":"22:33:00","departure_time":"22:33:00","lat":48.934022,"lon":16.881272,"is_passed":false},{"stop_id":"U15513Z10","name":"Bořetice, železniční stanice","arrival_time":"22:37:00","departure_time":"22:38:00","lat":48.916314,"lon":16.850139,"is_passed":false},{"stop_id":"U25503Z10","name":"Velké Pavlovice zastávka","arrival_time":"22:43:00","departure_time":"22:44:00","lat":48.901672,"lon":16.8224,"is_passed":false},{"stop_id":"U25502Z10","name":"Velké Pavlovice","arrival_time":"22:46:00","departure_time":"22:47:00","lat":48.88985,"lon":16.823672,"is_passed":false},{"stop_id":"U15537Z12","name":"Zaječí, železniční stanice","arrival_time":"22:53:00","departure_time":"23:06:00","lat":48.889637,"lon":16.781831,"is_passed":false}],"16104":[{"stop_id":"U15537Z13","name":"Zaječí, železniční stanice","arrival_time":"23:06:00","departure_time":"23:06:00","lat":48.889637,"lon":16.781831,"is_passed":false},{"stop_id":"U25502Z11","name":"Velké Pavlovice","arrival_time":"23:11:00","departure_time":"23:12:00","lat":48.88985,"lon":16.823672,"is_passed":false},{"stop_id":"U25503Z11","name":"Velké Pavlovice zastávka","arrival_time":"23:14:00","departure_time":"23:14:00","lat":48.901672,"lon":16.8224,"is_passed":false},{"stop_id":"U15513Z11","name":"Bořetice, železniční stanice","arrival_time":"23:19:00","departure_time":"23:20:00","lat":48.916314,"lon":16.850139,"is_passed":false},{"stop_id":"U25504Z11","name":"Kobylí na Moravě","arrival_time":"23:25:00","departure_time":"23:25:00","lat":48.934022,"lon":16.881272,"is_passed":false}],"16105":[{"stop_id":"U19001Z20","name":"Hodonín, autobusové nádraží","arrival_time":"23:00:00","departure_time":"23:00:00","lat":48.85575,"lon":17.12069,"is_passed":false},{"stop_id":"U19119Z10","name":"Lužice, železniční stanice","arrival_time":"23:05:00","departure_time":"23:05:00","lat":48.827619,"lon":17.061961,"is_passed":false},{"stop_id":"U19129Z10","name":"Moravská Nová Ves, železniční stanice","arrival_time":"23:09:00","departure_time":"23:09:00","lat":48.799493,"lon":17.021674,"is_passed":false},{"stop_id":"U29101Z10","name":"Hrušky zastávka","arrival_time":"23:12:00","departure_time":"23:12:00","lat":48.786692,"lon":16.980171,"is_passed":false},{"stop_id":"U15729Z10","name":"Břeclav, autobusové nádraží","arrival_time":"23:19:00","departure_time":"23:19:00","lat":48.753851,"lon":16.893169,"is_passed":false}],"16106":[{"stop_id":"U1146Z97","name":"Hlavní nádraží","arrival_time":"18:55:00","departure_time":"18:55:00","lat":49.189976,"lon":16.610222,"is_passed":false},{"stop_id":"U11002Z11","name":"Brno-Horní Heršpice","arrival_time":"18:59:00","departure_time":"19:00:00","lat":49.167404,"lon":16.60686,"is_passed":false},{"stop_id":"U11009Z21","name":"Brno-Starý Lískovec","arrival_time":"19:03:00","departure_time":"19:04:00","lat":49.162219,"lon":16.571096,"is_passed":false},{"stop_id":"U14119Z11","name":"Střelice, dolní železniční stanice","arrival_time":"19:08:00","departure_time":"19:09:00","lat":49.156583,"lon":16.506195,"is_passed":false},{"stop_id":"U24101Z2","name":"Střelice","arrival_time":"19:11:00","departure_time":"19:12:00","lat":49.154016,"lon":16.483608,"is_passed":false},{"stop_id":"U24202Z2","name":"Radostice","arrival_time":"19:15:00","departure_time":"19:16:00","lat":49.133611,"lon":16.461945,"is_passed":false},{"stop_id":"U24203Z2","name":"Silůvky","arrival_time":"19:20:00","departure_time":"19:21:00","lat":49.108611,"lon":16.462778,"is_passed":false},{"stop_id":"U14350Z11","name":"Moravské Bránice, žel. st.","arrival_time":"19:25:00","departure_time":"19:31:00","lat":49.084611,"lon":16.428333,"is_passed":false},{"stop_id":"U24402Z2","name":"Ivančice letovisko","arrival_time":"19:35:00","departure_time":"19:35:00","lat":49.094691,"lon":16.402086,"is_passed":false},{"stop_id":"U24403Z2","name":"Ivančice město","arrival_time":"19:38:00","departure_time":"19:39:00","lat":49.099021,"lon":16.382606,"is_passed":false},{"stop_id":"U14454Z11","name":"Ivančice, železniční stanice","arrival_time":"19:41:00","departure_time":"20:16:00","lat":49.098253,"lon":16.372176,"is_passed":false}],"16107":[{"stop_id":"U14454Z10","name":"Ivančice, železniční stanice","arrival_time":"20:16:00","departure_time":"20:16:00","lat":49.098253,"lon":16.372176,"is_passed":false},{"stop_id":"U24403Z1","name":"Ivančice město","arrival_time":"20:17:00","departure_time":"20:18:00","lat":49.099079,"lon":16.382843,"is_passed":false},{"stop_id":"U24402Z1","name":"Ivančice letovisko","arrival_time":"20:21:00","departure_time":"20:21:00","lat":49.094553,"lon":16.402136,"is_passed":false},{"stop_id":"U14350Z10","name":"Moravské Bránice, žel. st.","arrival_time":"20:26:00","departure_time":"20:31:00","lat":49.084611,"lon":16.428333,"is_passed":false}],"16108":[{"stop_id":"U14350Z11","name":"Moravské Bránice, žel. st.","arrival_time":"20:31:00","departure_time":"20:31:00","lat":49.084611,"lon":16.428333,"is_passed":false},{"stop_id":"U24402Z2","name":"Ivančice letovisko","arrival_time":"20:35:00","departure_time":"20:35:00","lat":49.094691,"lon":16.402086,"is_passed":false},{"stop_id":"U24403Z2","name":"Ivančice město","arrival_time":"20:38:00","departure_time":"20:39:00","lat":49.099021,"lon":16.382606,"is_passed":false},{"stop_id":"U14454Z11","name":"Ivančice, železniční stanice","arrival_time":"20:41:00","departure_time":"21:16:00","lat":49.098253,"lon":16.372176,"is_passed":false}],"16109":[{"stop_id":"U14454Z10","name":"Ivančice, železniční stanice","arrival_time":"21:16:00","departure_time":"21:16:00","lat":49.098253,"lon":16.372176,"is_passed":false},{"stop_id":"U24403Z1","name":"Ivančice město","arrival_time":"21:17:00","departure_time":"21:18:00","lat":49.099079,"lon":16.382843,"is_passed":false},{"stop_id":"U24402Z1","name":"Ivančice letovisko","arrival_time":"21:21:00","departure_time":"21:21:00","lat":49.094553,"lon":16.402136,"is_passed":false},{"stop_id":"U14350Z10","name":"Moravské Bránice, žel. st.","arrival_time":"21:26:00","departure_time":"21:31:00","lat":49.084611,"lon":16.428333,"is_passed":false}],"16110":[{"stop_id":"U14350Z11","name":"Moravské Bránice, žel. st.","arrival_time":"21:31:00","departure_time":"21:31:00","lat":49.084611,"lon":16.428333,"is_passed":false},{"stop_id":"U24402Z2","name":"Ivančice letovisko","arrival_time":"21:35:00","departure_time":"21:35:00","lat":49.094691,"lon":16.402086,"is_passed":false},{"stop_id":"U24403Z2","name":"Ivančice město","arrival_time":"21:38:00","departure_time":"21:39:00","lat":49.099021,"lon":16.382606,"is_passed":false},{"stop_id":"U14454Z11","name":"Ivančice, železniční stanice","arrival_time":"21:41:00","departure_time":"22:16:00","lat":49.098253,"lon":16.372176,"is_passed":false}],"16111":[{"stop_id":"U14454Z10","name":"Ivančice, železniční stanice","arrival_time":"22:16:00","departure_time":"22:16:00","lat":49.098253,"lon":16.372176,"is_passed":false},{"stop_id":"U24403Z1","name":"Ivančice město","arrival_time":"22:17:00","departure_time":"22:18:00","lat":49.099079,"lon":16.382843,"is_passed":false},{"stop_id":"U24402Z1","name":"Ivančice letovisko","arrival_time":"22:21:00","departure_time":"22:21:00","lat":49.094553,"lon":16.402136,"is_passed":false},{"stop_id":"U14350Z10","name":"Moravské Bránice, žel. st.","arrival_time":"22:26:00","departure_time":"22:31:00","lat":49.084611,"lon":16.428333,"is_passed":false}],"16112":[{"stop_id":"U14350Z11","name":"Moravské Bránice, žel. st.","arrival_time":"22:31:00","departure_time":"22:31:00","lat":49.084611,"lon":16.428333,"is_passed":false},{"stop_id":"U24402Z2","name":"Ivančice letovisko","arrival_time":"22:35:00","departure_time":"22:35:00","lat":49.094691,"lon":16.402086,"is_passed":false},{"stop_id":"U24403Z2","name":"Ivančice město","arrival_time":"22:38:00","departure_time":"22:39:00","lat":49.099021,"lon":16.382606,"is_passed":false},{"stop_id":"U14454Z11","name":"Ivančice, železniční stanice","arrival_time":"22:41:00","departure_time":"23:16:00","lat":49.098253,"lon":16.372176,"is_passed":false}],"16113":[{"stop_id":"U14454Z10","name":"Ivančice, železniční stanice","arrival_time":"23:16:00","departure_time":"23:16:00","lat":49.098253,"lon":16.372176,"is_passed":false},{"stop_id":"U24403Z1","name":"Ivančice město","arrival_time":"23:17:00","departure_time":"23:18:00","lat":49.099079,"lon":16.382843,"is_passed":false},{"stop_id":"U24402Z1","name":"Ivančice letovisko","arrival_time":"23:21:00","departure_time":"23:21:00","lat":49.094553,"lon":16.402136,"is_passed":false},{"stop_id":"U14350Z10","name":"Moravské Bránice, žel. st.","arrival_time":"23:26:00","departure_time":"23:31:00","lat":49.084611,"lon":16.428333,"is_passed":false}],"16114":[{"stop_id":"U14350Z11","name":"Moravské Bránice, žel. st.","arrival_time":"23:31:00","departure_time":"23:31:00","lat":49.084611,"lon":16.428333,"is_passed":false},{"stop_id":"U24402Z2","name":"Ivančice letovisko","arrival_time":"23:35:00","departure_time":"23:35:00","lat":49.094691,"lon":16.402086,"is_passed":false},{"stop_id":"U24403Z2","name":"Ivančice město","arrival_time":"23:38:00","departure_time":"23:39:00","lat":49.099021,"lon":16.382606,"is_passed":false},{"stop_id":"U14454Z11","name":"Ivančice, železniční stanice","arrival_time":"23:41:00","departure_time":"23:41:00","lat":49.098253,"lon":16.372176,"is_passed":false}],"16115":[{"stop_id":"U1146Z97","name":"Hlavní nádraží","arrival_time":"17:29:00","departure_time":"17:29:00","lat":49.189976,"lon":16.610222,"is_passed":false},{"stop_id":"U14119Z11","name":"Střelice, dolní železniční stanice","arrival_time":"17:43:00","departure_time":"17:43:00","lat":49.156583,"lon":16.506195,"is_passed":false},{"stop_id":"U24203Z2","name":"Silůvky","arrival_time":"17:52:00","departure_time":"17:53:00","lat":49.108611,"lon":16.462778,"is_passed":false},{"stop_id":"U14350Z11","name":"Moravské Bránice, žel. st.","arrival_time":"17:58:00","departure_time":"18:00:00","lat":49.084611,"lon":16.428333,"is_passed":false},{"stop_id":"U14479Z11","name":"Moravský Krumlov, železniční stanice","arrival_time":"18:10:00","departure_time":"18:11:00","lat":49.046389,"lon":16.338056,"is_passed":false},{"stop_id":"U14490Z11","name":"Moravský Krumlov, Rakšice, žel.st.","arrival_time":"18:16:00","departure_time":"18:16:00","lat":49.014428,"lon":16.34527,"is_passed":false},{"stop_id":"U24501Z11","name":"Bohutice","arrival_time":"18:21:00","departure_time":"18:22:00","lat":48.987956,"lon":16.356025,"is_passed":false},{"stop_id":"U14555Z11","name":"Miroslav, železniční stanice","arrival_time":"18:28:00","departure_time":"18:29:00","lat":48.93532,"lon":16.362297,"is_passed":false},{"stop_id":"U25506Z11","name":"Dolenice","arrival_time":"18:32:00","departure_time":"18:32:00","lat":48.9122,"lon":16.367822,"is_passed":false},{"stop_id":"U25507Z11","name":"Břežany","arrival_time":"18:37:00","departure_time":"18:37:00","lat":48.873106,"lon":16.367539,"is_passed":false},{"stop_id":"U25603Z11","name":"Pravice","arrival_time":"18:41:00","departure_time":"18:41:00","lat":48.848689,"lon":16.370211,"is_passed":false},{"stop_id":"U15637Z13","name":"Hrušovany nad Jevišovkou, žel. st.","arrival_time":"18:46:00","departure_time":"18:46:00","lat":48.810029,"lon":16.383137,"is_passed":false}],"16116":[{"stop_id":"U19316Z12","name":"Veselí nad Moravou, železniční stanice","arrival_time":"3:57:00","departure_time":"3:57:00","lat":48.948694,"lon":17.382439,"is_passed":false},{"stop_id":"U16908Z10","name":"Bzenec, železniční stanice","arrival_time":"4:05:00","departure_time":"4:06:00","lat":48.969173,"lon":17.263183,"is_passed":false},{"stop_id":"U26802Z10","name":"Vracov","arrival_time":"4:10:00","departure_time":"4:10:00","lat":48.97657,"lon":17.220097,"is_passed":false},{"stop_id":"U26801Z10","name":"Vlkoš","arrival_time":"4:15:00","departure_time":"4:15:00","lat":48.98791,"lon":17.166472,"is_passed":false},{"stop_id":"U26603Z1","name":"Kyjov zastávka","arrival_time":"4:20:00","departure_time":"4:20:00","lat":49.003312,"lon":17.123835,"is_passed":false},{"stop_id":"U16650Z50","name":"Kyjov, železniční stanice","arrival_time":"4:23:00","departure_time":"4:25:00","lat":49.016226,"lon":17.122949,"is_passed":false},{"stop_id":"U16604Z10","name":"Kyjov, Bohuslavice, železniční stanice","arrival_time":"4:30:00","departure_time":"4:30:00","lat":49.055833,"lon":17.118917,"is_passed":false},{"stop_id":"U26601Z1","name":"Jestřabice","arrival_time":"4:35:00","departure_time":"4:35:00","lat":49.088889,"lon":17.113333,"is_passed":false},{"stop_id":"U16503Z10","name":"Nemotice, železniční stanice","arrival_time":"4:41:00","departure_time":"4:42:00","lat":49.133033,"lon":17.114422,"is_passed":false},{"stop_id":"U16628Z10","name":"Brankovice, železniční stanice","arrival_time":"4:46:00","departure_time":"4:47:00","lat":49.150361,"lon":17.13375,"is_passed":false},{"stop_id":"U16509Z10","name":"Nesovice, železniční stanice","arrival_time":"4:51:00","departure_time":"4:52:00","lat":49.149315,"lon":17.080192,"is_passed":false},{"stop_id":"U26501Z1","name":"Nevojice","arrival_time":"4:55:00","departure_time":"4:56:00","lat":49.136847,"lon":17.04775,"is_passed":false},{"stop_id":"U16463Z50","name":"Bučovice, železniční stanice","arrival_time":"5:00:00","departure_time":"5:01:00","lat":49.145619,"lon":16.999658,"is_passed":false},{"stop_id":"U16406Z10","name":"Bučovice, Marefy, žel. st.","arrival_time":"5:03:00","departure_time":"5:04:00","lat":49.149232,"lon":16.972808,"is_passed":false},{"stop_id":"U16318Z10","name":"Křižanovice, žel. st.","arrival_time":"5:07:00","departure_time":"5:07:00","lat":49.145047,"lon":16.935893,"is_passed":false},{"stop_id":"U16333Z10","name":"Slavkov u Brna, žel. st.","arrival_time":"5:12:00","departure_time":"5:13:00","lat":49.14495,"lon":16.873475,"is_passed":false},{"stop_id":"U16211Z10","name":"Křenovice, dol. žel. st.","arrival_time":"5:16:00","departure_time":"5:17:00","lat":49.143679,"lon":16.834698,"is_passed":false},{"stop_id":"U26103Z1","name":"Blažovice","arrival_time":"5:22:00","departure_time":"5:23:00","lat":49.163735,"lon":16.798179,"is_passed":false},{"stop_id":"U16121Z10","name":"Ponětovice, železniční stanice","arrival_time":"5:26:00","departure_time":"5:27:00","lat":49.154709,"lon":16.748578,"is_passed":false},{"stop_id":"U16137Z10","name":"Šlapanice, železniční stanice","arrival_time":"5:29:00","departure_time":"5:30:00","lat":49.156975,"lon":16.729526,"is_passed":false},{"stop_id":"U16136Z11","name":"Šlapanice, železniční zastávka","arrival_time":"5:32:00","departure_time":"5:32:00","lat":49.163384,"lon":16.719877,"is_passed":false},{"stop_id":"U1573Z10","name":"Slatina, nádraží","arrival_time":"5:36:00","departure_time":"5:37:00","lat":49.169478,"lon":16.682148,"is_passed":false},{"stop_id":"U11001Z1","name":"Brno-Černovice","arrival_time":"5:42:00","departure_time":"5:42:00","lat":49.188984,"lon":16.631233,"is_passed":false},{"stop_id":"U1146Z99","name":"Hlavní nádraží","arrival_time":"5:50:00","departure_time":"6:12:00","lat":49.19035,"lon":16.612342,"is_passed":false}],"16117":[{"stop_id":"U1146Z98","name":"Hlavní nádraží","arrival_time":"6:12:00","departure_time":"6:12:00","lat":49.19035,"lon":16.612342,"is_passed":false},{"stop_id":"U1809Z10","name":"Židenice, nádraží","arrival_time":"6:16:00","departure_time":"6:20:00","lat":49.204282,"lon":16.636042,"is_passed":false},{"stop_id":"U1573Z11","name":"Slatina, nádraží","arrival_time":"6:26:00","departure_time":"6:27:00","lat":49.169478,"lon":16.682148,"is_passed":false},{"stop_id":"U16136Z12","name":"Šlapanice, železniční zastávka","arrival_time":"6:30:00","departure_time":"6:31:00","lat":49.163296,"lon":16.719903,"is_passed":false},{"stop_id":"U16137Z11","name":"Šlapanice, železniční stanice","arrival_time":"6:33:00","departure_time":"6:33:00","lat":49.156915,"lon":16.729568,"is_passed":false},{"stop_id":"U16121Z11","name":"Ponětovice, železniční stanice","arrival_time":"6:36:00","departure_time":"6:36:00","lat":49.154709,"lon":16.748578,"is_passed":false},{"stop_id":"U26103Z2","name":"Blažovice","arrival_time":"6:41:00","departure_time":"6:42:00","lat":49.163735,"lon":16.798179,"is_passed":false},{"stop_id":"U16211Z11","name":"Křenovice, dol. žel. st.","arrival_time":"6:46:00","departure_time":"6:47:00","lat":49.144304,"lon":16.834023,"is_passed":false},{"stop_id":"U16333Z11","name":"Slavkov u Brna, žel. st.","arrival_time":"6:50:00","departure_time":"6:52:00","lat":49.14495,"lon":16.873475,"is_passed":false},{"stop_id":"U16318Z11","name":"Křižanovice, žel. st.","arrival_time":"6:57:00","departure_time":"6:57:00","lat":49.144986,"lon":16.93419,"is_passed":false},{"stop_id":"U16406Z11","name":"Bučovice, Marefy, žel. st.","arrival_time":"7:01:00","departure_time":"7:01:00","lat":49.14914,"lon":16.972851,"is_passed":false},{"stop_id":"U16463Z51","name":"Bučovice, železniční stanice","arrival_time":"7:04:00","departure_time":"7:05:00","lat":49.145619,"lon":16.999658,"is_passed":false},{"stop_id":"U26501Z2","name":"Nevojice","arrival_time":"7:09:00","departure_time":"7:09:00","lat":49.136847,"lon":17.04775,"is_passed":false},{"stop_id":"U16509Z11","name":"Nesovice, železniční stanice","arrival_time":"7:12:00","departure_time":"7:13:00","lat":49.14916,"lon":17.079897,"is_passed":false},{"stop_id":"U16628Z11","name":"Brankovice, železniční stanice","arrival_time":"7:17:00","departure_time":"7:18:00","lat":49.150361,"lon":17.13375,"is_passed":false},{"stop_id":"U16503Z11","name":"Nemotice, železniční stanice","arrival_time":"7:22:00","departure_time":"7:22:00","lat":49.132992,"lon":17.114242,"is_passed":false},{"stop_id":"U26601Z2","name":"Jestřabice","arrival_time":"7:28:00","departure_time":"7:28:00","lat":49.088889,"lon":17.113333,"is_passed":false},{"stop_id":"U16604Z11","name":"Kyjov, Bohuslavice, železniční stanice","arrival_time":"7:33:00","departure_time":"7:33:00","lat":49.055833,"lon":17.118917,"is_passed":false},{"stop_id":"U16650Z51","name":"Kyjov, železniční stanice","arrival_time":"7:38:00","departure_time":"7:39:00","lat":49.016263,"lon":17.122856,"is_passed":false},{"stop_id":"U26603Z2","name":"Kyjov zastávka","arrival_time":"7:42:00","departure_time":"7:42:00","lat":49.003383,"lon":17.123528,"is_passed":false},{"stop_id":"U26801Z11","name":"Vlkoš","arrival_time":"7:47:00","departure_time":"7:47:00","lat":48.987902,"lon":17.166624,"is_passed":false},{"stop_id":"U26802Z11","name":"Vracov","arrival_time":"7:51:00","departure_time":"7:52:00","lat":48.976674,"lon":17.218698,"is_passed":false},{"stop_id":"U16908Z11","name":"Bzenec, železniční stanice","arrival_time":"7:56:00","departure_time":"7:57:00","lat":48.969173,"lon":17.263183,"is_passed":false},{"stop_id":"U19316Z13","name":"Veselí nad Moravou, železniční stanice","arrival_time":"8:05:00","departure_time":"8:07:00","lat":48.948694,"lon":17.382439,"is_passed":false},{"stop_id":"U19310Z12","name":"Veselí nad Moravou, Milokošť","arrival_time":"8:10:00","departure_time":"8:10:00","lat":48.967085,"lon":17.398881,"is_passed":false},{"stop_id":"U29404Z11","name":"Uherský Ostroh","arrival_time":"8:12:00","departure_time":"8:13:00","lat":48.981817,"lon":17.403441,"is_passed":false},{"stop_id":"U30314Z1","name":"Ostrožská Nová Ves","arrival_time":"8:18:00","departure_time":"8:20:00","lat":49.009594,"lon":17.436368,"is_passed":false},{"stop_id":"U31103Z1","name":"Ostrožská Nová Ves lázně","arrival_time":"8:22:00","departure_time":"8:22:00","lat":49.018181,"lon":17.446255,"is_passed":false},{"stop_id":"U31025Z2","name":"Kunovice zastávka","arrival_time":"8:25:00","departure_time":"8:25:00","lat":49.038039,"lon":17.461023,"is_passed":false},{"stop_id":"U31027Z2","name":"Uherské Hradiště","arrival_time":"8:29:00","departure_time":"9:35:00","lat":49.066825,"lon":17.457085,"is_passed":false}],"16118":[{"stop_id":"U31027Z1","name":"Uherské Hradiště","arrival_time":"9:35:00","departure_time":"9:35:00","lat":49.066881,"lon":17.457171,"is_passed":false},{"stop_id":"U31025Z1","name":"Kunovice zastávka","arrival_time":"9:39:00","departure_time":"9:39:00","lat":49.038454,"lon":17.46113,"is_passed":false},{"stop_id":"U31103Z2","name":"Ostrožská Nová Ves lázně","arrival_time":"9:42:00","departure_time":"9:42:00","lat":49.018181,"lon":17.446255,"is_passed":false},{"stop_id":"U30314Z2","name":"Ostrožská Nová Ves","arrival_time":"9:44:00","departure_time":"9:45:00","lat":49.009975,"lon":17.436797,"is_passed":false},{"stop_id":"U29404Z10","name":"Uherský Ostroh","arrival_time":"9:49:00","departure_time":"9:49:00","lat":48.982198,"lon":17.403538,"is_passed":false},{"stop_id":"U19310Z11","name":"Veselí nad Moravou, Milokošť","arrival_time":"9:52:00","departure_time":"9:52:00","lat":48.966999,"lon":17.398828,"is_passed":false},{"stop_id":"U19316Z12","name":"Veselí nad Moravou, železniční stanice","arrival_time":"9:56:00","departure_time":"9:57:00","lat":48.948694,"lon":17.382439,"is_passed":false},{"stop_id":"U16908Z10","name":"Bzenec, železniční stanice","arrival_time":"10:05:00","departure_time":"10:06:00","lat":48.969173,"lon":17.263183,"is_passed":false},{"stop_id":"U26802Z10","name":"Vracov","arrival_time":"10:09:00","departure_time":"10:10:00","lat":48.97657,"lon":17.220097,"is_passed":false},{"stop_id":"U26801Z10","name":"Vlkoš","arrival_time":"10:15:00","departure_time":"10:15:00","lat":48.98791,"lon":17.166472,"is_passed":false},{"stop_id":"U26603Z1","name":"Kyjov zastávka","arrival_time":"10:20:00","departure_time":"10:20:00","lat":49.003312,"lon":17.123835,"is_passed":false},{"stop_id":"U16650Z50","name":"Kyjov, železniční stanice","arrival_time":"10:23:00","departure_time":"10:25:00","lat":49.016226,"lon":17.122949,"is_passed":false},{"stop_id":"U16604Z10","name":"Kyjov, Bohuslavice, železniční stanice","arrival_time":"10:30:00","departure_time":"10:30:00","lat":49.055833,"lon":17.118917,"is_passed":false},{"stop_id":"U26601Z1","name":"Jestřabice","arrival_time":"10:35:00","departure_time":"10:35:00","lat":49.088889,"lon":17.113333,"is_passed":false},{"stop_id":"U16503Z10","name":"Nemotice, železniční stanice","arrival_time":"10:41:00","departure_time":"10:42:00","lat":49.133033,"lon":17.114422,"is_passed":false},{"stop_id":"U16628Z10","name":"Brankovice, železniční stanice","arrival_time":"10:46:00","departure_time":"10:47:00","lat":49.150361,"lon":17.13375,"is_passed":false},{"stop_id":"U16509Z10","name":"Nesovice, železniční stanice","arrival_time":"10:51:00","departure_time":"10:52:00","lat":49.149315,"lon":17.080192,"is_passed":false},{"stop_id":"U26501Z1","name":"Nevojice","arrival_time":"10:56:00","departure_time":"10:56:00","lat":49.136847,"lon":17.04775,"is_passed":false},{"stop_id":"U16463Z50","name":"Bučovice, železniční stanice","arrival_time":"11:00:00","departure_time":"11:01:00","lat":49.145619,"lon":16.999658,"is_passed":false},{"stop_id":"U16406Z10","name":"Bučovice, Marefy, žel. st.","arrival_time":"11:04:00","departure_time":"11:04:00","lat":49.149232,"lon":16.972808,"is_passed":false},{"stop_id":"U16318Z10","name":"Křižanovice, žel. st.","arrival_time":"11:07:00","departure_time":"11:07:00","lat":49.145047,"lon":16.935893,"is_passed":false},{"stop_id":"U16333Z10","name":"Slavkov u Brna, žel. st.","arrival_time":"11:12:00","departure_time":"11:13:00","lat":49.14495,"lon":16.873475,"is_passed":false},{"stop_id":"U16211Z10","name":"Křenovice, dol. žel. st.","arrival_time":"11:16:00","departure_time":"11:17:00","lat":49.143679,"lon":16.834698,"is_passed":false},{"stop_id":"U26103Z1","name":"Blažovice","arrival_time":"11:22:00","departure_time":"11:23:00","lat":49.163735,"lon":16.798179,"is_passed":false},{"stop_id":"U16121Z10","name":"Ponětovice, železniční stanice","arrival_time":"11:27:00","departure_time":"11:27:00","lat":49.154709,"lon":16.748578,"is_passed":false},{"stop_id":"U16137Z10","name":"Šlapanice, železniční stanice","arrival_time":"11:29:00","departure_time":"11:30:00","lat":49.156975,"lon":16.729526,"is_passed":false},{"stop_id":"U16136Z11","name":"Šlapanice, železniční zastávka","arrival_time":"11:32:00","departure_time":"11:32:00","lat":49.163384,"lon":16.719877,"is_passed":false},{"stop_id":"U1573Z10","name":"Slatina, nádraží","arrival_time":"11:36:00","departure_time":"11:37:00","lat":49.169478,"lon":16.682148,"is_passed":false},{"stop_id":"U1146Z99","name":"Hlavní nádraží","arrival_time":"11:48:00","departure_time":"14:43:00","lat":49.19035,"lon":16.612342,"is_passed":false}],"16119":[{"stop_id":"U1146Z98","name":"Hlavní nádraží","arrival_time":"14:43:00","departure_time":"14:43:00","lat":49.19035,"lon":16.612342,"is_passed":false},{"stop_id":"U1809Z10","name":"Židenice, nádraží","arrival_time":"14:47:00","departure_time":"14:51:00","lat":49.204282,"lon":16.636042,"is_passed":false},{"stop_id":"U1573Z11","name":"Slatina, nádraží","arrival_time":"15:01:00","departure_time":"15:02:00","lat":49.169478,"lon":16.682148,"is_passed":false},{"stop_id":"U16136Z12","name":"Šlapanice, železniční zastávka","arrival_time":"15:05:00","departure_time":"15:06:00","lat":49.163296,"lon":16.719903,"is_passed":false},{"stop_id":"U26103Z2","name":"Blažovice","arrival_time":"15:12:00","departure_time":"15:13:00","lat":49.163735,"lon":16.798179,"is_passed":false},{"stop_id":"U16211Z11","name":"Křenovice, dol. žel. st.","arrival_time":"15:17:00","departure_time":"15:18:00","lat":49.144304,"lon":16.834023,"is_passed":false},{"stop_id":"U16333Z11","name":"Slavkov u Brna, žel. st.","arrival_time":"15:21:00","departure_time":"15:22:00","lat":49.14495,"lon":16.873475,"is_passed":false},{"stop_id":"U16318Z11","name":"Křižanovice, žel. st.","arrival_time":"15:27:00","departure_time":"15:27:00","lat":49.144986,"lon":16.93419,"is_passed":false},{"stop_id":"U16406Z11","name":"Bučovice, Marefy, žel. st.","arrival_time":"15:31:00","departure_time":"15:31:00","lat":49.14914,"lon":16.972851,"is_passed":false},{"stop_id":"U16463Z51","name":"Bučovice, železniční stanice","arrival_time":"15:34:00","departure_time":"15:35:00","lat":49.145619,"lon":16.999658,"is_passed":false},{"stop_id":"U26501Z2","name":"Nevojice","arrival_time":"15:39:00","departure_time":"15:39:00","lat":49.136847,"lon":17.04775,"is_passed":false},{"stop_id":"U16509Z11","name":"Nesovice, železniční stanice","arrival_time":"15:43:00","departure_time":"15:43:00","lat":49.14916,"lon":17.079897,"is_passed":false},{"stop_id":"U16628Z11","name":"Brankovice, železniční stanice","arrival_time":"15:48:00","departure_time":"15:49:00","lat":49.150361,"lon":17.13375,"is_passed":false},{"stop_id":"U16503Z11","name":"Nemotice, železniční stanice","arrival_time":"15:53:00","departure_time":"16:09:00","lat":49.132992,"lon":17.114242,"is_passed":false}],"16120":[{"stop_id":"U16503Z10","name":"Nemotice, železniční stanice","arrival_time":"16:09:00","departure_time":"16:09:00","lat":49.133033,"lon":17.114422,"is_passed":false},{"stop_id":"U16628Z10","name":"Brankovice, železniční stanice","arrival_time":"16:13:00","departure_time":"16:13:00","lat":49.150361,"lon":17.13375,"is_passed":false},{"stop_id":"U16509Z10","name":"Nesovice, železniční stanice","arrival_time":"16:18:00","departure_time":"16:19:00","lat":49.149315,"lon":17.080192,"is_passed":false},{"stop_id":"U26501Z1","name":"Nevojice","arrival_time":"16:22:00","departure_time":"16:22:00","lat":49.136847,"lon":17.04775,"is_passed":false},{"stop_id":"U16463Z50","name":"Bučovice, železniční stanice","arrival_time":"16:25:00","departure_time":"16:26:00","lat":49.145619,"lon":16.999658,"is_passed":false},{"stop_id":"U16406Z10","name":"Bučovice, Marefy, žel. st.","arrival_time":"16:29:00","departure_time":"16:29:00","lat":49.149232,"lon":16.972808,"is_passed":false},{"stop_id":"U16318Z10","name":"Křižanovice, žel. st.","arrival_time":"16:32:00","departure_time":"16:32:00","lat":49.145047,"lon":16.935893,"is_passed":false},{"stop_id":"U16333Z10","name":"Slavkov u Brna, žel. st.","arrival_time":"16:37:00","departure_time":"16:38:00","lat":49.14495,"lon":16.873475,"is_passed":false},{"stop_id":"U16211Z10","name":"Křenovice, dol. žel. st.","arrival_time":"16:41:00","departure_time":"16:41:00","lat":49.143679,"lon":16.834698,"is_passed":false},{"stop_id":"U26103Z1","name":"Blažovice","arrival_time":"16:46:00","departure_time":"16:47:00","lat":49.163735,"lon":16.798179,"is_passed":false},{"stop_id":"U16136Z11","name":"Šlapanice, železniční zastávka","arrival_time":"16:53:00","departure_time":"16:53:00","lat":49.163384,"lon":16.719877,"is_passed":false},{"stop_id":"U1573Z10","name":"Slatina, nádraží","arrival_time":"16:57:00","departure_time":"16:58:00","lat":49.169478,"lon":16.682148,"is_passed":false},{"stop_id":"U1809Z10","name":"Židenice, nádraží","arrival_time":"17:04:00","departure_time":"17:04:00","lat":49.204282,"lon":16.636042,"is_passed":false}],"16121":[{"stop_id":"U1146Z98","name":"Hlavní nádraží","arrival_time":"17:41:00","departure_time":"17:41:00","lat":49.19035,"lon":16.612342,"is_passed":false},{"stop_id":"U1809Z10","name":"Židenice, nádraží","arrival_time":"17:45:00","departure_time":"17:49:00","lat":49.204282,"lon":16.636042,"is_passed":false},{"stop_id":"U1573Z11","name":"Slatina, nádraží","arrival_time":"18:00:00","departure_time":"18:01:00","lat":49.169478,"lon":16.682148,"is_passed":false},{"stop_id":"U16136Z12","name":"Šlapanice, železniční zastávka","arrival_time":"18:04:00","departure_time":"18:05:00","lat":49.163296,"lon":16.719903,"is_passed":false},{"stop_id":"U26103Z2","name":"Blažovice","arrival_time":"18:11:00","departure_time":"18:11:00","lat":49.163735,"lon":16.798179,"is_passed":false},{"stop_id":"U16211Z11","name":"Křenovice, dol. žel. st.","arrival_time":"18:16:00","departure_time":"18:16:00","lat":49.144304,"lon":16.834023,"is_passed":false},{"stop_id":"U16333Z11","name":"Slavkov u Brna, žel. st.","arrival_time":"18:20:00","departure_time":"18:22:00","lat":49.14495,"lon":16.873475,"is_passed":false},{"stop_id":"U16318Z11","name":"Křižanovice, žel. st.","arrival_time":"18:26:00","departure_time":"18:27:00","lat":49.144986,"lon":16.93419,"is_passed":false},{"stop_id":"U16406Z11","name":"Bučovice, Marefy, žel. st.","arrival_time":"18:30:00","departure_time":"18:30:00","lat":49.14914,"lon":16.972851,"is_passed":false},{"stop_id":"U16463Z51","name":"Bučovice, železniční stanice","arrival_time":"18:33:00","departure_time":"18:34:00","lat":49.145619,"lon":16.999658,"is_passed":false},{"stop_id":"U26501Z2","name":"Nevojice","arrival_time":"18:38:00","departure_time":"18:38:00","lat":49.136847,"lon":17.04775,"is_passed":false},{"stop_id":"U16509Z11","name":"Nesovice, železniční stanice","arrival_time":"18:42:00","departure_time":"18:42:00","lat":49.14916,"lon":17.079897,"is_passed":false},{"stop_id":"U16628Z11","name":"Brankovice, železniční stanice","arrival_time":"18:47:00","departure_time":"18:48:00","lat":49.150361,"lon":17.13375,"is_passed":false},{"stop_id":"U16503Z11","name":"Nemotice, železniční stanice","arrival_time":"18:52:00","departure_time":"18:52:00","lat":49.132992,"lon":17.114242,"is_passed":false}],"16122":[{"stop_id":"U16509Z10","name":"Nesovice, železniční stanice","arrival_time":"5:50:00","departure_time":"5:50:00","lat":49.149315,"lon":17.080192,"is_passed":false},{"stop_id":"U26501Z1","name":"Nevojice","arrival_time":"5:54:00","departure_time":"5:54:00","lat":49.136847,"lon":17.04775,"is_passed":false},{"stop_id":"U16463Z50","name":"Bučovice, železniční stanice","arrival_time":"5:59:00","departure_time":"6:00:00","lat":49.145619,"lon":16.999658,"is_passed":false},{"stop_id":"U16406Z10","name":"Bučovice, Marefy, žel. st.","arrival_time":"6:02:00","departure_time":"6:03:00","lat":49.149232,"lon":16.972808,"is_passed":false},{"stop_id":"U16318Z10","name":"Křižanovice, žel. st.","arrival_time":"6:06:00","departure_time":"6:06:00","lat":49.145047,"lon":16.935893,"is_passed":false},{"stop_id":"U16333Z10","name":"Slavkov u Brna, žel. st.","arrival_time":"6:11:00","departure_time":"6:13:00","lat":49.14495,"lon":16.873475,"is_passed":false},{"stop_id":"U16211Z10","name":"Křenovice, dol. žel. st.","arrival_time":"6:16:00","departure_time":"6:17:00","lat":49.143679,"lon":16.834698,"is_passed":false},{"stop_id":"U26103Z1","name":"Blažovice","arrival_time":"6:22:00","departure_time":"6:22:00","lat":49.163735,"lon":16.798179,"is_passed":false},{"stop_id":"U16121Z10","name":"Ponětovice, železniční stanice","arrival_time":"6:26:00","departure_time":"6:26:00","lat":49.154709,"lon":16.748578,"is_passed":false},{"stop_id":"U16137Z10","name":"Šlapanice, železniční stanice","arrival_time":"6:29:00","departure_time":"6:30:00","lat":49.156975,"lon":16.729526,"is_passed":false},{"stop_id":"U16136Z11","name":"Šlapanice, železniční zastávka","arrival_time":"6:32:00","departure_time":"6:32:00","lat":49.163384,"lon":16.719877,"is_passed":false},{"stop_id":"U1573Z10","name":"Slatina, nádraží","arrival_time":"6:36:00","departure_time":"6:37:00","lat":49.169478,"lon":16.682148,"is_passed":false},{"stop_id":"U11001Z1","name":"Brno-Černovice","arrival_time":"6:42:00","departure_time":"6:42:00","lat":49.188984,"lon":16.631233,"is_passed":false},{"stop_id":"U1146Z99","name":"Hlavní nádraží","arrival_time":"6:52:00","departure_time":"6:52:00","lat":49.19035,"lon":16.612342,"is_passed":false}],"16123":[{"stop_id":"U1809Z10","name":"Židenice, nádraží","arrival_time":"7:55:00","departure_time":"7:55:00","lat":49.204282,"lon":16.636042,"is_passed":false},{"stop_id":"U1573Z11","name":"Slatina, nádraží","arrival_time":"8:01:00","departure_time":"8:02:00","lat":49.169478,"lon":16.682148,"is_passed":false},{"stop_id":"U16136Z12","name":"Šlapanice, železniční zastávka","arrival_time":"8:05:00","departure_time":"8:06:00","lat":49.163296,"lon":16.719903,"is_passed":false},{"stop_id":"U16137Z11","name":"Šlapanice, železniční stanice","arrival_time":"8:08:00","departure_time":"8:30:00","lat":49.156915,"lon":16.729568,"is_passed":false}],"16124":[{"stop_id":"U16137Z10","name":"Šlapanice, železniční stanice","arrival_time":"8:30:00","departure_time":"8:30:00","lat":49.156975,"lon":16.729526,"is_passed":false},{"stop_id":"U16136Z11","name":"Šlapanice, železniční zastávka","arrival_time":"8:32:00","departure_time":"8:32:00","lat":49.163384,"lon":16.719877,"is_passed":false},{"stop_id":"U1573Z10","name":"Slatina, nádraží","arrival_time":"8:36:00","departure_time":"8:37:00","lat":49.169478,"lon":16.682148,"is_passed":false},{"stop_id":"U11001Z1","name":"Brno-Černovice","arrival_time":"8:42:00","departure_time":"8:42:00","lat":49.188984,"lon":16.631233,"is_passed":false},{"stop_id":"U1146Z99","name":"Hlavní nádraží","arrival_time":"8:53:00","departure_time":"13:43:00","lat":49.19035,"lon":16.612342,"is_passed":false}],"16125":[{"stop_id":"U1146Z98","name":"Hlavní nádraží","arrival_time":"13:43:00","departure_time":"13:43:00","lat":49.19035,"lon":16.612342,"is_passed":false},{"stop_id":"U1809Z10","name":"Židenice, nádraží","arrival_time":"13:47:00","departure_time":"13:50:00","lat":49.204282,"lon":16.636042,"is_passed":false},{"stop_id":"U1573Z11","name":"Slatina, nádraží","arrival_time":"13:56:00","departure_time":"14:00:00","lat":49.169478,"lon":16.682148,"is_passed":false},{"stop_id":"U16136Z12","name":"Šlapanice, železniční zastávka","arrival_time":"14:03:00","departure_time":"14:04:00","lat":49.163296,"lon":16.719903,"is_passed":false},{"stop_id":"U16121Z11","name":"Ponětovice, železniční stanice","arrival_time":"14:07:00","departure_time":"14:07:00","lat":49.154709,"lon":16.748578,"is_passed":false},{"stop_id":"U26103Z2","name":"Blažovice","arrival_time":"14:11:00","departure_time":"14:11:00","lat":49.163735,"lon":16.798179,"is_passed":false},{"stop_id":"U16211Z11","name":"Křenovice, dol. žel. st.","arrival_time":"14:15:00","departure_time":"14:16:00","lat":49.144304,"lon":16.834023,"is_passed":false},{"stop_id":"U16333Z11","name":"Slavkov u Brna, žel. st.","arrival_time":"14:19:00","departure_time":"14:22:00","lat":49.14495,"lon":16.873475,"is_passed":false},{"stop_id":"U16318Z11","name":"Křižanovice, žel. st.","arrival_time":"14:26:00","departure_time":"14:27:00","lat":49.144986,"lon":16.93419,"is_passed":false},{"stop_id":"U16406Z11","name":"Bučovice, Marefy, žel. st.","arrival_time":"14:30:00","departure_time":"14:30:00","lat":49.14914,"lon":16.972851,"is_passed":false},{"stop_id":"U16463Z51","name":"Bučovice, železniční stanice","arrival_time":"14:33:00","departure_time":"14:34:00","lat":49.145619,"lon":16.999658,"is_passed":false},{"stop_id":"U26501Z2","name":"Nevojice","arrival_time":"14:38:00","departure_time":"14:38:00","lat":49.136847,"lon":17.04775,"is_passed":false},{"stop_id":"U16509Z11","name":"Nesovice, železniční stanice","arrival_time":"14:41:00","departure_time":"14:42:00","lat":49.14916,"lon":17.079897,"is_passed":false},{"stop_id":"U16628Z11","name":"Brankovice, železniční stanice","arrival_time":"14:47:00","departure_time":"14:47:00","lat":49.150361,"lon":17.13375,"is_passed":false},{"stop_id":"U16503Z11","name":"Nemotice, železniční stanice","arrival_time":"14:51:00","departure_time":"15:09:00","lat":49.132992,"lon":17.114242,"is_passed":false}],"16126":[{"stop_id":"U16503Z10","name":"Nemotice, železniční stanice","arrival_time":"15:09:00","departure_time":"15:09:00","lat":49.133033,"lon":17.114422,"is_passed":false},{"stop_id":"U16628Z10","name":"Brankovice, železniční stanice","arrival_time":"15:13:00","departure_time":"15:13:00","lat":49.150361,"lon":17.13375,"is_passed":false},{"stop_id":"U16509Z10","name":"Nesovice, železniční stanice","arrival_time":"15:17:00","departure_time":"15:18:00","lat":49.149315,"lon":17.080192,"is_passed":false},{"stop_id":"U26501Z1","name":"Nevojice","arrival_time":"15:21:00","departure_time":"15:21:00","lat":49.136847,"lon":17.04775,"is_passed":false},{"stop_id":"U16463Z50","name":"Bučovice, železniční stanice","arrival_time":"15:25:00","departure_time":"15:26:00","lat":49.145619,"lon":16.999658,"is_passed":false},{"stop_id":"U16406Z10","name":"Bučovice, Marefy, žel. st.","arrival_time":"15:28:00","departure_time":"15:28:00","lat":49.149232,"lon":16.972808,"is_passed":false},{"stop_id":"U16318Z10","name":"Křižanovice, žel. st.","arrival_time":"15:31:00","departure_time":"15:32:00","lat":49.145047,"lon":16.935893,"is_passed":false},{"stop_id":"U16333Z10","name":"Slavkov u Brna, žel. st.","arrival_time":"15:37:00","departure_time":"15:38:00","lat":49.14495,"lon":16.873475,"is_passed":false},{"stop_id":"U16211Z10","name":"Křenovice, dol. žel. st.","arrival_time":"15:41:00","departure_time":"15:41:00","lat":49.143679,"lon":16.834698,"is_passed":false},{"stop_id":"U26103Z1","name":"Blažovice","arrival_time":"15:46:00","departure_time":"15:46:00","lat":49.163735,"lon":16.798179,"is_passed":false},{"stop_id":"U16137Z10","name":"Šlapanice, železniční stanice","arrival_time":"15:51:00","departure_time":"15:52:00","lat":49.156975,"lon":16.729526,"is_passed":false},{"stop_id":"U1573Z10","name":"Slatina, nádraží","arrival_time":"15:57:00","departure_time":"15:58:00","lat":49.169478,"lon":16.682148,"is_passed":false},{"stop_id":"U1809Z10","name":"Židenice, nádraží","arrival_time":"16:04:00","departure_time":"16:04:00","lat":49.204282,"lon":16.636042,"is_passed":false}],"16127":[{"stop_id":"U1146Z98","name":"Hlavní nádraží","arrival_time":"18:43:00","departure_time":"18:43:00","lat":49.19035,"lon":16.612342,"is_passed":false},{"stop_id":"U1809Z10","name":"Židenice, nádraží","arrival_time":"18:47:00","departure_time":"18:51:00","lat":49.204282,"lon":16.636042,"is_passed":false},{"stop_id":"U1573Z11","name":"Slatina, nádraží","arrival_time":"18:57:00","departure_time":"18:58:00","lat":49.169478,"lon":16.682148,"is_passed":false},{"stop_id":"U16136Z12","name":"Šlapanice, železniční zastávka","arrival_time":"19:01:00","departure_time":"19:02:00","lat":49.163296,"lon":16.719903,"is_passed":false},{"stop_id":"U16121Z11","name":"Ponětovice, železniční stanice","arrival_time":"19:05:00","departure_time":"19:05:00","lat":49.154709,"lon":16.748578,"is_passed":false},{"stop_id":"U26103Z2","name":"Blažovice","arrival_time":"19:09:00","departure_time":"19:10:00","lat":49.163735,"lon":16.798179,"is_passed":false},{"stop_id":"U16211Z11","name":"Křenovice, dol. žel. st.","arrival_time":"19:14:00","departure_time":"19:14:00","lat":49.144304,"lon":16.834023,"is_passed":false},{"stop_id":"U16333Z11","name":"Slavkov u Brna, žel. st.","arrival_time":"19:18:00","departure_time":"19:20:00","lat":49.14495,"lon":16.873475,"is_passed":false},{"stop_id":"U16318Z11","name":"Křižanovice, žel. st.","arrival_time":"19:24:00","departure_time":"19:24:00","lat":49.144986,"lon":16.93419,"is_passed":false},{"stop_id":"U16406Z11","name":"Bučovice, Marefy, žel. st.","arrival_time":"19:27:00","departure_time":"19:27:00","lat":49.14914,"lon":16.972851,"is_passed":false},{"stop_id":"U16463Z51","name":"Bučovice, železniční stanice","arrival_time":"19:30:00","departure_time":"19:31:00","lat":49.145619,"lon":16.999658,"is_passed":false},{"stop_id":"U26501Z2","name":"Nevojice","arrival_time":"19:35:00","departure_time":"19:35:00","lat":49.136847,"lon":17.04775,"is_passed":false},{"stop_id":"U16509Z11","name":"Nesovice, železniční stanice","arrival_time":"19:39:00","departure_time":"19:39:00","lat":49.14916,"lon":17.079897,"is_passed":false}],"16128":[{"stop_id":"U1146Z98","name":"Hlavní nádraží","arrival_time":"13:28:00","departure_time":"13:28:00","lat":49.19035,"lon":16.612342,"is_passed":false},{"stop_id":"U16333Z11","name":"Slavkov u Brna, žel. st.","arrival_time":"13:52:00","departure_time":"13:53:00","lat":49.14495,"lon":16.873475,"is_passed":false},{"stop_id":"U16463Z51","name":"Bučovice, železniční stanice","arrival_time":"14:01:00","departure_time":"14:02:00","lat":49.145619,"lon":16.999658,"is_passed":false},{"stop_id":"U16509Z11","name":"Nesovice, železniční stanice","arrival_time":"14:09:00","departure_time":"14:10:00","lat":49.14916,"lon":17.079897,"is_passed":false},{"stop_id":"U16503Z11","name":"Nemotice, železniční stanice","arrival_time":"14:17:00","departure_time":"14:18:00","lat":49.132992,"lon":17.114242,"is_passed":false},{"stop_id":"U16650Z51","name":"Kyjov, železniční stanice","arrival_time":"14:31:00","departure_time":"14:32:00","lat":49.016263,"lon":17.122856,"is_passed":false},{"stop_id":"U26603Z2","name":"Kyjov zastávka","arrival_time":"14:35:00","departure_time":"14:35:00","lat":49.003383,"lon":17.123528,"is_passed":false},{"stop_id":"U26802Z11","name":"Vracov","arrival_time":"14:44:00","departure_time":"14:45:00","lat":48.976674,"lon":17.218698,"is_passed":false},{"stop_id":"U16908Z11","name":"Bzenec, železniční stanice","arrival_time":"14:48:00","departure_time":"14:49:00","lat":48.969173,"lon":17.263183,"is_passed":false},{"stop_id":"U19316Z13","name":"Veselí nad Moravou, železniční stanice","arrival_time":"14:58:00","departure_time":"15:00:00","lat":48.948694,"lon":17.382439,"is_passed":false},{"stop_id":"U29404Z11","name":"Uherský Ostroh","arrival_time":"15:04:00","departure_time":"15:05:00","lat":48.981817,"lon":17.403441,"is_passed":false},{"stop_id":"U30314Z1","name":"Ostrožská Nová Ves","arrival_time":"15:09:00","departure_time":"15:09:00","lat":49.009594,"lon":17.436368,"is_passed":false},{"stop_id":"U31025Z2","name":"Kunovice zastávka","arrival_time":"15:13:00","departure_time":"15:14:00","lat":49.038039,"lon":17.461023,"is_passed":false},{"stop_id":"U31027Z2","name":"Uherské Hradiště","arrival_time":"15:18:00","departure_time":"15:20:00","lat":49.066825,"lon":17.457085,"is_passed":false},{"stop_id":"U31028Z2","name":"Staré Město u Uherského Hradiště","arrival_time":"15:26:00","departure_time":"16:27:00","lat":49.076022,"lon":17.42271,"is_passed":false}],"16129":[{"stop_id":"U31028Z1","name":"Staré Město u Uherského Hradiště","arrival_time":"16:27:00","departure_time":"16:27:00","lat":49.076029,"lon":17.422624,"is_passed":false},{"stop_id":"U31027Z1","name":"Uherské Hradiště","arrival_time":"16:33:00","departure_time":"16:36:00","lat":49.066881,"lon":17.457171,"is_passed":false},{"stop_id":"U31025Z1","name":"Kunovice zastávka","arrival_time":"16:40:00","departure_time":"16:40:00","lat":49.038454,"lon":17.46113,"is_passed":false},{"stop_id":"U30314Z2","name":"Ostrožská Nová Ves","arrival_time":"16:45:00","departure_time":"16:46:00","lat":49.009975,"lon":17.436797,"is_passed":false},{"stop_id":"U29404Z10","name":"Uherský Ostroh","arrival_time":"16:50:00","departure_time":"16:51:00","lat":48.982198,"lon":17.403538,"is_passed":false},{"stop_id":"U19316Z12","name":"Veselí nad Moravou, železniční stanice","arrival_time":"16:56:00","departure_time":"17:01:00","lat":48.948694,"lon":17.382439,"is_passed":false},{"stop_id":"U16908Z10","name":"Bzenec, železniční stanice","arrival_time":"17:09:00","departure_time":"17:10:00","lat":48.969173,"lon":17.263183,"is_passed":false},{"stop_id":"U26802Z10","name":"Vracov","arrival_time":"17:14:00","departure_time":"17:15:00","lat":48.97657,"lon":17.220097,"is_passed":false},{"stop_id":"U26603Z1","name":"Kyjov zastávka","arrival_time":"17:23:00","departure_time":"17:23:00","lat":49.003312,"lon":17.123835,"is_passed":false},{"stop_id":"U16650Z50","name":"Kyjov, železniční stanice","arrival_time":"17:27:00","departure_time":"17:28:00","lat":49.016226,"lon":17.122949,"is_passed":false},{"stop_id":"U16503Z10","name":"Nemotice, železniční stanice","arrival_time":"17:41:00","departure_time":"17:42:00","lat":49.133033,"lon":17.114422,"is_passed":false},{"stop_id":"U16509Z10","name":"Nesovice, železniční stanice","arrival_time":"17:50:00","departure_time":"17:50:00","lat":49.149315,"lon":17.080192,"is_passed":false},{"stop_id":"U16463Z50","name":"Bučovice, železniční stanice","arrival_time":"17:57:00","departure_time":"17:58:00","lat":49.145619,"lon":16.999658,"is_passed":false},{"stop_id":"U16333Z10","name":"Slavkov u Brna, žel. st.","arrival_time":"18:06:00","departure_time":"18:08:00","lat":49.14495,"lon":16.873475,"is_passed":false},{"stop_id":"U1146Z99","name":"Hlavní nádraží","arrival_time":"18:33:00","departure_time":"22:25:00","lat":49.19035,"lon":16.612342,"is_passed":false}],"16130":[{"stop_id":"U1146Z98","name":"Hlavní nádraží","arrival_time":"22:25:00","departure_time":"22:25:00","lat":49.19035,"lon":16.612342,"is_passed":false},{"stop_id":"U1809Z10","name":"Židenice, nádraží","arrival_time":"22:30:00","departure_time":"22:33:00","lat":49.204282,"lon":16.636042,"is_passed":false},{"stop_id":"U1573Z11","name":"Slatina, nádraží","arrival_time":"22:40:00","departure_time":"22:40:00","lat":49.169478,"lon":16.682148,"is_passed":false},{"stop_id":"U16136Z12","name":"Šlapanice, železniční zastávka","arrival_time":"22:44:00","departure_time":"22:44:00","lat":49.163296,"lon":16.719903,"is_passed":false},{"stop_id":"U16137Z11","name":"Šlapanice, železniční stanice","arrival_time":"22:46:00","departure_time":"22:46:00","lat":49.156915,"lon":16.729568,"is_passed":false},{"stop_id":"U16121Z11","name":"Ponětovice, železniční stanice","arrival_time":"22:49:00","departure_time":"22:49:00","lat":49.154709,"lon":16.748578,"is_passed":false},{"stop_id":"U26103Z2","name":"Blažovice","arrival_time":"22:53:00","departure_time":"22:54:00","lat":49.163735,"lon":16.798179,"is_passed":false},{"stop_id":"U16211Z11","name":"Křenovice, dol. žel. st.","arrival_time":"22:58:00","departure_time":"22:58:00","lat":49.144304,"lon":16.834023,"is_passed":false},{"stop_id":"U16333Z11","name":"Slavkov u Brna, žel. st.","arrival_time":"23:02:00","departure_time":"23:03:00","lat":49.14495,"lon":16.873475,"is_passed":false},{"stop_id":"U16318Z11","name":"Křižanovice, žel. st.","arrival_time":"23:08:00","departure_time":"23:08:00","lat":49.144986,"lon":16.93419,"is_passed":false},{"stop_id":"U16406Z11","name":"Bučovice, Marefy, žel. st.","arrival_time":"23:12:00","departure_time":"23:12:00","lat":49.14914,"lon":16.972851,"is_passed":false},{"stop_id":"U16463Z51","name":"Bučovice, železniční stanice","arrival_time":"23:15:00","departure_time":"23:15:00","lat":49.145619,"lon":16.999658,"is_passed":false},{"stop_id":"U26501Z2","name":"Nevojice","arrival_time":"23:19:00","departure_time":"23:19:00","lat":49.136847,"lon":17.04775,"is_passed":false},{"stop_id":"U16509Z11","name":"Nesovice, železniční stanice","arrival_time":"23:23:00","departure_time":"23:23:00","lat":49.14916,"lon":17.079897,"is_passed":false},{"stop_id":"U16628Z11","name":"Brankovice, železniční stanice","arrival_time":"23:28:00","departure_time":"23:28:00","lat":49.150361,"lon":17.13375,"is_passed":false},{"stop_id":"U16503Z11","name":"Nemotice, železniční stanice","arrival_time":"23:32:00","departure_time":"23:32:00","lat":49.132992,"lon":17.114242,"is_passed":false},{"stop_id":"U16604Z11","name":"Kyjov, Bohuslavice, železniční stanice","arrival_time":"23:41:00","departure_time":"23:41:00","lat":49.055833,"lon":17.118917,"is_passed":false},{"stop_id":"U16650Z51","name":"Kyjov, železniční stanice","arrival_time":"23:46:00","departure_time":"23:46:00","lat":49.016263,"lon":17.122856,"is_passed":false}],"16131":[{"stop_id":"U16650Z51","name":"Kyjov, železniční stanice","arrival_time":"4:39:00","departure_time":"4:39:00","lat":49.016263,"lon":17.122856,"is_passed":false},{"stop_id":"U26603Z2","name":"Kyjov zastávka","arrival_time":"4:42:00","departure_time":"4:42:00","lat":49.003383,"lon":17.123528,"is_passed":false},{"stop_id":"U26801Z11","name":"Vlkoš","arrival_time":"4:47:00","departure_time":"4:48:00","lat":48.987902,"lon":17.166624,"is_passed":false},{"stop_id":"U26802Z11","name":"Vracov","arrival_time":"4:52:00","departure_time":"4:53:00","lat":48.976674,"lon":17.218698,"is_passed":false},{"stop_id":"U16908Z11","name":"Bzenec, železniční stanice","arrival_time":"4:57:00","departure_time":"4:58:00","lat":48.969173,"lon":17.263183,"is_passed":false},{"stop_id":"U19316Z13","name":"Veselí nad Moravou, železniční stanice","arrival_time":"5:07:00","departure_time":"5:25:00","lat":48.948694,"lon":17.382439,"is_passed":false}],"16132":[{"stop_id":"U19316Z12","name":"Veselí nad Moravou, železniční stanice","arrival_time":"5:25:00","departure_time":"5:25:00","lat":48.948694,"lon":17.382439,"is_passed":false},{"stop_id":"U16908Z10","name":"Bzenec, železniční stanice","arrival_time":"5:34:00","departure_time":"5:35:00","lat":48.969173,"lon":17.263183,"is_passed":false},{"stop_id":"U26802Z10","name":"Vracov","arrival_time":"5:38:00","departure_time":"5:39:00","lat":48.97657,"lon":17.220097,"is_passed":false},{"stop_id":"U26801Z10","name":"Vlkoš","arrival_time":"5:44:00","departure_time":"5:44:00","lat":48.98791,"lon":17.166472,"is_passed":false},{"stop_id":"U26603Z1","name":"Kyjov zastávka","arrival_time":"5:48:00","departure_time":"5:49:00","lat":49.003312,"lon":17.123835,"is_passed":false},{"stop_id":"U16650Z50","name":"Kyjov, železniční stanice","arrival_time":"5:52:00","departure_time":"5:55:00","lat":49.016226,"lon":17.122949,"is_passed":false},{"stop_id":"U16604Z10","name":"Kyjov, Bohuslavice, železniční stanice","arrival_time":"6:00:00","departure_time":"6:00:00","lat":49.055833,"lon":17.118917,"is_passed":false},{"stop_id":"U26601Z1","name":"Jestřabice","arrival_time":"6:05:00","departure_time":"6:05:00","lat":49.088889,"lon":17.113333,"is_passed":false},{"stop_id":"U16503Z10","name":"Nemotice, železniční stanice","arrival_time":"6:11:00","departure_time":"6:12:00","lat":49.133033,"lon":17.114422,"is_passed":false},{"stop_id":"U16628Z10","name":"Brankovice, železniční stanice","arrival_time":"6:16:00","departure_time":"6:17:00","lat":49.150361,"lon":17.13375,"is_passed":false},{"stop_id":"U16509Z10","name":"Nesovice, železniční stanice","arrival_time":"6:21:00","departure_time":"6:22:00","lat":49.149315,"lon":17.080192,"is_passed":false},{"stop_id":"U26501Z1","name":"Nevojice","arrival_time":"6:25:00","departure_time":"6:26:00","lat":49.136847,"lon":17.04775,"is_passed":false},{"stop_id":"U16463Z50","name":"Bučovice, železniční stanice","arrival_time":"6:30:00","departure_time":"6:31:00","lat":49.145619,"lon":16.999658,"is_passed":false},{"stop_id":"U16406Z10","name":"Bučovice, Marefy, žel. st.","arrival_time":"6:33:00","departure_time":"6:34:00","lat":49.149232,"lon":16.972808,"is_passed":false},{"stop_id":"U16318Z10","name":"Křižanovice, žel. st.","arrival_time":"6:37:00","departure_time":"6:37:00","lat":49.145047,"lon":16.935893,"is_passed":false},{"stop_id":"U16333Z10","name":"Slavkov u Brna, žel. st.","arrival_time":"6:42:00","departure_time":"6:43:00","lat":49.14495,"lon":16.873475,"is_passed":false},{"stop_id":"U16211Z10","name":"Křenovice, dol. žel. st.","arrival_time":"6:46:00","departure_time":"6:47:00","lat":49.143679,"lon":16.834698,"is_passed":false},{"stop_id":"U26103Z1","name":"Blažovice","arrival_time":"6:52:00","departure_time":"6:53:00","lat":49.163735,"lon":16.798179,"is_passed":false},{"stop_id":"U16121Z10","name":"Ponětovice, železniční stanice","arrival_time":"6:56:00","departure_time":"6:57:00","lat":49.154709,"lon":16.748578,"is_passed":false},{"stop_id":"U16137Z10","name":"Šlapanice, železniční stanice","arrival_time":"6:59:00","departure_time":"7:00:00","lat":49.156975,"lon":16.729526,"is_passed":false},{"stop_id":"U16136Z11","name":"Šlapanice, železniční zastávka","arrival_time":"7:02:00","departure_time":"7:02:00","lat":49.163384,"lon":16.719877,"is_passed":false},{"stop_id":"U1573Z10","name":"Slatina, nádraží","arrival_time":"7:06:00","departure_time":"7:07:00","lat":49.169478,"lon":16.682148,"is_passed":false},{"stop_id":"U11001Z1","name":"Brno-Černovice","arrival_time":"7:12:00","departure_time":"7:12:00","lat":49.188984,"lon":16.631233,"is_passed":false},{"stop_id":"U1146Z99","name":"Hlavní nádraží","arrival_time":"7:20:00","departure_time":"9:28:00","lat":49.19035,"lon":16.612342,"is_passed":false}],"16133":[{"stop_id":"U1146Z98","name":"Hlavní nádraží","arrival_time":"9:28:00","departure_time":"9:28:00","lat":49.19035,"lon":16.612342,"is_passed":false},{"stop_id":"U16333Z11","name":"Slavkov u Brna, žel. st.","arrival_time":"9:52:00","departure_time":"9:53:00","lat":49.14495,"lon":16.873475,"is_passed":false},{"stop_id":"U16463Z51","name":"Bučovice, železniční stanice","arrival_time":"10:01:00","departure_time":"10:02:00","lat":49.145619,"lon":16.999658,"is_passed":false},{"stop_id":"U16509Z11","name":"Nesovice, železniční stanice","arrival_time":"10:09:00","departure_time":"10:10:00","lat":49.14916,"lon":17.079897,"is_passed":false},{"stop_id":"U16503Z11","name":"Nemotice, železniční stanice","arrival_time":"10:17:00","departure_time":"10:18:00","lat":49.132992,"lon":17.114242,"is_passed":false},{"stop_id":"U16650Z51","name":"Kyjov, železniční stanice","arrival_time":"10:31:00","departure_time":"10:32:00","lat":49.016263,"lon":17.122856,"is_passed":false},{"stop_id":"U26603Z2","name":"Kyjov zastávka","arrival_time":"10:35:00","departure_time":"10:35:00","lat":49.003383,"lon":17.123528,"is_passed":false},{"stop_id":"U26802Z11","name":"Vracov","arrival_time":"10:44:00","departure_time":"10:45:00","lat":48.976674,"lon":17.218698,"is_passed":false},{"stop_id":"U16908Z11","name":"Bzenec, železniční stanice","arrival_time":"10:48:00","departure_time":"10:49:00","lat":48.969173,"lon":17.263183,"is_passed":false},{"stop_id":"U19316Z13","name":"Veselí nad Moravou, železniční stanice","arrival_time":"10:58:00","departure_time":"11:00:00","lat":48.948694,"lon":17.382439,"is_passed":false},{"stop_id":"U29404Z11","name":"Uherský Ostroh","arrival_time":"11:04:00","departure_time":"11:05:00","lat":48.981817,"lon":17.403441,"is_passed":false},{"stop_id":"U30314Z1","name":"Ostrožská Nová Ves","arrival_time":"11:09:00","departure_time":"11:09:00","lat":49.009594,"lon":17.436368,"is_passed":false},{"stop_id":"U31025Z2","name":"Kunovice zastávka","arrival_time":"11:13:00","departure_time":"11:14:00","lat":49.038039,"lon":17.461023,"is_passed":false},{"stop_id":"U31027Z2","name":"Uherské Hradiště","arrival_time":"11:18:00","departure_time":"11:20:00","lat":49.066825,"lon":17.457085,"is_passed":false},{"stop_id":"U31028Z2","name":"Staré Město u Uherského Hradiště","arrival_time":"11:26:00","departure_time":"12:27:00","lat":49.076022,"lon":17.42271,"is_passed":false}],"16134":[{"stop_id":"U31028Z1","name":"Staré Město u Uherského Hradiště","arrival_time":"12:27:00","departure_time":"12:27:00","lat":49.076029,"lon":17.422624,"is_passed":false},{"stop_id":"U31027Z1","name":"Uherské Hradiště","arrival_time":"12:33:00","departure_time":"12:36:00","lat":49.066881,"lon":17.457171,"is_passed":false},{"stop_id":"U31025Z1","name":"Kunovice zastávka","arrival_time":"12:40:00","departure_time":"12:40:00","lat":49.038454,"lon":17.46113,"is_passed":false},{"stop_id":"U30314Z2","name":"Ostrožská Nová Ves","arrival_time":"12:45:00","departure_time":"12:46:00","lat":49.009975,"lon":17.436797,"is_passed":false},{"stop_id":"U29404Z10","name":"Uherský Ostroh","arrival_time":"12:50:00","departure_time":"12:51:00","lat":48.982198,"lon":17.403538,"is_passed":false},{"stop_id":"U19316Z12","name":"Veselí nad Moravou, železniční stanice","arrival_time":"12:56:00","departure_time":"13:01:00","lat":48.948694,"lon":17.382439,"is_passed":false},{"stop_id":"U16908Z10","name":"Bzenec, železniční stanice","arrival_time":"13:09:00","departure_time":"13:10:00","lat":48.969173,"lon":17.263183,"is_passed":false},{"stop_id":"U26802Z10","name":"Vracov","arrival_time":"13:14:00","departure_time":"13:15:00","lat":48.97657,"lon":17.220097,"is_passed":false},{"stop_id":"U26603Z1","name":"Kyjov zastávka","arrival_time":"13:23:00","departure_time":"13:23:00","lat":49.003312,"lon":17.123835,"is_passed":false},{"stop_id":"U16650Z50","name":"Kyjov, železniční stanice","arrival_time":"13:27:00","departure_time":"13:28:00","lat":49.016226,"lon":17.122949,"is_passed":false},{"stop_id":"U16503Z10","name":"Nemotice, železniční stanice","arrival_time":"13:41:00","departure_time":"13:42:00","lat":49.133033,"lon":17.114422,"is_passed":false},{"stop_id":"U16509Z10","name":"Nesovice, železniční stanice","arrival_time":"13:50:00","departure_time":"13:50:00","lat":49.149315,"lon":17.080192,"is_passed":false},{"stop_id":"U16463Z50","name":"Bučovice, železniční stanice","arrival_time":"13:57:00","departure_time":"13:58:00","lat":49.145619,"lon":16.999658,"is_passed":false},{"stop_id":"U16333Z10","name":"Slavkov u Brna, žel. st.","arrival_time":"14:06:00","departure_time":"14:08:00","lat":49.14495,"lon":16.873475,"is_passed":false},{"stop_id":"U1146Z99","name":"Hlavní nádraží","arrival_time":"14:33:00","departure_time":"15:41:00","lat":49.19035,"lon":16.612342,"is_passed":false}],"16135":[{"stop_id":"U1146Z98","name":"Hlavní nádraží","arrival_time":"15:41:00","departure_time":"15:41:00","lat":49.19035,"lon":16.612342,"is_passed":false},{"stop_id":"U1809Z10","name":"Židenice, nádraží","arrival_time":"15:47:00","departure_time":"15:50:00","lat":49.204282,"lon":16.636042,"is_passed":false},{"stop_id":"U1573Z11","name":"Slatina, nádraží","arrival_time":"16:01:00","departure_time":"16:01:00","lat":49.169478,"lon":16.682148,"is_passed":false},{"stop_id":"U16136Z12","name":"Šlapanice, železniční zastávka","arrival_time":"16:05:00","departure_time":"16:05:00","lat":49.163296,"lon":16.719903,"is_passed":false},{"stop_id":"U26103Z2","name":"Blažovice","arrival_time":"16:11:00","departure_time":"16:12:00","lat":49.163735,"lon":16.798179,"is_passed":false},{"stop_id":"U16211Z11","name":"Křenovice, dol. žel. st.","arrival_time":"16:16:00","departure_time":"16:17:00","lat":49.144304,"lon":16.834023,"is_passed":false},{"stop_id":"U16333Z11","name":"Slavkov u Brna, žel. st.","arrival_time":"16:20:00","departure_time":"16:22:00","lat":49.14495,"lon":16.873475,"is_passed":false},{"stop_id":"U16318Z11","name":"Křižanovice, žel. st.","arrival_time":"16:27:00","departure_time":"16:27:00","lat":49.144986,"lon":16.93419,"is_passed":false},{"stop_id":"U16406Z11","name":"Bučovice, Marefy, žel. st.","arrival_time":"16:31:00","departure_time":"16:31:00","lat":49.14914,"lon":16.972851,"is_passed":false},{"stop_id":"U16463Z51","name":"Bučovice, železniční stanice","arrival_time":"16:34:00","departure_time":"16:35:00","lat":49.145619,"lon":16.999658,"is_passed":false},{"stop_id":"U26501Z2","name":"Nevojice","arrival_time":"16:39:00","departure_time":"16:39:00","lat":49.136847,"lon":17.04775,"is_passed":false},{"stop_id":"U16509Z11","name":"Nesovice, železniční stanice","arrival_time":"16:42:00","departure_time":"16:43:00","lat":49.14916,"lon":17.079897,"is_passed":false},{"stop_id":"U16628Z11","name":"Brankovice, železniční stanice","arrival_time":"16:48:00","departure_time":"16:48:00","lat":49.150361,"lon":17.13375,"is_passed":false},{"stop_id":"U16503Z11","name":"Nemotice, železniční stanice","arrival_time":"16:53:00","departure_time":"17:09:00","lat":49.132992,"lon":17.114242,"is_passed":false}],"16136":[{"stop_id":"U16503Z10","name":"Nemotice, železniční stanice","arrival_time":"17:09:00","departure_time":"17:09:00","lat":49.133033,"lon":17.114422,"is_passed":false},{"stop_id":"U16628Z10","name":"Brankovice, železniční stanice","arrival_time":"17:13:00","departure_time":"17:13:00","lat":49.150361,"lon":17.13375,"is_passed":false},{"stop_id":"U16509Z10","name":"Nesovice, železniční stanice","arrival_time":"17:18:00","departure_time":"17:19:00","lat":49.149315,"lon":17.080192,"is_passed":false},{"stop_id":"U26501Z1","name":"Nevojice","arrival_time":"17:22:00","departure_time":"17:22:00","lat":49.136847,"lon":17.04775,"is_passed":false},{"stop_id":"U16463Z50","name":"Bučovice, železniční stanice","arrival_time":"17:26:00","departure_time":"17:26:00","lat":49.145619,"lon":16.999658,"is_passed":false},{"stop_id":"U16406Z10","name":"Bučovice, Marefy, žel. st.","arrival_time":"17:29:00","departure_time":"17:29:00","lat":49.149232,"lon":16.972808,"is_passed":false},{"stop_id":"U16318Z10","name":"Křižanovice, žel. st.","arrival_time":"17:32:00","departure_time":"17:32:00","lat":49.145047,"lon":16.935893,"is_passed":false},{"stop_id":"U16333Z10","name":"Slavkov u Brna, žel. st.","arrival_time":"17:37:00","departure_time":"17:38:00","lat":49.14495,"lon":16.873475,"is_passed":false},{"stop_id":"U16211Z10","name":"Křenovice, dol. žel. st.","arrival_time":"17:41:00","departure_time":"17:41:00","lat":49.143679,"lon":16.834698,"is_passed":false},{"stop_id":"U26103Z1","name":"Blažovice","arrival_time":"17:46:00","departure_time":"17:47:00","lat":49.163735,"lon":16.798179,"is_passed":false},{"stop_id":"U16136Z11","name":"Šlapanice, železniční zastávka","arrival_time":"17:53:00","departure_time":"17:53:00","lat":49.163384,"lon":16.719877,"is_passed":false},{"stop_id":"U1573Z10","name":"Slatina, nádraží","arrival_time":"17:57:00","departure_time":"17:58:00","lat":49.169478,"lon":16.682148,"is_passed":false},{"stop_id":"U1809Z10","name":"Židenice, nádraží","arrival_time":"18:04:00","departure_time":"18:04:00","lat":49.204282,"lon":16.636042,"is_passed":false}],"16137":[{"stop_id":"U1146Z98","name":"Hlavní nádraží","arrival_time":"19:28:00","departure_time":"19:28:00","lat":49.19035,"lon":16.612342,"is_passed":false},{"stop_id":"U16333Z11","name":"Slavkov u Brna, žel. st.","arrival_time":"19:52:00","departure_time":"19:53:00","lat":49.14495,"lon":16.873475,"is_passed":false},{"stop_id":"U16463Z51","name":"Bučovice, železniční stanice","arrival_time":"20:01:00","departure_time":"20:02:00","lat":49.145619,"lon":16.999658,"is_passed":false},{"stop_id":"U16509Z11","name":"Nesovice, železniční stanice","arrival_time":"20:09:00","departure_time":"20:10:00","lat":49.14916,"lon":17.079897,"is_passed":false},{"stop_id":"U16503Z11","name":"Nemotice, železniční stanice","arrival_time":"20:17:00","departure_time":"20:18:00","lat":49.132992,"lon":17.114242,"is_passed":false},{"stop_id":"U16650Z51","name":"Kyjov, železniční stanice","arrival_time":"20:31:00","departure_time":"20:32:00","lat":49.016263,"lon":17.122856,"is_passed":false},{"stop_id":"U26603Z2","name":"Kyjov zastávka","arrival_time":"20:35:00","departure_time":"20:35:00","lat":49.003383,"lon":17.123528,"is_passed":false},{"stop_id":"U26802Z11","name":"Vracov","arrival_time":"20:44:00","departure_time":"20:45:00","lat":48.976674,"lon":17.218698,"is_passed":false},{"stop_id":"U16908Z11","name":"Bzenec, železniční stanice","arrival_time":"20:48:00","departure_time":"20:49:00","lat":48.969173,"lon":17.263183,"is_passed":false},{"stop_id":"U19316Z13","name":"Veselí nad Moravou, železniční stanice","arrival_time":"20:58:00","departure_time":"21:00:00","lat":48.948694,"lon":17.382439,"is_passed":false},{"stop_id":"U29404Z11","name":"Uherský Ostroh","arrival_time":"21:04:00","departure_time":"21:05:00","lat":48.981817,"lon":17.403441,"is_passed":false},{"stop_id":"U30314Z1","name":"Ostrožská Nová Ves","arrival_time":"21:09:00","departure_time":"21:09:00","lat":49.009594,"lon":17.436368,"is_passed":false},{"stop_id":"U31025Z2","name":"Kunovice zastávka","arrival_time":"21:13:00","departure_time":"21:14:00","lat":49.038039,"lon":17.461023,"is_passed":false},{"stop_id":"U31027Z2","name":"Uherské Hradiště","arrival_time":"21:18:00","departure_time":"21:20:00","lat":49.066825,"lon":17.457085,"is_passed":false},{"stop_id":"U31028Z2","name":"Staré Město u Uherského Hradiště","arrival_time":"21:26:00","departure_time":"21:38:00","lat":49.076022,"lon":17.42271,"is_passed":false}],"16138":[{"stop_id":"U31028Z1","name":"Staré Město u Uherského Hradiště","arrival_time":"21:38:00","departure_time":"21:38:00","lat":49.076029,"lon":17.422624,"is_passed":false},{"stop_id":"U31027Z1","name":"Uherské Hradiště","arrival_time":"21:44:00","departure_time":"21:45:00","lat":49.066881,"lon":17.457171,"is_passed":false},{"stop_id":"U31025Z1","name":"Kunovice zastávka","arrival_time":"21:49:00","departure_time":"21:49:00","lat":49.038454,"lon":17.46113,"is_passed":false},{"stop_id":"U31103Z2","name":"Ostrožská Nová Ves lázně","arrival_time":"21:52:00","departure_time":"21:52:00","lat":49.018181,"lon":17.446255,"is_passed":false},{"stop_id":"U30314Z2","name":"Ostrožská Nová Ves","arrival_time":"21:54:00","departure_time":"21:55:00","lat":49.009975,"lon":17.436797,"is_passed":false},{"stop_id":"U29404Z10","name":"Uherský Ostroh","arrival_time":"21:59:00","departure_time":"22:00:00","lat":48.982198,"lon":17.403538,"is_passed":false},{"stop_id":"U19310Z11","name":"Veselí nad Moravou, Milokošť","arrival_time":"22:02:00","departure_time":"22:02:00","lat":48.966999,"lon":17.398828,"is_passed":false},{"stop_id":"U19316Z12","name":"Veselí nad Moravou, železniční stanice","arrival_time":"22:06:00","departure_time":"22:06:00","lat":48.948694,"lon":17.382439,"is_passed":false}],"16139":[{"stop_id":"U31028Z1","name":"Staré Město u Uherského Hradiště","arrival_time":"23:52:00","departure_time":"23:52:00","lat":49.076029,"lon":17.422624,"is_passed":false},{"stop_id":"U31027Z1","name":"Uherské Hradiště","arrival_time":"23:58:00","departure_time":"23:58:00","lat":49.066881,"lon":17.457171,"is_passed":false}],"16140":[{"stop_id":"U17446Z10","name":"Vyškov, železniční stanice","arrival_time":"18:21:00","departure_time":"18:21:00","lat":49.277222,"lon":16.990833,"is_passed":false},{"stop_id":"U1146Z99","name":"Hlavní nádraží","arrival_time":"18:59:00","departure_time":"18:59:00","lat":49.19035,"lon":16.612342,"is_passed":false}],"16141":[{"stop_id":"U19530Z10","name":"Velká nad Veličkou, železniční stanice","arrival_time":"5:40:00","departure_time":"5:40:00","lat":48.878631,"lon":17.51092,"is_passed":false},{"stop_id":"U29401Z10","name":"Louka u Ostrohu","arrival_time":"5:45:00","departure_time":"5:45:00","lat":48.912234,"lon":17.484226,"is_passed":false},{"stop_id":"U29402Z10","name":"Lipov","arrival_time":"5:48:00","departure_time":"5:48:00","lat":48.909806,"lon":17.457953,"is_passed":false},{"stop_id":"U29403Z10","name":"Blatnice pod Sv. Antonínkem","arrival_time":"5:53:00","departure_time":"5:53:00","lat":48.941163,"lon":17.437706,"is_passed":false},{"stop_id":"U19316Z10","name":"Veselí nad Moravou, železniční stanice","arrival_time":"5:58:00","departure_time":"6:02:00","lat":48.948694,"lon":17.382439,"is_passed":false},{"stop_id":"U29302Z10","name":"Veselí nad Moravou-Zarazice","arrival_time":"6:04:00","departure_time":"6:05:00","lat":48.937236,"lon":17.361306,"is_passed":false},{"stop_id":"U29303Z10","name":"Vnorovy","arrival_time":"6:07:00","departure_time":"6:07:00","lat":48.931508,"lon":17.348464,"is_passed":false},{"stop_id":"U19205Z10","name":"Strážnice, aut. st.","arrival_time":"6:12:00","departure_time":"6:13:00","lat":48.897385,"lon":17.317688,"is_passed":false},{"stop_id":"U29201Z10","name":"Petrov","arrival_time":"6:17:00","departure_time":"6:17:00","lat":48.878911,"lon":17.273703,"is_passed":false},{"stop_id":"U29202Z10","name":"Sudoměřice nad Moravou","arrival_time":"6:20:00","departure_time":"6:21:00","lat":48.871653,"lon":17.243039,"is_passed":false},{"stop_id":"U29104Z10","name":"Rohatec kolonie","arrival_time":"6:26:00","departure_time":"6:26:00","lat":48.892642,"lon":17.212111,"is_passed":false},{"stop_id":"U29103Z10","name":"Rohatec","arrival_time":"6:29:00","departure_time":"6:29:00","lat":48.892515,"lon":17.197852,"is_passed":false},{"stop_id":"U29102Z10","name":"Rohatec zastávka","arrival_time":"6:32:00","departure_time":"6:32:00","lat":48.88309,"lon":17.178111,"is_passed":false},{"stop_id":"U19001Z20","name":"Hodonín, autobusové nádraží","arrival_time":"6:39:00","departure_time":"7:03:00","lat":48.85575,"lon":17.12069,"is_passed":false}],"16142":[{"stop_id":"U19001Z21","name":"Hodonín, autobusové nádraží","arrival_time":"7:03:00","departure_time":"7:03:00","lat":48.85575,"lon":17.12069,"is_passed":false},{"stop_id":"U29102Z11","name":"Rohatec zastávka","arrival_time":"7:07:00","departure_time":"7:08:00","lat":48.88309,"lon":17.178111,"is_passed":false},{"stop_id":"U29103Z11","name":"Rohatec","arrival_time":"7:10:00","departure_time":"7:10:00","lat":48.892515,"lon":17.197852,"is_passed":false},{"stop_id":"U29104Z11","name":"Rohatec kolonie","arrival_time":"7:12:00","departure_time":"7:12:00","lat":48.892642,"lon":17.212111,"is_passed":false},{"stop_id":"U29202Z11","name":"Sudoměřice nad Moravou","arrival_time":"7:18:00","departure_time":"7:23:00","lat":48.871653,"lon":17.243039,"is_passed":false},{"stop_id":"U29201Z11","name":"Petrov","arrival_time":"7:26:00","departure_time":"7:26:00","lat":48.878911,"lon":17.273703,"is_passed":false},{"stop_id":"U19205Z11","name":"Strážnice, aut. st.","arrival_time":"7:30:00","departure_time":"7:32:00","lat":48.897385,"lon":17.317688,"is_passed":false},{"stop_id":"U29303Z11","name":"Vnorovy","arrival_time":"7:36:00","departure_time":"7:36:00","lat":48.931508,"lon":17.348464,"is_passed":false},{"stop_id":"U29302Z11","name":"Veselí nad Moravou-Zarazice","arrival_time":"7:38:00","departure_time":"7:38:00","lat":48.937236,"lon":17.361306,"is_passed":false},{"stop_id":"U19316Z11","name":"Veselí nad Moravou, železniční stanice","arrival_time":"7:41:00","departure_time":"12:12:00","lat":48.948694,"lon":17.382439,"is_passed":false}],"16143":[{"stop_id":"U19316Z10","name":"Veselí nad Moravou, železniční stanice","arrival_time":"12:12:00","departure_time":"12:12:00","lat":48.948694,"lon":17.382439,"is_passed":false},{"stop_id":"U29302Z10","name":"Veselí nad Moravou-Zarazice","arrival_time":"12:14:00","departure_time":"12:15:00","lat":48.937236,"lon":17.361306,"is_passed":false},{"stop_id":"U29303Z10","name":"Vnorovy","arrival_time":"12:17:00","departure_time":"12:17:00","lat":48.931508,"lon":17.348464,"is_passed":false},{"stop_id":"U19205Z10","name":"Strážnice, aut. st.","arrival_time":"12:22:00","departure_time":"12:23:00","lat":48.897385,"lon":17.317688,"is_passed":false},{"stop_id":"U29201Z10","name":"Petrov","arrival_time":"12:27:00","departure_time":"12:27:00","lat":48.878911,"lon":17.273703,"is_passed":false},{"stop_id":"U29202Z10","name":"Sudoměřice nad Moravou","arrival_time":"12:30:00","departure_time":"12:33:00","lat":48.871653,"lon":17.243039,"is_passed":false},{"stop_id":"U29104Z10","name":"Rohatec kolonie","arrival_time":"12:38:00","departure_time":"12:38:00","lat":48.892642,"lon":17.212111,"is_passed":false},{"stop_id":"U29103Z10","name":"Rohatec","arrival_time":"12:41:00","departure_time":"12:41:00","lat":48.892515,"lon":17.197852,"is_passed":false},{"stop_id":"U29102Z10","name":"Rohatec zastávka","arrival_time":"12:43:00","departure_time":"12:44:00","lat":48.88309,"lon":17.178111,"is_passed":false},{"stop_id":"U19001Z20","name":"Hodonín, autobusové nádraží","arrival_time":"12:49:00","departure_time":"13:17:00","lat":48.85575,"lon":17.12069,"is_passed":false}],"16144":[{"stop_id":"U19001Z21","name":"Hodonín, autobusové nádraží","arrival_time":"13:17:00","departure_time":"13:17:00","lat":48.85575,"lon":17.12069,"is_passed":false},{"stop_id":"U29102Z11","name":"Rohatec zastávka","arrival_time":"13:21:00","departure_time":"13:22:00","lat":48.88309,"lon":17.178111,"is_passed":false},{"stop_id":"U29103Z11","name":"Rohatec","arrival_time":"13:24:00","departure_time":"13:24:00","lat":48.892515,"lon":17.197852,"is_passed":false},{"stop_id":"U29104Z11","name":"Rohatec kolonie","arrival_time":"13:27:00","departure_time":"13:27:00","lat":48.892642,"lon":17.212111,"is_passed":false},{"stop_id":"U29202Z11","name":"Sudoměřice nad Moravou","arrival_time":"13:32:00","departure_time":"13:33:00","lat":48.871653,"lon":17.243039,"is_passed":false},{"stop_id":"U29201Z11","name":"Petrov","arrival_time":"13:36:00","departure_time":"13:36:00","lat":48.878911,"lon":17.273703,"is_passed":false},{"stop_id":"U19205Z11","name":"Strážnice, aut. st.","arrival_time":"13:40:00","departure_time":"13:45:00","lat":48.897385,"lon":17.317688,"is_passed":false},{"stop_id":"U29303Z11","name":"Vnorovy","arrival_time":"13:49:00","departure_time":"13:49:00","lat":48.931508,"lon":17.348464,"is_passed":false},{"stop_id":"U29302Z11","name":"Veselí nad Moravou-Zarazice","arrival_time":"13:51:00","departure_time":"13:51:00","lat":48.937236,"lon":17.361306,"is_passed":false},{"stop_id":"U19316Z11","name":"Veselí nad Moravou, železniční stanice","arrival_time":"13:54:00","departure_time":"14:08:00","lat":48.948694,"lon":17.382439,"is_passed":false},{"stop_id":"U29403Z11","name":"Blatnice pod Sv. Antonínkem","arrival_time":"14:12:00","departure_time":"14:12:00","lat":48.941163,"lon":17.437706,"is_passed":false},{"stop_id":"U29402Z11","name":"Lipov","arrival_time":"14:17:00","departure_time":"14:17:00","lat":48.909806,"lon":17.457953,"is_passed":false},{"stop_id":"U29401Z11","name":"Louka u Ostrohu","arrival_time":"14:20:00","departure_time":"14:20:00","lat":48.912234,"lon":17.484226,"is_passed":false},{"stop_id":"U19530Z11","name":"Velká nad Veličkou, železniční stanice","arrival_time":"14:26:00","departure_time":"15:35:00","lat":48.878631,"lon":17.51092,"is_passed":false}],"16145":[{"stop_id":"U19530Z10","name":"Velká nad Veličkou, železniční stanice","arrival_time":"15:35:00","departure_time":"15:35:00","lat":48.878631,"lon":17.51092,"is_passed":false},{"stop_id":"U29401Z10","name":"Louka u Ostrohu","arrival_time":"15:39:00","departure_time":"15:39:00","lat":48.912234,"lon":17.484226,"is_passed":false},{"stop_id":"U29402Z10","name":"Lipov","arrival_time":"15:42:00","departure_time":"15:42:00","lat":48.909806,"lon":17.457953,"is_passed":false},{"stop_id":"U29403Z10","name":"Blatnice pod Sv. Antonínkem","arrival_time":"15:47:00","departure_time":"15:47:00","lat":48.941163,"lon":17.437706,"is_passed":false},{"stop_id":"U19316Z10","name":"Veselí nad Moravou, železniční stanice","arrival_time":"15:53:00","departure_time":"16:12:00","lat":48.948694,"lon":17.382439,"is_passed":false},{"stop_id":"U29302Z10","name":"Veselí nad Moravou-Zarazice","arrival_time":"16:14:00","departure_time":"16:15:00","lat":48.937236,"lon":17.361306,"is_passed":false},{"stop_id":"U29303Z10","name":"Vnorovy","arrival_time":"16:17:00","departure_time":"16:17:00","lat":48.931508,"lon":17.348464,"is_passed":false},{"stop_id":"U19205Z10","name":"Strážnice, aut. st.","arrival_time":"16:22:00","departure_time":"16:23:00","lat":48.897385,"lon":17.317688,"is_passed":false},{"stop_id":"U29201Z10","name":"Petrov","arrival_time":"16:27:00","departure_time":"16:27:00","lat":48.878911,"lon":17.273703,"is_passed":false},{"stop_id":"U29202Z10","name":"Sudoměřice nad Moravou","arrival_time":"16:30:00","departure_time":"16:34:00","lat":48.871653,"lon":17.243039,"is_passed":false},{"stop_id":"U29104Z10","name":"Rohatec kolonie","arrival_time":"16:39:00","departure_time":"16:39:00","lat":48.892642,"lon":17.212111,"is_passed":false},{"stop_id":"U29103Z10","name":"Rohatec","arrival_time":"16:42:00","departure_time":"16:42:00","lat":48.892515,"lon":17.197852,"is_passed":false},{"stop_id":"U29102Z10","name":"Rohatec zastávka","arrival_time":"16:44:00","departure_time":"16:45:00","lat":48.88309,"lon":17.178111,"is_passed":false},{"stop_id":"U19001Z20","name":"Hodonín, autobusové nádraží","arrival_time":"16:50:00","departure_time":"17:17:00","lat":48.85575,"lon":17.12069,"is_passed":false}],"16146":[{"stop_id":"U19001Z21","name":"Hodonín, autobusové nádraží","arrival_time":"17:17:00","departure_time":"17:17:00","lat":48.85575,"lon":17.12069,"is_passed":false},