[{"stop_id":"U19001Z1","name":"Hodonín, autobusové nádraží","arrival_time":"19:17:00","departure_time":"19:17:00","lat":48.854398,"lon":17.121874,"is_passed":false},{"stop_id":"U19002Z2","name":"Hodonín, Brněnská","arrival_time":"19:20:00","departure_time":"19:20:00","lat":48.862608,"lon":17.118852,"is_passed":false},{"stop_id":"U19012Z2","name":"Hodonín, STS","arrival_time":"19:22:00","departure_time":"19:22:00","lat":48.871603,"lon":17.116652,"is_passed":false},{"stop_id":"U19015Z2","name":"Hodonín, Zbrod","arrival_time":"19:27:00","departure_time":"19:27:00","lat":48.887661,"lon":17.063292,"is_passed":false},{"stop_id":"U19103Z2","name":"Mutěnice, křižovatka","arrival_time":"19:31:00","departure_time":"19:31:00","lat":48.904657,"lon":17.028645,"is_passed":false},{"stop_id":"U19104Z2","name":"Mutěnice, škola","arrival_time":"19:33:00","departure_time":"19:33:00","lat":48.90765,"lon":17.018955,"is_passed":false},{"stop_id":"U16551Z2","name":"Hovorany, čerpací stanice","arrival_time":"19:37:00","departure_time":"19:37:00","lat":48.942828,"lon":16.985477,"is_passed":false},{"stop_id":"U16554Z2","name":"Hovorany, rozcestí","arrival_time":"19:38:00","departure_time":"19:38:00","lat":48.948843,"lon":16.979543,"is_passed":false},{"stop_id":"U16545Z2","name":"Čejč, náměstí","arrival_time":"19:40:00","departure_time":"19:40:00","lat":48.946227,"lon":16.966451,"is_passed":false},{"stop_id":"U16462Z2","name":"Terezín","arrival_time":"19:44:00","departure_time":"19:44:00","lat":48.956778,"lon":16.940897,"is_passed":false},{"stop_id":"U16460Z2","name":"Krumvíř, statek","arrival_time":"19:47:00","departure_time":"19:47:00","lat":48.981398,"lon":16.923568,"is_passed":false},{"stop_id":"U16461Z2","name":"Krumvíř, železniční stanice","arrival_time":"19:48:00","departure_time":"19:48:00","lat":48.985013,"lon":16.917217,"is_passed":false},{"stop_id":"U16457Z2","name":"Krumvíř, obecní úřad","arrival_time":"19:49:00","departure_time":"19:49:00","lat":48.98897,"lon":16.91042,"is_passed":false},{"stop_id":"U16466Z2","name":"Krumvíř, supermarket","arrival_time":"19:50:00","departure_time":"19:50:00","lat":48.993555,"lon":16.893235,"is_passed":false},{"stop_id":"U16343Z2","name":"Klobouky u Brna, Nádražní","arrival_time":"19:53:00","departure_time":"19:53:00","lat":48.994572,"lon":16.878598,"is_passed":false},{"stop_id":"U16348Z2","name":"Klobouky u Brna, samoobsluha","arrival_time":"19:54:00","departure_time":"19:54:00","lat":48.995153,"lon":16.866834,"is_passed":false},{"stop_id":"U16345Z2","name":"Klobouky u Brna, náměstí","arrival_time":"19:57:00","departure_time":"19:59:00","lat":48.99538,"lon":16.85736,"is_passed":false},{"stop_id":"U16347Z2","name":"Klobouky u Brna, rozcestí","arrival_time":"20:01:00","departure_time":"20:01:00","lat":49.000636,"lon":16.862186,"is_passed":false},{"stop_id":"U16344Z2","name":"Klobouky u Brna, Martinice, rozcestí","arrival_time":"20:04:00","departure_time":"20:04:00","lat":49.013667,"lon":16.828293,"is_passed":false},{"stop_id":"U16342Z2","name":"Borkovany, Štoček","arrival_time":"20:07:00","departure_time":"20:07:00","lat":49.024797,"lon":16.812873,"is_passed":false},{"stop_id":"U16340Z2","name":"Borkovany","arrival_time":"20:08:00","departure_time":"20:08:00","lat":49.028703,"lon":16.80985,"is_passed":false},{"stop_id":"U16341Z2","name":"Borkovany, Tomášov","arrival_time":"20:10:00","departure_time":"20:10:00","lat":49.029167,"lon":16.8048,"is_passed":false},{"stop_id":"U15226Z2","name":"Těšany","arrival_time":"20:13:00","departure_time":"20:13:00","lat":49.039503,"lon":16.770935,"is_passed":false},{"stop_id":"U15227Z2","name":"Těšany, u váhy","arrival_time":"20:14:00","departure_time":"20:14:00","lat":49.041007,"lon":16.765215,"is_passed":false},{"stop_id":"U15223Z2","name":"Moutnice, střed","arrival_time":"20:17:00","departure_time":"20:17:00","lat":49.049157,"lon":16.73739,"is_passed":false},{"stop_id":"U15232Z2","name":"Moutnice, Rozařín","arrival_time":"20:19:00","departure_time":"20:19:00","lat":49.05312,"lon":16.737877,"is_passed":false},{"stop_id":"U15167Z1","name":"Měnín, rozcestí","arrival_time":"20:23:00","departure_time":"20:23:00","lat":49.087318,"lon":16.716476,"is_passed":false},{"stop_id":"U16138Z4","name":"Telnice","arrival_time":"20:25:00","departure_time":"20:25:00","lat":49.1024,"lon":16.717463,"is_passed":false},{"stop_id":"U16147Z2","name":"Sokolnice, rozvodna","arrival_time":"20:27:00","departure_time":"20:27:00","lat":49.114771,"lon":16.705095,"is_passed":false},{"stop_id":"U1681Z4","name":"Tuřany, smyčka","arrival_time":"20:31:00","departure_time":"20:31:00","lat":49.142326,"lon":16.666375,"is_passed":false},{"stop_id":"U1131Z2","name":"Hanácká","arrival_time":"20:33:00","departure_time":"20:33:00","lat":49.146706,"lon":16.667371,"is_passed":false},{"stop_id":"U1191Z2","name":"Ivanovické náměstí","arrival_time":"20:36:00","departure_time":"20:36:00","lat":49.153629,"lon":16.653755,"is_passed":false},{"stop_id":"U1533Z2","name":"Ráječek","arrival_time":"20:38:00","departure_time":"20:38:00","lat":49.161397,"lon":16.637387,"is_passed":false},{"stop_id":"U1361Z4","name":"Mariánské náměstí","arrival_time":"20:42:00","departure_time":"20:42:00","lat":49.177094,"lon":16.621935,"is_passed":false},{"stop_id":"U1807Z2","name":"Železniční","arrival_time":"20:44:00","departure_time":"20:44:00","lat":49.183322,"lon":16.619338,"is_passed":false},{"stop_id":"U1696Z21","name":"ÚAN Zvonařka","arrival_time":"20:48:00","departure_time":"22:54:00","lat":49.185364,"lon":16.616151,"is_passed":false}]