[{"stop_id":"U1429Z7","name":"Nemocnice Bohunice","arrival_time":"7:12:00","departure_time":"7:12:00","lat":49.176176,"lon":16.567045,"is_passed":false},{"stop_id":"U1632Z1","name":"Svážná","arrival_time":"7:14:00","departure_time":"7:14:00","lat":49.173544,"lon":16.553381,"is_passed":false},{"stop_id":"U1202Z1","name":"Jemelkova","arrival_time":"7:14:00","departure_time":"7:14:00","lat":49.173333,"lon":16.548692,"is_passed":false},{"stop_id":"U1568Z1","name":"Skalní","arrival_time":"7:16:00","departure_time":"7:16:00","lat":49.174248,"lon":16.538211,"is_passed":false},{"stop_id":"U1161Z3","name":"Hoštická","arrival_time":"7:17:00","departure_time":"7:17:00","lat":49.173694,"lon":16.528538,"is_passed":false},{"stop_id":"U1672Z1","name":"Tranzitní plynovod","arrival_time":"7:18:00","departure_time":"7:18:00","lat":49.174213,"lon":16.522313,"is_passed":false},{"stop_id":"U14107Z1","name":"Troubsko, Kovopodnik","arrival_time":"7:19:00","departure_time":"7:19:00","lat":49.175866,"lon":16.511544,"is_passed":false},{"stop_id":"U14160Z1","name":"Troubsko, Veselka","arrival_time":"7:20:00","departure_time":"7:20:00","lat":49.176905,"lon":16.503284,"is_passed":false},{"stop_id":"U14133Z1","name":"Popůvky, Vintrovna","arrival_time":"7:22:00","departure_time":"7:22:00","lat":49.181813,"lon":16.490518,"is_passed":false},{"stop_id":"U14111Z1","name":"Omice, Kývalka","arrival_time":"7:25:00","departure_time":"7:25:00","lat":49.190139,"lon":16.451061,"is_passed":false},{"stop_id":"U14233Z1","name":"Rosice, STK","arrival_time":"7:29:00","departure_time":"7:29:00","lat":49.184733,"lon":16.404825,"is_passed":false},{"stop_id":"U14226Z1","name":"Rosice, Brněnská","arrival_time":"7:30:00","departure_time":"7:30:00","lat":49.182964,"lon":16.39814,"is_passed":false},{"stop_id":"U14235Z1","name":"Rosice, Trávníky","arrival_time":"7:31:00","departure_time":"7:31:00","lat":49.183539,"lon":16.390958,"is_passed":false},{"stop_id":"U14229Z1","name":"Rosice, Kamínky","arrival_time":"7:32:00","departure_time":"7:32:00","lat":49.184836,"lon":16.382997,"is_passed":false},{"stop_id":"U14225Z1","name":"Rosice, ADOSA","arrival_time":"7:34:00","departure_time":"7:34:00","lat":49.184094,"lon":16.370947,"is_passed":false},{"stop_id":"U14239Z1","name":"Zastávka, Dům zdraví","arrival_time":"7:36:00","departure_time":"7:36:00","lat":49.186831,"lon":16.361669,"is_passed":false},{"stop_id":"U14242Z10","name":"Zastávka, železniční stanice","arrival_time":"7:39:00","departure_time":"7:39:00","lat":49.187164,"lon":16.360086,"is_passed":false}]