[{"stop_id":"U1788Z6","name":"Zetor - smyčka","arrival_time":"14:18:00","departure_time":"14:18:00","lat":49.199463,"lon":16.67024,"is_passed":false},{"stop_id":"U16130Z1","name":"Šlapanice, Bedřichovice, rozc.","arrival_time":"14:25:00","departure_time":"14:25:00","lat":49.182882,"lon":16.723572,"is_passed":false},{"stop_id":"U16105Z1","name":"Jiříkovice, motorest Rohlenka","arrival_time":"14:28:00","departure_time":"14:28:00","lat":49.183436,"lon":16.761042,"is_passed":false},{"stop_id":"U16142Z1","name":"Tvarožná, zemědělské družstvo","arrival_time":"14:29:00","departure_time":"14:29:00","lat":49.185906,"lon":16.765089,"is_passed":false},{"stop_id":"U16153Z1","name":"Tvarožná","arrival_time":"14:30:00","departure_time":"14:30:00","lat":49.190736,"lon":16.770347,"is_passed":false},{"stop_id":"U16140Z1","name":"Tvarožná, sokolovna","arrival_time":"14:32:00","departure_time":"14:32:00","lat":49.193053,"lon":16.776292,"is_passed":false},{"stop_id":"U17215Z1","name":"Sivice","arrival_time":"14:35:00","departure_time":"14:35:00","lat":49.201394,"lon":16.783639,"is_passed":false},{"stop_id":"U17212Z1","name":"Pozořice, náměstí","arrival_time":"14:38:00","departure_time":"14:55:00","lat":49.208924,"lon":16.790865,"is_passed":false}]