[{"stop_id":"U19316Z11","name":"Veselí nad Moravou, železniční stanice","arrival_time":"7:21:00","departure_time":"7:21:00","lat":48.948694,"lon":17.382439,"is_passed":false},{"stop_id":"U29402Z11","name":"Lipov","arrival_time":"7:30:00","departure_time":"7:30:00","lat":48.909806,"lon":17.457953,"is_passed":false},{"stop_id":"U29401Z11","name":"Louka u Ostrohu","arrival_time":"7:32:00","departure_time":"7:33:00","lat":48.912234,"lon":17.484226,"is_passed":false},{"stop_id":"U19530Z11","name":"Velká nad Veličkou, železniční stanice","arrival_time":"7:38:00","departure_time":"7:40:00","lat":48.878631,"lon":17.51092,"is_passed":false},{"stop_id":"U29502Z11","name":"Javorník nad Veličkou zastávka","arrival_time":"7:42:00","departure_time":"7:43:00","lat":48.860802,"lon":17.520722,"is_passed":false},{"stop_id":"U29501Z11","name":"Vrbovce","arrival_time":"7:47:00","departure_time":"7:48:00","lat":48.824439,"lon":17.516352,"is_passed":false},{"stop_id":"U29504Z2","name":"Vrbovce zastávka","arrival_time":"7:51:00","departure_time":"7:52:00","lat":48.804784,"lon":17.52869,"is_passed":false},{"stop_id":"U29601Z2","name":"Brestovec","arrival_time":"7:55:00","departure_time":"7:55:00","lat":48.786012,"lon":17.557593,"is_passed":false},{"stop_id":"U29602Z2","name":"Myjava","arrival_time":"7:59:00","departure_time":"8:07:00","lat":48.763641,"lon":17.570897,"is_passed":false}]