[{"stop_id":"U29602Z1","name":"Myjava","arrival_time":"8:07:00","departure_time":"8:07:00","lat":48.763641,"lon":17.570897,"is_passed":false},{"stop_id":"U29601Z1","name":"Brestovec","arrival_time":"8:10:00","departure_time":"8:11:00","lat":48.786012,"lon":17.557593,"is_passed":false},{"stop_id":"U29504Z1","name":"Vrbovce zastávka","arrival_time":"8:14:00","departure_time":"8:14:00","lat":48.804784,"lon":17.52869,"is_passed":false},{"stop_id":"U29501Z10","name":"Vrbovce","arrival_time":"8:17:00","departure_time":"8:30:00","lat":48.824439,"lon":17.516352,"is_passed":false},{"stop_id":"U29502Z10","name":"Javorník nad Veličkou zastávka","arrival_time":"8:34:00","departure_time":"8:34:00","lat":48.860868,"lon":17.520699,"is_passed":false},{"stop_id":"U19530Z10","name":"Velká nad Veličkou, železniční stanice","arrival_time":"8:37:00","departure_time":"8:39:00","lat":48.878631,"lon":17.51092,"is_passed":false},{"stop_id":"U29401Z10","name":"Louka u Ostrohu","arrival_time":"8:43:00","departure_time":"8:43:00","lat":48.912234,"lon":17.484226,"is_passed":false},{"stop_id":"U29402Z10","name":"Lipov","arrival_time":"8:46:00","departure_time":"8:46:00","lat":48.909806,"lon":17.457953,"is_passed":false},{"stop_id":"U29403Z10","name":"Blatnice pod Sv. Antonínkem","arrival_time":"8:51:00","departure_time":"8:51:00","lat":48.941163,"lon":17.437706,"is_passed":false},{"stop_id":"U19316Z10","name":"Veselí nad Moravou, železniční stanice","arrival_time":"8:57:00","departure_time":"9:03:00","lat":48.948694,"lon":17.382439,"is_passed":false},{"stop_id":"U29302Z10","name":"Veselí nad Moravou-Zarazice","arrival_time":"9:05:00","departure_time":"9:06:00","lat":48.937236,"lon":17.361306,"is_passed":false},{"stop_id":"U29303Z10","name":"Vnorovy","arrival_time":"9:08:00","departure_time":"9:08:00","lat":48.931508,"lon":17.348464,"is_passed":false},{"stop_id":"U19205Z10","name":"Strážnice, aut. st.","arrival_time":"9:13:00","departure_time":"10:46:00","lat":48.897385,"lon":17.317688,"is_passed":false}]