[{"stop_id":"U15344Z2","name":"Boleradice","arrival_time":"22:17:00","departure_time":"22:17:00","lat":48.967398,"lon":16.814058,"is_passed":false},{"stop_id":"U15346Z2","name":"Boleradice, u kříže","arrival_time":"22:19:00","departure_time":"22:19:00","lat":48.96958,"lon":16.806933,"is_passed":false},{"stop_id":"U15351Z2","name":"Diváky, samota","arrival_time":"22:22:00","departure_time":"22:22:00","lat":48.987323,"lon":16.803447,"is_passed":false},{"stop_id":"U15349Z2","name":"Diváky, dolní konec","arrival_time":"22:23:00","departure_time":"22:23:00","lat":48.991067,"lon":16.798233,"is_passed":false},{"stop_id":"U15350Z2","name":"Diváky, obecní úřad","arrival_time":"22:24:00","departure_time":"22:24:00","lat":48.989155,"lon":16.788704,"is_passed":false},{"stop_id":"U15360Z2","name":"Nikolčice, Jednota","arrival_time":"22:30:00","departure_time":"22:30:00","lat":48.992283,"lon":16.754012,"is_passed":false},{"stop_id":"U15361Z2","name":"Nikolčice, obecní úřad","arrival_time":"22:32:00","departure_time":"22:32:00","lat":48.99522,"lon":16.753415,"is_passed":false},{"stop_id":"U15372Z1","name":"Nikolčice, škola","arrival_time":"22:32:00","departure_time":"22:32:00","lat":48.996012,"lon":16.753956,"is_passed":false},{"stop_id":"U15365Z2","name":"Šitbořice, Nikolčická","arrival_time":"22:36:00","departure_time":"22:36:00","lat":49.016426,"lon":16.775527,"is_passed":false},{"stop_id":"U15226Z2","name":"Těšany","arrival_time":"22:41:00","departure_time":"22:41:00","lat":49.039503,"lon":16.770935,"is_passed":false},{"stop_id":"U15225Z2","name":"Nesvačilka","arrival_time":"22:46:00","departure_time":"22:46:00","lat":49.06402,"lon":16.754398,"is_passed":false},{"stop_id":"U16149Z52","name":"Sokolnice, železniční stanice","arrival_time":"22:55:00","departure_time":"23:06:00","lat":49.108258,"lon":16.734145,"is_passed":false}]