[{"stop_id":"U16149Z3","name":"Sokolnice, železniční stanice","arrival_time":"5:04:00","departure_time":"5:04:00","lat":49.108437,"lon":16.733573,"is_passed":false},{"stop_id":"U16145Z2","name":"Sokolnice, obecní úřad","arrival_time":"5:06:00","departure_time":"5:06:00","lat":49.114233,"lon":16.721202,"is_passed":false},{"stop_id":"U16173Z2","name":"Sokolnice, Brněnská","arrival_time":"5:07:00","departure_time":"5:07:00","lat":49.114426,"lon":16.71486,"is_passed":false},{"stop_id":"U16147Z2","name":"Sokolnice, rozvodna","arrival_time":"5:08:00","departure_time":"5:08:00","lat":49.114771,"lon":16.705095,"is_passed":false},{"stop_id":"U1592Z4","name":"Sokolnická","arrival_time":"5:11:00","departure_time":"5:11:00","lat":49.131434,"lon":16.684472,"is_passed":false},{"stop_id":"U1681Z4","name":"Tuřany, smyčka","arrival_time":"5:13:00","departure_time":"5:13:00","lat":49.142326,"lon":16.666375,"is_passed":false},{"stop_id":"U1186Z2","name":"Chrlická","arrival_time":"5:14:00","departure_time":"5:14:00","lat":49.143983,"lon":16.665097,"is_passed":false},{"stop_id":"U1131Z2","name":"Hanácká","arrival_time":"5:15:00","departure_time":"5:15:00","lat":49.146706,"lon":16.667371,"is_passed":false},{"stop_id":"U1772Z2","name":"Za křížem","arrival_time":"5:17:00","departure_time":"5:17:00","lat":49.15905,"lon":16.670815,"is_passed":false},{"stop_id":"U1065Z2","name":"Černovická terasa II","arrival_time":"5:19:00","departure_time":"5:19:00","lat":49.168348,"lon":16.675307,"is_passed":false},{"stop_id":"U1064Z2","name":"Černovická terasa I","arrival_time":"5:20:00","departure_time":"5:20:00","lat":49.171843,"lon":16.673091,"is_passed":false},{"stop_id":"U1495Z1","name":"Pod Tuřankou","arrival_time":"5:21:00","departure_time":"5:21:00","lat":49.172977,"lon":16.675462,"is_passed":false},{"stop_id":"U1581Z2","name":"Areál Slatina","arrival_time":"5:23:00","departure_time":"6:06:00","lat":49.168677,"lon":16.678416,"is_passed":false}]