[{"stop_id":"U1696Z12","name":"ÚAN Zvonařka","arrival_time":"18:44:00","departure_time":"18:44:00","lat":49.185364,"lon":16.616151,"is_passed":false},{"stop_id":"U1131Z1","name":"Hanácká","arrival_time":"18:59:00","departure_time":"18:59:00","lat":49.146954,"lon":16.667509,"is_passed":false},{"stop_id":"U1681Z3","name":"Tuřany, smyčka","arrival_time":"19:01:00","departure_time":"19:01:00","lat":49.141407,"lon":16.667828,"is_passed":false},{"stop_id":"U16147Z1","name":"Sokolnice, rozvodna","arrival_time":"19:05:00","departure_time":"19:05:00","lat":49.115062,"lon":16.704663,"is_passed":false},{"stop_id":"U16138Z3","name":"Telnice","arrival_time":"19:07:00","departure_time":"19:07:00","lat":49.101602,"lon":16.717823,"is_passed":false},{"stop_id":"U15167Z2","name":"Měnín, rozcestí","arrival_time":"19:09:00","departure_time":"19:09:00","lat":49.087125,"lon":16.716473,"is_passed":false},{"stop_id":"U15232Z1","name":"Moutnice, Rozařín","arrival_time":"19:13:00","departure_time":"19:13:00","lat":49.05247,"lon":16.737351,"is_passed":false},{"stop_id":"U15223Z1","name":"Moutnice, střed","arrival_time":"19:15:00","departure_time":"19:15:00","lat":49.048967,"lon":16.736746,"is_passed":false},{"stop_id":"U15227Z1","name":"Těšany, u váhy","arrival_time":"19:17:00","departure_time":"19:17:00","lat":49.041022,"lon":16.764925,"is_passed":false},{"stop_id":"U15226Z1","name":"Těšany","arrival_time":"19:19:00","departure_time":"19:19:00","lat":49.039299,"lon":16.771319,"is_passed":false},{"stop_id":"U16344Z1","name":"Klobouky u Brna, Martinice, rozcestí","arrival_time":"19:25:00","departure_time":"19:25:00","lat":49.013442,"lon":16.828372,"is_passed":false},{"stop_id":"U16347Z1","name":"Klobouky u Brna, rozcestí","arrival_time":"19:28:00","departure_time":"19:28:00","lat":49.000525,"lon":16.862658,"is_passed":false},{"stop_id":"U16356Z1","name":"Klobouky u Brna, hřbitov","arrival_time":"19:29:00","departure_time":"19:29:00","lat":48.998318,"lon":16.862927,"is_passed":false},{"stop_id":"U16345Z1","name":"Klobouky u Brna, náměstí","arrival_time":"19:30:00","departure_time":"19:30:00","lat":48.99538,"lon":16.85736,"is_passed":false}]