[{"stop_id":"U18009Z14","name":"Znojmo, autobusové nádraží","arrival_time":"13:45:00","departure_time":"13:45:00","lat":48.851564,"lon":16.05657,"is_passed":false},{"stop_id":"U18022Z1","name":"Znojmo, Vídeňská, u školy","arrival_time":"13:48:00","departure_time":"13:48:00","lat":48.843183,"lon":16.060932,"is_passed":false},{"stop_id":"U18107Z2","name":"Dobšice, rest.","arrival_time":"13:51:00","departure_time":"13:51:00","lat":48.84842,"lon":16.085268,"is_passed":false},{"stop_id":"U18119Z1","name":"Dyje, cihelna","arrival_time":"13:54:00","departure_time":"13:54:00","lat":48.852592,"lon":16.113313,"is_passed":false},{"stop_id":"U18121Z1","name":"Dyje, u železničního přejezdu","arrival_time":"13:55:00","departure_time":"13:55:00","lat":48.849413,"lon":16.12016,"is_passed":false},{"stop_id":"U18186Z1","name":"Tasovice, u hřbitova","arrival_time":"13:58:00","departure_time":"13:58:00","lat":48.836051,"lon":16.15051,"is_passed":false},{"stop_id":"U18132Z1","name":"Tasovice, škola","arrival_time":"14:01:00","departure_time":"14:01:00","lat":48.83865,"lon":16.157345,"is_passed":false},{"stop_id":"U18133Z1","name":"Tasovice, u prodejen","arrival_time":"14:02:00","departure_time":"14:02:00","lat":48.83599,"lon":16.156078,"is_passed":false},{"stop_id":"U18122Z1","name":"Hodonice, střed","arrival_time":"14:04:00","departure_time":"14:04:00","lat":48.835833,"lon":16.164223,"is_passed":false},{"stop_id":"U18123Z1","name":"Krhovice","arrival_time":"14:07:00","departure_time":"14:07:00","lat":48.817342,"lon":16.174398,"is_passed":false},{"stop_id":"U18130Z1","name":"Strachotice, rozcestí","arrival_time":"14:10:00","departure_time":"14:10:00","lat":48.806187,"lon":16.202127,"is_passed":false},{"stop_id":"U18281Z3","name":"Valtrovice, obecní úřad","arrival_time":"14:12:00","departure_time":"14:12:00","lat":48.794367,"lon":16.222445,"is_passed":false},{"stop_id":"U18280Z1","name":"Valtrovice, Formosa","arrival_time":"14:16:00","departure_time":"14:22:00","lat":48.817082,"lon":16.233376,"is_passed":false}]