[{"stop_id":"U15241Z2","name":"Židlochovice, železniční stanice","arrival_time":"7:07:00","departure_time":"7:07:00","lat":49.033614,"lon":16.616961,"is_passed":false},{"stop_id":"U15229Z3","name":"Židlochovice, aut. st.","arrival_time":"7:09:00","departure_time":"7:09:00","lat":49.036054,"lon":16.614606,"is_passed":false},{"stop_id":"U15222Z1","name":"Hrušovany u Brna, žel. st.","arrival_time":"7:16:00","departure_time":"7:16:00","lat":49.034274,"lon":16.591904,"is_passed":false},{"stop_id":"U15220Z1","name":"Hrušovany u Brna, sídliště","arrival_time":"7:19:00","departure_time":"7:19:00","lat":49.039297,"lon":16.584727,"is_passed":false},{"stop_id":"U15221Z1","name":"Hrušovany u Brna, VÚZA","arrival_time":"7:20:00","departure_time":"7:20:00","lat":49.042062,"lon":16.577123,"is_passed":false},{"stop_id":"U15204Z4","name":"Ledce, rozcestí","arrival_time":"7:22:00","departure_time":"7:22:00","lat":49.04988,"lon":16.565693,"is_passed":false},{"stop_id":"U15203Z4","name":"Ledce, obecní úřad","arrival_time":"7:23:00","departure_time":"7:23:00","lat":49.052175,"lon":16.555735,"is_passed":false},{"stop_id":"U15208Z4","name":"Sobotovice","arrival_time":"7:25:00","departure_time":"7:25:00","lat":49.059145,"lon":16.558115,"is_passed":false},{"stop_id":"U15209Z2","name":"Sobotovice, transformátor","arrival_time":"7:27:00","departure_time":"7:27:00","lat":49.061625,"lon":16.552708,"is_passed":false},{"stop_id":"U15212Z2","name":"Syrovice, Sobotovická","arrival_time":"7:30:00","departure_time":"7:30:00","lat":49.077625,"lon":16.545298,"is_passed":false},{"stop_id":"U15211Z2","name":"Syrovice, MŠ","arrival_time":"7:31:00","departure_time":"7:31:00","lat":49.078921,"lon":16.546658,"is_passed":false},{"stop_id":"U15243Z1","name":"Syrovice, Chocholáč","arrival_time":"7:32:00","departure_time":"7:32:00","lat":49.075773,"lon":16.541749,"is_passed":false},{"stop_id":"U15201Z1","name":"Bratčice","arrival_time":"7:34:00","departure_time":"7:34:00","lat":49.065403,"lon":16.522683,"is_passed":false},{"stop_id":"U15202Z1","name":"Bratčice, pískovna","arrival_time":"7:35:00","departure_time":"7:35:00","lat":49.059642,"lon":16.517487,"is_passed":false},{"stop_id":"U15207Z1","name":"Němčičky","arrival_time":"7:37:00","departure_time":"7:37:00","lat":49.050522,"lon":16.500786,"is_passed":false},{"stop_id":"U14354Z1","name":"Pravlov","arrival_time":"7:40:00","departure_time":"7:40:00","lat":49.054622,"lon":16.486675,"is_passed":false},{"stop_id":"U14355Z1","name":"Pravlov, kulturní dům","arrival_time":"7:42:00","departure_time":"7:42:00","lat":49.054161,"lon":16.479892,"is_passed":false},{"stop_id":"U14339Z2","name":"Dolní Kounice, Masarykovo nám.","arrival_time":"7:46:00","departure_time":"8:16:00","lat":49.070302,"lon":16.464113,"is_passed":false}]