[{"stop_id":"U14217Z2","name":"Říčany","arrival_time":"17:28:00","departure_time":"17:28:00","lat":49.214683,"lon":16.395327,"is_passed":false},{"stop_id":"U14244Z2","name":"Ostrovačice, Říčanská","arrival_time":"17:29:00","departure_time":"17:29:00","lat":49.212743,"lon":16.406495,"is_passed":false},{"stop_id":"U14215Z2","name":"Ostrovačice, náměstí Viléma Mrštíka","arrival_time":"17:30:00","departure_time":"17:30:00","lat":49.210782,"lon":16.409187,"is_passed":false},{"stop_id":"U14111Z2","name":"Omice, Kývalka","arrival_time":"17:35:00","departure_time":"17:35:00","lat":49.189889,"lon":16.452549,"is_passed":false},{"stop_id":"U14133Z2","name":"Popůvky, Vintrovna","arrival_time":"17:38:00","departure_time":"17:38:00","lat":49.181645,"lon":16.49075,"is_passed":false},{"stop_id":"U14160Z2","name":"Troubsko, Veselka","arrival_time":"17:40:00","departure_time":"17:40:00","lat":49.176834,"lon":16.503674,"is_passed":false},{"stop_id":"U14107Z2","name":"Troubsko, Kovopodnik","arrival_time":"17:41:00","departure_time":"17:41:00","lat":49.175782,"lon":16.511673,"is_passed":false},{"stop_id":"U1672Z2","name":"Tranzitní plynovod","arrival_time":"17:42:00","departure_time":"17:42:00","lat":49.174004,"lon":16.523133,"is_passed":false},{"stop_id":"U1516Z1","name":"Pražská","arrival_time":"17:43:00","departure_time":"17:43:00","lat":49.173478,"lon":16.531543,"is_passed":false},{"stop_id":"U1568Z2","name":"Skalní","arrival_time":"17:44:00","departure_time":"17:44:00","lat":49.174201,"lon":16.537903,"is_passed":false},{"stop_id":"U1202Z2","name":"Jemelkova","arrival_time":"17:45:00","departure_time":"17:45:00","lat":49.173163,"lon":16.54872,"is_passed":false},{"stop_id":"U1632Z2","name":"Svážná","arrival_time":"17:46:00","departure_time":"17:46:00","lat":49.173409,"lon":16.553508,"is_passed":false},{"stop_id":"U1429Z6","name":"Nemocnice Bohunice","arrival_time":"17:49:00","departure_time":"17:49:00","lat":49.175872,"lon":16.566969,"is_passed":false}]