[{"stop_id":"U14221Z2","name":"Veverské Knínice, horní konec","arrival_time":"14:48:00","departure_time":"14:48:00","lat":49.237818,"lon":16.396128,"is_passed":false},{"stop_id":"U14220Z2","name":"Veverské Knínice","arrival_time":"14:50:00","departure_time":"14:50:00","lat":49.236615,"lon":16.403696,"is_passed":false},{"stop_id":"U14223Z2","name":"Veverské Knínice, ZOD Veveří","arrival_time":"14:51:00","departure_time":"14:51:00","lat":49.231893,"lon":16.409067,"is_passed":false},{"stop_id":"U14222Z2","name":"Veverské Knínice, rozcestí Pohádka Máje","arrival_time":"14:52:00","departure_time":"14:52:00","lat":49.227173,"lon":16.418305,"is_passed":false},{"stop_id":"U14216Z2","name":"Ostrovačice, Veveří","arrival_time":"14:55:00","departure_time":"14:55:00","lat":49.213744,"lon":16.408162,"is_passed":false},{"stop_id":"U14217Z2","name":"Říčany","arrival_time":"14:58:00","departure_time":"15:01:00","lat":49.214683,"lon":16.395327,"is_passed":false},{"stop_id":"U14244Z2","name":"Ostrovačice, Říčanská","arrival_time":"15:02:00","departure_time":"15:02:00","lat":49.212743,"lon":16.406495,"is_passed":false},{"stop_id":"U14215Z2","name":"Ostrovačice, náměstí Viléma Mrštíka","arrival_time":"15:03:00","departure_time":"15:03:00","lat":49.210782,"lon":16.409187,"is_passed":false},{"stop_id":"U14111Z2","name":"Omice, Kývalka","arrival_time":"15:08:00","departure_time":"15:08:00","lat":49.189889,"lon":16.452549,"is_passed":false},{"stop_id":"U14133Z2","name":"Popůvky, Vintrovna","arrival_time":"15:11:00","departure_time":"15:11:00","lat":49.181645,"lon":16.49075,"is_passed":false},{"stop_id":"U14160Z2","name":"Troubsko, Veselka","arrival_time":"15:13:00","departure_time":"15:13:00","lat":49.176834,"lon":16.503674,"is_passed":false},{"stop_id":"U14107Z2","name":"Troubsko, Kovopodnik","arrival_time":"15:14:00","departure_time":"15:14:00","lat":49.175782,"lon":16.511673,"is_passed":false},{"stop_id":"U1672Z2","name":"Tranzitní plynovod","arrival_time":"15:15:00","departure_time":"15:15:00","lat":49.174004,"lon":16.523133,"is_passed":false},{"stop_id":"U1516Z1","name":"Pražská","arrival_time":"15:16:00","departure_time":"15:16:00","lat":49.173478,"lon":16.531543,"is_passed":false},{"stop_id":"U1568Z2","name":"Skalní","arrival_time":"15:17:00","departure_time":"15:17:00","lat":49.174201,"lon":16.537903,"is_passed":false},{"stop_id":"U1202Z2","name":"Jemelkova","arrival_time":"15:18:00","departure_time":"15:18:00","lat":49.173163,"lon":16.54872,"is_passed":false},{"stop_id":"U1632Z2","name":"Svážná","arrival_time":"15:19:00","departure_time":"15:19:00","lat":49.173409,"lon":16.553508,"is_passed":false},{"stop_id":"U1429Z6","name":"Nemocnice Bohunice","arrival_time":"15:22:00","departure_time":"15:37:00","lat":49.175872,"lon":16.566969,"is_passed":false}]