[{"stop_id":"U15500Z2","name":"Dolní Věstonice","arrival_time":"17:36:00","departure_time":"17:36:00","lat":48.888257,"lon":16.643642,"is_passed":false},{"stop_id":"U15422Z2","name":"Strachotín","arrival_time":"17:40:00","departure_time":"17:40:00","lat":48.90576,"lon":16.653695,"is_passed":false},{"stop_id":"U15413Z2","name":"Popice, rozcestí","arrival_time":"17:42:00","departure_time":"17:42:00","lat":48.919413,"lon":16.684552,"is_passed":false},{"stop_id":"U15408Z2","name":"Hustopeče, plnírna","arrival_time":"17:44:00","departure_time":"17:44:00","lat":48.917133,"lon":16.703193,"is_passed":false},{"stop_id":"U15425Z2","name":"Šakvice, železniční stanice","arrival_time":"17:49:00","departure_time":"17:49:00","lat":48.912729,"lon":16.707137,"is_passed":false},{"stop_id":"U15406Z2","name":"Hustopeče, Mostárna","arrival_time":"17:50:00","departure_time":"17:50:00","lat":48.914155,"lon":16.710253,"is_passed":false},{"stop_id":"U15407Z2","name":"Hustopeče, Nádražní","arrival_time":"17:54:00","departure_time":"17:54:00","lat":48.935343,"lon":16.731357,"is_passed":false},{"stop_id":"U15403Z51","name":"Hustopeče, autobusové nádraží","arrival_time":"17:56:00","departure_time":"17:56:00","lat":48.938047,"lon":16.735671,"is_passed":false}]