[{"stop_id":"U1429Z6","name":"Nemocnice Bohunice","arrival_time":"18:12:00","departure_time":"18:12:00","lat":49.175872,"lon":16.566969,"is_passed":false},{"stop_id":"U14215Z1","name":"Ostrovačice, náměstí Viléma Mrštíka","arrival_time":"18:25:00","departure_time":"18:25:00","lat":49.210578,"lon":16.40984,"is_passed":false},{"stop_id":"U14217Z1","name":"Říčany","arrival_time":"18:28:00","departure_time":"18:28:00","lat":49.21488,"lon":16.394307,"is_passed":false},{"stop_id":"U14219Z1","name":"Říčky","arrival_time":"18:32:00","departure_time":"18:32:00","lat":49.23318,"lon":16.356038,"is_passed":false},{"stop_id":"U14303Z1","name":"Domašov, Nový konec","arrival_time":"18:34:00","departure_time":"18:34:00","lat":49.24051,"lon":16.347567,"is_passed":false},{"stop_id":"U14301Z1","name":"Domašov","arrival_time":"18:36:00","departure_time":"18:36:00","lat":49.245377,"lon":16.343687,"is_passed":false}]