[{"stop_id":"U15134Z2","name":"Modřice, smyčka","arrival_time":"5:35:00","departure_time":"5:35:00","lat":49.126517,"lon":16.604633,"is_passed":false},{"stop_id":"U15137Z4","name":"Modřice, Tyršova","arrival_time":"5:36:00","departure_time":"5:36:00","lat":49.129402,"lon":16.603203,"is_passed":false},{"stop_id":"U15168Z1","name":"Rajhrad, městský úřad","arrival_time":"5:42:00","departure_time":"5:42:00","lat":49.089663,"lon":16.603985,"is_passed":false},{"stop_id":"U15181Z2","name":"Rajhrad, železniční stanice","arrival_time":"5:44:00","departure_time":"5:44:00","lat":49.084053,"lon":16.605,"is_passed":false},{"stop_id":"U15156Z2","name":"Holasice","arrival_time":"5:46:00","departure_time":"5:46:00","lat":49.077457,"lon":16.603721,"is_passed":false},{"stop_id":"U15252Z2","name":"Vojkovice, sídliště","arrival_time":"5:48:00","departure_time":"5:48:00","lat":49.057511,"lon":16.603596,"is_passed":false},{"stop_id":"U15251Z2","name":"Vojkovice","arrival_time":"5:49:00","departure_time":"5:49:00","lat":49.051898,"lon":16.607502,"is_passed":false},{"stop_id":"U15239Z1","name":"Židlochovice, sídliště","arrival_time":"5:51:00","departure_time":"5:51:00","lat":49.040799,"lon":16.617612,"is_passed":false},{"stop_id":"U15229Z8","name":"Židlochovice, aut. st.","arrival_time":"5:54:00","departure_time":"5:54:00","lat":49.035879,"lon":16.614708,"is_passed":false},{"stop_id":"U15241Z51","name":"Židlochovice, železniční stanice","arrival_time":"5:56:00","departure_time":"6:00:00","lat":49.033692,"lon":16.616779,"is_passed":false}]