[{"stop_id":"U12676Z51","name":"Skalice nad Svitavou, žel.st.","arrival_time":"14:13:00","departure_time":"14:13:00","lat":49.480123,"lon":16.609726,"is_passed":false},{"stop_id":"U12511Z51","name":"Doubravice, žel.st.","arrival_time":"14:18:00","departure_time":"14:18:00","lat":49.438707,"lon":16.621809,"is_passed":false},{"stop_id":"U12439Z51","name":"Rájec-Jestřebí, železniční stanice","arrival_time":"14:21:00","departure_time":"14:22:00","lat":49.408206,"lon":16.627711,"is_passed":false},{"stop_id":"U22301Z2","name":"Dolní Lhota","arrival_time":"14:24:00","departure_time":"14:25:00","lat":49.386917,"lon":16.633978,"is_passed":false},{"stop_id":"U22302Z2","name":"Blansko město","arrival_time":"14:27:00","departure_time":"14:28:00","lat":49.360996,"lon":16.639464,"is_passed":false},{"stop_id":"U12342Z29","name":"Blansko, aut. st.","arrival_time":"14:30:00","departure_time":"14:31:00","lat":49.352753,"lon":16.646848,"is_passed":false},{"stop_id":"U12231Z11","name":"Adamov, železniční zastávka","arrival_time":"14:36:00","departure_time":"14:37:00","lat":49.300671,"lon":16.650653,"is_passed":false},{"stop_id":"U12230Z11","name":"Adamov, železniční stanice","arrival_time":"14:38:00","departure_time":"14:39:00","lat":49.295341,"lon":16.663538,"is_passed":false},{"stop_id":"U22101Z2","name":"Babice nad Svitavou","arrival_time":"14:42:00","departure_time":"14:42:00","lat":49.276645,"lon":16.673012,"is_passed":false},{"stop_id":"U12158Z11","name":"Bílovice nad Svitavou, žel. stanice","arrival_time":"14:46:00","departure_time":"14:47:00","lat":49.242715,"lon":16.673677,"is_passed":false},{"stop_id":"U1809Z11","name":"Židenice, nádraží","arrival_time":"14:52:00","departure_time":"14:52:00","lat":49.204282,"lon":16.636042,"is_passed":false},{"stop_id":"U1146Z98","name":"Hlavní nádraží","arrival_time":"14:59:00","departure_time":"15:06:00","lat":49.19035,"lon":16.612342,"is_passed":false},{"stop_id":"U1183Z11","name":"Chrlice, nádraží","arrival_time":"15:14:00","departure_time":"15:17:00","lat":49.132031,"lon":16.657232,"is_passed":false},{"stop_id":"U16149Z11","name":"Sokolnice, železniční stanice","arrival_time":"15:23:00","departure_time":"15:24:00","lat":49.108029,"lon":16.733459,"is_passed":false},{"stop_id":"U26101Z2","name":"Újezd u Brna","arrival_time":"15:25:00","departure_time":"15:26:00","lat":49.107297,"lon":16.745564,"is_passed":false},{"stop_id":"U26102Z2","name":"Hostěrádky-Rešov","arrival_time":"15:29:00","departure_time":"15:29:00","lat":49.119822,"lon":16.782755,"is_passed":false},{"stop_id":"U26201Z2","name":"Zbýšov","arrival_time":"15:32:00","departure_time":"15:32:00","lat":49.132691,"lon":16.806859,"is_passed":false},{"stop_id":"U16212Z11","name":"Křenovice, hor. žel. st.","arrival_time":"15:35:00","departure_time":"15:58:00","lat":49.143553,"lon":16.824564,"is_passed":false}]