[{"stop_id":"U16212Z10","name":"Křenovice, hor. žel. st.","arrival_time":"19:58:00","departure_time":"19:58:00","lat":49.143553,"lon":16.824564,"is_passed":false},{"stop_id":"U26201Z1","name":"Zbýšov","arrival_time":"20:00:00","departure_time":"20:01:00","lat":49.132691,"lon":16.806859,"is_passed":false},{"stop_id":"U26102Z1","name":"Hostěrádky-Rešov","arrival_time":"20:03:00","departure_time":"20:04:00","lat":49.119822,"lon":16.782755,"is_passed":false},{"stop_id":"U26101Z1","name":"Újezd u Brna","arrival_time":"20:07:00","departure_time":"20:07:00","lat":49.107297,"lon":16.745564,"is_passed":false},{"stop_id":"U16149Z10","name":"Sokolnice, železniční stanice","arrival_time":"20:09:00","departure_time":"20:10:00","lat":49.108029,"lon":16.733459,"is_passed":false},{"stop_id":"U1183Z10","name":"Chrlice, nádraží","arrival_time":"20:15:00","departure_time":"20:16:00","lat":49.132031,"lon":16.657232,"is_passed":false},{"stop_id":"U1146Z99","name":"Hlavní nádraží","arrival_time":"20:26:00","departure_time":"20:26:00","lat":49.19035,"lon":16.612342,"is_passed":false}]