[{"stop_id":"U15425Z11","name":"Šakvice, železniční stanice","arrival_time":"0:42:00","departure_time":"0:42:00","lat":48.912883,"lon":16.70557,"is_passed":false},{"stop_id":"U15537Z11","name":"Zaječí, železniční stanice","arrival_time":"0:46:00","departure_time":"0:46:00","lat":48.889637,"lon":16.781831,"is_passed":false},{"stop_id":"U25501Z11","name":"Rakvice","arrival_time":"0:49:00","departure_time":"0:50:00","lat":48.866893,"lon":16.821444,"is_passed":false},{"stop_id":"U15619Z11","name":"Podivín, železniční stanice","arrival_time":"0:53:00","departure_time":"0:53:00","lat":48.837726,"lon":16.853526,"is_passed":false},{"stop_id":"U15609Z11","name":"Ladná, železniční stanice","arrival_time":"0:56:00","departure_time":"0:56:00","lat":48.813095,"lon":16.880976,"is_passed":false},{"stop_id":"U15729Z11","name":"Břeclav, autobusové nádraží","arrival_time":"1:02:00","departure_time":"1:10:00","lat":48.753851,"lon":16.893169,"is_passed":false}]