[{"stop_id":"U15317Z2","name":"Pohořelice, náměstí","arrival_time":"23:15:00","departure_time":"23:15:00","lat":48.980751,"lon":16.522478,"is_passed":false},{"stop_id":"U15323Z2","name":"Pohořelice, Tyršova","arrival_time":"23:16:00","departure_time":"23:16:00","lat":48.98355,"lon":16.519545,"is_passed":false},{"stop_id":"U15309Z2","name":"Cvrčovice, učiliště","arrival_time":"23:18:00","departure_time":"23:18:00","lat":48.990827,"lon":16.516415,"is_passed":false},{"stop_id":"U15308Z2","name":"Cvrčovice","arrival_time":"23:19:00","departure_time":"23:19:00","lat":48.996653,"lon":16.512905,"is_passed":false},{"stop_id":"U15313Z2","name":"Odrovice","arrival_time":"23:22:00","departure_time":"23:22:00","lat":49.00822,"lon":16.510819,"is_passed":false},{"stop_id":"U15314Z2","name":"Odrovice, bytovky","arrival_time":"23:23:00","departure_time":"23:23:00","lat":49.011285,"lon":16.507306,"is_passed":false},{"stop_id":"U15312Z2","name":"Malešovice, obecní úřad","arrival_time":"23:26:00","departure_time":"23:26:00","lat":49.022828,"lon":16.500475,"is_passed":false},{"stop_id":"U14016Z2","name":"Loděnice, škola","arrival_time":"23:31:00","departure_time":"23:31:00","lat":49.011772,"lon":16.468037,"is_passed":false},{"stop_id":"U14015Z2","name":"Loděnice, obecní úřad","arrival_time":"23:32:00","departure_time":"23:32:00","lat":49.011503,"lon":16.463197,"is_passed":false},{"stop_id":"U14014Z2","name":"Loděnice, křižovatka Šumická","arrival_time":"23:33:00","departure_time":"23:33:00","lat":49.011128,"lon":16.458487,"is_passed":false},{"stop_id":"U14022Z2","name":"Šumice, škola","arrival_time":"23:35:00","departure_time":"23:35:00","lat":48.991798,"lon":16.437273,"is_passed":false},{"stop_id":"U14019Z2","name":"Olbramovice, restaurace","arrival_time":"23:40:00","departure_time":"23:40:00","lat":48.984233,"lon":16.400785,"is_passed":false},{"stop_id":"U14018Z2","name":"Olbramovice, prodejna","arrival_time":"23:42:00","departure_time":"23:42:00","lat":48.98989,"lon":16.39586,"is_passed":false},{"stop_id":"U14012Z2","name":"Kubšice, křižovatka","arrival_time":"23:45:00","departure_time":"23:45:00","lat":49.002052,"lon":16.408448,"is_passed":false},{"stop_id":"U14026Z2","name":"Vedrovice, u lípy","arrival_time":"23:49:00","departure_time":"23:49:00","lat":49.021738,"lon":16.380793,"is_passed":false},{"stop_id":"U14025Z2","name":"Vedrovice, obecní úřad","arrival_time":"23:51:00","departure_time":"23:51:00","lat":49.01993,"lon":16.376853,"is_passed":false}]