[{"stop_id":"U1696Z5","name":"ÚAN Zvonařka","arrival_time":"5:59:00","departure_time":"5:59:00","lat":49.185364,"lon":16.616151,"is_passed":false},{"stop_id":"U1677Z3","name":"Tržní","arrival_time":"6:03:00","departure_time":"6:03:00","lat":49.189342,"lon":16.630314,"is_passed":false},{"stop_id":"U17335Z2","name":"Rousínov, autobusová stanice","arrival_time":"6:23:00","departure_time":"6:24:00","lat":49.20291,"lon":16.88497,"is_passed":false},{"stop_id":"U17331Z1","name":"Rousínov, Čechyně, rozcestí","arrival_time":"6:26:00","departure_time":"6:26:00","lat":49.207062,"lon":16.891572,"is_passed":false},{"stop_id":"U17311Z3","name":"Komořany, EDP","arrival_time":"6:29:00","departure_time":"6:29:00","lat":49.220008,"lon":16.905058,"is_passed":false},{"stop_id":"U17344Z1","name":"Tučapy, rozcestí","arrival_time":"6:31:00","departure_time":"6:31:00","lat":49.227308,"lon":16.915917,"is_passed":false},{"stop_id":"U17328Z1","name":"Luleč, rozcestí","arrival_time":"6:33:00","departure_time":"6:33:00","lat":49.248113,"lon":16.944733,"is_passed":false},{"stop_id":"U17428Z1","name":"Vyškov, Drnovská Bioveta","arrival_time":"6:35:00","departure_time":"6:35:00","lat":49.254302,"lon":16.95682,"is_passed":false},{"stop_id":"U17435Z1","name":"Vyškov, Nouzka","arrival_time":"6:38:00","departure_time":"6:38:00","lat":49.267372,"lon":16.982268,"is_passed":false},{"stop_id":"U17429Z1","name":"Vyškov, garáže ČSAD","arrival_time":"6:39:00","departure_time":"6:39:00","lat":49.271332,"lon":16.989108,"is_passed":false},{"stop_id":"U17423Z21","name":"Vyškov, Autobusové nádraží","arrival_time":"6:41:00","departure_time":"6:46:00","lat":49.275819,"lon":16.992078,"is_passed":false}]