[{"stop_id":"U1429Z6","name":"Nemocnice Bohunice","arrival_time":"17:02:00","departure_time":"17:02:00","lat":49.175872,"lon":16.566969,"is_passed":false},{"stop_id":"U1632Z1","name":"Svážná","arrival_time":"17:04:00","departure_time":"17:04:00","lat":49.173544,"lon":16.553381,"is_passed":false},{"stop_id":"U1202Z1","name":"Jemelkova","arrival_time":"17:04:00","departure_time":"17:04:00","lat":49.173333,"lon":16.548692,"is_passed":false},{"stop_id":"U1568Z1","name":"Skalní","arrival_time":"17:06:00","departure_time":"17:06:00","lat":49.174248,"lon":16.538211,"is_passed":false},{"stop_id":"U1161Z3","name":"Hoštická","arrival_time":"17:07:00","departure_time":"17:07:00","lat":49.173694,"lon":16.528538,"is_passed":false},{"stop_id":"U1672Z1","name":"Tranzitní plynovod","arrival_time":"17:08:00","departure_time":"17:08:00","lat":49.174213,"lon":16.522313,"is_passed":false},{"stop_id":"U14107Z1","name":"Troubsko, Kovopodnik","arrival_time":"17:09:00","departure_time":"17:09:00","lat":49.175866,"lon":16.511544,"is_passed":false},{"stop_id":"U14160Z1","name":"Troubsko, Veselka","arrival_time":"17:10:00","departure_time":"17:10:00","lat":49.176905,"lon":16.503284,"is_passed":false},{"stop_id":"U14133Z1","name":"Popůvky, Vintrovna","arrival_time":"17:12:00","departure_time":"17:12:00","lat":49.181813,"lon":16.490518,"is_passed":false},{"stop_id":"U14111Z1","name":"Omice, Kývalka","arrival_time":"17:15:00","departure_time":"17:15:00","lat":49.190139,"lon":16.451061,"is_passed":false},{"stop_id":"U14215Z1","name":"Ostrovačice, náměstí Viléma Mrštíka","arrival_time":"17:20:00","departure_time":"17:20:00","lat":49.210578,"lon":16.40984,"is_passed":false},{"stop_id":"U14217Z52","name":"Říčany","arrival_time":"17:23:00","departure_time":"17:28:00","lat":49.214683,"lon":16.395327,"is_passed":false},{"stop_id":"U14244Z2","name":"Ostrovačice, Říčanská","arrival_time":"17:29:00","departure_time":"17:29:00","lat":49.212743,"lon":16.406495,"is_passed":false},{"stop_id":"U14222Z1","name":"Veverské Knínice, rozcestí Pohádka Máje","arrival_time":"17:31:00","departure_time":"17:31:00","lat":49.227638,"lon":16.418075,"is_passed":false},{"stop_id":"U14223Z1","name":"Veverské Knínice, ZOD Veveří","arrival_time":"17:32:00","departure_time":"17:32:00","lat":49.232023,"lon":16.408948,"is_passed":false},{"stop_id":"U14220Z1","name":"Veverské Knínice","arrival_time":"17:34:00","departure_time":"17:34:00","lat":49.236644,"lon":16.40382,"is_passed":false},{"stop_id":"U14221Z1","name":"Veverské Knínice, horní konec","arrival_time":"17:36:00","departure_time":"17:36:00","lat":49.237818,"lon":16.396128,"is_passed":false}]