[{"stop_id":"U17423Z10","name":"Vyškov, Autobusové nádraží","arrival_time":"16:05:00","departure_time":"16:05:00","lat":49.275686,"lon":16.991614,"is_passed":false},{"stop_id":"U17446Z1","name":"Vyškov, železniční stanice","arrival_time":"16:06:00","departure_time":"16:06:00","lat":49.278115,"lon":16.992202,"is_passed":false},{"stop_id":"U17411Z3","name":"Vyškov, Palánek","arrival_time":"16:08:00","departure_time":"16:08:00","lat":49.276263,"lon":17.00188,"is_passed":false},{"stop_id":"U17407Z1","name":"Vyškov, Křečkovice","arrival_time":"16:10:00","departure_time":"16:10:00","lat":49.275592,"lon":17.009653,"is_passed":false},{"stop_id":"U16423Z1","name":"Hlubočany","arrival_time":"16:17:00","departure_time":"16:17:00","lat":49.230472,"lon":16.998027,"is_passed":false},{"stop_id":"U16426Z1","name":"Kučerov","arrival_time":"16:20:00","departure_time":"16:20:00","lat":49.220183,"lon":17.006345,"is_passed":false},{"stop_id":"U16425Z1","name":"Kučerov, dolní konec","arrival_time":"16:22:00","departure_time":"16:22:00","lat":49.216963,"lon":17.002942,"is_passed":false},{"stop_id":"U16417Z1","name":"Bohdalice-Pavlovice, Bohdalice","arrival_time":"16:27:00","departure_time":"16:28:00","lat":49.213978,"lon":17.030328,"is_passed":false},{"stop_id":"U16418Z1","name":"Bohdalice-Pavlovice, Hradčany","arrival_time":"16:30:00","departure_time":"16:30:00","lat":49.210095,"lon":17.03258,"is_passed":false},{"stop_id":"U16424Z1","name":"Kozlany","arrival_time":"16:32:00","departure_time":"16:32:00","lat":49.2037,"lon":17.035175,"is_passed":false},{"stop_id":"U16416Z1","name":"Bohaté Málkovice","arrival_time":"16:37:00","departure_time":"16:37:00","lat":49.18945,"lon":17.01421,"is_passed":false},{"stop_id":"U16415Z1","name":"Kojátky, rozcestí","arrival_time":"16:39:00","departure_time":"16:39:00","lat":49.16805,"lon":17.00625,"is_passed":false},{"stop_id":"U16429Z1","name":"Bučovice, Černčín, rozcestí","arrival_time":"16:41:00","departure_time":"16:41:00","lat":49.157273,"lon":17.007965,"is_passed":false},{"stop_id":"U16435Z1","name":"Bučovice, dům mládeže","arrival_time":"16:43:00","departure_time":"16:43:00","lat":49.1528,"lon":17.009197,"is_passed":false},{"stop_id":"U16463Z1","name":"Bučovice, železniční stanice","arrival_time":"16:45:00","departure_time":"16:45:00","lat":49.145985,"lon":17,"is_passed":false},{"stop_id":"U16401Z20","name":"Bučovice, aut. st.","arrival_time":"16:46:00","departure_time":"17:06:00","lat":49.148057,"lon":17.001665,"is_passed":false}]