[{"stop_id":"U14718Z2","name":"Tavíkovice, hostinec","arrival_time":"6:40:00","departure_time":"6:40:00","lat":49.031844,"lon":16.106642,"is_passed":false},{"stop_id":"U14719Z2","name":"Tavíkovice, škola","arrival_time":"6:43:00","departure_time":"6:43:00","lat":49.033761,"lon":16.103083,"is_passed":false},{"stop_id":"U14720Z2","name":"Tavíkovice, Dobronice","arrival_time":"6:47:00","departure_time":"6:47:00","lat":49.020443,"lon":16.077052,"is_passed":false},{"stop_id":"U14715Z2","name":"Přeskače, obec","arrival_time":"6:51:00","departure_time":"6:51:00","lat":49.015092,"lon":16.107128,"is_passed":false},{"stop_id":"U14713Z2","name":"Medlice, křižovatka","arrival_time":"6:54:00","departure_time":"6:54:00","lat":49.00622,"lon":16.125925,"is_passed":false},{"stop_id":"U18307Z3","name":"Višňové, škola","arrival_time":"6:59:00","departure_time":"6:59:00","lat":48.984007,"lon":16.15439,"is_passed":false},{"stop_id":"U18306Z1","name":"Višňové, náměstí","arrival_time":"7:01:00","departure_time":"7:01:00","lat":48.982684,"lon":16.1501,"is_passed":false},{"stop_id":"U18305Z2","name":"Višňové, Mrazírny","arrival_time":"7:03:00","departure_time":"7:03:00","lat":48.978748,"lon":16.147538,"is_passed":false},{"stop_id":"U18301Z3","name":"Horní Dunajovice, obecní úřad","arrival_time":"7:08:00","departure_time":"7:08:00","lat":48.950265,"lon":16.15987,"is_passed":false},{"stop_id":"U18302Z3","name":"Horní Dunajovice, Domčice","arrival_time":"7:10:00","departure_time":"7:10:00","lat":48.946078,"lon":16.167222,"is_passed":false},{"stop_id":"U18308Z3","name":"Želetice, Jednota","arrival_time":"7:12:00","departure_time":"7:12:00","lat":48.93553,"lon":16.182615,"is_passed":false},{"stop_id":"U18309Z3","name":"Želetice, škola","arrival_time":"7:13:00","departure_time":"7:13:00","lat":48.938995,"lon":16.182163,"is_passed":false},{"stop_id":"U18303Z3","name":"Morašice","arrival_time":"7:17:00","departure_time":"7:17:00","lat":48.957325,"lon":16.20937,"is_passed":false},{"stop_id":"U14562Z1","name":"Skalice, dolní zastávka","arrival_time":"7:20:00","departure_time":"7:20:00","lat":48.963511,"lon":16.224311,"is_passed":false},{"stop_id":"U14544Z2","name":"Hostěradice, Chlupice","arrival_time":"7:23:00","departure_time":"7:23:00","lat":48.951105,"lon":16.24308,"is_passed":false},{"stop_id":"U14543Z2","name":"Hostěradice, náměstí","arrival_time":"7:25:00","departure_time":"7:25:00","lat":48.950522,"lon":16.259511,"is_passed":false},{"stop_id":"U14542Z1","name":"Hostěradice, lom","arrival_time":"7:26:00","departure_time":"7:26:00","lat":48.94687,"lon":16.265652,"is_passed":false},{"stop_id":"U14548Z1","name":"Miroslav, jesle","arrival_time":"7:30:00","departure_time":"7:30:00","lat":48.94488,"lon":16.30781,"is_passed":false},{"stop_id":"U14546Z3","name":"Miroslav, autobusové nádraží","arrival_time":"7:33:00","departure_time":"7:33:00","lat":48.946991,"lon":16.312997,"is_passed":false}]