[{"stop_id":"U18009Z9","name":"Znojmo, autobusové nádraží","arrival_time":"21:02:00","departure_time":"21:02:00","lat":48.851967,"lon":16.057217,"is_passed":false},{"stop_id":"U18011Z4","name":"Znojmo, nám.Svobody, lázně","arrival_time":"21:07:00","departure_time":"21:07:00","lat":48.860867,"lon":16.049582,"is_passed":false},{"stop_id":"U18012Z2","name":"Znojmo, Pražská, Kolonka","arrival_time":"21:08:00","departure_time":"21:08:00","lat":48.863104,"lon":16.042081,"is_passed":false},{"stop_id":"U18075Z1","name":"Znojmo, Pražská, sídliště","arrival_time":"21:10:00","departure_time":"21:10:00","lat":48.866939,"lon":16.035432,"is_passed":false},{"stop_id":"U18141Z1","name":"Citonice","arrival_time":"21:16:00","departure_time":"21:16:00","lat":48.88119,"lon":15.968185,"is_passed":false},{"stop_id":"U18155Z1","name":"Milíčovice, na státní","arrival_time":"21:19:00","departure_time":"21:19:00","lat":48.888693,"lon":15.933052,"is_passed":false},{"stop_id":"U18260Z1","name":"Vracovice","arrival_time":"21:22:00","departure_time":"21:22:00","lat":48.899932,"lon":15.899868,"is_passed":false},{"stop_id":"U18253Z1","name":"Lesná, penzion","arrival_time":"21:25:00","departure_time":"21:25:00","lat":48.907588,"lon":15.867275,"is_passed":false},{"stop_id":"U18252Z1","name":"Lesná, hájenka","arrival_time":"21:26:00","departure_time":"21:26:00","lat":48.90843,"lon":15.853668,"is_passed":false},{"stop_id":"U18344Z1","name":"Onšov, rozcestí","arrival_time":"21:28:00","departure_time":"21:28:00","lat":48.902333,"lon":15.837655,"is_passed":false},{"stop_id":"U18350Z1","name":"Vranov nad Dyjí, náměstí","arrival_time":"21:32:00","departure_time":"21:32:00","lat":48.894573,"lon":15.813027,"is_passed":false},{"stop_id":"U18355Z1","name":"Vranov nad Dyjí, Zámecký hotel","arrival_time":"21:34:00","departure_time":"21:45:00","lat":48.896127,"lon":15.812002,"is_passed":false}]