[{"stop_id":"U1696Z12","name":"ÚAN Zvonařka","arrival_time":"6:27:00","departure_time":"6:27:00","lat":49.185364,"lon":16.616151,"is_passed":false},{"stop_id":"U1266Z3","name":"Konopná","arrival_time":"6:29:00","departure_time":"6:29:00","lat":49.180126,"lon":16.621339,"is_passed":false},{"stop_id":"U1256Z3","name":"Komárov","arrival_time":"6:32:00","departure_time":"6:32:00","lat":49.17444,"lon":16.622448,"is_passed":false},{"stop_id":"U1533Z1","name":"Ráječek","arrival_time":"6:36:00","departure_time":"6:36:00","lat":49.160802,"lon":16.638242,"is_passed":false},{"stop_id":"U1191Z1","name":"Ivanovické náměstí","arrival_time":"6:38:00","departure_time":"6:38:00","lat":49.153066,"lon":16.653791,"is_passed":false},{"stop_id":"U1131Z7","name":"Hanácká","arrival_time":"6:42:00","departure_time":"6:42:00","lat":49.146163,"lon":16.665975,"is_passed":false},{"stop_id":"U1681Z3","name":"Tuřany, smyčka","arrival_time":"6:44:00","departure_time":"6:44:00","lat":49.141407,"lon":16.667828,"is_passed":false},{"stop_id":"U16147Z1","name":"Sokolnice, rozvodna","arrival_time":"6:48:00","departure_time":"6:48:00","lat":49.115062,"lon":16.704663,"is_passed":false},{"stop_id":"U16138Z3","name":"Telnice","arrival_time":"6:50:00","departure_time":"6:50:00","lat":49.101602,"lon":16.717823,"is_passed":false},{"stop_id":"U15167Z2","name":"Měnín, rozcestí","arrival_time":"6:52:00","departure_time":"6:52:00","lat":49.087125,"lon":16.716473,"is_passed":false},{"stop_id":"U15232Z1","name":"Moutnice, Rozařín","arrival_time":"6:56:00","departure_time":"6:56:00","lat":49.05247,"lon":16.737351,"is_passed":false},{"stop_id":"U15223Z1","name":"Moutnice, střed","arrival_time":"6:58:00","departure_time":"6:58:00","lat":49.048967,"lon":16.736746,"is_passed":false},{"stop_id":"U15227Z1","name":"Těšany, u váhy","arrival_time":"7:00:00","departure_time":"7:00:00","lat":49.041022,"lon":16.764925,"is_passed":false},{"stop_id":"U15226Z1","name":"Těšany","arrival_time":"7:02:00","departure_time":"7:02:00","lat":49.039299,"lon":16.771319,"is_passed":false},{"stop_id":"U16344Z1","name":"Klobouky u Brna, Martinice, rozcestí","arrival_time":"7:08:00","departure_time":"7:08:00","lat":49.013442,"lon":16.828372,"is_passed":false},{"stop_id":"U16347Z1","name":"Klobouky u Brna, rozcestí","arrival_time":"7:11:00","departure_time":"7:11:00","lat":49.000525,"lon":16.862658,"is_passed":false},{"stop_id":"U16356Z1","name":"Klobouky u Brna, hřbitov","arrival_time":"7:12:00","departure_time":"7:12:00","lat":48.998318,"lon":16.862927,"is_passed":false},{"stop_id":"U16345Z1","name":"Klobouky u Brna, náměstí","arrival_time":"7:13:00","departure_time":"7:13:00","lat":48.99538,"lon":16.85736,"is_passed":false}]