[{"stop_id":"U14012Z1","name":"Kubšice, křižovatka","arrival_time":"4:20:00","departure_time":"4:20:00","lat":49.001943,"lon":16.408638,"is_passed":false},{"stop_id":"U14018Z1","name":"Olbramovice, prodejna","arrival_time":"4:23:00","departure_time":"4:23:00","lat":48.989877,"lon":16.395692,"is_passed":false},{"stop_id":"U14019Z1","name":"Olbramovice, restaurace","arrival_time":"4:25:00","departure_time":"4:25:00","lat":48.984167,"lon":16.400743,"is_passed":false},{"stop_id":"U14022Z1","name":"Šumice, škola","arrival_time":"4:30:00","departure_time":"4:30:00","lat":48.99172,"lon":16.437268,"is_passed":false},{"stop_id":"U14014Z1","name":"Loděnice, křižovatka Šumická","arrival_time":"4:32:00","departure_time":"4:32:00","lat":49.011128,"lon":16.458595,"is_passed":false},{"stop_id":"U14015Z1","name":"Loděnice, obecní úřad","arrival_time":"4:33:00","departure_time":"4:33:00","lat":49.011475,"lon":16.46323,"is_passed":false},{"stop_id":"U14016Z1","name":"Loděnice, škola","arrival_time":"4:34:00","departure_time":"4:34:00","lat":49.011772,"lon":16.468037,"is_passed":false},{"stop_id":"U15312Z1","name":"Malešovice, obecní úřad","arrival_time":"4:39:00","departure_time":"4:39:00","lat":49.02291,"lon":16.500288,"is_passed":false},{"stop_id":"U15314Z1","name":"Odrovice, bytovky","arrival_time":"4:42:00","departure_time":"4:42:00","lat":49.011845,"lon":16.506925,"is_passed":false},{"stop_id":"U15313Z1","name":"Odrovice","arrival_time":"4:43:00","departure_time":"4:43:00","lat":49.007024,"lon":16.51119,"is_passed":false},{"stop_id":"U15308Z1","name":"Cvrčovice","arrival_time":"4:46:00","departure_time":"4:46:00","lat":48.996642,"lon":16.512835,"is_passed":false},{"stop_id":"U15309Z1","name":"Cvrčovice, učiliště","arrival_time":"4:47:00","departure_time":"4:47:00","lat":48.990818,"lon":16.516293,"is_passed":false},{"stop_id":"U15323Z1","name":"Pohořelice, Tyršova","arrival_time":"4:49:00","departure_time":"4:49:00","lat":48.9836,"lon":16.51948,"is_passed":false},{"stop_id":"U15317Z1","name":"Pohořelice, náměstí","arrival_time":"4:50:00","departure_time":"5:25:00","lat":48.980751,"lon":16.522478,"is_passed":false}]