[{"stop_id":"U14546Z4","name":"Miroslav, autobusové nádraží","arrival_time":"8:27:00","departure_time":"8:27:00","lat":48.947111,"lon":16.31297,"is_passed":false},{"stop_id":"U14549Z2","name":"Miroslav, kostel","arrival_time":"8:30:00","departure_time":"8:30:00","lat":48.950238,"lon":16.313682,"is_passed":false},{"stop_id":"U14536Z2","name":"Miroslavské Knínice","arrival_time":"8:36:00","departure_time":"8:36:00","lat":48.977802,"lon":16.322445,"is_passed":false},{"stop_id":"U14535Z1","name":"Lesonice, požární zbrojnice","arrival_time":"8:42:00","departure_time":"8:42:00","lat":49.003582,"lon":16.31019,"is_passed":false},{"stop_id":"U14537Z2","name":"Petrovice","arrival_time":"8:45:00","departure_time":"8:45:00","lat":49.007495,"lon":16.29147,"is_passed":false},{"stop_id":"U14470Z2","name":"Moravský Krumlov, Jatky","arrival_time":"8:51:00","departure_time":"8:51:00","lat":49.038392,"lon":16.308949,"is_passed":false},{"stop_id":"U14467Z2","name":"Moravský Krumlov, Břízová","arrival_time":"8:52:00","departure_time":"8:52:00","lat":49.041368,"lon":16.307078,"is_passed":false},{"stop_id":"U14473Z2","name":"Moravský Krumlov, poliklinika","arrival_time":"8:53:00","departure_time":"8:53:00","lat":49.043683,"lon":16.305472,"is_passed":false},{"stop_id":"U14472Z21","name":"Moravský Krumlov, náměstí","arrival_time":"8:56:00","departure_time":"8:56:00","lat":49.048618,"lon":16.31303,"is_passed":false},{"stop_id":"U14499Z51","name":"Moravský Krumlov, autobusové nádraží","arrival_time":"8:58:00","departure_time":"8:58:00","lat":49.048181,"lon":16.309497,"is_passed":false}]