[{"stop_id":"U17423Z11","name":"Vyškov, Autobusové nádraží","arrival_time":"20:25:00","departure_time":"20:25:00","lat":49.275534,"lon":16.991766,"is_passed":false},{"stop_id":"U17434Z1","name":"Vyškov, nemocnice","arrival_time":"20:28:00","departure_time":"20:28:00","lat":49.276367,"lon":16.981935,"is_passed":false},{"stop_id":"U17304Z1","name":"Drnovice","arrival_time":"20:32:00","departure_time":"20:32:00","lat":49.276625,"lon":16.952048,"is_passed":false},{"stop_id":"U17303Z1","name":"Drnovice, Na žlebě","arrival_time":"20:34:00","departure_time":"20:34:00","lat":49.276329,"lon":16.938268,"is_passed":false},{"stop_id":"U17309Z1","name":"Ježkovice, u hřbitova","arrival_time":"20:39:00","departure_time":"20:39:00","lat":49.295599,"lon":16.901902,"is_passed":false},{"stop_id":"U17308Z1","name":"Ježkovice, točna","arrival_time":"20:40:00","departure_time":"20:40:00","lat":49.2988,"lon":16.893695,"is_passed":false},{"stop_id":"U17354Z1","name":"Ruprechtov, hájenka","arrival_time":"20:44:00","departure_time":"20:44:00","lat":49.321677,"lon":16.861782,"is_passed":false},{"stop_id":"U17355Z1","name":"Ruprechtov, u hřbitova","arrival_time":"20:45:00","departure_time":"20:45:00","lat":49.325659,"lon":16.851437,"is_passed":false},{"stop_id":"U17353Z1","name":"Ruprechtov","arrival_time":"20:47:00","departure_time":"20:47:00","lat":49.329415,"lon":16.849047,"is_passed":false},{"stop_id":"U17351Z1","name":"Podomí","arrival_time":"20:50:00","departure_time":"20:50:00","lat":49.344988,"lon":16.83314,"is_passed":false},{"stop_id":"U12306Z2","name":"Krásensko, ZD","arrival_time":"20:52:00","departure_time":"20:52:00","lat":49.360273,"lon":16.831087,"is_passed":false},{"stop_id":"U12305Z2","name":"Krásensko","arrival_time":"20:54:00","departure_time":"20:54:00","lat":49.365188,"lon":16.828902,"is_passed":false},{"stop_id":"U12304Z2","name":"Krásensko, rozcestí 1.0","arrival_time":"20:55:00","departure_time":"20:55:00","lat":49.368567,"lon":16.818525,"is_passed":false},{"stop_id":"U12314Z2","name":"Senetářov, MŠ","arrival_time":"20:59:00","departure_time":"21:21:00","lat":49.35483,"lon":16.804143,"is_passed":false}]