[{"stop_id":"U1286Z12","name":"Královo Pole, nádraží","arrival_time":"11:26:00","departure_time":"11:26:00","lat":49.23045,"lon":16.595801,"is_passed":false},{"stop_id":"U13126Z1","name":"Kuřim, Podlesí, rozc.","arrival_time":"11:36:00","departure_time":"11:36:00","lat":49.305568,"lon":16.554963,"is_passed":false},{"stop_id":"U13120Z1","name":"Kuřim, rozcestí 2.0","arrival_time":"11:38:00","departure_time":"11:38:00","lat":49.318142,"lon":16.551936,"is_passed":false},{"stop_id":"U12004Z1","name":"Lipůvka","arrival_time":"11:41:00","departure_time":"11:41:00","lat":49.339155,"lon":16.552682,"is_passed":false},{"stop_id":"U12239Z1","name":"Lažany","arrival_time":"11:43:00","departure_time":"11:43:00","lat":49.354925,"lon":16.551363,"is_passed":false},{"stop_id":"U12240Z1","name":"Lažany, rozcestí Újezd","arrival_time":"11:44:00","departure_time":"11:44:00","lat":49.359483,"lon":16.554537,"is_passed":false},{"stop_id":"U12014Z2","name":"Milonice","arrival_time":"11:46:00","departure_time":"11:46:00","lat":49.36813,"lon":16.565875,"is_passed":false},{"stop_id":"U12016Z1","name":"Závist","arrival_time":"11:48:00","departure_time":"11:48:00","lat":49.374753,"lon":16.573022,"is_passed":false},{"stop_id":"U12449Z1","name":"Černá Hora, Na kopci","arrival_time":"11:53:00","departure_time":"11:53:00","lat":49.410472,"lon":16.580877,"is_passed":false},{"stop_id":"U12450Z1","name":"Černá Hora, nám.","arrival_time":"11:54:00","departure_time":"11:54:00","lat":49.414767,"lon":16.582423,"is_passed":false},{"stop_id":"U12445Z1","name":"Bořitov, ZD","arrival_time":"11:56:00","departure_time":"11:56:00","lat":49.425028,"lon":16.582243,"is_passed":false},{"stop_id":"U12526Z1","name":"Lysice, Brněnská","arrival_time":"12:02:00","departure_time":"12:02:00","lat":49.449723,"lon":16.545254,"is_passed":false},{"stop_id":"U12524Z3","name":"Lysice, pohostinství","arrival_time":"12:04:00","departure_time":"12:04:00","lat":49.452453,"lon":16.53802,"is_passed":false},{"stop_id":"U12527Z2","name":"Lysice, škola","arrival_time":"12:05:00","departure_time":"12:05:00","lat":49.457502,"lon":16.538188,"is_passed":false},{"stop_id":"U12521Z1","name":"Drnovice, rozc.0.5","arrival_time":"12:07:00","departure_time":"12:07:00","lat":49.468315,"lon":16.533227,"is_passed":false},{"stop_id":"U12525Z1","name":"Drnovice, rozcestí Kunice","arrival_time":"12:09:00","departure_time":"12:09:00","lat":49.472581,"lon":16.532885,"is_passed":false},{"stop_id":"U12023Z1","name":"Zbraslavec","arrival_time":"12:11:00","departure_time":"12:11:00","lat":49.484668,"lon":16.528063,"is_passed":false},{"stop_id":"U12024Z1","name":"Zbraslavec, rozcestí k závodu","arrival_time":"12:13:00","departure_time":"12:13:00","lat":49.489952,"lon":16.523368,"is_passed":false},{"stop_id":"U12687Z1","name":"Kunštát, U Bílého kříže","arrival_time":"12:14:00","departure_time":"12:14:00","lat":49.503012,"lon":16.523785,"is_passed":false},{"stop_id":"U12690Z1","name":"Kunštát, nám.","arrival_time":"12:16:00","departure_time":"12:16:00","lat":49.507365,"lon":16.519672,"is_passed":false},{"stop_id":"U12697Z1","name":"Kunštát, Sychotín","arrival_time":"12:18:00","departure_time":"12:18:00","lat":49.503887,"lon":16.509938,"is_passed":false},{"stop_id":"U12698Z1","name":"Kunštát, Sychotín, Grafitárna","arrival_time":"12:22:00","departure_time":"12:22:00","lat":49.508925,"lon":16.498938,"is_passed":false},{"stop_id":"U12020Z1","name":"Makov","arrival_time":"12:25:00","departure_time":"12:25:00","lat":49.518297,"lon":16.484328,"is_passed":false},{"stop_id":"U12775Z2","name":"Rozseč nad Kunštátem, rozcestí","arrival_time":"12:28:00","departure_time":"12:28:00","lat":49.528047,"lon":16.46396,"is_passed":false},{"stop_id":"U12758Z2","name":"Crhov","arrival_time":"12:32:00","departure_time":"12:32:00","lat":49.54477,"lon":16.436287,"is_passed":false},{"stop_id":"U12768Z2","name":"Olešnice, u lávky","arrival_time":"12:34:00","departure_time":"12:34:00","lat":49.554382,"lon":16.422187,"is_passed":false},{"stop_id":"U12767Z3","name":"Olešnice, nám.","arrival_time":"12:35:00","departure_time":"13:25:00","lat":49.557883,"lon":16.42226,"is_passed":false}]