[{"stop_id":"U12690Z1","name":"Kunštát, nám.","arrival_time":"7:16:00","departure_time":"7:16:00","lat":49.507365,"lon":16.519672,"is_passed":false},{"stop_id":"U12697Z1","name":"Kunštát, Sychotín","arrival_time":"7:18:00","departure_time":"7:18:00","lat":49.503887,"lon":16.509938,"is_passed":false},{"stop_id":"U12021Z2","name":"Makov, hájenka","arrival_time":"7:20:00","departure_time":"7:20:00","lat":49.517438,"lon":16.477055,"is_passed":false},{"stop_id":"U12783Z1","name":"Rozseč nad Kunštátem","arrival_time":"7:24:00","departure_time":"7:24:00","lat":49.525618,"lon":16.462825,"is_passed":false},{"stop_id":"U12784Z1","name":"Rozseč nad Kunštátem, hájenka","arrival_time":"7:26:00","departure_time":"7:26:00","lat":49.521122,"lon":16.451018,"is_passed":false},{"stop_id":"U12759Z2","name":"Hodonín u Kunštátu, rozcestí","arrival_time":"7:27:00","departure_time":"7:27:00","lat":49.519298,"lon":16.441355,"is_passed":false},{"stop_id":"U12763Z2","name":"Louka","arrival_time":"7:30:00","departure_time":"7:30:00","lat":49.527897,"lon":16.430135,"is_passed":false},{"stop_id":"U12764Z2","name":"Louka, Loucký Dvůr","arrival_time":"7:32:00","departure_time":"7:32:00","lat":49.532593,"lon":16.420752,"is_passed":false},{"stop_id":"U12760Z2","name":"Křtěnov","arrival_time":"7:34:00","departure_time":"7:34:00","lat":49.547074,"lon":16.419808,"is_passed":false},{"stop_id":"U12769Z2","name":"Olešnice, závod","arrival_time":"7:36:00","departure_time":"7:36:00","lat":49.551247,"lon":16.420538,"is_passed":false},{"stop_id":"U12767Z6","name":"Olešnice, nám.","arrival_time":"7:38:00","departure_time":"7:38:00","lat":49.557876,"lon":16.42226,"is_passed":false}]