[{"stop_id":"U13425Z1","name":"Řikonín, železniční stanice","arrival_time":"6:00:00","departure_time":"6:00:00","lat":49.365493,"lon":16.30887,"is_passed":false},{"stop_id":"U13443Z1","name":"Žďárec, Ostrov","arrival_time":"6:04:00","departure_time":"6:04:00","lat":49.374253,"lon":16.279668,"is_passed":false},{"stop_id":"U13517Z1","name":"Žďárec, náměstí","arrival_time":"6:06:00","departure_time":"6:11:00","lat":49.379617,"lon":16.267187,"is_passed":false},{"stop_id":"U13518Z1","name":"Žďárec, u kostela","arrival_time":"6:13:00","departure_time":"6:13:00","lat":49.376253,"lon":16.264473,"is_passed":false},{"stop_id":"U13512Z1","name":"Rojetín, rozcestí","arrival_time":"6:16:00","departure_time":"6:16:00","lat":49.370453,"lon":16.254267,"is_passed":false},{"stop_id":"U13515Z2","name":"Vidonín, rozcestí","arrival_time":"6:20:00","departure_time":"6:20:00","lat":49.375758,"lon":16.220093,"is_passed":false},{"stop_id":"U13602Z2","name":"Milešín","arrival_time":"6:24:00","departure_time":"6:24:00","lat":49.368178,"lon":16.202088,"is_passed":false}]