[{"stop_id":"U12657Z1","name":"Boskovice, Sušilova ZŠ II","arrival_time":"14:06:00","departure_time":"14:06:00","lat":49.486025,"lon":16.663843,"is_passed":false},{"stop_id":"U12635Z13","name":"Boskovice, aut.st.","arrival_time":"14:11:00","departure_time":"14:11:00","lat":49.491503,"lon":16.653415,"is_passed":false},{"stop_id":"U12647Z1","name":"Boskovice, Mánesova","arrival_time":"14:13:00","departure_time":"14:13:00","lat":49.484823,"lon":16.644158,"is_passed":false},{"stop_id":"U12514Z1","name":"Lhota Rapotina, točna","arrival_time":"14:18:00","departure_time":"14:18:00","lat":49.466137,"lon":16.624646,"is_passed":false},{"stop_id":"U12676Z4","name":"Skalice nad Svitavou, žel.st.","arrival_time":"14:23:00","departure_time":"14:27:00","lat":49.480519,"lon":16.608517,"is_passed":false},{"stop_id":"U12512Z2","name":"Jabloňany","arrival_time":"14:32:00","departure_time":"14:32:00","lat":49.46638,"lon":16.604912,"is_passed":false},{"stop_id":"U12515Z2","name":"Obora","arrival_time":"14:37:00","departure_time":"14:37:00","lat":49.452277,"lon":16.604263,"is_passed":false},{"stop_id":"U12516Z2","name":"Obora, Hutě","arrival_time":"14:39:00","departure_time":"14:42:00","lat":49.449435,"lon":16.595437,"is_passed":false}]