[{"stop_id":"U14319Z11","name":"Hlína","arrival_time":"17:09:00","departure_time":"17:09:00","lat":49.114511,"lon":16.427406,"is_passed":false},{"stop_id":"U14320Z2","name":"Hlína, samota","arrival_time":"17:11:00","departure_time":"17:11:00","lat":49.123189,"lon":16.421014,"is_passed":false},{"stop_id":"U14325Z2","name":"Neslovice","arrival_time":"17:17:00","departure_time":"17:25:00","lat":49.142605,"lon":16.387307,"is_passed":false},{"stop_id":"U14326Z2","name":"Neslovice, škola","arrival_time":"17:26:00","departure_time":"17:26:00","lat":49.145858,"lon":16.387305,"is_passed":false},{"stop_id":"U14321Z2","name":"Kratochvilka","arrival_time":"17:29:00","departure_time":"17:29:00","lat":49.157147,"lon":16.376968,"is_passed":false},{"stop_id":"U14224Z2","name":"Babice u Rosic","arrival_time":"17:33:00","departure_time":"17:33:00","lat":49.171089,"lon":16.359275,"is_passed":false},{"stop_id":"U14242Z10","name":"Zastávka, železniční stanice","arrival_time":"17:37:00","departure_time":"17:37:00","lat":49.187164,"lon":16.360086,"is_passed":false}]