[{"stop_id":"U15631Z2","name":"Hrušovany nad Jevišovkou, lékárna","arrival_time":"4:31:00","departure_time":"4:31:00","lat":48.829121,"lon":16.399494,"is_passed":false},{"stop_id":"U15632Z4","name":"Hrušovany nad Jevišovkou, Lidická, VÚPP","arrival_time":"4:33:00","departure_time":"4:33:00","lat":48.831472,"lon":16.401928,"is_passed":false},{"stop_id":"U15560Z2","name":"Jevišovka","arrival_time":"4:40:00","departure_time":"4:40:00","lat":48.828412,"lon":16.465892,"is_passed":false},{"stop_id":"U15558Z2","name":"Drnholec","arrival_time":"4:45:00","departure_time":"4:45:00","lat":48.857435,"lon":16.487133,"is_passed":false},{"stop_id":"U15561Z2","name":"Novosedly","arrival_time":"4:51:00","departure_time":"4:51:00","lat":48.837912,"lon":16.494155,"is_passed":false},{"stop_id":"U15562Z2","name":"Novosedly, cihelna","arrival_time":"4:53:00","departure_time":"4:53:00","lat":48.835602,"lon":16.511033,"is_passed":false},{"stop_id":"U15642Z2","name":"Dobré Pole","arrival_time":"4:56:00","departure_time":"4:56:00","lat":48.825967,"lon":16.535573,"is_passed":false},{"stop_id":"U15641Z2","name":"Březí","arrival_time":"5:00:00","departure_time":"5:00:00","lat":48.821337,"lon":16.563325,"is_passed":false},{"stop_id":"U15790Z2","name":"Mikulov, Průmyslová zóna, točna","arrival_time":"5:05:00","departure_time":"5:05:00","lat":48.813859,"lon":16.620388,"is_passed":false},{"stop_id":"U15702Z1","name":"Mikulov, Brněnská","arrival_time":"5:07:00","departure_time":"5:07:00","lat":48.812088,"lon":16.630516,"is_passed":false},{"stop_id":"U15703Z1","name":"Mikulov, 22. dubna","arrival_time":"5:08:00","departure_time":"5:08:00","lat":48.805487,"lon":16.633496,"is_passed":false},{"stop_id":"U15709Z1","name":"Mikulov, u parku","arrival_time":"5:10:00","departure_time":"5:10:00","lat":48.802145,"lon":16.634375,"is_passed":false},{"stop_id":"U15714Z51","name":"Mikulov, železniční stanice","arrival_time":"5:13:00","departure_time":"5:15:00","lat":48.80216,"lon":16.62617,"is_passed":false}]