[{"stop_id":"U12004Z1","name":"Lipůvka","arrival_time":"10:41:00","departure_time":"10:41:00","lat":49.339155,"lon":16.552682,"is_passed":false},{"stop_id":"U12239Z1","name":"Lažany","arrival_time":"10:43:00","departure_time":"10:43:00","lat":49.354925,"lon":16.551363,"is_passed":false},{"stop_id":"U12032Z1","name":"Újezd u Černé Hory","arrival_time":"10:48:00","departure_time":"10:48:00","lat":49.370612,"lon":16.544427,"is_passed":false},{"stop_id":"U12031Z1","name":"Újezd u Černé Hory, SDP","arrival_time":"10:50:00","departure_time":"10:50:00","lat":49.378095,"lon":16.555766,"is_passed":false},{"stop_id":"U12458Z1","name":"Malá Lhota","arrival_time":"10:53:00","departure_time":"10:53:00","lat":49.391597,"lon":16.550408,"is_passed":false},{"stop_id":"U12463Z1","name":"Žernovník, Hasičský dům","arrival_time":"10:55:00","departure_time":"10:55:00","lat":49.404762,"lon":16.544333,"is_passed":false},{"stop_id":"U12455Z2","name":"Žernovník, obecní úřad","arrival_time":"10:56:00","departure_time":"11:01:00","lat":49.407142,"lon":16.54555,"is_passed":false},{"stop_id":"U12446Z2","name":"Brťov-Jeneč, obecní úřad","arrival_time":"11:05:00","departure_time":"11:05:00","lat":49.413737,"lon":16.517037,"is_passed":false},{"stop_id":"U12448Z1","name":"Brťov-Jeneč, Na Návsi","arrival_time":"11:06:00","departure_time":"11:06:00","lat":49.414688,"lon":16.51396,"is_passed":false},{"stop_id":"U12462Z1","name":"Dlouhá Lhota","arrival_time":"11:09:00","departure_time":"11:09:00","lat":49.428423,"lon":16.510978,"is_passed":false},{"stop_id":"U12459Z1","name":"Býkovice","arrival_time":"11:13:00","departure_time":"11:13:00","lat":49.429527,"lon":16.535408,"is_passed":false},{"stop_id":"U12461Z1","name":"Býkovice, kaple","arrival_time":"11:14:00","departure_time":"11:14:00","lat":49.430137,"lon":16.538677,"is_passed":false},{"stop_id":"U12460Z1","name":"Žerůtky","arrival_time":"11:18:00","departure_time":"11:18:00","lat":49.44055,"lon":16.536667,"is_passed":false},{"stop_id":"U12524Z8","name":"Lysice, pohostinství","arrival_time":"11:21:00","departure_time":"11:21:00","lat":49.452453,"lon":16.53802,"is_passed":false}]