[{"stop_id":"U12524Z7","name":"Lysice, pohostinství","arrival_time":"8:36:00","departure_time":"8:36:00","lat":49.452249,"lon":16.537757,"is_passed":false},{"stop_id":"U12460Z2","name":"Žerůtky","arrival_time":"8:38:00","departure_time":"8:38:00","lat":49.440576,"lon":16.536524,"is_passed":false},{"stop_id":"U12461Z2","name":"Býkovice, kaple","arrival_time":"8:42:00","departure_time":"8:42:00","lat":49.430178,"lon":16.538707,"is_passed":false},{"stop_id":"U12459Z2","name":"Býkovice","arrival_time":"8:43:00","departure_time":"8:43:00","lat":49.429608,"lon":16.535263,"is_passed":false},{"stop_id":"U12462Z2","name":"Dlouhá Lhota","arrival_time":"8:47:00","departure_time":"8:47:00","lat":49.428423,"lon":16.510978,"is_passed":false},{"stop_id":"U12448Z2","name":"Brťov-Jeneč, Na Návsi","arrival_time":"8:50:00","departure_time":"8:50:00","lat":49.414727,"lon":16.513962,"is_passed":false},{"stop_id":"U12446Z1","name":"Brťov-Jeneč, obecní úřad","arrival_time":"8:52:00","departure_time":"8:52:00","lat":49.413818,"lon":16.517367,"is_passed":false},{"stop_id":"U12455Z1","name":"Žernovník, obecní úřad","arrival_time":"8:56:00","departure_time":"9:01:00","lat":49.407048,"lon":16.545602,"is_passed":false},{"stop_id":"U12463Z2","name":"Žernovník, Hasičský dům","arrival_time":"9:02:00","departure_time":"9:02:00","lat":49.404762,"lon":16.544333,"is_passed":false},{"stop_id":"U12458Z2","name":"Malá Lhota","arrival_time":"9:05:00","departure_time":"9:05:00","lat":49.391597,"lon":16.550408,"is_passed":false},{"stop_id":"U12031Z2","name":"Újezd u Černé Hory, SDP","arrival_time":"9:08:00","departure_time":"9:08:00","lat":49.378358,"lon":16.556281,"is_passed":false},{"stop_id":"U12032Z2","name":"Újezd u Černé Hory","arrival_time":"9:10:00","departure_time":"9:10:00","lat":49.370188,"lon":16.544788,"is_passed":false},{"stop_id":"U12239Z2","name":"Lažany","arrival_time":"9:15:00","departure_time":"9:15:00","lat":49.353032,"lon":16.55062,"is_passed":false},{"stop_id":"U12004Z2","name":"Lipůvka","arrival_time":"9:18:00","departure_time":"10:41:00","lat":49.338367,"lon":16.552513,"is_passed":false}]