[{"stop_id":"U15140Z2","name":"Modřice, železniční stanice","arrival_time":"12:00:00","departure_time":"12:00:00","lat":49.1337,"lon":16.606717,"is_passed":false},{"stop_id":"U15134Z2","name":"Modřice, smyčka","arrival_time":"12:05:00","departure_time":"12:05:00","lat":49.126517,"lon":16.604633,"is_passed":false},{"stop_id":"U15137Z4","name":"Modřice, Tyršova","arrival_time":"12:06:00","departure_time":"12:06:00","lat":49.129402,"lon":16.603203,"is_passed":false},{"stop_id":"U15166Z1","name":"Rajhrad, stará pošta","arrival_time":"12:12:00","departure_time":"12:12:00","lat":49.087759,"lon":16.591479,"is_passed":false},{"stop_id":"U15182Z1","name":"Rajhrad, GEIS","arrival_time":"12:13:00","departure_time":"12:13:00","lat":49.08538,"lon":16.582,"is_passed":false},{"stop_id":"U15210Z1","name":"Syrovice","arrival_time":"12:16:00","departure_time":"12:16:00","lat":49.080328,"lon":16.548173,"is_passed":false},{"stop_id":"U15243Z1","name":"Syrovice, Chocholáč","arrival_time":"12:17:00","departure_time":"12:17:00","lat":49.075773,"lon":16.541749,"is_passed":false},{"stop_id":"U15201Z1","name":"Bratčice","arrival_time":"12:19:00","departure_time":"12:19:00","lat":49.065403,"lon":16.522683,"is_passed":false},{"stop_id":"U15202Z1","name":"Bratčice, pískovna","arrival_time":"12:20:00","departure_time":"12:20:00","lat":49.059642,"lon":16.517487,"is_passed":false},{"stop_id":"U15207Z1","name":"Němčičky","arrival_time":"12:22:00","departure_time":"12:22:00","lat":49.050522,"lon":16.500786,"is_passed":false},{"stop_id":"U14354Z1","name":"Pravlov","arrival_time":"12:25:00","departure_time":"12:25:00","lat":49.054622,"lon":16.486675,"is_passed":false},{"stop_id":"U14355Z1","name":"Pravlov, kulturní dům","arrival_time":"12:27:00","departure_time":"12:27:00","lat":49.054161,"lon":16.479892,"is_passed":false},{"stop_id":"U14358Z1","name":"Trboušany, rozc.","arrival_time":"12:29:00","departure_time":"12:29:00","lat":49.044863,"lon":16.471283,"is_passed":false},{"stop_id":"U14343Z1","name":"Jezeřany-Maršovice, Jezeřany","arrival_time":"12:33:00","departure_time":"12:33:00","lat":49.029237,"lon":16.436938,"is_passed":false},{"stop_id":"U14344Z1","name":"Jezeřany-Maršovice, škola","arrival_time":"12:35:00","departure_time":"12:35:00","lat":49.0334,"lon":16.431887,"is_passed":false},{"stop_id":"U14345Z1","name":"Jezeřany-Maršovice, točna","arrival_time":"12:36:00","departure_time":"13:28:00","lat":49.036532,"lon":16.427554,"is_passed":false}]