[{"stop_id":"U14345Z2","name":"Jezeřany-Maršovice, točna","arrival_time":"21:45:00","departure_time":"21:45:00","lat":49.036278,"lon":16.427863,"is_passed":false},{"stop_id":"U14344Z2","name":"Jezeřany-Maršovice, škola","arrival_time":"21:46:00","departure_time":"21:46:00","lat":49.033568,"lon":16.431603,"is_passed":false},{"stop_id":"U14343Z2","name":"Jezeřany-Maršovice, Jezeřany","arrival_time":"21:48:00","departure_time":"21:48:00","lat":49.029257,"lon":16.436803,"is_passed":false},{"stop_id":"U14358Z2","name":"Trboušany, rozc.","arrival_time":"21:52:00","departure_time":"21:52:00","lat":49.044861,"lon":16.471379,"is_passed":false},{"stop_id":"U14357Z2","name":"Trboušany","arrival_time":"21:53:00","departure_time":"21:53:00","lat":49.049142,"lon":16.46398,"is_passed":false},{"stop_id":"U14342Z2","name":"Dolní Kounice, Trboušanská","arrival_time":"21:57:00","departure_time":"21:57:00","lat":49.06613,"lon":16.468147,"is_passed":false},{"stop_id":"U14339Z2","name":"Dolní Kounice, Masarykovo nám.","arrival_time":"21:59:00","departure_time":"22:01:00","lat":49.070302,"lon":16.464113,"is_passed":false},{"stop_id":"U14340Z2","name":"Dolní Kounice, Rybárna","arrival_time":"22:03:00","departure_time":"22:03:00","lat":49.071349,"lon":16.469196,"is_passed":false},{"stop_id":"U15206Z2","name":"Mělčany","arrival_time":"22:08:00","departure_time":"22:08:00","lat":49.075388,"lon":16.493876,"is_passed":false},{"stop_id":"U15201Z2","name":"Bratčice","arrival_time":"22:12:00","departure_time":"22:12:00","lat":49.0656,"lon":16.522952,"is_passed":false},{"stop_id":"U15243Z2","name":"Syrovice, Chocholáč","arrival_time":"22:14:00","departure_time":"22:14:00","lat":49.075586,"lon":16.541475,"is_passed":false},{"stop_id":"U15210Z2","name":"Syrovice","arrival_time":"22:15:00","departure_time":"22:15:00","lat":49.08029,"lon":16.548905,"is_passed":false},{"stop_id":"U15182Z2","name":"Rajhrad, GEIS","arrival_time":"22:17:00","departure_time":"22:17:00","lat":49.085595,"lon":16.583357,"is_passed":false},{"stop_id":"U15166Z2","name":"Rajhrad, stará pošta","arrival_time":"22:18:00","departure_time":"22:18:00","lat":49.087794,"lon":16.591688,"is_passed":false},{"stop_id":"U15134Z1","name":"Modřice, smyčka","arrival_time":"22:26:00","departure_time":"23:05:00","lat":49.127138,"lon":16.604706,"is_passed":false}]