[{"stop_id":"U12225Z2","name":"Křtiny, náměstí","arrival_time":"6:00:00","departure_time":"6:00:00","lat":49.297072,"lon":16.74351,"is_passed":false},{"stop_id":"U12222Z2","name":"Křtiny, koupaliště","arrival_time":"6:01:00","departure_time":"6:01:00","lat":49.294592,"lon":16.747538,"is_passed":false},{"stop_id":"U12223Z2","name":"Křtiny, pivovar","arrival_time":"6:02:00","departure_time":"6:02:00","lat":49.292333,"lon":16.75651,"is_passed":false},{"stop_id":"U12212Z2","name":"Bukovina, rozcestí 2.0","arrival_time":"6:04:00","departure_time":"6:04:00","lat":49.290141,"lon":16.763755,"is_passed":false},{"stop_id":"U12206Z2","name":"Březina, Lhotky, rozcestí 1.7","arrival_time":"6:05:00","departure_time":"6:05:00","lat":49.286823,"lon":16.764373,"is_passed":false},{"stop_id":"U12209Z2","name":"Březina, u sokolovny","arrival_time":"6:06:00","departure_time":"6:06:00","lat":49.284029,"lon":16.759146,"is_passed":false},{"stop_id":"U12207Z2","name":"Březina, u pomníku","arrival_time":"6:07:00","departure_time":"6:07:00","lat":49.282012,"lon":16.754153,"is_passed":false},{"stop_id":"U12241Z2","name":"Březina, škola","arrival_time":"6:09:00","departure_time":"6:09:00","lat":49.281931,"lon":16.750376,"is_passed":false},{"stop_id":"U12109Z2","name":"Ochoz u Brna, rozcestí Kanice","arrival_time":"6:12:00","departure_time":"6:12:00","lat":49.262137,"lon":16.729535,"is_passed":false},{"stop_id":"U12108Z2","name":"Ochoz u Brna, U Votrubů","arrival_time":"6:14:00","departure_time":"6:14:00","lat":49.255512,"lon":16.732568,"is_passed":false},{"stop_id":"U12106Z2","name":"Ochoz u Brna, Na pastýřkách","arrival_time":"6:15:00","departure_time":"6:15:00","lat":49.251766,"lon":16.733456,"is_passed":false},{"stop_id":"U12110Z2","name":"Ochoz u Brna, Říčky, rozc.","arrival_time":"6:17:00","departure_time":"6:17:00","lat":49.245525,"lon":16.724775,"is_passed":false},{"stop_id":"U12102Z2","name":"Brno, Na Spáleništi","arrival_time":"6:19:00","departure_time":"6:19:00","lat":49.243888,"lon":16.713308,"is_passed":false},{"stop_id":"U1727Z6","name":"Velká Klajdovka","arrival_time":"6:23:00","departure_time":"6:23:00","lat":49.217049,"lon":16.681004,"is_passed":false},{"stop_id":"U1623Z2","name":"Strnadova","arrival_time":"6:25:00","departure_time":"6:25:00","lat":49.205821,"lon":16.668465,"is_passed":false},{"stop_id":"U1523Z2","name":"Prušánecká","arrival_time":"6:27:00","departure_time":"6:27:00","lat":49.209503,"lon":16.663369,"is_passed":false},{"stop_id":"U1611Z9","name":"Stará osada","arrival_time":"6:31:00","departure_time":"6:31:00","lat":49.202037,"lon":16.641659,"is_passed":false},{"stop_id":"U1809Z2","name":"Židenice, nádraží","arrival_time":"6:34:00","departure_time":"6:39:00","lat":49.203334,"lon":16.636579,"is_passed":false}]