[{"stop_id":"U15403Z8","name":"Hustopeče, autobusové nádraží","arrival_time":"16:01:00","departure_time":"16:01:00","lat":48.938295,"lon":16.735566,"is_passed":false},{"stop_id":"U15407Z1","name":"Hustopeče, Nádražní","arrival_time":"16:02:00","departure_time":"16:02:00","lat":48.935378,"lon":16.730693,"is_passed":false},{"stop_id":"U15406Z1","name":"Hustopeče, Mostárna","arrival_time":"16:07:00","departure_time":"16:07:00","lat":48.914318,"lon":16.710175,"is_passed":false},{"stop_id":"U15425Z1","name":"Šakvice, železniční stanice","arrival_time":"16:08:00","departure_time":"16:09:00","lat":48.912632,"lon":16.707338,"is_passed":false},{"stop_id":"U15408Z1","name":"Hustopeče, plnírna","arrival_time":"16:12:00","departure_time":"16:12:00","lat":48.917168,"lon":16.703175,"is_passed":false},{"stop_id":"U15413Z1","name":"Popice, rozcestí","arrival_time":"16:14:00","departure_time":"16:14:00","lat":48.919667,"lon":16.68427,"is_passed":false},{"stop_id":"U15422Z1","name":"Strachotín","arrival_time":"16:17:00","departure_time":"16:17:00","lat":48.904803,"lon":16.65097,"is_passed":false},{"stop_id":"U15500Z1","name":"Dolní Věstonice","arrival_time":"16:22:00","departure_time":"16:22:00","lat":48.888248,"lon":16.64335,"is_passed":false},{"stop_id":"U15501Z1","name":"Horní Věstonice","arrival_time":"16:26:00","departure_time":"16:26:00","lat":48.875943,"lon":16.624695,"is_passed":false},{"stop_id":"U15510Z1","name":"Perná, samota","arrival_time":"16:29:00","departure_time":"16:29:00","lat":48.859642,"lon":16.611015,"is_passed":false},{"stop_id":"U15508Z1","name":"Perná","arrival_time":"16:30:00","departure_time":"16:30:00","lat":48.855127,"lon":16.620733,"is_passed":false},{"stop_id":"U15545Z2","name":"Dolní Dunajovice, rozcestí","arrival_time":"16:32:00","departure_time":"16:32:00","lat":48.851635,"lon":16.608425,"is_passed":false},{"stop_id":"U15544Z1","name":"Dolní Dunajovice, Jednota","arrival_time":"16:35:00","departure_time":"16:35:00","lat":48.854737,"lon":16.592543,"is_passed":false},{"stop_id":"U15545Z1","name":"Dolní Dunajovice, rozcestí","arrival_time":"16:38:00","departure_time":"16:38:00","lat":48.850615,"lon":16.60982,"is_passed":false},{"stop_id":"U15701Z1","name":"Bavory, rozcestí","arrival_time":"16:40:00","departure_time":"16:40:00","lat":48.830593,"lon":16.612673,"is_passed":false},{"stop_id":"U15700Z1","name":"Bavory","arrival_time":"16:42:00","departure_time":"16:42:00","lat":48.83573,"lon":16.622435,"is_passed":false},{"stop_id":"U15702Z1","name":"Mikulov, Brněnská","arrival_time":"16:47:00","departure_time":"16:47:00","lat":48.812088,"lon":16.630516,"is_passed":false},{"stop_id":"U15703Z1","name":"Mikulov, 22. dubna","arrival_time":"16:48:00","departure_time":"16:48:00","lat":48.805487,"lon":16.633496,"is_passed":false},{"stop_id":"U15709Z1","name":"Mikulov, u parku","arrival_time":"16:50:00","departure_time":"16:50:00","lat":48.802145,"lon":16.634375,"is_passed":false},{"stop_id":"U15714Z51","name":"Mikulov, železniční stanice","arrival_time":"16:53:00","departure_time":"16:53:00","lat":48.80216,"lon":16.62617,"is_passed":false}]