[{"stop_id":"U1696Z3","name":"ÚAN Zvonařka","arrival_time":"22:31:00","departure_time":"22:31:00","lat":49.185364,"lon":16.616151,"is_passed":false},{"stop_id":"U1677Z3","name":"Tržní","arrival_time":"22:35:00","departure_time":"22:35:00","lat":49.189342,"lon":16.630314,"is_passed":false},{"stop_id":"U1068Z3","name":"Černovičky","arrival_time":"22:40:00","departure_time":"22:40:00","lat":49.183143,"lon":16.669108,"is_passed":false},{"stop_id":"U1577Z5","name":"Slatina, sídliště","arrival_time":"22:42:00","departure_time":"22:42:00","lat":49.182195,"lon":16.690725,"is_passed":false},{"stop_id":"U16130Z1","name":"Šlapanice, Bedřichovice, rozc.","arrival_time":"22:45:00","departure_time":"22:45:00","lat":49.182882,"lon":16.723572,"is_passed":false},{"stop_id":"U16105Z1","name":"Jiříkovice, motorest Rohlenka","arrival_time":"22:48:00","departure_time":"22:48:00","lat":49.183436,"lon":16.761042,"is_passed":false},{"stop_id":"U16205Z1","name":"Holubice, kruh","arrival_time":"22:51:00","departure_time":"22:51:00","lat":49.184495,"lon":16.799497,"is_passed":false},{"stop_id":"U16208Z1","name":"Holubice, u mostu","arrival_time":"22:52:00","departure_time":"22:52:00","lat":49.179375,"lon":16.806448,"is_passed":false},{"stop_id":"U16207Z1","name":"Holubice, obecní úřad","arrival_time":"22:53:00","departure_time":"22:53:00","lat":49.177275,"lon":16.813585,"is_passed":false},{"stop_id":"U16204Z1","name":"Holubice, Curdík","arrival_time":"22:55:00","departure_time":"22:55:00","lat":49.17443,"lon":16.822741,"is_passed":false},{"stop_id":"U16334Z1","name":"Velešovice, rozc.","arrival_time":"22:58:00","departure_time":"22:58:00","lat":49.166882,"lon":16.842802,"is_passed":false},{"stop_id":"U16328Z1","name":"Slavkov u Brna, aut. st.","arrival_time":"23:04:00","departure_time":"23:05:00","lat":49.149057,"lon":16.876562,"is_passed":false}]