[{"stop_id":"U1809Z4","name":"Židenice, nádraží","arrival_time":"13:56:00","departure_time":"13:56:00","lat":49.203399,"lon":16.636702,"is_passed":false},{"stop_id":"U1611Z7","name":"Stará osada","arrival_time":"13:59:00","departure_time":"14:00:00","lat":49.202432,"lon":16.642134,"is_passed":false},{"stop_id":"U1523Z1","name":"Prušánecká","arrival_time":"14:04:00","departure_time":"14:04:00","lat":49.20827,"lon":16.663465,"is_passed":false},{"stop_id":"U1623Z1","name":"Strnadova","arrival_time":"14:06:00","departure_time":"14:06:00","lat":49.205754,"lon":16.66904,"is_passed":false},{"stop_id":"U1157Z1","name":"Horníkova","arrival_time":"14:10:00","departure_time":"14:10:00","lat":49.212138,"lon":16.676622,"is_passed":false},{"stop_id":"U1727Z5","name":"Velká Klajdovka","arrival_time":"14:12:00","departure_time":"14:12:00","lat":49.217034,"lon":16.681134,"is_passed":false},{"stop_id":"U12102Z1","name":"Brno, Na Spáleništi","arrival_time":"14:16:00","departure_time":"14:16:00","lat":49.243858,"lon":16.714558,"is_passed":false},{"stop_id":"U12110Z1","name":"Ochoz u Brna, Říčky, rozc.","arrival_time":"14:18:00","departure_time":"14:18:00","lat":49.245647,"lon":16.724977,"is_passed":false},{"stop_id":"U12106Z1","name":"Ochoz u Brna, Na pastýřkách","arrival_time":"14:20:00","departure_time":"14:20:00","lat":49.250904,"lon":16.733767,"is_passed":false},{"stop_id":"U12111Z1","name":"Ochoz u Brna, obecní úřad","arrival_time":"14:22:00","departure_time":"14:22:00","lat":49.254335,"lon":16.736467,"is_passed":false},{"stop_id":"U12108Z4","name":"Ochoz u Brna, U Votrubů","arrival_time":"14:23:00","departure_time":"14:23:00","lat":49.255622,"lon":16.732952,"is_passed":false}]