[{"stop_id":"U15140Z2","name":"Modřice, železniční stanice","arrival_time":"10:30:00","departure_time":"10:30:00","lat":49.1337,"lon":16.606717,"is_passed":false},{"stop_id":"U15134Z2","name":"Modřice, smyčka","arrival_time":"10:35:00","departure_time":"10:35:00","lat":49.126517,"lon":16.604633,"is_passed":false},{"stop_id":"U15137Z4","name":"Modřice, Tyršova","arrival_time":"10:36:00","departure_time":"10:36:00","lat":49.129402,"lon":16.603203,"is_passed":false},{"stop_id":"U15166Z1","name":"Rajhrad, stará pošta","arrival_time":"10:42:00","departure_time":"10:42:00","lat":49.087759,"lon":16.591479,"is_passed":false},{"stop_id":"U15182Z1","name":"Rajhrad, GEIS","arrival_time":"10:43:00","departure_time":"10:43:00","lat":49.08538,"lon":16.582,"is_passed":false},{"stop_id":"U15210Z1","name":"Syrovice","arrival_time":"10:46:00","departure_time":"10:46:00","lat":49.080328,"lon":16.548173,"is_passed":false},{"stop_id":"U15243Z1","name":"Syrovice, Chocholáč","arrival_time":"10:47:00","departure_time":"10:47:00","lat":49.075773,"lon":16.541749,"is_passed":false},{"stop_id":"U15201Z1","name":"Bratčice","arrival_time":"10:49:00","departure_time":"10:49:00","lat":49.065403,"lon":16.522683,"is_passed":false},{"stop_id":"U15206Z1","name":"Mělčany","arrival_time":"10:53:00","departure_time":"10:53:00","lat":49.075149,"lon":16.493276,"is_passed":false},{"stop_id":"U14340Z1","name":"Dolní Kounice, Rybárna","arrival_time":"10:57:00","departure_time":"10:57:00","lat":49.071412,"lon":16.469024,"is_passed":false},{"stop_id":"U14339Z1","name":"Dolní Kounice, Masarykovo nám.","arrival_time":"10:59:00","departure_time":"11:01:00","lat":49.070302,"lon":16.464113,"is_passed":false},{"stop_id":"U14342Z1","name":"Dolní Kounice, Trboušanská","arrival_time":"11:03:00","departure_time":"11:03:00","lat":49.06613,"lon":16.468147,"is_passed":false},{"stop_id":"U14357Z1","name":"Trboušany","arrival_time":"11:08:00","departure_time":"11:15:00","lat":49.049142,"lon":16.46398,"is_passed":false}]