[{"stop_id":"U15140Z2","name":"Modřice, železniční stanice","arrival_time":"7:00:00","departure_time":"7:00:00","lat":49.1337,"lon":16.606717,"is_passed":false},{"stop_id":"U15134Z2","name":"Modřice, smyčka","arrival_time":"7:05:00","departure_time":"7:05:00","lat":49.126517,"lon":16.604633,"is_passed":false},{"stop_id":"U15137Z4","name":"Modřice, Tyršova","arrival_time":"7:06:00","departure_time":"7:06:00","lat":49.129402,"lon":16.603203,"is_passed":false},{"stop_id":"U15166Z1","name":"Rajhrad, stará pošta","arrival_time":"7:12:00","departure_time":"7:12:00","lat":49.087759,"lon":16.591479,"is_passed":false},{"stop_id":"U15182Z1","name":"Rajhrad, GEIS","arrival_time":"7:13:00","departure_time":"7:13:00","lat":49.08538,"lon":16.582,"is_passed":false},{"stop_id":"U15210Z1","name":"Syrovice","arrival_time":"7:16:00","departure_time":"7:16:00","lat":49.080328,"lon":16.548173,"is_passed":false},{"stop_id":"U15243Z1","name":"Syrovice, Chocholáč","arrival_time":"7:17:00","departure_time":"7:17:00","lat":49.075773,"lon":16.541749,"is_passed":false},{"stop_id":"U15201Z1","name":"Bratčice","arrival_time":"7:19:00","departure_time":"7:19:00","lat":49.065403,"lon":16.522683,"is_passed":false},{"stop_id":"U15206Z1","name":"Mělčany","arrival_time":"7:23:00","departure_time":"7:23:00","lat":49.075149,"lon":16.493276,"is_passed":false},{"stop_id":"U14340Z1","name":"Dolní Kounice, Rybárna","arrival_time":"7:27:00","departure_time":"7:27:00","lat":49.071412,"lon":16.469024,"is_passed":false},{"stop_id":"U14339Z1","name":"Dolní Kounice, Masarykovo nám.","arrival_time":"7:29:00","departure_time":"7:29:00","lat":49.070302,"lon":16.464113,"is_passed":false},{"stop_id":"U14356Z1","name":"Pravlov, rozc.","arrival_time":"7:31:00","departure_time":"7:31:00","lat":49.052728,"lon":16.479112,"is_passed":false},{"stop_id":"U14346Z1","name":"Kupařovice","arrival_time":"7:35:00","departure_time":"7:45:00","lat":49.0421,"lon":16.48738,"is_passed":false}]