[{"stop_id":"U16793Z1","name":"Koryčany, náměstí","arrival_time":"6:50:00","departure_time":"6:50:00","lat":49.106098,"lon":17.163237,"is_passed":false},{"stop_id":"U16624Z2","name":"Mouchnice","arrival_time":"6:53:00","departure_time":"6:53:00","lat":49.112142,"lon":17.135145,"is_passed":false},{"stop_id":"U16623Z2","name":"Mouchnice, Na Požárech","arrival_time":"6:54:00","departure_time":"6:54:00","lat":49.116365,"lon":17.135258,"is_passed":false},{"stop_id":"U16504Z2","name":"Nemotice","arrival_time":"6:59:00","departure_time":"6:59:00","lat":49.129713,"lon":17.125008,"is_passed":false},{"stop_id":"U16503Z2","name":"Nemotice, železniční stanice","arrival_time":"7:00:00","departure_time":"7:00:00","lat":49.134107,"lon":17.116798,"is_passed":false},{"stop_id":"U16512Z2","name":"Snovídky","arrival_time":"7:03:00","departure_time":"7:03:00","lat":49.133113,"lon":17.106213,"is_passed":false},{"stop_id":"U16505Z2","name":"Nesovice, Kotáry","arrival_time":"7:07:00","departure_time":"7:07:00","lat":49.149153,"lon":17.092268,"is_passed":false},{"stop_id":"U16506Z2","name":"Nesovice, obecní úřad","arrival_time":"7:08:00","departure_time":"7:08:00","lat":49.148482,"lon":17.082872,"is_passed":false},{"stop_id":"U16509Z5","name":"Nesovice, železniční stanice","arrival_time":"7:09:00","departure_time":"8:37:00","lat":49.149095,"lon":17.079312,"is_passed":false}]