[{"stop_id":"U16626Z2","name":"Brankovice, obecní úřad","arrival_time":"21:01:00","departure_time":"21:01:00","lat":49.156233,"lon":17.135025,"is_passed":false},{"stop_id":"U16524Z2","name":"Nemochovice","arrival_time":"21:05:00","departure_time":"21:05:00","lat":49.179207,"lon":17.137105,"is_passed":false},{"stop_id":"U16520Z2","name":"Chvalkovice, u hřiště","arrival_time":"21:08:00","departure_time":"21:08:00","lat":49.189783,"lon":17.11772,"is_passed":false},{"stop_id":"U16521Z2","name":"Chvalkovice","arrival_time":"21:10:00","departure_time":"21:10:00","lat":49.187255,"lon":17.110392,"is_passed":false},{"stop_id":"U16516Z1","name":"Hvězdlice, Nové Hvězdlice","arrival_time":"21:15:00","departure_time":"21:15:00","lat":49.193314,"lon":17.083975,"is_passed":false},{"stop_id":"U16515Z1","name":"Hvězdlice, Nové Hvězdlice, rozcestí","arrival_time":"21:17:00","departure_time":"21:17:00","lat":49.191281,"lon":17.094313,"is_passed":false},{"stop_id":"U16513Z2","name":"Uhřice, na návsi","arrival_time":"21:22:00","departure_time":"21:22:00","lat":49.171423,"lon":17.078962,"is_passed":false},{"stop_id":"U16514Z2","name":"Uhřice, rozcestí","arrival_time":"21:24:00","departure_time":"21:24:00","lat":49.163227,"lon":17.067172,"is_passed":false},{"stop_id":"U16502Z2","name":"Milonice","arrival_time":"21:25:00","departure_time":"21:25:00","lat":49.158132,"lon":17.072158,"is_passed":false},{"stop_id":"U16508Z2","name":"Nesovice, požární zbrojnice","arrival_time":"21:27:00","departure_time":"21:27:00","lat":49.150655,"lon":17.08152,"is_passed":false},{"stop_id":"U16509Z2","name":"Nesovice, železniční stanice","arrival_time":"21:29:00","departure_time":"21:29:00","lat":49.149095,"lon":17.079312,"is_passed":false}]