[{"stop_id":"U16509Z5","name":"Nesovice, železniční stanice","arrival_time":"16:39:00","departure_time":"16:39:00","lat":49.149095,"lon":17.079312,"is_passed":false},{"stop_id":"U16508Z1","name":"Nesovice, požární zbrojnice","arrival_time":"16:41:00","departure_time":"16:41:00","lat":49.150423,"lon":17.081728,"is_passed":false},{"stop_id":"U16502Z1","name":"Milonice","arrival_time":"16:43:00","departure_time":"16:43:00","lat":49.15835,"lon":17.072118,"is_passed":false},{"stop_id":"U16514Z1","name":"Uhřice, rozcestí","arrival_time":"16:44:00","departure_time":"16:44:00","lat":49.163227,"lon":17.067172,"is_passed":false},{"stop_id":"U16501Z1","name":"Milonice, Roštoutky, statek","arrival_time":"16:47:00","departure_time":"16:47:00","lat":49.178395,"lon":17.05641,"is_passed":false},{"stop_id":"U16424Z2","name":"Kozlany","arrival_time":"16:51:00","departure_time":"16:51:00","lat":49.203988,"lon":17.035198,"is_passed":false},{"stop_id":"U16418Z2","name":"Bohdalice-Pavlovice, Hradčany","arrival_time":"16:53:00","departure_time":"16:53:00","lat":49.209898,"lon":17.032628,"is_passed":false},{"stop_id":"U16417Z2","name":"Bohdalice-Pavlovice, Bohdalice","arrival_time":"16:55:00","departure_time":"16:56:00","lat":49.214043,"lon":17.030467,"is_passed":false}]