[{"stop_id":"U16846Z2","name":"Osvětimany","arrival_time":"15:23:00","departure_time":"15:23:00","lat":49.05585,"lon":17.24943,"is_passed":false},{"stop_id":"U16848Z2","name":"Osvětimany, ZD","arrival_time":"15:25:00","departure_time":"15:25:00","lat":49.056377,"lon":17.243733,"is_passed":false},{"stop_id":"U16852Z2","name":"Vřesovice, Paseky","arrival_time":"15:28:00","departure_time":"15:28:00","lat":49.05953,"lon":17.219705,"is_passed":false},{"stop_id":"U16851Z2","name":"Vřesovice","arrival_time":"15:29:00","departure_time":"15:29:00","lat":49.058897,"lon":17.215132,"is_passed":false},{"stop_id":"U16845Z2","name":"Labuty","arrival_time":"15:31:00","departure_time":"15:31:00","lat":49.046583,"lon":17.212358,"is_passed":false},{"stop_id":"U16850Z2","name":"Skalka, ZD","arrival_time":"15:33:00","departure_time":"15:33:00","lat":49.03822,"lon":17.207225,"is_passed":false},{"stop_id":"U16849Z2","name":"Skalka","arrival_time":"15:34:00","departure_time":"15:34:00","lat":49.03522,"lon":17.208543,"is_passed":false},{"stop_id":"U16831Z1","name":"Ježov, zdravotní středisko","arrival_time":"15:37:00","departure_time":"15:37:00","lat":49.026497,"lon":17.21014,"is_passed":false},{"stop_id":"U16844Z2","name":"Žeravice, obecní úřad","arrival_time":"15:41:00","departure_time":"15:41:00","lat":49.023193,"lon":17.236705,"is_passed":false},{"stop_id":"U16831Z2","name":"Ježov, zdravotní středisko","arrival_time":"15:45:00","departure_time":"15:45:00","lat":49.026387,"lon":17.20933,"is_passed":false},{"stop_id":"U16830Z2","name":"Ježov, u Šupalového","arrival_time":"15:46:00","departure_time":"15:46:00","lat":49.024517,"lon":17.206255,"is_passed":false},{"stop_id":"U16841Z2","name":"Žádovice","arrival_time":"15:49:00","departure_time":"15:49:00","lat":49.015823,"lon":17.195413,"is_passed":false},{"stop_id":"U16834Z2","name":"Kelčany, ZSP","arrival_time":"15:52:00","departure_time":"15:52:00","lat":49.012325,"lon":17.184113,"is_passed":false},{"stop_id":"U16833Z2","name":"Kelčany, u sklepů","arrival_time":"15:53:00","departure_time":"15:53:00","lat":49.01266,"lon":17.176467,"is_passed":false},{"stop_id":"U16832Z2","name":"Kelčany, obecní úřad","arrival_time":"15:55:00","departure_time":"15:55:00","lat":49.005392,"lon":17.173913,"is_passed":false},{"stop_id":"U16818Z2","name":"Vlkoš, Lidový dům","arrival_time":"15:58:00","departure_time":"15:58:00","lat":48.991884,"lon":17.166364,"is_passed":false},{"stop_id":"U16817Z2","name":"Vlkoš","arrival_time":"15:59:00","departure_time":"15:59:00","lat":48.990744,"lon":17.162083,"is_passed":false},{"stop_id":"U16608Z17","name":"Kyjov, aut. st.","arrival_time":"16:05:00","departure_time":"16:10:00","lat":49.006463,"lon":17.124008,"is_passed":false},{"stop_id":"U16613Z1","name":"Kyjov, pod nemocnicí","arrival_time":"16:12:00","departure_time":"16:12:00","lat":49.007868,"lon":17.114425,"is_passed":false},{"stop_id":"U16650Z1","name":"Kyjov, železniční stanice","arrival_time":"16:15:00","departure_time":"16:42:00","lat":49.015685,"lon":17.122964,"is_passed":false}]