[{"stop_id":"U16328Z57","name":"Slavkov u Brna, aut. st.","arrival_time":"10:16:00","departure_time":"10:16:00","lat":49.148773,"lon":16.876167,"is_passed":false},{"stop_id":"U16327Z2","name":"Slavkov u Brna, Agrozávod","arrival_time":"10:19:00","departure_time":"10:19:00","lat":49.149532,"lon":16.853298,"is_passed":false},{"stop_id":"U16211Z2","name":"Křenovice, dol. žel. st.","arrival_time":"10:23:00","departure_time":"10:23:00","lat":49.14293,"lon":16.831158,"is_passed":false},{"stop_id":"U16213Z2","name":"Křenovice, u hřbitova","arrival_time":"10:24:00","departure_time":"10:24:00","lat":49.14044,"lon":16.827468,"is_passed":false},{"stop_id":"U16225Z2","name":"Zbýšov","arrival_time":"10:27:00","departure_time":"10:27:00","lat":49.129972,"lon":16.809325,"is_passed":false},{"stop_id":"U16222Z2","name":"Šaratice","arrival_time":"10:31:00","departure_time":"10:31:00","lat":49.116993,"lon":16.8025,"is_passed":false},{"stop_id":"U16103Z2","name":"Hostěrádky-Rešov","arrival_time":"10:33:00","departure_time":"11:54:00","lat":49.117357,"lon":16.785195,"is_passed":false}]