[{"stop_id":"U16215Z1","name":"Milešovice, host. Laštůvka","arrival_time":"14:39:00","departure_time":"14:39:00","lat":49.082413,"lon":16.854648,"is_passed":false},{"stop_id":"U16217Z2","name":"Milešovice, zast.","arrival_time":"14:41:00","departure_time":"14:41:00","lat":49.086736,"lon":16.850744,"is_passed":false},{"stop_id":"U16216Z2","name":"Milešovice, sídliště","arrival_time":"14:42:00","departure_time":"14:42:00","lat":49.089789,"lon":16.850111,"is_passed":false},{"stop_id":"U16222Z2","name":"Šaratice","arrival_time":"14:49:00","departure_time":"14:49:00","lat":49.116993,"lon":16.8025,"is_passed":false},{"stop_id":"U16103Z2","name":"Hostěrádky-Rešov","arrival_time":"14:52:00","departure_time":"14:52:00","lat":49.117357,"lon":16.785195,"is_passed":false},{"stop_id":"U16144Z2","name":"Újezd u Brna, penzion","arrival_time":"14:55:00","departure_time":"14:55:00","lat":49.106207,"lon":16.763805,"is_passed":false},{"stop_id":"U16156Z2","name":"Újezd u Brna, městský úřad","arrival_time":"14:57:00","departure_time":"14:57:00","lat":49.10469,"lon":16.757273,"is_passed":false},{"stop_id":"U16157Z2","name":"Újezd u Brna, Revoluční","arrival_time":"14:58:00","departure_time":"14:58:00","lat":49.106715,"lon":16.748685,"is_passed":false},{"stop_id":"U16149Z51","name":"Sokolnice, železniční stanice","arrival_time":"15:01:00","departure_time":"15:26:00","lat":49.108393,"lon":16.732841,"is_passed":false}]