[{"stop_id":"U17361Z2","name":"Rousínov, EDP","arrival_time":"22:15:00","departure_time":"22:15:00","lat":49.197772,"lon":16.877368,"is_passed":false},{"stop_id":"U17335Z6","name":"Rousínov, autobusová stanice","arrival_time":"22:17:00","departure_time":"22:17:00","lat":49.202819,"lon":16.885074,"is_passed":false},{"stop_id":"U17331Z1","name":"Rousínov, Čechyně, rozcestí","arrival_time":"22:19:00","departure_time":"22:19:00","lat":49.207062,"lon":16.891572,"is_passed":false},{"stop_id":"U17311Z3","name":"Komořany, EDP","arrival_time":"22:21:00","departure_time":"22:21:00","lat":49.220008,"lon":16.905058,"is_passed":false},{"stop_id":"U17344Z1","name":"Tučapy, rozcestí","arrival_time":"22:23:00","departure_time":"22:23:00","lat":49.227308,"lon":16.915917,"is_passed":false},{"stop_id":"U17343Z1","name":"Tučapy, obecní úřad","arrival_time":"22:25:00","departure_time":"22:25:00","lat":49.232287,"lon":16.917902,"is_passed":false},{"stop_id":"U17317Z1","name":"Nemojany","arrival_time":"22:28:00","departure_time":"22:28:00","lat":49.246498,"lon":16.915268,"is_passed":false},{"stop_id":"U17316Z1","name":"Luleč, rozc. k žel. st.","arrival_time":"22:30:00","departure_time":"22:30:00","lat":49.250822,"lon":16.921027,"is_passed":false},{"stop_id":"U17315Z1","name":"Luleč, obecní úřad","arrival_time":"22:31:00","departure_time":"22:31:00","lat":49.253993,"lon":16.929762,"is_passed":false},{"stop_id":"U17314Z1","name":"Luleč, kamenolom","arrival_time":"22:33:00","departure_time":"22:33:00","lat":49.261913,"lon":16.937098,"is_passed":false},{"stop_id":"U17305Z1","name":"Drnovice, Na vrchu","arrival_time":"22:35:00","departure_time":"22:35:00","lat":49.270722,"lon":16.950341,"is_passed":false},{"stop_id":"U17304Z2","name":"Drnovice","arrival_time":"22:37:00","departure_time":"22:37:00","lat":49.276472,"lon":16.952117,"is_passed":false},{"stop_id":"U17434Z2","name":"Vyškov, nemocnice","arrival_time":"22:40:00","departure_time":"22:40:00","lat":49.276242,"lon":16.98279,"is_passed":false},{"stop_id":"U17423Z21","name":"Vyškov, Autobusové nádraží","arrival_time":"22:42:00","departure_time":"22:43:00","lat":49.275819,"lon":16.992078,"is_passed":false}]