[{"stop_id":"U16439Z1","name":"Násedlovice","arrival_time":"7:01:00","departure_time":"7:01:00","lat":49.011075,"lon":16.95703,"is_passed":false},{"stop_id":"U16438Z1","name":"Násedlovice, u hřiště","arrival_time":"7:02:00","departure_time":"7:02:00","lat":49.009217,"lon":16.95822,"is_passed":false},{"stop_id":"U16437Z1","name":"Násedlovice, mlýn","arrival_time":"7:04:00","departure_time":"7:04:00","lat":49.007262,"lon":16.966958,"is_passed":false},{"stop_id":"U16533Z1","name":"Želetice, statek","arrival_time":"7:10:00","departure_time":"7:10:00","lat":49.01512,"lon":17.006987,"is_passed":false},{"stop_id":"U16534Z1","name":"Želetice","arrival_time":"7:11:00","departure_time":"7:11:00","lat":49.012693,"lon":17.009444,"is_passed":false},{"stop_id":"U16530Z1","name":"Nenkovice, u kašny","arrival_time":"7:14:00","departure_time":"7:14:00","lat":49.001724,"lon":17.007864,"is_passed":false},{"stop_id":"U16528Z1","name":"Nenkovice, obecní úřad","arrival_time":"7:15:00","departure_time":"7:15:00","lat":49.004197,"lon":17.011395,"is_passed":false},{"stop_id":"U16529Z1","name":"Nenkovice, škola","arrival_time":"7:16:00","departure_time":"7:16:00","lat":49.004607,"lon":17.015563,"is_passed":false},{"stop_id":"U16635Z1","name":"Stavěšice","arrival_time":"7:19:00","departure_time":"7:19:00","lat":49.001868,"lon":17.029877,"is_passed":false},{"stop_id":"U16622Z1","name":"Strážovice","arrival_time":"7:23:00","departure_time":"7:23:00","lat":49.0093,"lon":17.047132,"is_passed":false},{"stop_id":"U16612Z1","name":"Kyjov, nemocnice","arrival_time":"7:30:00","departure_time":"7:30:00","lat":49.006845,"lon":17.11013,"is_passed":false},{"stop_id":"U16608Z16","name":"Kyjov, aut. st.","arrival_time":"7:32:00","departure_time":"7:32:00","lat":49.006873,"lon":17.123912,"is_passed":false}]