[{"stop_id":"U16793Z1","name":"Koryčany, náměstí","arrival_time":"13:20:00","departure_time":"13:20:00","lat":49.106098,"lon":17.163237,"is_passed":false},{"stop_id":"U16624Z2","name":"Mouchnice","arrival_time":"13:23:00","departure_time":"13:23:00","lat":49.112142,"lon":17.135145,"is_passed":false},{"stop_id":"U16623Z2","name":"Mouchnice, Na Požárech","arrival_time":"13:24:00","departure_time":"13:24:00","lat":49.116365,"lon":17.135258,"is_passed":false},{"stop_id":"U16504Z2","name":"Nemotice","arrival_time":"13:29:00","departure_time":"13:29:00","lat":49.129713,"lon":17.125008,"is_passed":false},{"stop_id":"U16503Z2","name":"Nemotice, železniční stanice","arrival_time":"13:30:00","departure_time":"13:30:00","lat":49.134107,"lon":17.116798,"is_passed":false},{"stop_id":"U16512Z2","name":"Snovídky","arrival_time":"13:33:00","departure_time":"13:33:00","lat":49.133113,"lon":17.106213,"is_passed":false},{"stop_id":"U16505Z2","name":"Nesovice, Kotáry","arrival_time":"13:37:00","departure_time":"13:37:00","lat":49.149153,"lon":17.092268,"is_passed":false},{"stop_id":"U16506Z2","name":"Nesovice, obecní úřad","arrival_time":"13:38:00","departure_time":"13:38:00","lat":49.148482,"lon":17.082872,"is_passed":false},{"stop_id":"U16509Z5","name":"Nesovice, železniční stanice","arrival_time":"13:39:00","departure_time":"13:44:00","lat":49.149095,"lon":17.079312,"is_passed":false},{"stop_id":"U16508Z1","name":"Nesovice, požární zbrojnice","arrival_time":"13:46:00","departure_time":"13:46:00","lat":49.150423,"lon":17.081728,"is_passed":false},{"stop_id":"U16502Z1","name":"Milonice","arrival_time":"13:48:00","departure_time":"13:48:00","lat":49.15835,"lon":17.072118,"is_passed":false},{"stop_id":"U16513Z3","name":"Uhřice, na návsi","arrival_time":"13:51:00","departure_time":"13:51:00","lat":49.171422,"lon":17.07905,"is_passed":false},{"stop_id":"U16501Z1","name":"Milonice, Roštoutky, statek","arrival_time":"13:56:00","departure_time":"13:56:00","lat":49.178395,"lon":17.05641,"is_passed":false},{"stop_id":"U16424Z2","name":"Kozlany","arrival_time":"14:00:00","departure_time":"14:00:00","lat":49.203988,"lon":17.035198,"is_passed":false},{"stop_id":"U16418Z2","name":"Bohdalice-Pavlovice, Hradčany","arrival_time":"14:02:00","departure_time":"14:02:00","lat":49.209898,"lon":17.032628,"is_passed":false},{"stop_id":"U16417Z2","name":"Bohdalice-Pavlovice, Bohdalice","arrival_time":"14:04:00","departure_time":"14:04:00","lat":49.214043,"lon":17.030467,"is_passed":false}]