[{"stop_id":"U16509Z3","name":"Nesovice, železniční stanice","arrival_time":"19:19:00","departure_time":"19:19:00","lat":49.149095,"lon":17.079312,"is_passed":false},{"stop_id":"U16631Z1","name":"Dobročkovice","arrival_time":"19:26:00","departure_time":"19:26:00","lat":49.16243,"lon":17.10881,"is_passed":false},{"stop_id":"U16630Z1","name":"Dobročkovice, rozcestí","arrival_time":"19:29:00","departure_time":"19:29:00","lat":49.149935,"lon":17.121458,"is_passed":false},{"stop_id":"U16625Z1","name":"Brankovice, křižovatka","arrival_time":"19:32:00","departure_time":"19:32:00","lat":49.153315,"lon":17.136175,"is_passed":false},{"stop_id":"U16634Z1","name":"Malínky","arrival_time":"19:34:00","departure_time":"19:34:00","lat":49.159148,"lon":17.160988,"is_passed":false},{"stop_id":"U16633Z1","name":"Kožušice","arrival_time":"19:38:00","departure_time":"19:38:00","lat":49.157645,"lon":17.187003,"is_passed":false},{"stop_id":"U16632Z1","name":"Kožušice, točna","arrival_time":"19:39:00","departure_time":"20:02:00","lat":49.156771,"lon":17.187265,"is_passed":false}]