[{"stop_id":"U18513Z1","name":"Bítov, náměstí","arrival_time":"4:50:00","departure_time":"4:50:00","lat":48.937333,"lon":15.729102,"is_passed":false},{"stop_id":"U18512Z1","name":"Bítov, most","arrival_time":"4:52:00","departure_time":"4:52:00","lat":48.933778,"lon":15.722213,"is_passed":false},{"stop_id":"U18511Z1","name":"Bítov, hrad Cornštejn","arrival_time":"4:54:00","departure_time":"4:54:00","lat":48.935688,"lon":15.711545,"is_passed":false},{"stop_id":"U18520Z1","name":"Vysočany, most","arrival_time":"4:55:00","departure_time":"4:55:00","lat":48.937318,"lon":15.703987,"is_passed":false},{"stop_id":"U18521Z1","name":"Vysočany, prodejna","arrival_time":"4:58:00","departure_time":"4:58:00","lat":48.940293,"lon":15.688983,"is_passed":false},{"stop_id":"U18516Z1","name":"Oslnovice, váha","arrival_time":"5:00:00","departure_time":"5:00:00","lat":48.9328,"lon":15.684269,"is_passed":false},{"stop_id":"U18601Z1","name":"Korolupy","arrival_time":"5:04:00","departure_time":"5:04:00","lat":48.929962,"lon":15.645425,"is_passed":false},{"stop_id":"U18602Z1","name":"Korolupy, rozcestí","arrival_time":"5:07:00","departure_time":"5:07:00","lat":48.92701,"lon":15.621778,"is_passed":false},{"stop_id":"U18604Z1","name":"Lubnice, u kostela","arrival_time":"5:09:00","departure_time":"5:12:00","lat":48.938925,"lon":15.613983,"is_passed":false}]