[{"stop_id":"U16846Z2","name":"Osvětimany","arrival_time":"9:42:00","departure_time":"9:42:00","lat":49.05585,"lon":17.24943,"is_passed":false},{"stop_id":"U16848Z2","name":"Osvětimany, ZD","arrival_time":"9:43:00","departure_time":"9:43:00","lat":49.056377,"lon":17.243733,"is_passed":false},{"stop_id":"U16852Z2","name":"Vřesovice, Paseky","arrival_time":"9:46:00","departure_time":"9:46:00","lat":49.05953,"lon":17.219705,"is_passed":false},{"stop_id":"U16851Z2","name":"Vřesovice","arrival_time":"9:47:00","departure_time":"9:47:00","lat":49.058897,"lon":17.215132,"is_passed":false},{"stop_id":"U16845Z2","name":"Labuty","arrival_time":"9:49:00","departure_time":"9:49:00","lat":49.046583,"lon":17.212358,"is_passed":false},{"stop_id":"U16850Z2","name":"Skalka, ZD","arrival_time":"9:51:00","departure_time":"9:51:00","lat":49.03822,"lon":17.207225,"is_passed":false},{"stop_id":"U16849Z2","name":"Skalka","arrival_time":"9:52:00","departure_time":"9:52:00","lat":49.03522,"lon":17.208543,"is_passed":false},{"stop_id":"U16830Z2","name":"Ježov, u Šupalového","arrival_time":"9:54:00","departure_time":"9:54:00","lat":49.024517,"lon":17.206255,"is_passed":false},{"stop_id":"U16841Z2","name":"Žádovice","arrival_time":"9:58:00","departure_time":"9:58:00","lat":49.015823,"lon":17.195413,"is_passed":false},{"stop_id":"U16834Z2","name":"Kelčany, ZSP","arrival_time":"10:01:00","departure_time":"10:01:00","lat":49.012325,"lon":17.184113,"is_passed":false},{"stop_id":"U16833Z2","name":"Kelčany, u sklepů","arrival_time":"10:02:00","departure_time":"10:02:00","lat":49.01266,"lon":17.176467,"is_passed":false},{"stop_id":"U16609Z2","name":"Kyjov, Brandlova sídliště","arrival_time":"10:05:00","departure_time":"10:05:00","lat":49.011808,"lon":17.136515,"is_passed":false},{"stop_id":"U16608Z17","name":"Kyjov, aut. st.","arrival_time":"10:07:00","departure_time":"10:10:00","lat":49.006463,"lon":17.124008,"is_passed":false},{"stop_id":"U16613Z1","name":"Kyjov, pod nemocnicí","arrival_time":"10:12:00","departure_time":"10:12:00","lat":49.007868,"lon":17.114425,"is_passed":false},{"stop_id":"U16650Z1","name":"Kyjov, železniční stanice","arrival_time":"10:15:00","departure_time":"10:42:00","lat":49.015685,"lon":17.122964,"is_passed":false}]