[{"stop_id":"U29602Z20","name":"Myjava","arrival_time":"12:07:00","departure_time":"12:07:00","lat":48.763386,"lon":17.570662,"is_passed":false},{"stop_id":"U29504Z20","name":"Vrbovce zastávka","arrival_time":"12:14:00","departure_time":"12:14:00","lat":48.804895,"lon":17.529576,"is_passed":false},{"stop_id":"U29501Z20","name":"Vrbovce","arrival_time":"12:19:00","departure_time":"12:30:00","lat":48.824135,"lon":17.515827,"is_passed":false},{"stop_id":"U29502Z1","name":"Javorník nad Veličkou zastávka","arrival_time":"12:35:00","departure_time":"12:35:00","lat":48.862553,"lon":17.52241,"is_passed":false},{"stop_id":"U19525Z10","name":"Velká nad Veličkou","arrival_time":"12:38:00","departure_time":"12:39:00","lat":48.87941,"lon":17.518443,"is_passed":false},{"stop_id":"U19414Z2","name":"Louka, obecní úřad","arrival_time":"12:44:00","departure_time":"12:44:00","lat":48.915623,"lon":17.486768,"is_passed":false},{"stop_id":"U19400Z20","name":"Blatnice pod Sv. Antonínkem, křižovatka","arrival_time":"12:48:00","departure_time":"12:48:00","lat":48.945904,"lon":17.461513,"is_passed":false},{"stop_id":"U19316Z41","name":"Veselí nad Moravou, železniční stanice","arrival_time":"12:56:00","departure_time":"13:04:00","lat":48.949155,"lon":17.381792,"is_passed":false}]