[{"stop_id":"U19316Z40","name":"Veselí nad Moravou, železniční stanice","arrival_time":"13:04:00","departure_time":"13:04:00","lat":48.949235,"lon":17.382003,"is_passed":false},{"stop_id":"U19400Z21","name":"Blatnice pod Sv. Antonínkem, křižovatka","arrival_time":"13:10:00","departure_time":"13:10:00","lat":48.94552,"lon":17.462642,"is_passed":false},{"stop_id":"U19414Z1","name":"Louka, obecní úřad","arrival_time":"13:14:00","departure_time":"13:14:00","lat":48.915773,"lon":17.486195,"is_passed":false},{"stop_id":"U19525Z11","name":"Velká nad Veličkou","arrival_time":"13:19:00","departure_time":"13:20:00","lat":48.87941,"lon":17.518443,"is_passed":false},{"stop_id":"U29502Z2","name":"Javorník nad Veličkou zastávka","arrival_time":"13:23:00","departure_time":"13:23:00","lat":48.862102,"lon":17.522429,"is_passed":false},{"stop_id":"U29501Z21","name":"Vrbovce","arrival_time":"13:27:00","departure_time":"13:40:00","lat":48.824135,"lon":17.515827,"is_passed":false},{"stop_id":"U29504Z20","name":"Vrbovce zastávka","arrival_time":"13:47:00","departure_time":"13:47:00","lat":48.804895,"lon":17.529576,"is_passed":false},{"stop_id":"U29602Z20","name":"Myjava","arrival_time":"13:51:00","departure_time":"14:07:00","lat":48.763386,"lon":17.570662,"is_passed":false}]