[{"stop_id":"U19001Z21","name":"Hodonín, autobusové nádraží","arrival_time":"4:31:00","departure_time":"4:31:00","lat":48.85575,"lon":17.12069,"is_passed":false},{"stop_id":"U29102Z11","name":"Rohatec zastávka","arrival_time":"4:35:00","departure_time":"4:36:00","lat":48.88309,"lon":17.178111,"is_passed":false},{"stop_id":"U29103Z11","name":"Rohatec","arrival_time":"4:38:00","departure_time":"4:38:00","lat":48.892515,"lon":17.197852,"is_passed":false},{"stop_id":"U29104Z11","name":"Rohatec kolonie","arrival_time":"4:41:00","departure_time":"4:41:00","lat":48.892642,"lon":17.212111,"is_passed":false},{"stop_id":"U29202Z11","name":"Sudoměřice nad Moravou","arrival_time":"4:46:00","departure_time":"4:48:00","lat":48.871653,"lon":17.243039,"is_passed":false},{"stop_id":"U29201Z11","name":"Petrov","arrival_time":"4:51:00","departure_time":"4:51:00","lat":48.878911,"lon":17.273703,"is_passed":false},{"stop_id":"U19205Z11","name":"Strážnice, aut. st.","arrival_time":"4:55:00","departure_time":"4:56:00","lat":48.897385,"lon":17.317688,"is_passed":false},{"stop_id":"U29303Z11","name":"Vnorovy","arrival_time":"5:00:00","departure_time":"5:01:00","lat":48.931508,"lon":17.348464,"is_passed":false},{"stop_id":"U29302Z11","name":"Veselí nad Moravou-Zarazice","arrival_time":"5:03:00","departure_time":"5:03:00","lat":48.937236,"lon":17.361306,"is_passed":false},{"stop_id":"U19316Z11","name":"Veselí nad Moravou, železniční stanice","arrival_time":"5:06:00","departure_time":"5:12:00","lat":48.948694,"lon":17.382439,"is_passed":false},{"stop_id":"U29403Z11","name":"Blatnice pod Sv. Antonínkem","arrival_time":"5:16:00","departure_time":"5:16:00","lat":48.941163,"lon":17.437706,"is_passed":false},{"stop_id":"U29402Z11","name":"Lipov","arrival_time":"5:21:00","departure_time":"5:21:00","lat":48.909806,"lon":17.457953,"is_passed":false},{"stop_id":"U29401Z11","name":"Louka u Ostrohu","arrival_time":"5:24:00","departure_time":"5:25:00","lat":48.912234,"lon":17.484226,"is_passed":false},{"stop_id":"U19530Z11","name":"Velká nad Veličkou, železniční stanice","arrival_time":"5:30:00","departure_time":"5:32:00","lat":48.878631,"lon":17.51092,"is_passed":false},{"stop_id":"U29502Z11","name":"Javorník nad Veličkou zastávka","arrival_time":"5:34:00","departure_time":"5:34:00","lat":48.860802,"lon":17.520722,"is_passed":false},{"stop_id":"U29501Z11","name":"Vrbovce","arrival_time":"5:40:00","departure_time":"5:41:00","lat":48.824439,"lon":17.516352,"is_passed":false},{"stop_id":"U29504Z2","name":"Vrbovce zastávka","arrival_time":"5:44:00","departure_time":"5:45:00","lat":48.804784,"lon":17.52869,"is_passed":false},{"stop_id":"U29601Z2","name":"Brestovec","arrival_time":"5:48:00","departure_time":"5:48:00","lat":48.786012,"lon":17.557593,"is_passed":false},{"stop_id":"U29602Z2","name":"Myjava","arrival_time":"5:52:00","departure_time":"6:18:00","lat":48.763641,"lon":17.570897,"is_passed":false}]