[{"stop_id":"U17423Z13","name":"Vyškov, Autobusové nádraží","arrival_time":"10:19:00","departure_time":"10:19:00","lat":49.275873,"lon":16.99145,"is_passed":false},{"stop_id":"U17446Z1","name":"Vyškov, železniční stanice","arrival_time":"10:20:00","departure_time":"10:20:00","lat":49.278115,"lon":16.992202,"is_passed":false},{"stop_id":"U17457Z1","name":"Vyškov, Dukelská, u čistírny","arrival_time":"10:24:00","departure_time":"10:24:00","lat":49.280611,"lon":17.000061,"is_passed":false},{"stop_id":"U17419Z1","name":"Vyškov, Tržiště","arrival_time":"10:26:00","departure_time":"10:26:00","lat":49.280161,"lon":17.007042,"is_passed":false},{"stop_id":"U17454Z1","name":"Vyškov, Marchanice","arrival_time":"10:28:00","departure_time":"10:28:00","lat":49.28278,"lon":17.024281,"is_passed":false},{"stop_id":"U17451Z1","name":"Křižanovice u Vyškova, rozcestí","arrival_time":"10:29:00","departure_time":"10:29:00","lat":49.28372,"lon":17.036743,"is_passed":false},{"stop_id":"U17511Z1","name":"Hoštice-Heroltice, Hoštice, kostel","arrival_time":"10:33:00","departure_time":"10:33:00","lat":49.287386,"lon":17.065631,"is_passed":false},{"stop_id":"U17528Z1","name":"Hoštice-Heroltice, Heroltice, náves","arrival_time":"10:34:00","departure_time":"10:34:00","lat":49.28575,"lon":17.058213,"is_passed":false},{"stop_id":"U17512Z1","name":"Rybníček, statek","arrival_time":"10:36:00","departure_time":"10:36:00","lat":49.277858,"lon":17.065532,"is_passed":false},{"stop_id":"U17519Z1","name":"Rybníček","arrival_time":"10:37:00","departure_time":"10:37:00","lat":49.275875,"lon":17.072653,"is_passed":false},{"stop_id":"U17517Z1","name":"Medlovice, rozcestí","arrival_time":"10:40:00","departure_time":"10:40:00","lat":49.277998,"lon":17.093088,"is_passed":false},{"stop_id":"U17520Z1","name":"Švábenice","arrival_time":"10:45:00","departure_time":"10:45:00","lat":49.278648,"lon":17.122928,"is_passed":false},{"stop_id":"U17510Z1","name":"Dětkovice","arrival_time":"10:48:00","departure_time":"10:48:00","lat":49.272352,"lon":17.144485,"is_passed":false},{"stop_id":"U17604Z1","name":"Pačlavice","arrival_time":"10:51:00","departure_time":"11:04:00","lat":49.259808,"lon":17.168328,"is_passed":false}]