[{"stop_id":"U18216Z1","name":"Oleksovice, hostinec","arrival_time":"14:18:00","departure_time":"14:18:00","lat":48.901862,"lon":16.25005,"is_passed":false},{"stop_id":"U18218Z1","name":"Oleksovice, u potoka","arrival_time":"14:19:00","departure_time":"14:19:00","lat":48.904674,"lon":16.243663,"is_passed":false},{"stop_id":"U18224Z1","name":"Vítonice","arrival_time":"14:26:00","departure_time":"14:26:00","lat":48.916498,"lon":16.20106,"is_passed":false},{"stop_id":"U18219Z1","name":"Prosiměřice, hostinec","arrival_time":"14:29:00","departure_time":"14:29:00","lat":48.902423,"lon":16.192625,"is_passed":false},{"stop_id":"U18223Z2","name":"Stošíkovice na Louce, rozcestí","arrival_time":"14:31:00","departure_time":"14:31:00","lat":48.889731,"lon":16.196426,"is_passed":false},{"stop_id":"U18117Z2","name":"Bantice","arrival_time":"14:34:00","departure_time":"14:34:00","lat":48.88313,"lon":16.184438,"is_passed":false},{"stop_id":"U18135Z1","name":"Těšetice, na hlavní","arrival_time":"14:37:00","departure_time":"14:37:00","lat":48.887956,"lon":16.157624,"is_passed":false},{"stop_id":"U18116Z1","name":"Suchohrdly, Purkrábka","arrival_time":"14:42:00","departure_time":"14:42:00","lat":48.868878,"lon":16.106653,"is_passed":false},{"stop_id":"U18115Z1","name":"Suchohrdly, kurty","arrival_time":"14:44:00","departure_time":"14:44:00","lat":48.868297,"lon":16.096222,"is_passed":false},{"stop_id":"U18110Z2","name":"Suchohrdly, prodejna","arrival_time":"14:45:00","departure_time":"14:45:00","lat":48.866425,"lon":16.089202,"is_passed":false},{"stop_id":"U18002Z2","name":"Znojmo, Suchohrdelská, hřbitov","arrival_time":"14:48:00","departure_time":"14:48:00","lat":48.857448,"lon":16.066435,"is_passed":false},{"stop_id":"U18009Z51","name":"Znojmo, autobusové nádraží","arrival_time":"14:50:00","departure_time":"14:50:00","lat":48.851908,"lon":16.056983,"is_passed":false}]