[{"stop_id":"U18253Z2","name":"Lesná, penzion","arrival_time":"7:07:00","departure_time":"7:07:00","lat":48.90747,"lon":15.86739,"is_passed":false},{"stop_id":"U18260Z2","name":"Vracovice","arrival_time":"7:10:00","departure_time":"7:10:00","lat":48.89987,"lon":15.89986,"is_passed":false},{"stop_id":"U18155Z2","name":"Milíčovice, na státní","arrival_time":"7:13:00","departure_time":"7:13:00","lat":48.888592,"lon":15.93307,"is_passed":false},{"stop_id":"U18141Z2","name":"Citonice","arrival_time":"7:16:00","departure_time":"7:16:00","lat":48.881123,"lon":15.968332,"is_passed":false},{"stop_id":"U18075Z2","name":"Znojmo, Pražská, sídliště","arrival_time":"7:22:00","departure_time":"7:22:00","lat":48.868261,"lon":16.032958,"is_passed":false},{"stop_id":"U18012Z1","name":"Znojmo, Pražská, Kolonka","arrival_time":"7:23:00","departure_time":"7:23:00","lat":48.862898,"lon":16.042294,"is_passed":false},{"stop_id":"U18011Z2","name":"Znojmo, nám.Svobody, lázně","arrival_time":"7:25:00","departure_time":"7:25:00","lat":48.860435,"lon":16.049027,"is_passed":false},{"stop_id":"U18010Z1","name":"Znojmo, nám.Komenského","arrival_time":"7:27:00","departure_time":"7:27:00","lat":48.856406,"lon":16.053424,"is_passed":false},{"stop_id":"U18009Z51","name":"Znojmo, autobusové nádraží","arrival_time":"7:30:00","departure_time":"7:35:00","lat":48.851908,"lon":16.056983,"is_passed":false}]