[{"stop_id":"U15632Z3","name":"Hrušovany nad Jevišovkou, Lidická, VÚPP","arrival_time":"11:33:00","departure_time":"11:33:00","lat":48.831517,"lon":16.401898,"is_passed":false},{"stop_id":"U15636Z2","name":"Hrušovany nad Jevišovkou, Znojemská","arrival_time":"11:35:00","departure_time":"11:35:00","lat":48.829857,"lon":16.394073,"is_passed":false},{"stop_id":"U15638Z2","name":"Pravice","arrival_time":"11:38:00","departure_time":"11:38:00","lat":48.843938,"lon":16.361952,"is_passed":false},{"stop_id":"U15546Z2","name":"Břežany, u hostince","arrival_time":"11:42:00","departure_time":"11:42:00","lat":48.867867,"lon":16.344198,"is_passed":false},{"stop_id":"U15547Z2","name":"Břežany, u pošty","arrival_time":"11:44:00","departure_time":"11:44:00","lat":48.870177,"lon":16.339543,"is_passed":false},{"stop_id":"U15548Z2","name":"Břežany, u statku","arrival_time":"11:45:00","departure_time":"11:45:00","lat":48.872375,"lon":16.33823,"is_passed":false},{"stop_id":"U15566Z2","name":"Břežany, osada Ležák","arrival_time":"11:47:00","departure_time":"11:47:00","lat":48.887033,"lon":16.347558,"is_passed":false},{"stop_id":"U15551Z2","name":"Dolenice","arrival_time":"11:52:00","departure_time":"11:52:00","lat":48.909272,"lon":16.364848,"is_passed":false},{"stop_id":"U15550Z1","name":"Damnice","arrival_time":"11:54:00","departure_time":"11:54:00","lat":48.920138,"lon":16.373542,"is_passed":false},{"stop_id":"U15552Z3","name":"Jiřice u Miroslavi","arrival_time":"11:57:00","departure_time":"11:57:00","lat":48.920697,"lon":16.39138,"is_passed":false},{"stop_id":"U15550Z1","name":"Damnice","arrival_time":"12:00:00","departure_time":"12:00:00","lat":48.920138,"lon":16.373542,"is_passed":false},{"stop_id":"U14552Z14","name":"Miroslav, rozcestí","arrival_time":"12:05:00","departure_time":"12:05:00","lat":48.933498,"lon":16.362293,"is_passed":false},{"stop_id":"U14565Z2","name":"Suchohrdly u Miroslavi","arrival_time":"12:07:00","departure_time":"12:07:00","lat":48.942994,"lon":16.363104,"is_passed":false},{"stop_id":"U14552Z4","name":"Miroslav, rozcestí","arrival_time":"12:10:00","departure_time":"12:10:00","lat":48.933498,"lon":16.362293,"is_passed":false},{"stop_id":"U14551Z2","name":"Miroslav, Réna","arrival_time":"12:12:00","departure_time":"12:12:00","lat":48.93358,"lon":16.337223,"is_passed":false},{"stop_id":"U14550Z2","name":"Miroslav, provozovna ČAS","arrival_time":"12:14:00","departure_time":"12:14:00","lat":48.941947,"lon":16.321227,"is_passed":false},{"stop_id":"U14554Z2","name":"Miroslav, statek","arrival_time":"12:15:00","departure_time":"12:15:00","lat":48.945973,"lon":16.317908,"is_passed":false},{"stop_id":"U14546Z2","name":"Miroslav, autobusové nádraží","arrival_time":"12:18:00","departure_time":"12:18:00","lat":48.946832,"lon":16.313061,"is_passed":false},{"stop_id":"U14548Z2","name":"Miroslav, jesle","arrival_time":"12:21:00","departure_time":"12:21:00","lat":48.945453,"lon":16.308063,"is_passed":false},{"stop_id":"U14542Z2","name":"Hostěradice, lom","arrival_time":"12:25:00","departure_time":"12:25:00","lat":48.947002,"lon":16.264753,"is_passed":false},{"stop_id":"U14543Z1","name":"Hostěradice, náměstí","arrival_time":"12:26:00","departure_time":"12:26:00","lat":48.950642,"lon":16.259606,"is_passed":false},{"stop_id":"U14544Z1","name":"Hostěradice, Chlupice","arrival_time":"12:28:00","departure_time":"12:28:00","lat":48.951305,"lon":16.242857,"is_passed":false},{"stop_id":"U14564Z2","name":"Skalice, sokolovna","arrival_time":"12:31:00","departure_time":"12:31:00","lat":48.961453,"lon":16.223723,"is_passed":false},{"stop_id":"U18303Z4","name":"Morašice","arrival_time":"12:34:00","departure_time":"12:34:00","lat":48.957353,"lon":16.20921,"is_passed":false},{"stop_id":"U18309Z1","name":"Želetice, škola","arrival_time":"12:38:00","departure_time":"12:38:00","lat":48.93887,"lon":16.181972,"is_passed":false},{"stop_id":"U18308Z1","name":"Želetice, Jednota","arrival_time":"12:39:00","departure_time":"12:39:00","lat":48.93553,"lon":16.182615,"is_passed":false},{"stop_id":"U18302Z1","name":"Horní Dunajovice, Domčice","arrival_time":"12:41:00","departure_time":"12:41:00","lat":48.946078,"lon":16.167222,"is_passed":false},{"stop_id":"U18301Z1","name":"Horní Dunajovice, obecní úřad","arrival_time":"12:42:00","departure_time":"12:42:00","lat":48.950265,"lon":16.15987,"is_passed":false},{"stop_id":"U18305Z1","name":"Višňové, Mrazírny","arrival_time":"12:47:00","departure_time":"12:47:00","lat":48.97835,"lon":16.148018,"is_passed":false},{"stop_id":"U18306Z1","name":"Višňové, náměstí","arrival_time":"12:49:00","departure_time":"12:49:00","lat":48.982684,"lon":16.1501,"is_passed":false},{"stop_id":"U18307Z4","name":"Višňové, škola","arrival_time":"12:51:00","departure_time":"12:51:00","lat":48.984007,"lon":16.15439,"is_passed":false},{"stop_id":"U14713Z1","name":"Medlice, křižovatka","arrival_time":"12:56:00","departure_time":"12:56:00","lat":49.006317,"lon":16.125863,"is_passed":false},{"stop_id":"U14715Z1","name":"Přeskače, obec","arrival_time":"12:59:00","departure_time":"12:59:00","lat":49.015115,"lon":16.107128,"is_passed":false},{"stop_id":"U14720Z1","name":"Tavíkovice, Dobronice","arrival_time":"13:03:00","departure_time":"13:03:00","lat":49.020443,"lon":16.077052,"is_passed":false},{"stop_id":"U14725Z1","name":"Tavíkovice, Oseva","arrival_time":"13:07:00","departure_time":"13:07:00","lat":49.032868,"lon":16.103444,"is_passed":false},{"stop_id":"U14718Z51","name":"Tavíkovice, hostinec","arrival_time":"13:10:00","departure_time":"13:10:00","lat":49.031764,"lon":16.106443,"is_passed":false}]