[{"stop_id":"U1696Z11","name":"ÚAN Zvonařka","arrival_time":"13:55:00","departure_time":"13:55:00","lat":49.185364,"lon":16.616151,"is_passed":false},{"stop_id":"U1622Z2","name":"Strážní","arrival_time":"13:58:00","departure_time":"13:58:00","lat":49.178477,"lon":16.603646,"is_passed":false},{"stop_id":"U1703Z6","name":"Ústřední hřbitov","arrival_time":"14:01:00","departure_time":"14:01:00","lat":49.170744,"lon":16.597612,"is_passed":false},{"stop_id":"U15137Z10","name":"Modřice, Tyršova","arrival_time":"14:07:00","departure_time":"14:07:00","lat":49.130136,"lon":16.603469,"is_passed":false},{"stop_id":"U15379Z1","name":"Pohořelice, průmyslová zóna východ","arrival_time":"14:20:00","departure_time":"14:20:00","lat":48.989921,"lon":16.539353,"is_passed":false},{"stop_id":"U15315Z1","name":"Pohořelice, Brněnská","arrival_time":"14:21:00","departure_time":"14:21:00","lat":48.984843,"lon":16.529998,"is_passed":false},{"stop_id":"U15317Z6","name":"Pohořelice, náměstí","arrival_time":"14:23:00","departure_time":"14:25:00","lat":48.980709,"lon":16.521906,"is_passed":false},{"stop_id":"U15320Z1","name":"Pohořelice, obchodní akademie","arrival_time":"14:27:00","departure_time":"14:27:00","lat":48.978628,"lon":16.505258,"is_passed":false},{"stop_id":"U14011Z1","name":"Branišovice, státní silnice","arrival_time":"14:33:00","departure_time":"14:33:00","lat":48.959107,"lon":16.428737,"is_passed":false},{"stop_id":"U14024Z1","name":"Trnové Pole, rozcestí","arrival_time":"14:35:00","departure_time":"14:35:00","lat":48.955275,"lon":16.413453,"is_passed":false},{"stop_id":"U14552Z1","name":"Miroslav, rozcestí","arrival_time":"14:40:00","departure_time":"14:40:00","lat":48.933498,"lon":16.362293,"is_passed":false},{"stop_id":"U14557Z1","name":"Miroslav, Kašenec, státní silnice","arrival_time":"14:43:00","departure_time":"14:43:00","lat":48.918435,"lon":16.33352,"is_passed":false},{"stop_id":"U15557Z1","name":"Mackovice, rozcestí","arrival_time":"14:46:00","departure_time":"14:46:00","lat":48.900637,"lon":16.292692,"is_passed":false},{"stop_id":"U18217Z1","name":"Oleksovice, rozcestí","arrival_time":"14:49:00","departure_time":"14:49:00","lat":48.887532,"lon":16.260192,"is_passed":false},{"stop_id":"U18215Z1","name":"Lechovice, zámek","arrival_time":"14:52:00","departure_time":"14:52:00","lat":48.875338,"lon":16.236347,"is_passed":false},{"stop_id":"U18214Z1","name":"Lechovice, obecní úřad","arrival_time":"14:55:00","departure_time":"14:55:00","lat":48.872558,"lon":16.222179,"is_passed":false},{"stop_id":"U18009Z51","name":"Znojmo, autobusové nádraží","arrival_time":"15:10:00","departure_time":"15:42:00","lat":48.851908,"lon":16.056983,"is_passed":false}]