[{"stop_id":"U1146Z98","name":"Hlavní nádraží","arrival_time":"8:35:00","departure_time":"8:35:00","lat":49.19035,"lon":16.612342,"is_passed":false},{"stop_id":"U15425Z11","name":"Šakvice, železniční stanice","arrival_time":"8:53:00","departure_time":"8:55:00","lat":48.912883,"lon":16.70557,"is_passed":false},{"stop_id":"U15537Z11","name":"Zaječí, železniční stanice","arrival_time":"8:59:00","departure_time":"9:00:00","lat":48.889637,"lon":16.781831,"is_passed":false},{"stop_id":"U15619Z11","name":"Podivín, železniční stanice","arrival_time":"9:05:00","departure_time":"9:06:00","lat":48.837726,"lon":16.853526,"is_passed":false},{"stop_id":"U15729Z11","name":"Břeclav, autobusové nádraží","arrival_time":"9:13:00","departure_time":"9:21:00","lat":48.753851,"lon":16.893169,"is_passed":false},{"stop_id":"U19001Z21","name":"Hodonín, autobusové nádraží","arrival_time":"9:33:00","departure_time":"9:37:00","lat":48.85575,"lon":17.12069,"is_passed":false},{"stop_id":"U19302Z11","name":"Moravský Písek, Kolonie, žel. stanice","arrival_time":"9:47:00","departure_time":"9:49:00","lat":48.977119,"lon":17.314582,"is_passed":false},{"stop_id":"U31028Z11","name":"Staré Město u Uherského Hradiště","arrival_time":"9:56:00","departure_time":"11:57:00","lat":49.076212,"lon":17.422903,"is_passed":false}]