[{"stop_id":"U12810Z1","name":"Cetkovice","arrival_time":"5:28:00","departure_time":"5:28:00","lat":49.577921,"lon":16.721165,"is_passed":false},{"stop_id":"U12821Z1","name":"Světlá","arrival_time":"5:30:00","departure_time":"5:30:00","lat":49.565807,"lon":16.717958,"is_passed":false},{"stop_id":"U12745Z2","name":"Šebetov","arrival_time":"5:33:00","departure_time":"5:33:00","lat":49.549295,"lon":16.70985,"is_passed":false},{"stop_id":"U12705Z1","name":"Knínice, horní zastávka","arrival_time":"5:35:00","departure_time":"5:35:00","lat":49.539683,"lon":16.702813,"is_passed":false},{"stop_id":"U12704Z1","name":"Knínice, Městečko","arrival_time":"5:37:00","departure_time":"5:37:00","lat":49.539615,"lon":16.69428,"is_passed":false},{"stop_id":"U12711Z1","name":"Knínice, U Nádraží","arrival_time":"5:38:00","departure_time":"5:38:00","lat":49.535502,"lon":16.689879,"is_passed":false},{"stop_id":"U12752Z1","name":"Vážany","arrival_time":"5:39:00","departure_time":"5:39:00","lat":49.530415,"lon":16.685962,"is_passed":false},{"stop_id":"U12741Z1","name":"Sudice","arrival_time":"5:41:00","departure_time":"5:41:00","lat":49.529338,"lon":16.669178,"is_passed":false},{"stop_id":"U12744Z1","name":"Sudice, zast.","arrival_time":"5:43:00","departure_time":"5:43:00","lat":49.525527,"lon":16.66957,"is_passed":false},{"stop_id":"U12742Z1","name":"Sudice, samota","arrival_time":"5:45:00","departure_time":"5:45:00","lat":49.517825,"lon":16.664367,"is_passed":false},{"stop_id":"U12659Z1","name":"Boskovice, podnikatelský park","arrival_time":"5:47:00","departure_time":"5:47:00","lat":49.498843,"lon":16.665685,"is_passed":false},{"stop_id":"U12655Z2","name":"Boskovice, Sokolská","arrival_time":"5:50:00","departure_time":"5:50:00","lat":49.49097,"lon":16.660723,"is_passed":false},{"stop_id":"U12635Z22","name":"Boskovice, aut.st.","arrival_time":"5:52:00","departure_time":"7:05:00","lat":49.491367,"lon":16.652925,"is_passed":false}]