[{"stop_id":"U1343Z1","name":"ARENA BRNO","arrival_time":"4:50:00","departure_time":"4:50:00","lat":49.191523,"lon":16.576065,"is_passed":false},{"stop_id":"U1487Z3","name":"Pisárky","arrival_time":"4:52:00","departure_time":"4:52:00","lat":49.194099,"lon":16.569741,"is_passed":false},{"stop_id":"U1041Z1","name":"Bráfova","arrival_time":"4:54:00","departure_time":"4:54:00","lat":49.206955,"lon":16.570536,"is_passed":false},{"stop_id":"U1621Z1","name":"Stránského","arrival_time":"4:55:00","departure_time":"4:55:00","lat":49.211954,"lon":16.568673,"is_passed":false},{"stop_id":"U1217Z1","name":"Vozovna Komín","arrival_time":"4:57:00","departure_time":"4:57:00","lat":49.2132,"lon":16.559792,"is_passed":false},{"stop_id":"U1633Z1","name":"Svratecká","arrival_time":"4:58:00","departure_time":"4:58:00","lat":49.217898,"lon":16.553656,"is_passed":false},{"stop_id":"U1042Z1","name":"Branka","arrival_time":"4:59:00","departure_time":"4:59:00","lat":49.219419,"lon":16.54726,"is_passed":false},{"stop_id":"U1493Z1","name":"Podlesí","arrival_time":"5:00:00","departure_time":"5:00:00","lat":49.218711,"lon":16.542392,"is_passed":false},{"stop_id":"U1226Z1","name":"Kamenolom","arrival_time":"5:01:00","departure_time":"5:01:00","lat":49.221657,"lon":16.536794,"is_passed":false},{"stop_id":"U1796Z1","name":"Zoologická zahrada","arrival_time":"5:03:00","departure_time":"5:03:00","lat":49.227674,"lon":16.532002,"is_passed":false},{"stop_id":"U1527Z1","name":"Přístaviště","arrival_time":"5:04:00","departure_time":"5:04:00","lat":49.22814,"lon":16.521658,"is_passed":false},{"stop_id":"U1537Z1","name":"Rakovecká","arrival_time":"5:06:00","departure_time":"5:19:00","lat":49.225877,"lon":16.518739,"is_passed":false}]