[{"stop_id":"U16345Z2","name":"Klobouky u Brna, náměstí","arrival_time":"16:01:00","departure_time":"16:01:00","lat":48.99538,"lon":16.85736,"is_passed":false},{"stop_id":"U16347Z2","name":"Klobouky u Brna, rozcestí","arrival_time":"16:03:00","departure_time":"16:03:00","lat":49.000636,"lon":16.862186,"is_passed":false},{"stop_id":"U16344Z2","name":"Klobouky u Brna, Martinice, rozcestí","arrival_time":"16:06:00","departure_time":"16:06:00","lat":49.013667,"lon":16.828293,"is_passed":false},{"stop_id":"U16342Z2","name":"Borkovany, Štoček","arrival_time":"16:09:00","departure_time":"16:09:00","lat":49.024797,"lon":16.812873,"is_passed":false},{"stop_id":"U16340Z2","name":"Borkovany","arrival_time":"16:10:00","departure_time":"16:10:00","lat":49.028703,"lon":16.80985,"is_passed":false},{"stop_id":"U16341Z2","name":"Borkovany, Tomášov","arrival_time":"16:12:00","departure_time":"16:12:00","lat":49.029167,"lon":16.8048,"is_passed":false},{"stop_id":"U15226Z2","name":"Těšany","arrival_time":"16:15:00","departure_time":"16:15:00","lat":49.039503,"lon":16.770935,"is_passed":false},{"stop_id":"U15227Z2","name":"Těšany, u váhy","arrival_time":"16:16:00","departure_time":"16:16:00","lat":49.041007,"lon":16.765215,"is_passed":false},{"stop_id":"U15223Z2","name":"Moutnice, střed","arrival_time":"16:19:00","departure_time":"16:19:00","lat":49.049157,"lon":16.73739,"is_passed":false},{"stop_id":"U15232Z2","name":"Moutnice, Rozařín","arrival_time":"16:21:00","departure_time":"16:21:00","lat":49.05312,"lon":16.737877,"is_passed":false},{"stop_id":"U15167Z1","name":"Měnín, rozcestí","arrival_time":"16:25:00","departure_time":"16:25:00","lat":49.087318,"lon":16.716476,"is_passed":false},{"stop_id":"U16138Z4","name":"Telnice","arrival_time":"16:27:00","departure_time":"16:27:00","lat":49.1024,"lon":16.717463,"is_passed":false},{"stop_id":"U16147Z2","name":"Sokolnice, rozvodna","arrival_time":"16:29:00","departure_time":"16:29:00","lat":49.114771,"lon":16.705095,"is_passed":false},{"stop_id":"U1681Z4","name":"Tuřany, smyčka","arrival_time":"16:33:00","departure_time":"16:33:00","lat":49.142326,"lon":16.666375,"is_passed":false},{"stop_id":"U1131Z2","name":"Hanácká","arrival_time":"16:35:00","departure_time":"16:35:00","lat":49.146706,"lon":16.667371,"is_passed":false},{"stop_id":"U1191Z2","name":"Ivanovické náměstí","arrival_time":"16:38:00","departure_time":"16:38:00","lat":49.153629,"lon":16.653755,"is_passed":false},{"stop_id":"U1533Z2","name":"Ráječek","arrival_time":"16:40:00","departure_time":"16:40:00","lat":49.161397,"lon":16.637387,"is_passed":false},{"stop_id":"U1361Z4","name":"Mariánské náměstí","arrival_time":"16:44:00","departure_time":"16:44:00","lat":49.177094,"lon":16.621935,"is_passed":false},{"stop_id":"U1807Z2","name":"Železniční","arrival_time":"16:46:00","departure_time":"16:46:00","lat":49.183322,"lon":16.619338,"is_passed":false},{"stop_id":"U1696Z21","name":"ÚAN Zvonařka","arrival_time":"16:50:00","departure_time":"17:14:00","lat":49.185364,"lon":16.616151,"is_passed":false}]