[{"stop_id":"U18009Z23","name":"Znojmo, autobusové nádraží","arrival_time":"6:55:00","departure_time":"6:55:00","lat":48.852761,"lon":16.059287,"is_passed":false},{"stop_id":"U28001Z1","name":"Znojmo-Nový Šaldorf","arrival_time":"6:59:00","departure_time":"7:00:00","lat":48.820061,"lon":16.044266,"is_passed":false},{"stop_id":"U18168Z11","name":"Šatov, železniční stanice","arrival_time":"7:05:00","departure_time":"7:06:00","lat":48.780786,"lon":16.026006,"is_passed":false},{"stop_id":"U31033Z1","name":"Unterretzbach","arrival_time":"7:08:00","departure_time":"7:09:00","lat":48.764701,"lon":16.007784,"is_passed":false},{"stop_id":"U31034Z11","name":"Retz","arrival_time":"7:14:00","departure_time":"7:14:00","lat":48.753724,"lon":15.957444,"is_passed":false}]