[{"stop_id":"U15729Z14","name":"Břeclav, autobusové nádraží","arrival_time":"21:42:00","departure_time":"21:42:00","lat":48.753851,"lon":16.893169,"is_passed":false},{"stop_id":"U25702Z10","name":"Boří les","arrival_time":"21:45:00","departure_time":"21:45:00","lat":48.737922,"lon":16.866996,"is_passed":false},{"stop_id":"U15828Z10","name":"Valtice, železniční zastávka","arrival_time":"21:52:00","departure_time":"21:53:00","lat":48.748776,"lon":16.762369,"is_passed":false},{"stop_id":"U25701Z10","name":"Sedlec u Mikulova","arrival_time":"21:58:00","departure_time":"22:00:00","lat":48.774739,"lon":16.696954,"is_passed":false},{"stop_id":"U15714Z10","name":"Mikulov, železniční stanice","arrival_time":"22:05:00","departure_time":"22:10:00","lat":48.802203,"lon":16.625492,"is_passed":false},{"stop_id":"U25601Z10","name":"Březí","arrival_time":"22:15:00","departure_time":"22:15:00","lat":48.812925,"lon":16.554169,"is_passed":false},{"stop_id":"U25602Z10","name":"Dobré Pole","arrival_time":"22:17:00","departure_time":"22:17:00","lat":48.820008,"lon":16.533833,"is_passed":false},{"stop_id":"U15563Z10","name":"Novosedly, železniční stanice","arrival_time":"22:22:00","departure_time":"22:22:00","lat":48.825719,"lon":16.49405,"is_passed":false},{"stop_id":"U25505Z10","name":"Jevišovka","arrival_time":"22:25:00","departure_time":"22:25:00","lat":48.820272,"lon":16.467125,"is_passed":false},{"stop_id":"U15637Z10","name":"Hrušovany nad Jevišovkou, žel. st.","arrival_time":"22:32:00","departure_time":"22:33:00","lat":48.810029,"lon":16.383137,"is_passed":false},{"stop_id":"U18208Z10","name":"Božice, železniční stanice","arrival_time":"22:41:00","departure_time":"22:41:00","lat":48.823282,"lon":16.287832,"is_passed":false},{"stop_id":"U28101Z10","name":"Hodonice","arrival_time":"22:50:00","departure_time":"22:50:00","lat":48.841514,"lon":16.164403,"is_passed":false},{"stop_id":"U28102Z10","name":"Dyje","arrival_time":"22:54:00","departure_time":"22:54:00","lat":48.850047,"lon":16.1205,"is_passed":false},{"stop_id":"U18009Z20","name":"Znojmo, autobusové nádraží","arrival_time":"23:00:00","departure_time":"23:00:00","lat":48.852761,"lon":16.059287,"is_passed":false}]