[{"stop_id":"U1423Z1","name":"Náměstí Svobody","arrival_time":"8:07:00","departure_time":"8:07:00","lat":49.19564,"lon":16.607991,"is_passed":false},{"stop_id":"U1073Z1","name":"Česká","arrival_time":"8:09:00","departure_time":"8:09:00","lat":49.197618,"lon":16.605584,"is_passed":false},{"stop_id":"U1257Z1","name":"Komenského náměstí","arrival_time":"8:10:00","departure_time":"8:10:00","lat":49.197047,"lon":16.601844,"is_passed":false},{"stop_id":"U1442Z1","name":"Obilní trh","arrival_time":"8:11:00","departure_time":"8:11:00","lat":49.198221,"lon":16.597478,"is_passed":false},{"stop_id":"U1712Z1","name":"Úvoz","arrival_time":"8:12:00","departure_time":"8:12:00","lat":49.19829,"lon":16.59265,"is_passed":false},{"stop_id":"U1762Z1","name":"Všetičkova","arrival_time":"8:13:00","departure_time":"8:13:00","lat":49.198749,"lon":16.588757,"is_passed":false},{"stop_id":"U1371Z1","name":"Náměstí Míru","arrival_time":"8:16:00","departure_time":"8:24:00","lat":49.202197,"lon":16.582014,"is_passed":false}]