[{"stop_id":"U1371Z2","name":"Náměstí Míru","arrival_time":"12:24:00","departure_time":"12:24:00","lat":49.201971,"lon":16.581885,"is_passed":false},{"stop_id":"U1137Z1","name":"Heinrichova","arrival_time":"12:24:00","departure_time":"12:24:00","lat":49.200413,"lon":16.584511,"is_passed":false},{"stop_id":"U1762Z2","name":"Všetičkova","arrival_time":"12:26:00","departure_time":"12:26:00","lat":49.198648,"lon":16.589335,"is_passed":false},{"stop_id":"U1712Z2","name":"Úvoz","arrival_time":"12:27:00","departure_time":"12:27:00","lat":49.198275,"lon":16.593189,"is_passed":false},{"stop_id":"U1442Z2","name":"Obilní trh","arrival_time":"12:28:00","departure_time":"12:28:00","lat":49.198022,"lon":16.598215,"is_passed":false},{"stop_id":"U1257Z2","name":"Komenského náměstí","arrival_time":"12:30:00","departure_time":"12:30:00","lat":49.197135,"lon":16.602612,"is_passed":false},{"stop_id":"U1073Z2","name":"Česká","arrival_time":"12:32:00","departure_time":"12:32:00","lat":49.197702,"lon":16.606463,"is_passed":false},{"stop_id":"U1423Z1","name":"Náměstí Svobody","arrival_time":"12:33:00","departure_time":"12:47:00","lat":49.19564,"lon":16.607991,"is_passed":false}]