[{"stop_id":"U1646Z2","name":"Štefánikova čtvrť","arrival_time":"15:51:00","departure_time":"15:51:00","lat":49.217169,"lon":16.627801,"is_passed":false},{"stop_id":"U1731Z2","name":"Venhudova","arrival_time":"15:52:00","departure_time":"15:52:00","lat":49.212541,"lon":16.62512,"is_passed":false},{"stop_id":"U1782Z2","name":"Zdráhalova","arrival_time":"15:53:00","departure_time":"15:53:00","lat":49.209742,"lon":16.623799,"is_passed":false},{"stop_id":"U1211Z4","name":"Jugoslávská","arrival_time":"15:54:00","departure_time":"15:54:00","lat":49.204725,"lon":16.624081,"is_passed":false},{"stop_id":"U1086Z2","name":"Dětská nemocnice","arrival_time":"15:56:00","departure_time":"15:56:00","lat":49.203029,"lon":16.619052,"is_passed":false},{"stop_id":"U1418Z2","name":"Náměstí 28. října","arrival_time":"15:57:00","departure_time":"15:57:00","lat":49.200787,"lon":16.613174,"is_passed":false},{"stop_id":"U1397Z4","name":"Moravské náměstí","arrival_time":"15:59:00","departure_time":"15:59:00","lat":49.199159,"lon":16.608704,"is_passed":false},{"stop_id":"U1073Z1","name":"Česká","arrival_time":"16:01:00","departure_time":"16:01:00","lat":49.197618,"lon":16.605584,"is_passed":false},{"stop_id":"U1637Z3","name":"Šilingrovo náměstí","arrival_time":"16:04:00","departure_time":"16:04:00","lat":49.1923,"lon":16.60424,"is_passed":false},{"stop_id":"U1428Z2","name":"Nemocnice u sv. Anny","arrival_time":"16:05:00","departure_time":"16:05:00","lat":49.191523,"lon":16.598757,"is_passed":false},{"stop_id":"U1378Z15","name":"Mendlovo náměstí","arrival_time":"16:08:00","departure_time":"16:16:00","lat":49.190629,"lon":16.594606,"is_passed":false}]