[{"stop_id":"U16103Z1","name":"Hostěrádky-Rešov","arrival_time":"11:54:00","departure_time":"11:54:00","lat":49.117268,"lon":16.785517,"is_passed":false},{"stop_id":"U16222Z1","name":"Šaratice","arrival_time":"11:56:00","departure_time":"11:56:00","lat":49.11691,"lon":16.802618,"is_passed":false},{"stop_id":"U16225Z1","name":"Zbýšov","arrival_time":"12:00:00","departure_time":"12:00:00","lat":49.129982,"lon":16.809457,"is_passed":false},{"stop_id":"U16213Z1","name":"Křenovice, u hřbitova","arrival_time":"12:03:00","departure_time":"12:03:00","lat":49.140479,"lon":16.828518,"is_passed":false},{"stop_id":"U16211Z1","name":"Křenovice, dol. žel. st.","arrival_time":"12:04:00","departure_time":"12:04:00","lat":49.142898,"lon":16.831243,"is_passed":false},{"stop_id":"U16327Z1","name":"Slavkov u Brna, Agrozávod","arrival_time":"12:07:00","departure_time":"12:07:00","lat":49.149505,"lon":16.853373,"is_passed":false},{"stop_id":"U16328Z9","name":"Slavkov u Brna, aut. st.","arrival_time":"12:12:00","departure_time":"12:14:00","lat":49.149062,"lon":16.876128,"is_passed":false}]