[{"stop_id":"U1343Z2","name":"ARENA BRNO","arrival_time":"5:55:00","departure_time":"5:55:00","lat":49.191387,"lon":16.576425,"is_passed":false},{"stop_id":"U1769Z2","name":"Výstaviště - vstup G2","arrival_time":"5:56:00","departure_time":"5:56:00","lat":49.190207,"lon":16.580555,"is_passed":false},{"stop_id":"U1768Z2","name":"Výstaviště - hlavní vstup","arrival_time":"5:57:00","departure_time":"5:57:00","lat":49.189325,"lon":16.585699,"is_passed":false},{"stop_id":"U1378Z2","name":"Mendlovo náměstí","arrival_time":"5:59:00","departure_time":"5:59:00","lat":49.190034,"lon":16.593837,"is_passed":false},{"stop_id":"U1512Z1","name":"Poříčí","arrival_time":"6:01:00","departure_time":"6:01:00","lat":49.187182,"lon":16.594633,"is_passed":false},{"stop_id":"U1430Z1","name":"Nemocnice Milosrdných bratří","arrival_time":"6:02:00","departure_time":"6:02:00","lat":49.183515,"lon":16.594981,"is_passed":false},{"stop_id":"U1053Z1","name":"Celní","arrival_time":"6:04:00","departure_time":"6:04:00","lat":49.179109,"lon":16.595328,"is_passed":false},{"stop_id":"U1293Z1","name":"Krematorium","arrival_time":"6:06:00","departure_time":"6:06:00","lat":49.172308,"lon":16.586427,"is_passed":false},{"stop_id":"U1021Z1","name":"Běloruská","arrival_time":"6:07:00","departure_time":"6:07:00","lat":49.170755,"lon":16.580895,"is_passed":false},{"stop_id":"U1653Z3","name":"Švermova","arrival_time":"6:08:00","departure_time":"6:08:00","lat":49.169262,"lon":16.573246,"is_passed":false},{"stop_id":"U1472Z1","name":"Osová","arrival_time":"6:09:00","departure_time":"6:09:00","lat":49.169023,"lon":16.56653,"is_passed":false},{"stop_id":"U1227Z1","name":"Karpatská","arrival_time":"6:10:00","departure_time":"6:10:00","lat":49.168113,"lon":16.562077,"is_passed":false},{"stop_id":"U1097Z1","name":"Dunajská","arrival_time":"6:11:00","departure_time":"6:11:00","lat":49.169066,"lon":16.55664,"is_passed":false},{"stop_id":"U1616Z1","name":"Starý Lískovec, smyčka","arrival_time":"6:13:00","departure_time":"6:13:00","lat":49.171366,"lon":16.554527,"is_passed":false}]