[{"stop_id":"U14350Z21","name":"Moravské Bránice, žel. st.","arrival_time":"15:55:00","departure_time":"15:55:00","lat":49.084918,"lon":16.429257,"is_passed":false},{"stop_id":"U14348Z2","name":"Moravské Bránice, škola","arrival_time":"15:58:00","departure_time":"15:58:00","lat":49.081437,"lon":16.438245,"is_passed":false},{"stop_id":"U14210Z12","name":"Silůvky","arrival_time":"16:13:00","departure_time":"16:13:00","lat":49.106572,"lon":16.467387,"is_passed":false},{"stop_id":"U14212Z2","name":"Radostice, Mlýnská silnice","arrival_time":"16:18:00","departure_time":"16:18:00","lat":49.135667,"lon":16.474973,"is_passed":false},{"stop_id":"U14211Z2","name":"Radostice, koupaliště","arrival_time":"16:19:00","departure_time":"16:19:00","lat":49.138172,"lon":16.467963,"is_passed":false},{"stop_id":"U14124Z2","name":"Střelice, Vršovice","arrival_time":"16:24:00","departure_time":"16:24:00","lat":49.153397,"lon":16.480075,"is_passed":false},{"stop_id":"U14121Z2","name":"Střelice, obecní úřad","arrival_time":"16:26:00","departure_time":"16:26:00","lat":49.152613,"lon":16.502885,"is_passed":false},{"stop_id":"U1061Z2","name":"Čermákova","arrival_time":"16:34:00","departure_time":"16:34:00","lat":49.164349,"lon":16.564689,"is_passed":false},{"stop_id":"U1703Z4","name":"Ústřední hřbitov","arrival_time":"16:41:00","departure_time":"16:41:00","lat":49.172555,"lon":16.598505,"is_passed":false},{"stop_id":"U1596Z36","name":"Soukenická","arrival_time":"16:49:00","departure_time":"16:49:00","lat":49.188987,"lon":16.608514,"is_passed":false}]