[{"stop_id":"U1429Z2","name":"Nemocnice Bohunice","arrival_time":"10:37:00","departure_time":"10:37:00","lat":49.175849,"lon":16.567334,"is_passed":false},{"stop_id":"U1779Z2","name":"Západní brána","arrival_time":"10:37:00","departure_time":"10:37:00","lat":49.173114,"lon":16.566938,"is_passed":false},{"stop_id":"U1472Z2","name":"Osová","arrival_time":"10:39:00","departure_time":"10:39:00","lat":49.169005,"lon":16.567514,"is_passed":false},{"stop_id":"U1653Z4","name":"Švermova","arrival_time":"10:40:00","departure_time":"10:40:00","lat":49.169191,"lon":16.573122,"is_passed":false},{"stop_id":"U1021Z2","name":"Běloruská","arrival_time":"10:41:00","departure_time":"10:41:00","lat":49.170662,"lon":16.580727,"is_passed":false},{"stop_id":"U1293Z2","name":"Krematorium","arrival_time":"10:42:00","departure_time":"10:42:00","lat":49.172257,"lon":16.586414,"is_passed":false},{"stop_id":"U1761Z2","name":"Vsetínská","arrival_time":"10:44:00","departure_time":"10:44:00","lat":49.179747,"lon":16.598055,"is_passed":false},{"stop_id":"U1751Z2","name":"Vojtova","arrival_time":"10:45:00","departure_time":"10:45:00","lat":49.182667,"lon":16.600802,"is_passed":false},{"stop_id":"U1301Z2","name":"Křídlovická","arrival_time":"10:47:00","departure_time":"10:47:00","lat":49.185304,"lon":16.60328,"is_passed":false},{"stop_id":"U1596Z2","name":"Soukenická","arrival_time":"10:48:00","departure_time":"10:48:00","lat":49.188943,"lon":16.60751,"is_passed":false},{"stop_id":"U1436Z4","name":"Nové sady","arrival_time":"10:50:00","departure_time":"10:50:00","lat":49.190137,"lon":16.609472,"is_passed":false},{"stop_id":"U1146Z4","name":"Hlavní nádraží","arrival_time":"10:52:00","departure_time":"10:52:00","lat":49.19125,"lon":16.612674,"is_passed":false},{"stop_id":"U1746Z1","name":"Vlhká","arrival_time":"10:53:00","departure_time":"10:53:00","lat":49.191847,"lon":16.618976,"is_passed":false},{"stop_id":"U1372Z1","name":"Masná","arrival_time":"10:55:00","departure_time":"10:55:00","lat":49.191244,"lon":16.625642,"is_passed":false},{"stop_id":"U1814Z1","name":"Životského","arrival_time":"10:57:00","departure_time":"10:57:00","lat":49.191036,"lon":16.633968,"is_passed":false},{"stop_id":"U1116Z1","name":"Geislerova","arrival_time":"10:58:00","departure_time":"10:58:00","lat":49.19278,"lon":16.635345,"is_passed":false},{"stop_id":"U1810Z1","name":"Židovský hřbitov","arrival_time":"10:59:00","departure_time":"10:59:00","lat":49.191354,"lon":16.641711,"is_passed":false},{"stop_id":"U1291Z1","name":"Krásného","arrival_time":"11:00:00","departure_time":"11:00:00","lat":49.190434,"lon":16.650066,"is_passed":false},{"stop_id":"U1018Z1","name":"Bělohorská","arrival_time":"11:02:00","departure_time":"11:02:00","lat":49.190201,"lon":16.6637,"is_passed":false},{"stop_id":"U1026Z1","name":"Bílá hora","arrival_time":"11:03:00","departure_time":"11:03:00","lat":49.194847,"lon":16.667411,"is_passed":false},{"stop_id":"U1347Z1","name":"Líšeňská","arrival_time":"11:03:00","departure_time":"11:03:00","lat":49.197876,"lon":16.664849,"is_passed":false},{"stop_id":"U1438Z1","name":"Novolíšeňská","arrival_time":"11:05:00","departure_time":"11:05:00","lat":49.202014,"lon":16.670642,"is_passed":false},{"stop_id":"U1368Z1","name":"Masarova","arrival_time":"11:07:00","departure_time":"11:07:00","lat":49.206997,"lon":16.677557,"is_passed":false},{"stop_id":"U1277Z1","name":"Kotlanova","arrival_time":"11:08:00","departure_time":"11:08:00","lat":49.209949,"lon":16.681681,"is_passed":false},{"stop_id":"U1208Z1","name":"Jírova","arrival_time":"11:10:00","departure_time":"11:10:00","lat":49.208552,"lon":16.686687,"is_passed":false},{"stop_id":"U1384Z1","name":"Mifkova","arrival_time":"11:11:00","departure_time":"11:18:00","lat":49.207315,"lon":16.692496,"is_passed":false}]