[{"stop_id":"U1146Z27","name":"Hlavní nádraží","arrival_time":"15:49:00","departure_time":"15:49:00","lat":49.190389,"lon":16.610438,"is_passed":false},{"stop_id":"U1141Z1","name":"Heršpická","arrival_time":"15:55:00","departure_time":"15:55:00","lat":49.170255,"lon":16.599363,"is_passed":false},{"stop_id":"U14348Z1","name":"Moravské Bránice, škola","arrival_time":"16:23:00","departure_time":"16:23:00","lat":49.081618,"lon":16.438242,"is_passed":false},{"stop_id":"U14350Z20","name":"Moravské Bránice, žel. st.","arrival_time":"16:26:00","departure_time":"16:31:00","lat":49.084918,"lon":16.429257,"is_passed":false},{"stop_id":"U14452Z2","name":"Ivančice, Stříbský mlýn","arrival_time":"16:36:00","departure_time":"16:36:00","lat":49.089548,"lon":16.404598,"is_passed":false},{"stop_id":"U24403Z52","name":"Ivančice město","arrival_time":"16:39:00","departure_time":"16:39:00","lat":49.099046,"lon":16.382066,"is_passed":false},{"stop_id":"U14454Z20","name":"Ivančice, železniční stanice","arrival_time":"16:42:00","departure_time":"16:42:00","lat":49.097893,"lon":16.373083,"is_passed":false}]