[{"stop_id":"U12635Z2","name":"Boskovice, aut.st.","arrival_time":"22:12:00","departure_time":"22:12:00","lat":49.491547,"lon":16.652987,"is_passed":false},{"stop_id":"U12633Z6","name":"Boskovice, 17. listopadu","arrival_time":"22:15:00","departure_time":"22:15:00","lat":49.489965,"lon":16.662222,"is_passed":false},{"stop_id":"U12659Z2","name":"Boskovice, podnikatelský park","arrival_time":"22:17:00","departure_time":"22:17:00","lat":49.498835,"lon":16.665792,"is_passed":false},{"stop_id":"U12742Z2","name":"Sudice, samota","arrival_time":"22:19:00","departure_time":"22:19:00","lat":49.517825,"lon":16.664367,"is_passed":false},{"stop_id":"U12744Z2","name":"Sudice, zast.","arrival_time":"22:21:00","departure_time":"22:21:00","lat":49.525527,"lon":16.66957,"is_passed":false},{"stop_id":"U12741Z2","name":"Sudice","arrival_time":"22:22:00","departure_time":"22:22:00","lat":49.529338,"lon":16.669178,"is_passed":false},{"stop_id":"U12752Z2","name":"Vážany","arrival_time":"22:24:00","departure_time":"22:24:00","lat":49.530408,"lon":16.686083,"is_passed":false},{"stop_id":"U12711Z2","name":"Knínice, U Nádraží","arrival_time":"22:25:00","departure_time":"22:25:00","lat":49.535469,"lon":16.689975,"is_passed":false},{"stop_id":"U12704Z2","name":"Knínice, Městečko","arrival_time":"22:26:00","departure_time":"22:26:00","lat":49.539403,"lon":16.69412,"is_passed":false},{"stop_id":"U12705Z2","name":"Knínice, horní zastávka","arrival_time":"22:27:00","departure_time":"22:27:00","lat":49.539622,"lon":16.702802,"is_passed":false},{"stop_id":"U12745Z1","name":"Šebetov","arrival_time":"22:29:00","departure_time":"22:29:00","lat":49.549292,"lon":16.70999,"is_passed":false},{"stop_id":"U12821Z2","name":"Světlá","arrival_time":"22:32:00","departure_time":"22:32:00","lat":49.565088,"lon":16.718312,"is_passed":false},{"stop_id":"U12810Z2","name":"Cetkovice","arrival_time":"22:35:00","departure_time":"22:35:00","lat":49.578071,"lon":16.721229,"is_passed":false}]