[{"stop_id":"U1343Z2","name":"ARENA BRNO","arrival_time":"5:02:00","departure_time":"5:02:00","lat":49.191387,"lon":16.576425,"is_passed":false},{"stop_id":"U1769Z2","name":"Výstaviště - vstup G2","arrival_time":"5:03:00","departure_time":"5:03:00","lat":49.190207,"lon":16.580555,"is_passed":false},{"stop_id":"U1768Z2","name":"Výstaviště - hlavní vstup","arrival_time":"5:04:00","departure_time":"5:04:00","lat":49.189325,"lon":16.585699,"is_passed":false},{"stop_id":"U1378Z2","name":"Mendlovo náměstí","arrival_time":"5:06:00","departure_time":"5:06:00","lat":49.190034,"lon":16.593837,"is_passed":false},{"stop_id":"U1721Z2","name":"Václavská","arrival_time":"5:08:00","departure_time":"5:08:00","lat":49.188715,"lon":16.596878,"is_passed":false},{"stop_id":"U1176Z2","name":"Hybešova","arrival_time":"5:09:00","departure_time":"5:09:00","lat":49.189209,"lon":16.603364,"is_passed":false},{"stop_id":"U1436Z2","name":"Nové sady","arrival_time":"5:12:00","departure_time":"5:12:00","lat":49.190222,"lon":16.609403,"is_passed":false},{"stop_id":"U1146Z4","name":"Hlavní nádraží","arrival_time":"5:14:00","departure_time":"5:14:00","lat":49.19125,"lon":16.612674,"is_passed":false},{"stop_id":"U1746Z1","name":"Vlhká","arrival_time":"5:15:00","departure_time":"5:15:00","lat":49.191847,"lon":16.618976,"is_passed":false},{"stop_id":"U1372Z1","name":"Masná","arrival_time":"5:17:00","departure_time":"5:17:00","lat":49.191244,"lon":16.625642,"is_passed":false},{"stop_id":"U1814Z1","name":"Životského","arrival_time":"5:19:00","departure_time":"5:19:00","lat":49.191036,"lon":16.633968,"is_passed":false},{"stop_id":"U1116Z1","name":"Geislerova","arrival_time":"5:20:00","departure_time":"5:20:00","lat":49.19278,"lon":16.635345,"is_passed":false},{"stop_id":"U1810Z1","name":"Židovský hřbitov","arrival_time":"5:21:00","departure_time":"5:21:00","lat":49.191354,"lon":16.641711,"is_passed":false},{"stop_id":"U1291Z1","name":"Krásného","arrival_time":"5:22:00","departure_time":"5:22:00","lat":49.190434,"lon":16.650066,"is_passed":false},{"stop_id":"U1501Z1","name":"Podstránská","arrival_time":"5:24:00","departure_time":"5:24:00","lat":49.187879,"lon":16.666536,"is_passed":false},{"stop_id":"U1618Z1","name":"Stránská skála","arrival_time":"5:25:00","departure_time":"5:25:00","lat":49.192001,"lon":16.674374,"is_passed":false},{"stop_id":"U1619Z1","name":"Stránská skála - smyčka","arrival_time":"5:27:00","departure_time":"5:27:00","lat":49.192657,"lon":16.677469,"is_passed":false}]