[{"stop_id":"U1357Z1","name":"Malinovského náměstí","arrival_time":"6:59:00","departure_time":"6:59:00","lat":49.195492,"lon":16.61386,"is_passed":false},{"stop_id":"U1357Z2","name":"Malinovského náměstí","arrival_time":"7:00:00","departure_time":"7:00:00","lat":49.195034,"lon":16.614825,"is_passed":false},{"stop_id":"U1271Z1","name":"Körnerova","arrival_time":"7:02:00","departure_time":"7:02:00","lat":49.19828,"lon":16.619945,"is_passed":false},{"stop_id":"U1663Z1","name":"Tkalcovská","arrival_time":"7:04:00","departure_time":"7:04:00","lat":49.200261,"lon":16.626109,"is_passed":false},{"stop_id":"U1676Z1","name":"Trávníčkova","arrival_time":"7:06:00","departure_time":"7:06:00","lat":49.204439,"lon":16.625679,"is_passed":false},{"stop_id":"U1398Z1","name":"Mostecká","arrival_time":"7:07:00","departure_time":"7:07:00","lat":49.20703,"lon":16.627792,"is_passed":false},{"stop_id":"U1434Z1","name":"Vozovna Husovice","arrival_time":"7:08:00","departure_time":"7:08:00","lat":49.208331,"lon":16.629789,"is_passed":false},{"stop_id":"U1422Z1","name":"Náměstí Republiky","arrival_time":"7:09:00","departure_time":"7:09:00","lat":49.210591,"lon":16.633523,"is_passed":false},{"stop_id":"U1668Z1","name":"Tomkovo náměstí","arrival_time":"7:11:00","departure_time":"7:11:00","lat":49.214035,"lon":16.636587,"is_passed":false},{"stop_id":"U1358Z2","name":"Maloměřický most","arrival_time":"7:12:00","departure_time":"7:12:00","lat":49.215518,"lon":16.642987,"is_passed":false},{"stop_id":"U1521Z1","name":"Proškovo náměstí","arrival_time":"7:13:00","departure_time":"7:13:00","lat":49.220207,"lon":16.643397,"is_passed":false},{"stop_id":"U1447Z1","name":"Obřanská - u školy","arrival_time":"7:14:00","departure_time":"7:14:00","lat":49.222872,"lon":16.644811,"is_passed":false},{"stop_id":"U1077Z1","name":"Čtvery hony","arrival_time":"7:15:00","departure_time":"7:15:00","lat":49.226227,"lon":16.645584,"is_passed":false},{"stop_id":"U1448Z1","name":"Obřanský most","arrival_time":"7:16:00","departure_time":"7:16:00","lat":49.227602,"lon":16.650226,"is_passed":false},{"stop_id":"U1014Z1","name":"Babická","arrival_time":"7:18:00","departure_time":"7:35:00","lat":49.228004,"lon":16.652555,"is_passed":false}]