[{"stop_id":"U18502Z2","name":"Moravské Budějovice, autobusové nádraží","arrival_time":"6:17:00","departure_time":"6:17:00","lat":49.056355,"lon":15.808013,"is_passed":false},{"stop_id":"U18504Z2","name":"Moravské Budějovice, Tyršova","arrival_time":"6:20:00","departure_time":"6:20:00","lat":49.04912,"lon":15.815073,"is_passed":false},{"stop_id":"U18508Z2","name":"Moravské Budějovice, Lažínky","arrival_time":"6:23:00","departure_time":"6:23:00","lat":49.035189,"lon":15.833194,"is_passed":false},{"stop_id":"U18407Z2","name":"Zvěrkovice","arrival_time":"6:30:00","departure_time":"6:30:00","lat":49.025931,"lon":15.86437,"is_passed":false},{"stop_id":"U18406Z2","name":"Hostim, náměstí","arrival_time":"6:35:00","departure_time":"6:35:00","lat":49.016805,"lon":15.8981,"is_passed":false},{"stop_id":"U18405Z2","name":"Hostim, křižovatka","arrival_time":"6:36:00","departure_time":"6:36:00","lat":49.009512,"lon":15.895952,"is_passed":false},{"stop_id":"U18343Z2","name":"Prokopov","arrival_time":"6:39:00","departure_time":"6:39:00","lat":48.999011,"lon":15.894368,"is_passed":false},{"stop_id":"U18340Z2","name":"Jiřice u Moravských Budějovic","arrival_time":"6:43:00","departure_time":"6:43:00","lat":48.993752,"lon":15.926138,"is_passed":false},{"stop_id":"U18335Z2","name":"Boskovštejn, středisko ZD","arrival_time":"6:45:00","departure_time":"6:45:00","lat":48.985412,"lon":15.926543,"is_passed":false},{"stop_id":"U18334Z2","name":"Boskovštejn, požární zbrojnice","arrival_time":"6:46:00","departure_time":"6:46:00","lat":48.98187,"lon":15.932168,"is_passed":false},{"stop_id":"U18341Z1","name":"Pavlice, na kopci","arrival_time":"6:52:00","departure_time":"6:56:00","lat":48.972683,"lon":15.896083,"is_passed":false}]