[{"stop_id":"U17335Z1","name":"Rousínov, autobusová stanice","arrival_time":"14:01:00","departure_time":"14:01:00","lat":49.202947,"lon":16.88534,"is_passed":false},{"stop_id":"U17331Z1","name":"Rousínov, Čechyně, rozcestí","arrival_time":"14:03:00","departure_time":"14:03:00","lat":49.207062,"lon":16.891572,"is_passed":false},{"stop_id":"U17311Z1","name":"Komořany, EDP","arrival_time":"14:06:00","departure_time":"14:06:00","lat":49.219033,"lon":16.90472,"is_passed":false},{"stop_id":"U17310Z1","name":"Komořany, obecní úřad","arrival_time":"14:07:00","departure_time":"14:07:00","lat":49.216333,"lon":16.907,"is_passed":false},{"stop_id":"U17321Z1","name":"Podbřežice, rozcestí","arrival_time":"14:10:00","departure_time":"14:10:00","lat":49.208098,"lon":16.920515,"is_passed":false},{"stop_id":"U17301Z1","name":"Dražovice","arrival_time":"14:14:00","departure_time":"14:14:00","lat":49.193317,"lon":16.94385,"is_passed":false},{"stop_id":"U17302Z1","name":"Dražovice, na kopci","arrival_time":"14:16:00","departure_time":"14:16:00","lat":49.191843,"lon":16.947002,"is_passed":false},{"stop_id":"U16408Z1","name":"Letonice, obecní úřad","arrival_time":"14:19:00","departure_time":"14:19:00","lat":49.177407,"lon":16.959458,"is_passed":false},{"stop_id":"U16409Z1","name":"Letonice, u kaple","arrival_time":"14:20:00","departure_time":"14:20:00","lat":49.17206,"lon":16.963823,"is_passed":false},{"stop_id":"U16406Z1","name":"Bučovice, Marefy, žel. st.","arrival_time":"14:24:00","departure_time":"14:24:00","lat":49.149528,"lon":16.973338,"is_passed":false},{"stop_id":"U16403Z1","name":"Bučovice, jatky","arrival_time":"14:26:00","departure_time":"14:26:00","lat":49.15388,"lon":16.987918,"is_passed":false},{"stop_id":"U16401Z20","name":"Bučovice, aut. st.","arrival_time":"14:29:00","departure_time":"14:29:00","lat":49.148057,"lon":17.001665,"is_passed":false}]