[{"stop_id":"U1257Z1","name":"Komenského náměstí","arrival_time":"4:48:00","departure_time":"4:48:00","lat":49.197047,"lon":16.601844,"is_passed":false},{"stop_id":"U1442Z1","name":"Obilní trh","arrival_time":"4:49:00","departure_time":"4:49:00","lat":49.198221,"lon":16.597478,"is_passed":false},{"stop_id":"U1712Z1","name":"Úvoz","arrival_time":"4:50:00","departure_time":"4:50:00","lat":49.19829,"lon":16.59265,"is_passed":false},{"stop_id":"U1762Z1","name":"Všetičkova","arrival_time":"4:51:00","departure_time":"4:51:00","lat":49.198749,"lon":16.588757,"is_passed":false},{"stop_id":"U1371Z1","name":"Náměstí Míru","arrival_time":"4:54:00","departure_time":"5:06:00","lat":49.202197,"lon":16.582014,"is_passed":false}]