[{"stop_id":"U1217Z3","name":"Vozovna Komín","arrival_time":"4:51:00","departure_time":"4:51:00","lat":49.213556,"lon":16.559289,"is_passed":false},{"stop_id":"U1214Z2","name":"Jundrovský most","arrival_time":"4:52:00","departure_time":"4:52:00","lat":49.210699,"lon":16.558163,"is_passed":false},{"stop_id":"U1462Z4","name":"Optátova","arrival_time":"4:53:00","departure_time":"4:53:00","lat":49.208328,"lon":16.555591,"is_passed":false},{"stop_id":"U1216Z2","name":"Jundrov, hřiště","arrival_time":"4:54:00","departure_time":"4:54:00","lat":49.204674,"lon":16.56001,"is_passed":false},{"stop_id":"U1732Z2","name":"Veslařská","arrival_time":"4:54:00","departure_time":"4:54:00","lat":49.20282,"lon":16.564736,"is_passed":false},{"stop_id":"U1490Z2","name":"Pod Jurankou","arrival_time":"4:55:00","departure_time":"4:55:00","lat":49.198955,"lon":16.566182,"is_passed":false},{"stop_id":"U1007Z4","name":"Anthropos","arrival_time":"4:56:00","departure_time":"4:56:00","lat":49.193356,"lon":16.56677,"is_passed":false},{"stop_id":"U1487Z6","name":"Pisárky","arrival_time":"4:57:00","departure_time":"4:57:00","lat":49.193537,"lon":16.570797,"is_passed":false}]