[{"stop_id":"U1487Z6","name":"Pisárky","arrival_time":"4:57:00","departure_time":"4:57:00","lat":49.193537,"lon":16.570797,"is_passed":false},{"stop_id":"U1343Z4","name":"ARENA BRNO","arrival_time":"4:58:00","departure_time":"4:58:00","lat":49.191574,"lon":16.576353,"is_passed":false},{"stop_id":"U1768Z4","name":"Výstaviště - hlavní vstup","arrival_time":"5:00:00","departure_time":"5:00:00","lat":49.1886,"lon":16.589153,"is_passed":false},{"stop_id":"U1378Z7","name":"Mendlovo náměstí","arrival_time":"5:02:00","departure_time":"5:02:00","lat":49.189919,"lon":16.593687,"is_passed":false},{"stop_id":"U1682Z1","name":"Tvrdého","arrival_time":"5:04:00","departure_time":"5:04:00","lat":49.196349,"lon":16.594363,"is_passed":false},{"stop_id":"U1712Z6","name":"Úvoz","arrival_time":"5:06:00","departure_time":"5:06:00","lat":49.199401,"lon":16.593374,"is_passed":false},{"stop_id":"U1055Z1","name":"Čápkova","arrival_time":"5:07:00","departure_time":"5:07:00","lat":49.203816,"lon":16.59342,"is_passed":false},{"stop_id":"U1262Z3","name":"Konečného náměstí","arrival_time":"5:08:00","departure_time":"5:08:00","lat":49.204874,"lon":16.595825,"is_passed":false},{"stop_id":"U1483Z5","name":"Pionýrská","arrival_time":"5:11:00","departure_time":"5:11:00","lat":49.207899,"lon":16.605508,"is_passed":false},{"stop_id":"U1793Z1","name":"Za Lužánkami","arrival_time":"5:12:00","departure_time":"5:12:00","lat":49.209511,"lon":16.609503,"is_passed":false},{"stop_id":"U1336Z3","name":"Lesnická","arrival_time":"5:14:00","departure_time":"5:14:00","lat":49.213089,"lon":16.619037,"is_passed":false},{"stop_id":"U1522Z2","name":"Provazníkova","arrival_time":"5:15:00","departure_time":"5:15:00","lat":49.214473,"lon":16.624002,"is_passed":false},{"stop_id":"U1381Z1","name":"Merhautova","arrival_time":"5:16:00","departure_time":"5:16:00","lat":49.21485,"lon":16.627477,"is_passed":false},{"stop_id":"U1668Z3","name":"Tomkovo náměstí","arrival_time":"5:18:00","departure_time":"5:18:00","lat":49.213205,"lon":16.636652,"is_passed":false},{"stop_id":"U1811Z2","name":"Židenice, kasárna","arrival_time":"5:20:00","departure_time":"5:20:00","lat":49.20856,"lon":16.642247,"is_passed":false},{"stop_id":"U1698Z1","name":"Údolíček","arrival_time":"5:22:00","departure_time":"5:22:00","lat":49.206732,"lon":16.644592,"is_passed":false},{"stop_id":"U1002Z1","name":"Akátky","arrival_time":"5:22:00","departure_time":"5:22:00","lat":49.208518,"lon":16.648742,"is_passed":false},{"stop_id":"U1743Z1","name":"Vlčnovská","arrival_time":"5:24:00","departure_time":"5:24:00","lat":49.210995,"lon":16.660327,"is_passed":false},{"stop_id":"U1523Z1","name":"Prušánecká","arrival_time":"5:25:00","departure_time":"5:25:00","lat":49.20827,"lon":16.663465,"is_passed":false},{"stop_id":"U1052Z1","name":"Bzenecká","arrival_time":"5:27:00","departure_time":"5:27:00","lat":49.206117,"lon":16.660595,"is_passed":false},{"stop_id":"U1477Z3","name":"Pálavské náměstí","arrival_time":"5:28:00","departure_time":"5:28:00","lat":49.20612,"lon":16.657683,"is_passed":false},{"stop_id":"U1403Z1","name":"Mutěnická","arrival_time":"5:29:00","departure_time":"5:29:00","lat":49.20299,"lon":16.654796,"is_passed":false},{"stop_id":"U1036Z1","name":"Bořetická","arrival_time":"5:30:00","departure_time":"5:30:00","lat":49.201326,"lon":16.659292,"is_passed":false},{"stop_id":"U1058Z1","name":"Čejkovická","arrival_time":"5:31:00","departure_time":"5:31:00","lat":49.200178,"lon":16.662528,"is_passed":false},{"stop_id":"U1438Z3","name":"Novolíšeňská","arrival_time":"5:33:00","departure_time":"5:33:00","lat":49.201692,"lon":16.670699,"is_passed":false},{"stop_id":"U1012Z1","name":"Bartákova","arrival_time":"5:34:00","departure_time":"5:34:00","lat":49.203714,"lon":16.678742,"is_passed":false},{"stop_id":"U1546Z1","name":"Rotreklova","arrival_time":"5:35:00","departure_time":"5:35:00","lat":49.2066,"lon":16.685331,"is_passed":false},{"stop_id":"U1208Z6","name":"Jírova","arrival_time":"5:37:00","departure_time":"5:54:00","lat":49.209179,"lon":16.688685,"is_passed":false}]