[{"stop_id":"U1646Z4","name":"Štefánikova čtvrť","arrival_time":"7:04:00","departure_time":"7:04:00","lat":49.217288,"lon":16.627693,"is_passed":false},{"stop_id":"U1522Z1","name":"Provazníkova","arrival_time":"7:05:00","departure_time":"7:05:00","lat":49.214516,"lon":16.623874,"is_passed":false},{"stop_id":"U1336Z4","name":"Lesnická","arrival_time":"7:07:00","departure_time":"7:07:00","lat":49.212882,"lon":16.617847,"is_passed":false},{"stop_id":"U1793Z2","name":"Za Lužánkami","arrival_time":"7:09:00","departure_time":"7:09:00","lat":49.210038,"lon":16.609753,"is_passed":false},{"stop_id":"U1483Z6","name":"Pionýrská","arrival_time":"7:11:00","departure_time":"7:11:00","lat":49.207597,"lon":16.603592,"is_passed":false},{"stop_id":"U1262Z4","name":"Konečného náměstí","arrival_time":"7:13:00","departure_time":"7:13:00","lat":49.204849,"lon":16.595324,"is_passed":false},{"stop_id":"U1055Z2","name":"Čápkova","arrival_time":"7:15:00","departure_time":"7:15:00","lat":49.203052,"lon":16.592851,"is_passed":false},{"stop_id":"U1712Z5","name":"Úvoz","arrival_time":"7:17:00","departure_time":"7:17:00","lat":49.199412,"lon":16.593277,"is_passed":false},{"stop_id":"U1378Z9","name":"Mendlovo náměstí","arrival_time":"7:21:00","departure_time":"7:21:00","lat":49.190456,"lon":16.593122,"is_passed":false},{"stop_id":"U1768Z3","name":"Výstaviště - hlavní vstup","arrival_time":"7:22:00","departure_time":"7:22:00","lat":49.18958,"lon":16.586471,"is_passed":false},{"stop_id":"U1343Z3","name":"ARENA BRNO","arrival_time":"7:23:00","departure_time":"7:23:00","lat":49.191696,"lon":16.576091,"is_passed":false},{"stop_id":"U1487Z5","name":"Pisárky","arrival_time":"7:24:00","departure_time":"7:24:00","lat":49.193517,"lon":16.571155,"is_passed":false},{"stop_id":"U1007Z3","name":"Anthropos","arrival_time":"7:25:00","departure_time":"7:25:00","lat":49.193146,"lon":16.565715,"is_passed":false},{"stop_id":"U1332Z2","name":"Lesní","arrival_time":"7:27:00","departure_time":"7:27:00","lat":49.185424,"lon":16.564745,"is_passed":false},{"stop_id":"U1241Z2","name":"Kluchova","arrival_time":"7:28:00","departure_time":"7:28:00","lat":49.1831,"lon":16.563096,"is_passed":false},{"stop_id":"U1532Z2","name":"Raisova","arrival_time":"7:29:00","departure_time":"7:29:00","lat":49.182056,"lon":16.562493,"is_passed":false},{"stop_id":"U1078Z2","name":"Čtvrtě","arrival_time":"7:31:00","departure_time":"7:31:00","lat":49.177932,"lon":16.561546,"is_passed":false},{"stop_id":"U1263Z1","name":"Koniklecová","arrival_time":"7:32:00","departure_time":"7:32:00","lat":49.176634,"lon":16.558219,"is_passed":false},{"stop_id":"U1443Z1","name":"Oblá","arrival_time":"7:33:00","departure_time":"7:33:00","lat":49.177573,"lon":16.552766,"is_passed":false},{"stop_id":"U1223Z1","name":"Kamenný vrch","arrival_time":"7:35:00","departure_time":"7:48:00","lat":49.179914,"lon":16.547756,"is_passed":false}]