[{"stop_id":"U1429Z4","name":"Nemocnice Bohunice","arrival_time":"20:03:00","departure_time":"20:03:00","lat":49.176125,"lon":16.567246,"is_passed":false},{"stop_id":"U1699Z1","name":"Univerzitní kampus","arrival_time":"20:04:00","departure_time":"20:04:00","lat":49.178062,"lon":16.566488,"is_passed":false},{"stop_id":"U1078Z1","name":"Čtvrtě","arrival_time":"20:06:00","departure_time":"20:06:00","lat":49.178814,"lon":16.56227,"is_passed":false},{"stop_id":"U1532Z1","name":"Raisova","arrival_time":"20:06:00","departure_time":"20:06:00","lat":49.182247,"lon":16.562612,"is_passed":false},{"stop_id":"U1241Z1","name":"Kluchova","arrival_time":"20:07:00","departure_time":"20:07:00","lat":49.183183,"lon":16.563258,"is_passed":false},{"stop_id":"U1332Z1","name":"Lesní","arrival_time":"20:08:00","departure_time":"20:08:00","lat":49.185631,"lon":16.564655,"is_passed":false},{"stop_id":"U1007Z4","name":"Anthropos","arrival_time":"20:10:00","departure_time":"20:10:00","lat":49.193356,"lon":16.56677,"is_passed":false},{"stop_id":"U1487Z6","name":"Pisárky","arrival_time":"20:11:00","departure_time":"20:11:00","lat":49.193537,"lon":16.570797,"is_passed":false},{"stop_id":"U1343Z4","name":"ARENA BRNO","arrival_time":"20:12:00","departure_time":"20:12:00","lat":49.191574,"lon":16.576353,"is_passed":false},{"stop_id":"U1768Z4","name":"Výstaviště - hlavní vstup","arrival_time":"20:14:00","departure_time":"20:14:00","lat":49.1886,"lon":16.589153,"is_passed":false},{"stop_id":"U1378Z7","name":"Mendlovo náměstí","arrival_time":"20:16:00","departure_time":"20:16:00","lat":49.189919,"lon":16.593687,"is_passed":false},{"stop_id":"U1682Z1","name":"Tvrdého","arrival_time":"20:18:00","departure_time":"20:18:00","lat":49.196349,"lon":16.594363,"is_passed":false},{"stop_id":"U1712Z6","name":"Úvoz","arrival_time":"20:20:00","departure_time":"20:20:00","lat":49.199401,"lon":16.593374,"is_passed":false},{"stop_id":"U1055Z1","name":"Čápkova","arrival_time":"20:21:00","departure_time":"20:21:00","lat":49.203816,"lon":16.59342,"is_passed":false},{"stop_id":"U1262Z3","name":"Konečného náměstí","arrival_time":"20:22:00","departure_time":"20:22:00","lat":49.204874,"lon":16.595825,"is_passed":false},{"stop_id":"U1483Z5","name":"Pionýrská","arrival_time":"20:25:00","departure_time":"20:25:00","lat":49.207899,"lon":16.605508,"is_passed":false},{"stop_id":"U1793Z1","name":"Za Lužánkami","arrival_time":"20:26:00","departure_time":"20:26:00","lat":49.209511,"lon":16.609503,"is_passed":false},{"stop_id":"U1336Z3","name":"Lesnická","arrival_time":"20:28:00","departure_time":"20:28:00","lat":49.213089,"lon":16.619037,"is_passed":false},{"stop_id":"U1522Z2","name":"Provazníkova","arrival_time":"20:29:00","departure_time":"20:29:00","lat":49.214473,"lon":16.624002,"is_passed":false},{"stop_id":"U1381Z1","name":"Merhautova","arrival_time":"20:30:00","departure_time":"20:30:00","lat":49.21485,"lon":16.627477,"is_passed":false},{"stop_id":"U1668Z5","name":"Tomkovo náměstí","arrival_time":"20:31:00","departure_time":"20:31:00","lat":49.213449,"lon":16.635623,"is_passed":false},{"stop_id":"U1422Z2","name":"Náměstí Republiky","arrival_time":"20:32:00","departure_time":"20:32:00","lat":49.211428,"lon":16.634106,"is_passed":false},{"stop_id":"U1434Z3","name":"Vozovna Husovice","arrival_time":"20:33:00","departure_time":"20:33:00","lat":49.20911,"lon":16.630501,"is_passed":false}]