[{"stop_id":"U1487Z6","name":"Pisárky","arrival_time":"6:25:00","departure_time":"6:25:00","lat":49.193537,"lon":16.570797,"is_passed":false},{"stop_id":"U1343Z4","name":"ARENA BRNO","arrival_time":"6:26:00","departure_time":"6:26:00","lat":49.191574,"lon":16.576353,"is_passed":false},{"stop_id":"U1768Z4","name":"Výstaviště - hlavní vstup","arrival_time":"6:28:00","departure_time":"6:28:00","lat":49.1886,"lon":16.589153,"is_passed":false},{"stop_id":"U1378Z7","name":"Mendlovo náměstí","arrival_time":"6:30:00","departure_time":"6:30:00","lat":49.189919,"lon":16.593687,"is_passed":false},{"stop_id":"U1682Z1","name":"Tvrdého","arrival_time":"6:32:00","departure_time":"6:32:00","lat":49.196349,"lon":16.594363,"is_passed":false},{"stop_id":"U1712Z6","name":"Úvoz","arrival_time":"6:34:00","departure_time":"6:34:00","lat":49.199401,"lon":16.593374,"is_passed":false},{"stop_id":"U1055Z1","name":"Čápkova","arrival_time":"6:35:00","departure_time":"6:35:00","lat":49.203816,"lon":16.59342,"is_passed":false},{"stop_id":"U1262Z3","name":"Konečného náměstí","arrival_time":"6:37:00","departure_time":"6:37:00","lat":49.204874,"lon":16.595825,"is_passed":false},{"stop_id":"U1483Z5","name":"Pionýrská","arrival_time":"6:40:00","departure_time":"6:40:00","lat":49.207899,"lon":16.605508,"is_passed":false},{"stop_id":"U1793Z1","name":"Za Lužánkami","arrival_time":"6:41:00","departure_time":"6:41:00","lat":49.209511,"lon":16.609503,"is_passed":false},{"stop_id":"U1336Z3","name":"Lesnická","arrival_time":"6:43:00","departure_time":"6:43:00","lat":49.213089,"lon":16.619037,"is_passed":false},{"stop_id":"U1522Z2","name":"Provazníkova","arrival_time":"6:44:00","departure_time":"6:44:00","lat":49.214473,"lon":16.624002,"is_passed":false},{"stop_id":"U1646Z3","name":"Štefánikova čtvrť","arrival_time":"6:46:00","departure_time":"6:46:00","lat":49.216958,"lon":16.627543,"is_passed":false},{"stop_id":"U1646Z5","name":"Štefánikova čtvrť","arrival_time":"6:47:00","departure_time":"6:47:00","lat":49.218096,"lon":16.628761,"is_passed":false}]