[{"stop_id":"U15116Z2","name":"Nebovidy, dolní konec","arrival_time":"20:49:00","departure_time":"20:49:00","lat":49.141953,"lon":16.54915,"is_passed":false},{"stop_id":"U15118Z2","name":"Nebovidy, u kostela","arrival_time":"20:50:00","departure_time":"20:50:00","lat":49.141783,"lon":16.554006,"is_passed":false},{"stop_id":"U15114Z2","name":"Moravany, Hlavní","arrival_time":"20:54:00","departure_time":"20:54:00","lat":49.147097,"lon":16.578552,"is_passed":false},{"stop_id":"U15113Z2","name":"Moravany, Bohunická cesta","arrival_time":"20:55:00","departure_time":"20:55:00","lat":49.151006,"lon":16.583777,"is_passed":false},{"stop_id":"U1549Z2","name":"Rozhraní","arrival_time":"20:56:00","departure_time":"20:56:00","lat":49.155698,"lon":16.592118,"is_passed":false},{"stop_id":"U1466Z55","name":"Ořechovská","arrival_time":"20:58:00","departure_time":"20:58:00","lat":49.156238,"lon":16.599375,"is_passed":false},{"stop_id":"U1141Z2","name":"Heršpická","arrival_time":"21:01:00","departure_time":"21:01:00","lat":49.170473,"lon":16.599896,"is_passed":false},{"stop_id":"U1703Z5","name":"Ústřední hřbitov","arrival_time":"21:05:00","departure_time":"22:17:00","lat":49.171604,"lon":16.597316,"is_passed":false}]