[{"stop_id":"U1477Z2","name":"Pálavské náměstí","arrival_time":"13:38:00","departure_time":"13:38:00","lat":49.20538,"lon":16.658103,"is_passed":false},{"stop_id":"U1052Z2","name":"Bzenecká","arrival_time":"13:39:00","departure_time":"13:39:00","lat":49.205822,"lon":16.661645,"is_passed":false},{"stop_id":"U1523Z2","name":"Prušánecká","arrival_time":"13:40:00","departure_time":"13:40:00","lat":49.209503,"lon":16.663369,"is_passed":false},{"stop_id":"U1743Z2","name":"Vlčnovská","arrival_time":"13:41:00","departure_time":"13:41:00","lat":49.211166,"lon":16.659638,"is_passed":false},{"stop_id":"U1002Z2","name":"Akátky","arrival_time":"13:42:00","departure_time":"13:42:00","lat":49.208751,"lon":16.648718,"is_passed":false},{"stop_id":"U1698Z2","name":"Údolíček","arrival_time":"13:43:00","departure_time":"13:43:00","lat":49.206553,"lon":16.643865,"is_passed":false},{"stop_id":"U1811Z1","name":"Židenice, kasárna","arrival_time":"13:45:00","departure_time":"13:45:00","lat":49.208445,"lon":16.642414,"is_passed":false},{"stop_id":"U1668Z4","name":"Tomkovo náměstí","arrival_time":"13:48:00","departure_time":"13:48:00","lat":49.214128,"lon":16.634545,"is_passed":false},{"stop_id":"U1381Z2","name":"Merhautova","arrival_time":"13:49:00","departure_time":"13:49:00","lat":49.215,"lon":16.627633,"is_passed":false},{"stop_id":"U1522Z1","name":"Provazníkova","arrival_time":"13:51:00","departure_time":"13:51:00","lat":49.214516,"lon":16.623874,"is_passed":false},{"stop_id":"U1336Z4","name":"Lesnická","arrival_time":"13:53:00","departure_time":"13:53:00","lat":49.212882,"lon":16.617847,"is_passed":false},{"stop_id":"U1793Z2","name":"Za Lužánkami","arrival_time":"13:55:00","departure_time":"13:55:00","lat":49.210038,"lon":16.609753,"is_passed":false},{"stop_id":"U1483Z6","name":"Pionýrská","arrival_time":"13:57:00","departure_time":"13:57:00","lat":49.207597,"lon":16.603592,"is_passed":false},{"stop_id":"U1262Z4","name":"Konečného náměstí","arrival_time":"13:59:00","departure_time":"13:59:00","lat":49.204849,"lon":16.595324,"is_passed":false},{"stop_id":"U1055Z2","name":"Čápkova","arrival_time":"14:01:00","departure_time":"14:01:00","lat":49.203052,"lon":16.592851,"is_passed":false},{"stop_id":"U1712Z5","name":"Úvoz","arrival_time":"14:03:00","departure_time":"14:03:00","lat":49.199412,"lon":16.593277,"is_passed":false},{"stop_id":"U1378Z9","name":"Mendlovo náměstí","arrival_time":"14:07:00","departure_time":"14:07:00","lat":49.190456,"lon":16.593122,"is_passed":false},{"stop_id":"U1768Z3","name":"Výstaviště - hlavní vstup","arrival_time":"14:08:00","departure_time":"14:08:00","lat":49.18958,"lon":16.586471,"is_passed":false},{"stop_id":"U1343Z3","name":"ARENA BRNO","arrival_time":"14:09:00","departure_time":"14:09:00","lat":49.191696,"lon":16.576091,"is_passed":false},{"stop_id":"U1487Z5","name":"Pisárky","arrival_time":"14:10:00","departure_time":"14:10:00","lat":49.193517,"lon":16.571155,"is_passed":false},{"stop_id":"U1007Z3","name":"Anthropos","arrival_time":"14:11:00","departure_time":"14:11:00","lat":49.193146,"lon":16.565715,"is_passed":false},{"stop_id":"U1332Z2","name":"Lesní","arrival_time":"14:13:00","departure_time":"14:13:00","lat":49.185424,"lon":16.564745,"is_passed":false},{"stop_id":"U1241Z2","name":"Kluchova","arrival_time":"14:14:00","departure_time":"14:14:00","lat":49.1831,"lon":16.563096,"is_passed":false},{"stop_id":"U1532Z2","name":"Raisova","arrival_time":"14:15:00","departure_time":"14:15:00","lat":49.182056,"lon":16.562493,"is_passed":false},{"stop_id":"U1078Z3","name":"Čtvrtě","arrival_time":"14:17:00","departure_time":"14:17:00","lat":49.17821,"lon":16.563175,"is_passed":false},{"stop_id":"U1699Z2","name":"Univerzitní kampus","arrival_time":"14:18:00","departure_time":"14:18:00","lat":49.177455,"lon":16.567173,"is_passed":false},{"stop_id":"U1429Z3","name":"Nemocnice Bohunice","arrival_time":"14:19:00","departure_time":"14:29:00","lat":49.175844,"lon":16.567503,"is_passed":false}]