[{"stop_id":"U1208Z3","name":"Jírova","arrival_time":"6:15:00","departure_time":"6:15:00","lat":49.208886,"lon":16.687979,"is_passed":false},{"stop_id":"U1546Z2","name":"Rotreklova","arrival_time":"6:15:00","departure_time":"6:15:00","lat":49.206534,"lon":16.684689,"is_passed":false},{"stop_id":"U1012Z2","name":"Bartákova","arrival_time":"6:16:00","departure_time":"6:16:00","lat":49.204255,"lon":16.679185,"is_passed":false},{"stop_id":"U1438Z4","name":"Novolíšeňská","arrival_time":"6:18:00","departure_time":"6:18:00","lat":49.201792,"lon":16.670352,"is_passed":false},{"stop_id":"U1058Z2","name":"Čejkovická","arrival_time":"6:20:00","departure_time":"6:20:00","lat":49.200493,"lon":16.661793,"is_passed":false},{"stop_id":"U1036Z2","name":"Bořetická","arrival_time":"6:21:00","departure_time":"6:21:00","lat":49.201495,"lon":16.658055,"is_passed":false},{"stop_id":"U1403Z2","name":"Mutěnická","arrival_time":"6:22:00","departure_time":"6:22:00","lat":49.203951,"lon":16.654889,"is_passed":false},{"stop_id":"U1477Z2","name":"Pálavské náměstí","arrival_time":"6:23:00","departure_time":"6:23:00","lat":49.20538,"lon":16.658103,"is_passed":false},{"stop_id":"U1052Z2","name":"Bzenecká","arrival_time":"6:24:00","departure_time":"6:24:00","lat":49.205822,"lon":16.661645,"is_passed":false},{"stop_id":"U1523Z2","name":"Prušánecká","arrival_time":"6:25:00","departure_time":"6:25:00","lat":49.209503,"lon":16.663369,"is_passed":false},{"stop_id":"U1743Z2","name":"Vlčnovská","arrival_time":"6:26:00","departure_time":"6:26:00","lat":49.211166,"lon":16.659638,"is_passed":false},{"stop_id":"U1002Z2","name":"Akátky","arrival_time":"6:27:00","departure_time":"6:27:00","lat":49.208751,"lon":16.648718,"is_passed":false},{"stop_id":"U1698Z2","name":"Údolíček","arrival_time":"6:28:00","departure_time":"6:28:00","lat":49.206553,"lon":16.643865,"is_passed":false},{"stop_id":"U1631Z1","name":"Svatoplukova","arrival_time":"6:30:00","departure_time":"6:30:00","lat":49.2051,"lon":16.641425,"is_passed":false},{"stop_id":"U1611Z3","name":"Stará osada","arrival_time":"6:32:00","departure_time":"6:34:00","lat":49.202353,"lon":16.64196,"is_passed":false}]