[{"stop_id":"U1696Z4","name":"ÚAN Zvonařka","arrival_time":"5:51:00","departure_time":"5:51:00","lat":49.185364,"lon":16.616151,"is_passed":false},{"stop_id":"U1677Z3","name":"Tržní","arrival_time":"5:55:00","departure_time":"5:55:00","lat":49.189342,"lon":16.630314,"is_passed":false},{"stop_id":"U1068Z3","name":"Černovičky","arrival_time":"6:00:00","departure_time":"6:00:00","lat":49.183143,"lon":16.669108,"is_passed":false},{"stop_id":"U1577Z5","name":"Slatina, sídliště","arrival_time":"6:02:00","departure_time":"6:02:00","lat":49.182195,"lon":16.690725,"is_passed":false},{"stop_id":"U16130Z1","name":"Šlapanice, Bedřichovice, rozc.","arrival_time":"6:05:00","departure_time":"6:05:00","lat":49.182882,"lon":16.723572,"is_passed":false},{"stop_id":"U16105Z1","name":"Jiříkovice, motorest Rohlenka","arrival_time":"6:08:00","departure_time":"6:08:00","lat":49.183436,"lon":16.761042,"is_passed":false},{"stop_id":"U16205Z1","name":"Holubice, kruh","arrival_time":"6:11:00","departure_time":"6:11:00","lat":49.184495,"lon":16.799497,"is_passed":false},{"stop_id":"U16227Z1","name":"Holubice, GLP Park","arrival_time":"6:14:00","departure_time":"6:14:00","lat":49.188149,"lon":16.810898,"is_passed":false},{"stop_id":"U16210Z1","name":"Kovalovice, Stará pošta","arrival_time":"6:17:00","departure_time":"6:17:00","lat":49.185018,"lon":16.826655,"is_passed":false},{"stop_id":"U17348Z2","name":"Velešovice, u mostu","arrival_time":"6:19:00","departure_time":"6:19:00","lat":49.186552,"lon":16.841008,"is_passed":false},{"stop_id":"U17345Z1","name":"Velešovice","arrival_time":"6:21:00","departure_time":"6:21:00","lat":49.180494,"lon":16.847836,"is_passed":false},{"stop_id":"U17348Z1","name":"Velešovice, u mostu","arrival_time":"6:23:00","departure_time":"6:23:00","lat":49.186447,"lon":16.84118,"is_passed":false},{"stop_id":"U17337Z1","name":"Rousínov, rozc. k žel. st.","arrival_time":"6:27:00","departure_time":"6:27:00","lat":49.200012,"lon":16.873039,"is_passed":false},{"stop_id":"U17335Z1","name":"Rousínov, autobusová stanice","arrival_time":"6:29:00","departure_time":"6:29:00","lat":49.202947,"lon":16.88534,"is_passed":false},{"stop_id":"U17331Z1","name":"Rousínov, Čechyně, rozcestí","arrival_time":"6:31:00","departure_time":"6:31:00","lat":49.207062,"lon":16.891572,"is_passed":false},{"stop_id":"U17311Z1","name":"Komořany, EDP","arrival_time":"6:35:00","departure_time":"6:35:00","lat":49.219033,"lon":16.90472,"is_passed":false},{"stop_id":"U17310Z1","name":"Komořany, obecní úřad","arrival_time":"6:36:00","departure_time":"6:36:00","lat":49.216333,"lon":16.907,"is_passed":false},{"stop_id":"U17321Z1","name":"Podbřežice, rozcestí","arrival_time":"6:39:00","departure_time":"6:39:00","lat":49.208098,"lon":16.920515,"is_passed":false},{"stop_id":"U17301Z1","name":"Dražovice","arrival_time":"6:43:00","departure_time":"6:43:00","lat":49.193317,"lon":16.94385,"is_passed":false},{"stop_id":"U17302Z1","name":"Dražovice, na kopci","arrival_time":"6:45:00","departure_time":"6:45:00","lat":49.191843,"lon":16.947002,"is_passed":false},{"stop_id":"U16408Z1","name":"Letonice, obecní úřad","arrival_time":"6:48:00","departure_time":"6:48:00","lat":49.177407,"lon":16.959458,"is_passed":false},{"stop_id":"U16409Z1","name":"Letonice, u kaple","arrival_time":"6:51:00","departure_time":"6:51:00","lat":49.17206,"lon":16.963823,"is_passed":false},{"stop_id":"U16406Z1","name":"Bučovice, Marefy, žel. st.","arrival_time":"6:55:00","departure_time":"6:55:00","lat":49.149528,"lon":16.973338,"is_passed":false},{"stop_id":"U16403Z1","name":"Bučovice, jatky","arrival_time":"6:57:00","departure_time":"6:57:00","lat":49.15388,"lon":16.987918,"is_passed":false},{"stop_id":"U16451Z1","name":"Bučovice, zdravotní středisko","arrival_time":"7:00:00","departure_time":"7:00:00","lat":49.14811,"lon":17.005643,"is_passed":false},{"stop_id":"U16401Z20","name":"Bučovice, aut. st.","arrival_time":"7:02:00","departure_time":"7:02:00","lat":49.148057,"lon":17.001665,"is_passed":false}]