[{"stop_id":"U1143Z2","name":"Hlavní","arrival_time":"4:44:00","departure_time":"4:44:00","lat":49.21715,"lon":16.560506,"is_passed":false},{"stop_id":"U1651Z2","name":"Štursova","arrival_time":"4:45:00","departure_time":"4:45:00","lat":49.215854,"lon":16.564522,"is_passed":false},{"stop_id":"U1758Z2","name":"Vrázova","arrival_time":"4:46:00","departure_time":"4:46:00","lat":49.216977,"lon":16.568646,"is_passed":false},{"stop_id":"U1528Z4","name":"Přívrat","arrival_time":"4:48:00","departure_time":"4:48:00","lat":49.218647,"lon":16.574085,"is_passed":false},{"stop_id":"U1777Z2","name":"Záhřebská","arrival_time":"4:49:00","departure_time":"4:49:00","lat":49.219845,"lon":16.580415,"is_passed":false},{"stop_id":"U1567Z6","name":"Skácelova","arrival_time":"4:51:00","departure_time":"4:51:00","lat":49.22163,"lon":16.585935,"is_passed":false},{"stop_id":"U1586Z4","name":"Slovanské náměstí","arrival_time":"4:52:00","departure_time":"4:52:00","lat":49.222774,"lon":16.591332,"is_passed":false},{"stop_id":"U1171Z3","name":"Husitská","arrival_time":"4:53:00","departure_time":"4:53:00","lat":49.223851,"lon":16.594116,"is_passed":false},{"stop_id":"U1566Z4","name":"Semilasso","arrival_time":"4:55:00","departure_time":"4:55:00","lat":49.228055,"lon":16.593438,"is_passed":false},{"stop_id":"U1286Z3","name":"Královo Pole, nádraží","arrival_time":"4:56:00","departure_time":"4:56:00","lat":49.229218,"lon":16.596271,"is_passed":false},{"stop_id":"U1388Z2","name":"Mojmírovo náměstí","arrival_time":"4:57:00","departure_time":"4:57:00","lat":49.226499,"lon":16.598423,"is_passed":false},{"stop_id":"U1150Z1","name":"Högrova","arrival_time":"4:59:00","departure_time":"4:59:00","lat":49.228296,"lon":16.604528,"is_passed":false},{"stop_id":"U1195Z1","name":"Jarmily Kurandové","arrival_time":"4:59:00","departure_time":"4:59:00","lat":49.230235,"lon":16.604438,"is_passed":false},{"stop_id":"U1399Z1","name":"Moskalykova","arrival_time":"5:00:00","departure_time":"5:00:00","lat":49.231252,"lon":16.607921,"is_passed":false},{"stop_id":"U1564Z1","name":"Sadová","arrival_time":"5:01:00","departure_time":"5:01:00","lat":49.234166,"lon":16.603978,"is_passed":false},{"stop_id":"U1130Z2","name":"Hamerláky","arrival_time":"5:02:00","departure_time":"5:02:00","lat":49.237225,"lon":16.60407,"is_passed":false},{"stop_id":"U1407Z1","name":"Myslivecký stadion","arrival_time":"5:03:00","departure_time":"5:03:00","lat":49.241317,"lon":16.609929,"is_passed":false},{"stop_id":"U1711Z1","name":"Útěchovská","arrival_time":"5:04:00","departure_time":"5:04:00","lat":49.2475,"lon":16.616402,"is_passed":false},{"stop_id":"U1091Z1","name":"Dohnalova","arrival_time":"5:05:00","departure_time":"5:05:00","lat":49.251124,"lon":16.618901,"is_passed":false},{"stop_id":"U1412Z1","name":"Na kovárně","arrival_time":"5:06:00","departure_time":"5:06:00","lat":49.253213,"lon":16.620275,"is_passed":false},{"stop_id":"U1548Z1","name":"Rozárka","arrival_time":"5:07:00","departure_time":"5:07:00","lat":49.254486,"lon":16.622791,"is_passed":false},{"stop_id":"U1235Z3","name":"Klarisky","arrival_time":"5:09:00","departure_time":"5:12:00","lat":49.256942,"lon":16.622725,"is_passed":false}]