[{"stop_id":"U16149Z2","name":"Sokolnice, železniční stanice","arrival_time":"15:00:00","departure_time":"15:00:00","lat":49.108258,"lon":16.734145,"is_passed":false},{"stop_id":"U15225Z1","name":"Nesvačilka","arrival_time":"15:08:00","departure_time":"15:08:00","lat":49.063982,"lon":16.754355,"is_passed":false},{"stop_id":"U15226Z1","name":"Těšany","arrival_time":"15:13:00","departure_time":"15:13:00","lat":49.039299,"lon":16.771319,"is_passed":false},{"stop_id":"U15365Z1","name":"Šitbořice, Nikolčická","arrival_time":"15:18:00","departure_time":"15:22:00","lat":49.01632,"lon":16.775213,"is_passed":false},{"stop_id":"U15364Z1","name":"Šitbořice, na kopci","arrival_time":"15:24:00","departure_time":"15:24:00","lat":49.011417,"lon":16.777987,"is_passed":false},{"stop_id":"U15348Z1","name":"Diváky, dílny","arrival_time":"15:27:00","departure_time":"15:27:00","lat":48.994063,"lon":16.78372,"is_passed":false},{"stop_id":"U15350Z1","name":"Diváky, obecní úřad","arrival_time":"15:29:00","departure_time":"15:29:00","lat":48.989215,"lon":16.789256,"is_passed":false},{"stop_id":"U15349Z1","name":"Diváky, dolní konec","arrival_time":"15:30:00","departure_time":"15:30:00","lat":48.99102,"lon":16.798233,"is_passed":false},{"stop_id":"U15351Z1","name":"Diváky, samota","arrival_time":"15:31:00","departure_time":"15:31:00","lat":48.987765,"lon":16.803443,"is_passed":false},{"stop_id":"U15346Z1","name":"Boleradice, u kříže","arrival_time":"15:34:00","departure_time":"15:34:00","lat":48.969485,"lon":16.806917,"is_passed":false},{"stop_id":"U15344Z1","name":"Boleradice","arrival_time":"15:36:00","departure_time":"15:50:00","lat":48.967457,"lon":16.81428,"is_passed":false}]