[{"stop_id":"U1235Z4","name":"Klarisky","arrival_time":"15:09:00","departure_time":"15:09:00","lat":49.257063,"lon":16.622604,"is_passed":false},{"stop_id":"U1412Z2","name":"Na kovárně","arrival_time":"15:10:00","departure_time":"15:10:00","lat":49.254426,"lon":16.620777,"is_passed":false},{"stop_id":"U1091Z2","name":"Dohnalova","arrival_time":"15:11:00","departure_time":"15:11:00","lat":49.249657,"lon":16.617775,"is_passed":false},{"stop_id":"U1711Z2","name":"Útěchovská","arrival_time":"15:12:00","departure_time":"15:12:00","lat":49.246974,"lon":16.61581,"is_passed":false},{"stop_id":"U1407Z2","name":"Myslivecký stadion","arrival_time":"15:13:00","departure_time":"15:13:00","lat":49.241075,"lon":16.609359,"is_passed":false},{"stop_id":"U1130Z1","name":"Hamerláky","arrival_time":"15:14:00","departure_time":"15:14:00","lat":49.237082,"lon":16.603873,"is_passed":false},{"stop_id":"U1564Z2","name":"Sadová","arrival_time":"15:15:00","departure_time":"15:15:00","lat":49.233904,"lon":16.604679,"is_passed":false},{"stop_id":"U1399Z2","name":"Moskalykova","arrival_time":"15:16:00","departure_time":"15:16:00","lat":49.23163,"lon":16.608178,"is_passed":false},{"stop_id":"U1150Z2","name":"Högrova","arrival_time":"15:18:00","departure_time":"15:18:00","lat":49.229128,"lon":16.604259,"is_passed":false},{"stop_id":"U1388Z1","name":"Mojmírovo náměstí","arrival_time":"15:20:00","departure_time":"15:20:00","lat":49.226134,"lon":16.597399,"is_passed":false},{"stop_id":"U1286Z5","name":"Královo Pole, nádraží","arrival_time":"15:23:00","departure_time":"15:23:00","lat":49.229633,"lon":16.595447,"is_passed":false},{"stop_id":"U1566Z6","name":"Semilasso","arrival_time":"15:24:00","departure_time":"15:24:00","lat":49.228248,"lon":16.593466,"is_passed":false},{"stop_id":"U1171Z4","name":"Husitská","arrival_time":"15:26:00","departure_time":"15:26:00","lat":49.224063,"lon":16.593994,"is_passed":false},{"stop_id":"U1586Z3","name":"Slovanské náměstí","arrival_time":"15:27:00","departure_time":"15:27:00","lat":49.223525,"lon":16.591009,"is_passed":false},{"stop_id":"U1567Z5","name":"Skácelova","arrival_time":"15:28:00","departure_time":"15:28:00","lat":49.221353,"lon":16.584711,"is_passed":false},{"stop_id":"U1777Z1","name":"Záhřebská","arrival_time":"15:30:00","departure_time":"15:30:00","lat":49.219602,"lon":16.579157,"is_passed":false},{"stop_id":"U1528Z3","name":"Přívrat","arrival_time":"15:31:00","departure_time":"15:31:00","lat":49.218788,"lon":16.574147,"is_passed":false},{"stop_id":"U1758Z1","name":"Vrázova","arrival_time":"15:32:00","departure_time":"15:32:00","lat":49.216968,"lon":16.568321,"is_passed":false},{"stop_id":"U1651Z1","name":"Štursova","arrival_time":"15:33:00","departure_time":"15:33:00","lat":49.216462,"lon":16.563614,"is_passed":false},{"stop_id":"U1502Z1","name":"Podveská","arrival_time":"15:34:00","departure_time":"15:34:00","lat":49.217623,"lon":16.559017,"is_passed":false},{"stop_id":"U1633Z3","name":"Svratecká","arrival_time":"15:35:00","departure_time":"15:35:00","lat":49.219008,"lon":16.554451,"is_passed":false},{"stop_id":"U1345Z1","name":"Lísky","arrival_time":"15:37:00","departure_time":"15:37:00","lat":49.219825,"lon":16.548868,"is_passed":false},{"stop_id":"U1493Z3","name":"Podlesí","arrival_time":"15:38:00","departure_time":"15:38:00","lat":49.218861,"lon":16.542049,"is_passed":false},{"stop_id":"U1226Z3","name":"Kamenolom","arrival_time":"15:39:00","departure_time":"15:39:00","lat":49.222506,"lon":16.537085,"is_passed":false},{"stop_id":"U1796Z7","name":"Zoologická zahrada","arrival_time":"15:43:00","departure_time":"15:43:00","lat":49.227823,"lon":16.531364,"is_passed":false},{"stop_id":"U1417Z1","name":"Náměstí 28. dubna","arrival_time":"15:44:00","departure_time":"15:44:00","lat":49.225188,"lon":16.531132,"is_passed":false},{"stop_id":"U1752Z1","name":"Vondrákova","arrival_time":"15:45:00","departure_time":"15:45:00","lat":49.221303,"lon":16.528376,"is_passed":false},{"stop_id":"U1326Z1","name":"Laštůvkova","arrival_time":"15:46:00","departure_time":"15:46:00","lat":49.220185,"lon":16.525212,"is_passed":false},{"stop_id":"U1107Z1","name":"Filipova","arrival_time":"15:47:00","departure_time":"15:47:00","lat":49.217684,"lon":16.525123,"is_passed":false},{"stop_id":"U1062Z1","name":"Černého","arrival_time":"15:49:00","departure_time":"16:18:00","lat":49.214083,"lon":16.522812,"is_passed":false}]