[{"stop_id":"U18359Z1","name":"Hrádek, kulturní dům","arrival_time":"6:10:00","departure_time":"6:10:00","lat":48.775944,"lon":16.269504,"is_passed":false},{"stop_id":"U18361Z1","name":"Hrádek, zahradnictví","arrival_time":"6:12:00","departure_time":"6:12:00","lat":48.782305,"lon":16.255478,"is_passed":false},{"stop_id":"U18276Z2","name":"Křídlůvky, rozcestí","arrival_time":"6:13:00","departure_time":"6:13:00","lat":48.78496,"lon":16.24248,"is_passed":false},{"stop_id":"U18281Z2","name":"Valtrovice, obecní úřad","arrival_time":"6:16:00","departure_time":"6:16:00","lat":48.794325,"lon":16.222642,"is_passed":false},{"stop_id":"U18130Z2","name":"Strachotice, rozcestí","arrival_time":"6:18:00","departure_time":"6:18:00","lat":48.806675,"lon":16.201242,"is_passed":false},{"stop_id":"U18123Z2","name":"Krhovice","arrival_time":"6:21:00","departure_time":"6:21:00","lat":48.817417,"lon":16.174338,"is_passed":false},{"stop_id":"U18122Z2","name":"Hodonice, střed","arrival_time":"6:24:00","departure_time":"6:24:00","lat":48.835975,"lon":16.165225,"is_passed":false},{"stop_id":"U18133Z2","name":"Tasovice, u prodejen","arrival_time":"6:26:00","departure_time":"6:26:00","lat":48.836068,"lon":16.156327,"is_passed":false},{"stop_id":"U18186Z2","name":"Tasovice, u hřbitova","arrival_time":"6:27:00","departure_time":"6:27:00","lat":48.836058,"lon":16.151089,"is_passed":false},{"stop_id":"U18121Z2","name":"Dyje, u železničního přejezdu","arrival_time":"6:30:00","departure_time":"6:30:00","lat":48.84977,"lon":16.119869,"is_passed":false},{"stop_id":"U18119Z2","name":"Dyje, cihelna","arrival_time":"6:31:00","departure_time":"6:31:00","lat":48.852677,"lon":16.113313,"is_passed":false},{"stop_id":"U18107Z1","name":"Dobšice, rest.","arrival_time":"6:35:00","departure_time":"6:35:00","lat":48.848877,"lon":16.085832,"is_passed":false},{"stop_id":"U18051Z1","name":"Znojmo, Brněnská, sídl.","arrival_time":"6:37:00","departure_time":"6:37:00","lat":48.843587,"lon":16.063,"is_passed":false},{"stop_id":"U18009Z51","name":"Znojmo, autobusové nádraží","arrival_time":"6:40:00","departure_time":"6:40:00","lat":48.851908,"lon":16.056983,"is_passed":false}]