[{"stop_id":"U18009Z15","name":"Znojmo, autobusové nádraží","arrival_time":"9:07:00","departure_time":"9:07:00","lat":48.851706,"lon":16.057086,"is_passed":false},{"stop_id":"U18002Z1","name":"Znojmo, Suchohrdelská, hřbitov","arrival_time":"9:09:00","departure_time":"9:09:00","lat":48.85731,"lon":16.06696,"is_passed":false},{"stop_id":"U18127Z2","name":"Práče, škola","arrival_time":"9:22:00","departure_time":"9:22:00","lat":48.876636,"lon":16.203406,"is_passed":false},{"stop_id":"U18214Z4","name":"Lechovice, obecní úřad","arrival_time":"9:24:00","departure_time":"9:28:00","lat":48.872491,"lon":16.221123,"is_passed":false},{"stop_id":"U18201Z1","name":"Borotice","arrival_time":"9:32:00","departure_time":"9:32:00","lat":48.857318,"lon":16.244243,"is_passed":false},{"stop_id":"U18202Z1","name":"Borotice, Filipovice","arrival_time":"9:33:00","departure_time":"9:33:00","lat":48.85307,"lon":16.24943,"is_passed":false},{"stop_id":"U18207Z1","name":"Božice, u sklepů","arrival_time":"9:35:00","departure_time":"9:35:00","lat":48.847848,"lon":16.259072,"is_passed":false},{"stop_id":"U18209Z1","name":"Božice, České Křídlovice","arrival_time":"9:37:00","departure_time":"9:37:00","lat":48.838583,"lon":16.275993,"is_passed":false},{"stop_id":"U18206Z1","name":"Božice, u pošty","arrival_time":"9:40:00","departure_time":"9:40:00","lat":48.835257,"lon":16.281438,"is_passed":false},{"stop_id":"U18205Z3","name":"Božice, škola","arrival_time":"9:42:00","departure_time":"12:46:00","lat":48.83442,"lon":16.290619,"is_passed":false}]