[{"stop_id":"U1696Z4","name":"ÚAN Zvonařka","arrival_time":"8:51:00","departure_time":"8:51:00","lat":49.185364,"lon":16.616151,"is_passed":false},{"stop_id":"U1677Z3","name":"Tržní","arrival_time":"8:55:00","departure_time":"8:55:00","lat":49.189342,"lon":16.630314,"is_passed":false},{"stop_id":"U1068Z3","name":"Černovičky","arrival_time":"9:00:00","departure_time":"9:00:00","lat":49.183143,"lon":16.669108,"is_passed":false},{"stop_id":"U1577Z5","name":"Slatina, sídliště","arrival_time":"9:02:00","departure_time":"9:02:00","lat":49.182195,"lon":16.690725,"is_passed":false},{"stop_id":"U16130Z1","name":"Šlapanice, Bedřichovice, rozc.","arrival_time":"9:05:00","departure_time":"9:05:00","lat":49.182882,"lon":16.723572,"is_passed":false},{"stop_id":"U16105Z1","name":"Jiříkovice, motorest Rohlenka","arrival_time":"9:08:00","departure_time":"9:08:00","lat":49.183436,"lon":16.761042,"is_passed":false},{"stop_id":"U16205Z1","name":"Holubice, kruh","arrival_time":"9:11:00","departure_time":"9:11:00","lat":49.184495,"lon":16.799497,"is_passed":false},{"stop_id":"U16210Z1","name":"Kovalovice, Stará pošta","arrival_time":"9:14:00","departure_time":"9:14:00","lat":49.185018,"lon":16.826655,"is_passed":false},{"stop_id":"U17348Z2","name":"Velešovice, u mostu","arrival_time":"9:16:00","departure_time":"9:16:00","lat":49.186552,"lon":16.841008,"is_passed":false},{"stop_id":"U17345Z1","name":"Velešovice","arrival_time":"9:18:00","departure_time":"9:18:00","lat":49.180494,"lon":16.847836,"is_passed":false},{"stop_id":"U17348Z1","name":"Velešovice, u mostu","arrival_time":"9:20:00","departure_time":"9:20:00","lat":49.186447,"lon":16.84118,"is_passed":false},{"stop_id":"U17337Z1","name":"Rousínov, rozc. k žel. st.","arrival_time":"9:24:00","departure_time":"9:24:00","lat":49.200012,"lon":16.873039,"is_passed":false},{"stop_id":"U17335Z1","name":"Rousínov, autobusová stanice","arrival_time":"9:26:00","departure_time":"9:30:00","lat":49.202947,"lon":16.88534,"is_passed":false}]