[{"stop_id":"U12767Z2","name":"Olešnice, nám.","arrival_time":"6:54:00","departure_time":"6:54:00","lat":49.557883,"lon":16.42226,"is_passed":false},{"stop_id":"U12769Z1","name":"Olešnice, závod","arrival_time":"6:56:00","departure_time":"6:56:00","lat":49.551247,"lon":16.420538,"is_passed":false},{"stop_id":"U12760Z12","name":"Křtěnov","arrival_time":"6:58:00","departure_time":"6:58:00","lat":49.547032,"lon":16.419754,"is_passed":false},{"stop_id":"U12762Z1","name":"Lhota u Olešnice","arrival_time":"7:02:00","departure_time":"7:02:00","lat":49.542987,"lon":16.390853,"is_passed":false},{"stop_id":"U12760Z1","name":"Křtěnov","arrival_time":"7:06:00","departure_time":"7:06:00","lat":49.546465,"lon":16.420213,"is_passed":false},{"stop_id":"U12764Z1","name":"Louka, Loucký Dvůr","arrival_time":"7:08:00","departure_time":"7:08:00","lat":49.532593,"lon":16.420752,"is_passed":false},{"stop_id":"U12763Z1","name":"Louka","arrival_time":"7:10:00","departure_time":"7:10:00","lat":49.527897,"lon":16.430135,"is_passed":false},{"stop_id":"U12759Z1","name":"Hodonín u Kunštátu, rozcestí","arrival_time":"7:13:00","departure_time":"7:13:00","lat":49.519298,"lon":16.441355,"is_passed":false},{"stop_id":"U12028Z3","name":"Tasovice, rozcestí","arrival_time":"7:15:00","departure_time":"7:15:00","lat":49.511078,"lon":16.435412,"is_passed":false},{"stop_id":"U12026Z1","name":"Hodonín u Kunštátu","arrival_time":"7:18:00","departure_time":"7:18:00","lat":49.501284,"lon":16.409916,"is_passed":false},{"stop_id":"U12028Z1","name":"Tasovice, rozcestí","arrival_time":"7:21:00","departure_time":"7:21:00","lat":49.511078,"lon":16.435412,"is_passed":false},{"stop_id":"U12027Z1","name":"Tasovice","arrival_time":"7:24:00","departure_time":"7:24:00","lat":49.496425,"lon":16.440405,"is_passed":false},{"stop_id":"U12535Z1","name":"Černovice","arrival_time":"7:28:00","departure_time":"7:28:00","lat":49.483002,"lon":16.424903,"is_passed":false},{"stop_id":"U12534Z3","name":"Brumov, rozc.3.0","arrival_time":"7:32:00","departure_time":"7:32:00","lat":49.465681,"lon":16.456082,"is_passed":false},{"stop_id":"U12505Z1","name":"Brumov, rozcestí 0.5","arrival_time":"7:35:00","departure_time":"7:35:00","lat":49.455272,"lon":16.4358,"is_passed":false},{"stop_id":"U12504Z1","name":"Brumov, dolní konec","arrival_time":"7:36:00","departure_time":"7:36:00","lat":49.458362,"lon":16.431693,"is_passed":false},{"stop_id":"U12503Z1","name":"Brumov","arrival_time":"7:37:00","departure_time":"7:37:00","lat":49.461652,"lon":16.427031,"is_passed":false},{"stop_id":"U12504Z2","name":"Brumov, dolní konec","arrival_time":"7:38:00","departure_time":"7:38:00","lat":49.458362,"lon":16.431693,"is_passed":false},{"stop_id":"U12505Z3","name":"Brumov, rozcestí 0.5","arrival_time":"7:39:00","departure_time":"7:39:00","lat":49.455,"lon":16.435755,"is_passed":false},{"stop_id":"U12532Z1","name":"Bedřichov","arrival_time":"7:45:00","departure_time":"7:45:00","lat":49.461605,"lon":16.465808,"is_passed":false},{"stop_id":"U12531Z1","name":"Štěchov","arrival_time":"7:49:00","departure_time":"7:49:00","lat":49.452001,"lon":16.506835,"is_passed":false},{"stop_id":"U12528Z1","name":"Lysice, Štěchovská","arrival_time":"7:52:00","departure_time":"7:52:00","lat":49.451057,"lon":16.527132,"is_passed":false},{"stop_id":"U12524Z2","name":"Lysice, pohostinství","arrival_time":"7:54:00","departure_time":"8:06:00","lat":49.452327,"lon":16.537945,"is_passed":false},{"stop_id":"U12527Z2","name":"Lysice, škola","arrival_time":"8:08:00","departure_time":"8:08:00","lat":49.457502,"lon":16.538188,"is_passed":false},{"stop_id":"U12520Z1","name":"Drnovice, hor.zast.","arrival_time":"8:10:00","departure_time":"8:10:00","lat":49.467882,"lon":16.534385,"is_passed":false},{"stop_id":"U12519Z1","name":"Drnovice","arrival_time":"8:12:00","departure_time":"8:12:00","lat":49.468633,"lon":16.54129,"is_passed":false},{"stop_id":"U12685Z1","name":"Voděrady, hor.zast.","arrival_time":"8:14:00","departure_time":"8:14:00","lat":49.479455,"lon":16.558272,"is_passed":false},{"stop_id":"U12686Z1","name":"Voděrady, nám.","arrival_time":"8:15:00","departure_time":"8:15:00","lat":49.480877,"lon":16.56021,"is_passed":false},{"stop_id":"U12665Z1","name":"Krhov","arrival_time":"8:20:00","departure_time":"8:20:00","lat":49.463333,"lon":16.58325,"is_passed":false},{"stop_id":"U12667Z1","name":"Krhov, rozc. 1.0","arrival_time":"8:22:00","departure_time":"8:22:00","lat":49.468313,"lon":16.584207,"is_passed":false},{"stop_id":"U12663Z1","name":"Jabloňany, rozc.","arrival_time":"8:23:00","departure_time":"8:23:00","lat":49.474687,"lon":16.594285,"is_passed":false},{"stop_id":"U12676Z1","name":"Skalice nad Svitavou, žel.st.","arrival_time":"8:26:00","departure_time":"8:34:00","lat":49.480276,"lon":16.609048,"is_passed":false},{"stop_id":"U12648Z1","name":"Boskovice, Mladkov","arrival_time":"8:37:00","departure_time":"8:37:00","lat":49.490525,"lon":16.619477,"is_passed":false},{"stop_id":"U12650Z1","name":"Boskovice, nemocnice","arrival_time":"8:40:00","departure_time":"8:40:00","lat":49.491627,"lon":16.644028,"is_passed":false},{"stop_id":"U12635Z30","name":"Boskovice, aut.st.","arrival_time":"8:42:00","departure_time":"8:42:00","lat":49.49169,"lon":16.653337,"is_passed":false},{"stop_id":"U12633Z31","name":"Boskovice, 17. listopadu","arrival_time":"8:45:00","departure_time":"9:11:00","lat":49.488891,"lon":16.661476,"is_passed":false}]