[{"stop_id":"U12633Z1","name":"Boskovice, 17. listopadu","arrival_time":"13:11:00","departure_time":"13:11:00","lat":49.488891,"lon":16.661476,"is_passed":false},{"stop_id":"U12635Z10","name":"Boskovice, aut.st.","arrival_time":"13:16:00","departure_time":"13:16:00","lat":49.49169,"lon":16.653337,"is_passed":false},{"stop_id":"U12650Z2","name":"Boskovice, nemocnice","arrival_time":"13:18:00","departure_time":"13:18:00","lat":49.49167,"lon":16.644917,"is_passed":false},{"stop_id":"U12648Z2","name":"Boskovice, Mladkov","arrival_time":"13:21:00","departure_time":"13:21:00","lat":49.490705,"lon":16.61905,"is_passed":false},{"stop_id":"U12676Z5","name":"Skalice nad Svitavou, žel.st.","arrival_time":"13:24:00","departure_time":"13:30:00","lat":49.480279,"lon":16.608801,"is_passed":false},{"stop_id":"U12663Z2","name":"Jabloňany, rozc.","arrival_time":"13:33:00","departure_time":"13:33:00","lat":49.47452,"lon":16.59455,"is_passed":false},{"stop_id":"U12665Z2","name":"Krhov","arrival_time":"13:36:00","departure_time":"13:36:00","lat":49.463333,"lon":16.58325,"is_passed":false},{"stop_id":"U12686Z2","name":"Voděrady, nám.","arrival_time":"13:42:00","departure_time":"13:42:00","lat":49.481015,"lon":16.5602,"is_passed":false},{"stop_id":"U12685Z2","name":"Voděrady, hor.zast.","arrival_time":"13:43:00","departure_time":"13:43:00","lat":49.47946,"lon":16.558258,"is_passed":false},{"stop_id":"U12519Z2","name":"Drnovice","arrival_time":"13:46:00","departure_time":"13:46:00","lat":49.46865,"lon":16.5411,"is_passed":false},{"stop_id":"U12520Z2","name":"Drnovice, hor.zast.","arrival_time":"13:48:00","departure_time":"13:48:00","lat":49.467878,"lon":16.534102,"is_passed":false},{"stop_id":"U12527Z1","name":"Lysice, škola","arrival_time":"13:50:00","departure_time":"13:50:00","lat":49.456986,"lon":16.538231,"is_passed":false},{"stop_id":"U12524Z5","name":"Lysice, pohostinství","arrival_time":"13:52:00","departure_time":"14:04:00","lat":49.452249,"lon":16.537757,"is_passed":false},{"stop_id":"U12528Z2","name":"Lysice, Štěchovská","arrival_time":"14:06:00","departure_time":"14:06:00","lat":49.450907,"lon":16.527685,"is_passed":false},{"stop_id":"U12531Z2","name":"Štěchov","arrival_time":"14:09:00","departure_time":"14:09:00","lat":49.451917,"lon":16.506837,"is_passed":false},{"stop_id":"U12532Z2","name":"Bedřichov","arrival_time":"14:14:00","departure_time":"14:14:00","lat":49.46161,"lon":16.465692,"is_passed":false},{"stop_id":"U12534Z3","name":"Brumov, rozc.3.0","arrival_time":"14:16:00","departure_time":"14:16:00","lat":49.465681,"lon":16.456082,"is_passed":false},{"stop_id":"U12505Z1","name":"Brumov, rozcestí 0.5","arrival_time":"14:19:00","departure_time":"14:19:00","lat":49.455272,"lon":16.4358,"is_passed":false},{"stop_id":"U12504Z1","name":"Brumov, dolní konec","arrival_time":"14:20:00","departure_time":"14:20:00","lat":49.458362,"lon":16.431693,"is_passed":false},{"stop_id":"U12503Z1","name":"Brumov","arrival_time":"14:21:00","departure_time":"14:21:00","lat":49.461652,"lon":16.427031,"is_passed":false},{"stop_id":"U12504Z2","name":"Brumov, dolní konec","arrival_time":"14:22:00","departure_time":"14:22:00","lat":49.458362,"lon":16.431693,"is_passed":false},{"stop_id":"U12505Z3","name":"Brumov, rozcestí 0.5","arrival_time":"14:23:00","departure_time":"14:23:00","lat":49.455,"lon":16.435755,"is_passed":false},{"stop_id":"U12535Z2","name":"Černovice","arrival_time":"14:30:00","departure_time":"14:30:00","lat":49.483107,"lon":16.424948,"is_passed":false},{"stop_id":"U12027Z2","name":"Tasovice","arrival_time":"14:34:00","departure_time":"14:34:00","lat":49.496425,"lon":16.440405,"is_passed":false},{"stop_id":"U12028Z3","name":"Tasovice, rozcestí","arrival_time":"14:37:00","departure_time":"14:37:00","lat":49.511078,"lon":16.435412,"is_passed":false},{"stop_id":"U12026Z1","name":"Hodonín u Kunštátu","arrival_time":"14:40:00","departure_time":"14:40:00","lat":49.501284,"lon":16.409916,"is_passed":false},{"stop_id":"U12028Z2","name":"Tasovice, rozcestí","arrival_time":"14:43:00","departure_time":"14:43:00","lat":49.511078,"lon":16.435412,"is_passed":false},{"stop_id":"U12759Z2","name":"Hodonín u Kunštátu, rozcestí","arrival_time":"14:45:00","departure_time":"14:45:00","lat":49.519298,"lon":16.441355,"is_passed":false},{"stop_id":"U12763Z2","name":"Louka","arrival_time":"14:48:00","departure_time":"14:48:00","lat":49.527897,"lon":16.430135,"is_passed":false},{"stop_id":"U12764Z2","name":"Louka, Loucký Dvůr","arrival_time":"14:50:00","departure_time":"14:50:00","lat":49.532593,"lon":16.420752,"is_passed":false},{"stop_id":"U12760Z11","name":"Křtěnov","arrival_time":"14:52:00","departure_time":"14:52:00","lat":49.546561,"lon":16.420178,"is_passed":false},{"stop_id":"U12762Z1","name":"Lhota u Olešnice","arrival_time":"14:56:00","departure_time":"14:56:00","lat":49.542987,"lon":16.390853,"is_passed":false},{"stop_id":"U12760Z2","name":"Křtěnov","arrival_time":"15:01:00","departure_time":"15:01:00","lat":49.547074,"lon":16.419808,"is_passed":false},{"stop_id":"U12769Z2","name":"Olešnice, závod","arrival_time":"15:03:00","departure_time":"15:03:00","lat":49.551247,"lon":16.420538,"is_passed":false},{"stop_id":"U12767Z6","name":"Olešnice, nám.","arrival_time":"15:05:00","departure_time":"15:05:00","lat":49.557876,"lon":16.42226,"is_passed":false}]