[{"stop_id":"U1143Z2","name":"Hlavní","arrival_time":"15:18:00","departure_time":"15:18:00","lat":49.21715,"lon":16.560506,"is_passed":false},{"stop_id":"U1651Z2","name":"Štursova","arrival_time":"15:19:00","departure_time":"15:19:00","lat":49.215854,"lon":16.564522,"is_passed":false},{"stop_id":"U1758Z2","name":"Vrázova","arrival_time":"15:20:00","departure_time":"15:20:00","lat":49.216977,"lon":16.568646,"is_passed":false},{"stop_id":"U1528Z6","name":"Přívrat","arrival_time":"15:22:00","departure_time":"15:22:00","lat":49.218109,"lon":16.574404,"is_passed":false},{"stop_id":"U1352Z2","name":"Makovského náměstí","arrival_time":"15:22:00","departure_time":"15:22:00","lat":49.217881,"lon":16.576657,"is_passed":false},{"stop_id":"U1426Z2","name":"Náměstí Svornosti","arrival_time":"15:24:00","departure_time":"15:24:00","lat":49.215179,"lon":16.58299,"is_passed":false},{"stop_id":"U1206Z2","name":"Jindřichova","arrival_time":"15:25:00","departure_time":"15:25:00","lat":49.213132,"lon":16.583163,"is_passed":false},{"stop_id":"U1601Z2","name":"Spojovací","arrival_time":"15:26:00","departure_time":"15:26:00","lat":49.211772,"lon":16.58703,"is_passed":false},{"stop_id":"U1242Z2","name":"Klusáčkova","arrival_time":"15:28:00","departure_time":"15:28:00","lat":49.211903,"lon":16.592875,"is_passed":false},{"stop_id":"U1785Z2","name":"Zemská knihovna","arrival_time":"15:29:00","departure_time":"15:29:00","lat":49.208799,"lon":16.594624,"is_passed":false},{"stop_id":"U1626Z2","name":"Sušilova","arrival_time":"15:31:00","departure_time":"15:31:00","lat":49.204397,"lon":16.598621,"is_passed":false},{"stop_id":"U1587Z2","name":"Smetanova","arrival_time":"15:32:00","departure_time":"15:32:00","lat":49.201271,"lon":16.602293,"is_passed":false},{"stop_id":"U1073Z7","name":"Česká","arrival_time":"15:35:00","departure_time":"15:35:00","lat":49.198331,"lon":16.605663,"is_passed":false}]