[{"stop_id":"U12767Z2","name":"Olešnice, nám.","arrival_time":"16:49:00","departure_time":"16:49:00","lat":49.557883,"lon":16.42226,"is_passed":false},{"stop_id":"U12769Z1","name":"Olešnice, závod","arrival_time":"16:50:00","departure_time":"16:50:00","lat":49.551247,"lon":16.420538,"is_passed":false},{"stop_id":"U12760Z12","name":"Křtěnov","arrival_time":"16:52:00","departure_time":"16:52:00","lat":49.547032,"lon":16.419754,"is_passed":false},{"stop_id":"U12762Z1","name":"Lhota u Olešnice","arrival_time":"16:56:00","departure_time":"16:56:00","lat":49.542987,"lon":16.390853,"is_passed":false},{"stop_id":"U12760Z1","name":"Křtěnov","arrival_time":"17:00:00","departure_time":"17:00:00","lat":49.546465,"lon":16.420213,"is_passed":false},{"stop_id":"U12764Z1","name":"Louka, Loucký Dvůr","arrival_time":"17:02:00","departure_time":"17:02:00","lat":49.532593,"lon":16.420752,"is_passed":false},{"stop_id":"U12763Z1","name":"Louka","arrival_time":"17:04:00","departure_time":"17:04:00","lat":49.527897,"lon":16.430135,"is_passed":false},{"stop_id":"U12759Z1","name":"Hodonín u Kunštátu, rozcestí","arrival_time":"17:07:00","departure_time":"17:07:00","lat":49.519298,"lon":16.441355,"is_passed":false},{"stop_id":"U12028Z3","name":"Tasovice, rozcestí","arrival_time":"17:09:00","departure_time":"17:09:00","lat":49.511078,"lon":16.435412,"is_passed":false},{"stop_id":"U12026Z1","name":"Hodonín u Kunštátu","arrival_time":"17:12:00","departure_time":"17:14:00","lat":49.501284,"lon":16.409916,"is_passed":false}]