[{"stop_id":"U12026Z1","name":"Hodonín u Kunštátu","arrival_time":"17:14:00","departure_time":"17:14:00","lat":49.501284,"lon":16.409916,"is_passed":false},{"stop_id":"U12028Z1","name":"Tasovice, rozcestí","arrival_time":"17:17:00","departure_time":"17:17:00","lat":49.511078,"lon":16.435412,"is_passed":false},{"stop_id":"U12027Z1","name":"Tasovice","arrival_time":"17:20:00","departure_time":"17:20:00","lat":49.496425,"lon":16.440405,"is_passed":false},{"stop_id":"U12535Z1","name":"Černovice","arrival_time":"17:24:00","departure_time":"17:24:00","lat":49.483002,"lon":16.424903,"is_passed":false},{"stop_id":"U12534Z1","name":"Brumov, rozc.3.0","arrival_time":"17:28:00","departure_time":"17:28:00","lat":49.465681,"lon":16.456082,"is_passed":false},{"stop_id":"U12532Z1","name":"Bedřichov","arrival_time":"17:31:00","departure_time":"17:31:00","lat":49.461605,"lon":16.465808,"is_passed":false},{"stop_id":"U12531Z1","name":"Štěchov","arrival_time":"17:35:00","departure_time":"17:35:00","lat":49.452001,"lon":16.506835,"is_passed":false},{"stop_id":"U12528Z1","name":"Lysice, Štěchovská","arrival_time":"17:38:00","departure_time":"17:38:00","lat":49.451057,"lon":16.527132,"is_passed":false},{"stop_id":"U12524Z2","name":"Lysice, pohostinství","arrival_time":"17:40:00","departure_time":"17:46:00","lat":49.452327,"lon":16.537945,"is_passed":false},{"stop_id":"U12527Z2","name":"Lysice, škola","arrival_time":"17:48:00","departure_time":"17:48:00","lat":49.457502,"lon":16.538188,"is_passed":false},{"stop_id":"U12520Z1","name":"Drnovice, hor.zast.","arrival_time":"17:50:00","departure_time":"17:50:00","lat":49.467882,"lon":16.534385,"is_passed":false},{"stop_id":"U12519Z1","name":"Drnovice","arrival_time":"17:52:00","departure_time":"17:52:00","lat":49.468633,"lon":16.54129,"is_passed":false},{"stop_id":"U12685Z1","name":"Voděrady, hor.zast.","arrival_time":"17:54:00","departure_time":"17:54:00","lat":49.479455,"lon":16.558272,"is_passed":false},{"stop_id":"U12686Z1","name":"Voděrady, nám.","arrival_time":"17:55:00","departure_time":"17:55:00","lat":49.480877,"lon":16.56021,"is_passed":false},{"stop_id":"U12665Z1","name":"Krhov","arrival_time":"18:00:00","departure_time":"18:00:00","lat":49.463333,"lon":16.58325,"is_passed":false},{"stop_id":"U12667Z1","name":"Krhov, rozc. 1.0","arrival_time":"18:02:00","departure_time":"18:02:00","lat":49.468313,"lon":16.584207,"is_passed":false},{"stop_id":"U12663Z1","name":"Jabloňany, rozc.","arrival_time":"18:03:00","departure_time":"18:03:00","lat":49.474687,"lon":16.594285,"is_passed":false},{"stop_id":"U12676Z1","name":"Skalice nad Svitavou, žel.st.","arrival_time":"18:06:00","departure_time":"18:06:00","lat":49.480276,"lon":16.609048,"is_passed":false},{"stop_id":"U12648Z1","name":"Boskovice, Mladkov","arrival_time":"18:09:00","departure_time":"18:09:00","lat":49.490525,"lon":16.619477,"is_passed":false},{"stop_id":"U12650Z1","name":"Boskovice, nemocnice","arrival_time":"18:12:00","departure_time":"18:12:00","lat":49.491627,"lon":16.644028,"is_passed":false},{"stop_id":"U12635Z30","name":"Boskovice, aut.st.","arrival_time":"18:14:00","departure_time":"18:14:00","lat":49.49169,"lon":16.653337,"is_passed":false}]