[{"stop_id":"U12026Z1","name":"Hodonín u Kunštátu","arrival_time":"3:51:00","departure_time":"3:51:00","lat":49.501284,"lon":16.409916,"is_passed":false},{"stop_id":"U12028Z2","name":"Tasovice, rozcestí","arrival_time":"3:54:00","departure_time":"3:54:00","lat":49.511078,"lon":16.435412,"is_passed":false},{"stop_id":"U12759Z2","name":"Hodonín u Kunštátu, rozcestí","arrival_time":"3:56:00","departure_time":"3:56:00","lat":49.519298,"lon":16.441355,"is_passed":false},{"stop_id":"U12763Z2","name":"Louka","arrival_time":"3:59:00","departure_time":"3:59:00","lat":49.527897,"lon":16.430135,"is_passed":false},{"stop_id":"U12764Z2","name":"Louka, Loucký Dvůr","arrival_time":"4:01:00","departure_time":"4:01:00","lat":49.532593,"lon":16.420752,"is_passed":false},{"stop_id":"U12760Z11","name":"Křtěnov","arrival_time":"4:03:00","departure_time":"4:03:00","lat":49.546561,"lon":16.420178,"is_passed":false},{"stop_id":"U12762Z1","name":"Lhota u Olešnice","arrival_time":"4:07:00","departure_time":"4:07:00","lat":49.542987,"lon":16.390853,"is_passed":false},{"stop_id":"U12760Z2","name":"Křtěnov","arrival_time":"4:12:00","departure_time":"4:12:00","lat":49.547074,"lon":16.419808,"is_passed":false},{"stop_id":"U12769Z2","name":"Olešnice, závod","arrival_time":"4:14:00","departure_time":"4:14:00","lat":49.551247,"lon":16.420538,"is_passed":false},{"stop_id":"U12767Z6","name":"Olešnice, nám.","arrival_time":"4:16:00","departure_time":"4:16:00","lat":49.557876,"lon":16.42226,"is_passed":false}]