[{"stop_id":"U12633Z1","name":"Boskovice, 17. listopadu","arrival_time":"11:17:00","departure_time":"11:17:00","lat":49.488891,"lon":16.661476,"is_passed":false},{"stop_id":"U12635Z10","name":"Boskovice, aut.st.","arrival_time":"11:22:00","departure_time":"11:22:00","lat":49.49169,"lon":16.653337,"is_passed":false},{"stop_id":"U12650Z2","name":"Boskovice, nemocnice","arrival_time":"11:24:00","departure_time":"11:24:00","lat":49.49167,"lon":16.644917,"is_passed":false},{"stop_id":"U12648Z2","name":"Boskovice, Mladkov","arrival_time":"11:27:00","departure_time":"11:27:00","lat":49.490705,"lon":16.61905,"is_passed":false},{"stop_id":"U12676Z5","name":"Skalice nad Svitavou, žel.st.","arrival_time":"11:30:00","departure_time":"11:30:00","lat":49.480279,"lon":16.608801,"is_passed":false},{"stop_id":"U12663Z2","name":"Jabloňany, rozc.","arrival_time":"11:33:00","departure_time":"11:33:00","lat":49.47452,"lon":16.59455,"is_passed":false},{"stop_id":"U12665Z2","name":"Krhov","arrival_time":"11:36:00","departure_time":"11:36:00","lat":49.463333,"lon":16.58325,"is_passed":false},{"stop_id":"U12686Z2","name":"Voděrady, nám.","arrival_time":"11:42:00","departure_time":"11:42:00","lat":49.481015,"lon":16.5602,"is_passed":false},{"stop_id":"U12685Z2","name":"Voděrady, hor.zast.","arrival_time":"11:43:00","departure_time":"11:43:00","lat":49.47946,"lon":16.558258,"is_passed":false},{"stop_id":"U12519Z2","name":"Drnovice","arrival_time":"11:46:00","departure_time":"11:46:00","lat":49.46865,"lon":16.5411,"is_passed":false},{"stop_id":"U12520Z2","name":"Drnovice, hor.zast.","arrival_time":"11:48:00","departure_time":"11:48:00","lat":49.467878,"lon":16.534102,"is_passed":false},{"stop_id":"U12527Z1","name":"Lysice, škola","arrival_time":"11:50:00","departure_time":"11:50:00","lat":49.456986,"lon":16.538231,"is_passed":false},{"stop_id":"U12524Z4","name":"Lysice, pohostinství","arrival_time":"11:52:00","departure_time":"11:57:00","lat":49.452446,"lon":16.537857,"is_passed":false},{"stop_id":"U12528Z2","name":"Lysice, Štěchovská","arrival_time":"11:59:00","departure_time":"11:59:00","lat":49.450907,"lon":16.527685,"is_passed":false},{"stop_id":"U12531Z2","name":"Štěchov","arrival_time":"12:02:00","departure_time":"12:02:00","lat":49.451917,"lon":16.506837,"is_passed":false},{"stop_id":"U12537Z2","name":"Kunčina Ves","arrival_time":"12:06:00","departure_time":"12:06:00","lat":49.447552,"lon":16.476215,"is_passed":false},{"stop_id":"U12457Z1","name":"Rašov, rozc. 1.0","arrival_time":"12:07:00","departure_time":"12:07:00","lat":49.438973,"lon":16.467463,"is_passed":false},{"stop_id":"U12536Z1","name":"Kozárov","arrival_time":"12:09:00","departure_time":"12:39:00","lat":49.443447,"lon":16.458255,"is_passed":false}]