[{"stop_id":"U12635Z4","name":"Boskovice, aut.st.","arrival_time":"9:10:00","departure_time":"9:10:00","lat":49.491353,"lon":16.653067,"is_passed":false},{"stop_id":"U12657Z1","name":"Boskovice, Sušilova ZŠ II","arrival_time":"9:13:00","departure_time":"9:13:00","lat":49.486025,"lon":16.663843,"is_passed":false},{"stop_id":"U12660Z1","name":"Boskovice, U Kapličky","arrival_time":"9:14:00","departure_time":"9:14:00","lat":49.48317,"lon":16.673838,"is_passed":false},{"stop_id":"U12653Z1","name":"Boskovice, Podlesí","arrival_time":"9:16:00","departure_time":"9:16:00","lat":49.482258,"lon":16.685457,"is_passed":false},{"stop_id":"U12626Z1","name":"Valchov, rozc.","arrival_time":"9:20:00","departure_time":"9:20:00","lat":49.471588,"lon":16.719758,"is_passed":false},{"stop_id":"U12627Z1","name":"Velenov","arrival_time":"9:22:00","departure_time":"9:22:00","lat":49.486975,"lon":16.732297,"is_passed":false},{"stop_id":"U12625Z1","name":"Valchov","arrival_time":"9:25:00","departure_time":"9:25:00","lat":49.47095,"lon":16.719413,"is_passed":false},{"stop_id":"U12619Z2","name":"Ludíkov, rozcestí","arrival_time":"9:27:00","departure_time":"9:27:00","lat":49.458188,"lon":16.737,"is_passed":false},{"stop_id":"U12628Z2","name":"Žďárná","arrival_time":"9:30:00","departure_time":"9:31:00","lat":49.468497,"lon":16.754933,"is_passed":false},{"stop_id":"U12632Z1","name":"Žďárná, škola","arrival_time":"9:33:00","departure_time":"9:33:00","lat":49.468172,"lon":16.760707,"is_passed":false},{"stop_id":"U12623Z2","name":"Suchý","arrival_time":"9:36:00","departure_time":"10:27:00","lat":49.481303,"lon":16.76194,"is_passed":false}]