[{"stop_id":"U18406Z2","name":"Hostim, náměstí","arrival_time":"5:40:00","departure_time":"5:40:00","lat":49.016805,"lon":15.8981,"is_passed":false},{"stop_id":"U18405Z2","name":"Hostim, křižovatka","arrival_time":"5:41:00","departure_time":"5:41:00","lat":49.009512,"lon":15.895952,"is_passed":false},{"stop_id":"U18343Z2","name":"Prokopov","arrival_time":"5:44:00","departure_time":"5:44:00","lat":48.999011,"lon":15.894368,"is_passed":false},{"stop_id":"U18340Z2","name":"Jiřice u Moravských Budějovic","arrival_time":"5:48:00","departure_time":"5:48:00","lat":48.993752,"lon":15.926138,"is_passed":false},{"stop_id":"U18335Z2","name":"Boskovštejn, středisko ZD","arrival_time":"5:50:00","departure_time":"5:50:00","lat":48.985412,"lon":15.926543,"is_passed":false},{"stop_id":"U18334Z2","name":"Boskovštejn, požární zbrojnice","arrival_time":"5:51:00","departure_time":"5:51:00","lat":48.98187,"lon":15.932168,"is_passed":false},{"stop_id":"U18333Z2","name":"Boskovštejn, hájenka","arrival_time":"5:54:00","departure_time":"5:54:00","lat":48.978287,"lon":15.947785,"is_passed":false},{"stop_id":"U18246Z1","name":"Jevišovice, policie","arrival_time":"5:58:00","departure_time":"5:58:00","lat":48.983433,"lon":15.986802,"is_passed":false},{"stop_id":"U18245Z4","name":"Jevišovice, náměstí","arrival_time":"5:59:00","departure_time":"5:59:00","lat":48.98813,"lon":15.992482,"is_passed":false},{"stop_id":"U18243Z2","name":"Černín, lávka","arrival_time":"6:04:00","departure_time":"6:04:00","lat":48.980218,"lon":16.015953,"is_passed":false},{"stop_id":"U18244Z2","name":"Černín, Závoda","arrival_time":"6:05:00","departure_time":"6:05:00","lat":48.981192,"lon":16.026243,"is_passed":false},{"stop_id":"U18247Z2","name":"Vevčice","arrival_time":"6:09:00","departure_time":"6:09:00","lat":48.961985,"lon":16.044405,"is_passed":false},{"stop_id":"U18231Z2","name":"Rudlice, samota","arrival_time":"6:12:00","departure_time":"6:12:00","lat":48.954161,"lon":16.0561,"is_passed":false},{"stop_id":"U18232Z31","name":"Rudlice, u pomníku","arrival_time":"6:13:00","departure_time":"6:13:00","lat":48.94885,"lon":16.067387,"is_passed":false},{"stop_id":"U18229Z31","name":"Němčičky, rozcestí","arrival_time":"6:16:00","departure_time":"6:16:00","lat":48.939468,"lon":16.083075,"is_passed":false},{"stop_id":"U18136Z31","name":"Plaveč","arrival_time":"6:19:00","departure_time":"6:19:00","lat":48.929175,"lon":16.079838,"is_passed":false},{"stop_id":"U18138Z31","name":"Únanov, obecní úřad","arrival_time":"6:25:00","departure_time":"6:25:00","lat":48.900605,"lon":16.06351,"is_passed":false},{"stop_id":"U18139Z31","name":"Únanov, závod","arrival_time":"6:27:00","departure_time":"6:27:00","lat":48.888422,"lon":16.064178,"is_passed":false},{"stop_id":"U18068Z2","name":"Znojmo, Městský lesík","arrival_time":"6:29:00","departure_time":"6:29:00","lat":48.87308,"lon":16.052093,"is_passed":false},{"stop_id":"U18015Z2","name":"Znojmo, Přímětická, Resslova","arrival_time":"6:31:00","departure_time":"6:31:00","lat":48.867688,"lon":16.041435,"is_passed":false},{"stop_id":"U18011Z2","name":"Znojmo, nám.Svobody, lázně","arrival_time":"6:34:00","departure_time":"6:34:00","lat":48.860435,"lon":16.049027,"is_passed":false},{"stop_id":"U18009Z51","name":"Znojmo, autobusové nádraží","arrival_time":"6:38:00","departure_time":"6:38:00","lat":48.851908,"lon":16.056983,"is_passed":false}]