[{"stop_id":"U1217Z3","name":"Vozovna Komín","arrival_time":"4:57:00","departure_time":"4:57:00","lat":49.213556,"lon":16.559289,"is_passed":false},{"stop_id":"U1214Z2","name":"Jundrovský most","arrival_time":"4:58:00","departure_time":"4:58:00","lat":49.210699,"lon":16.558163,"is_passed":false},{"stop_id":"U1462Z4","name":"Optátova","arrival_time":"4:59:00","departure_time":"4:59:00","lat":49.208328,"lon":16.555591,"is_passed":false},{"stop_id":"U1216Z2","name":"Jundrov, hřiště","arrival_time":"5:00:00","departure_time":"5:00:00","lat":49.204674,"lon":16.56001,"is_passed":false},{"stop_id":"U1732Z2","name":"Veslařská","arrival_time":"5:00:00","departure_time":"5:00:00","lat":49.20282,"lon":16.564736,"is_passed":false},{"stop_id":"U1490Z2","name":"Pod Jurankou","arrival_time":"5:01:00","departure_time":"5:01:00","lat":49.198955,"lon":16.566182,"is_passed":false},{"stop_id":"U1007Z3","name":"Anthropos","arrival_time":"5:03:00","departure_time":"5:03:00","lat":49.193146,"lon":16.565715,"is_passed":false},{"stop_id":"U1003Z2","name":"Antonína Procházky","arrival_time":"5:04:00","departure_time":"5:04:00","lat":49.194292,"lon":16.55926,"is_passed":false},{"stop_id":"U1342Z2","name":"Libušino údolí","arrival_time":"5:05:00","departure_time":"5:05:00","lat":49.195913,"lon":16.555199,"is_passed":false},{"stop_id":"U1341Z2","name":"Libušina třída","arrival_time":"5:06:00","departure_time":"5:06:00","lat":49.19798,"lon":16.548135,"is_passed":false},{"stop_id":"U1033Z2","name":"Borodinova","arrival_time":"5:07:00","departure_time":"5:07:00","lat":49.19654,"lon":16.545458,"is_passed":false},{"stop_id":"U1117Z2","name":"Glinkova","arrival_time":"5:08:00","departure_time":"5:08:00","lat":49.193963,"lon":16.544268,"is_passed":false},{"stop_id":"U1607Z2","name":"Stamicova","arrival_time":"5:09:00","departure_time":"5:09:00","lat":49.194966,"lon":16.539634,"is_passed":false},{"stop_id":"U1753Z2","name":"Voříškova","arrival_time":"5:11:00","departure_time":"5:11:00","lat":49.196442,"lon":16.534213,"is_passed":false},{"stop_id":"U1017Z2","name":"Bellova","arrival_time":"5:12:00","departure_time":"5:12:00","lat":49.193898,"lon":16.53095,"is_passed":false},{"stop_id":"U1658Z2","name":"Talichova","arrival_time":"5:12:00","departure_time":"5:12:00","lat":49.191695,"lon":16.529784,"is_passed":false},{"stop_id":"U1481Z2","name":"Pavlovská","arrival_time":"5:13:00","departure_time":"5:13:00","lat":49.189569,"lon":16.531348,"is_passed":false},{"stop_id":"U1209Z1","name":"Jírovcova","arrival_time":"5:15:00","departure_time":"5:15:00","lat":49.188308,"lon":16.534106,"is_passed":false}]