[{"stop_id":"U18009Z22","name":"Znojmo, autobusové nádraží","arrival_time":"23:45:00","departure_time":"23:45:00","lat":48.852761,"lon":16.059287,"is_passed":false},{"stop_id":"U28002Z10","name":"Znojmo nemocnice","arrival_time":"23:48:00","departure_time":"23:48:00","lat":48.865504,"lon":16.048394,"is_passed":false},{"stop_id":"U28103Z10","name":"Citonice","arrival_time":"23:55:00","departure_time":"23:55:00","lat":48.878906,"lon":15.977467,"is_passed":false},{"stop_id":"U18158Z10","name":"Olbramkostel, železniční stanice","arrival_time":"23:59:00","departure_time":"24:00:00","lat":48.903229,"lon":15.949177,"is_passed":false},{"stop_id":"U18259Z10","name":"Šumná, železniční stanice","arrival_time":"24:07:00","departure_time":"24:07:00","lat":48.923097,"lon":15.874306,"is_passed":false},{"stop_id":"U18339Z10","name":"Grešlové Mýto, železniční stanice","arrival_time":"24:15:00","departure_time":"24:15:00","lat":48.98455,"lon":15.874436,"is_passed":false},{"stop_id":"U28401Z10","name":"Blížkovice","arrival_time":"24:18:00","departure_time":"24:19:00","lat":49.004292,"lon":15.854364,"is_passed":false},{"stop_id":"U28501Z10","name":"Vesce","arrival_time":"24:22:00","departure_time":"24:22:00","lat":49.019071,"lon":15.831277,"is_passed":false},{"stop_id":"U28502Z10","name":"Moravské Budějovice","arrival_time":"24:28:00","departure_time":"24:28:00","lat":49.057522,"lon":15.809326,"is_passed":false}]