[{"stop_id":"U28502Z11","name":"Moravské Budějovice","arrival_time":"22:20:00","departure_time":"22:20:00","lat":49.057522,"lon":15.809326,"is_passed":false},{"stop_id":"U28401Z11","name":"Blížkovice","arrival_time":"22:28:00","departure_time":"22:28:00","lat":49.004292,"lon":15.854364,"is_passed":false},{"stop_id":"U18339Z11","name":"Grešlové Mýto, železniční stanice","arrival_time":"22:31:00","departure_time":"22:32:00","lat":48.98455,"lon":15.874436,"is_passed":false},{"stop_id":"U18259Z11","name":"Šumná, železniční stanice","arrival_time":"22:39:00","departure_time":"22:39:00","lat":48.923097,"lon":15.874306,"is_passed":false},{"stop_id":"U28002Z11","name":"Znojmo nemocnice","arrival_time":"22:54:00","departure_time":"22:55:00","lat":48.865504,"lon":16.048394,"is_passed":false},{"stop_id":"U18009Z23","name":"Znojmo, autobusové nádraží","arrival_time":"22:58:00","departure_time":"22:58:00","lat":48.852761,"lon":16.059287,"is_passed":false}]