[{"stop_id":"U1209Z2","name":"Jírovcova","arrival_time":"17:08:00","departure_time":"17:08:00","lat":49.188255,"lon":16.533803,"is_passed":false},{"stop_id":"U1481Z1","name":"Pavlovská","arrival_time":"17:08:00","departure_time":"17:08:00","lat":49.189952,"lon":16.531006,"is_passed":false},{"stop_id":"U1658Z1","name":"Talichova","arrival_time":"17:09:00","departure_time":"17:09:00","lat":49.191443,"lon":16.52996,"is_passed":false},{"stop_id":"U1017Z1","name":"Bellova","arrival_time":"17:10:00","departure_time":"17:10:00","lat":49.194186,"lon":16.531513,"is_passed":false},{"stop_id":"U1753Z1","name":"Voříškova","arrival_time":"17:11:00","departure_time":"17:11:00","lat":49.196515,"lon":16.535962,"is_passed":false},{"stop_id":"U1607Z1","name":"Stamicova","arrival_time":"17:12:00","departure_time":"17:12:00","lat":49.194694,"lon":16.539692,"is_passed":false},{"stop_id":"U1117Z1","name":"Glinkova","arrival_time":"17:13:00","departure_time":"17:13:00","lat":49.193863,"lon":16.544288,"is_passed":false},{"stop_id":"U1033Z1","name":"Borodinova","arrival_time":"17:13:00","departure_time":"17:13:00","lat":49.195947,"lon":16.545527,"is_passed":false},{"stop_id":"U1341Z1","name":"Libušina třída","arrival_time":"17:14:00","departure_time":"17:14:00","lat":49.197615,"lon":16.549164,"is_passed":false},{"stop_id":"U1342Z1","name":"Libušino údolí","arrival_time":"17:15:00","departure_time":"17:15:00","lat":49.195495,"lon":16.55543,"is_passed":false},{"stop_id":"U1003Z1","name":"Antonína Procházky","arrival_time":"17:16:00","departure_time":"17:16:00","lat":49.193559,"lon":16.561795,"is_passed":false},{"stop_id":"U1007Z4","name":"Anthropos","arrival_time":"17:17:00","departure_time":"17:17:00","lat":49.193356,"lon":16.56677,"is_passed":false},{"stop_id":"U1487Z6","name":"Pisárky","arrival_time":"17:18:00","departure_time":"17:18:00","lat":49.193537,"lon":16.570797,"is_passed":false},{"stop_id":"U1343Z4","name":"ARENA BRNO","arrival_time":"17:19:00","departure_time":"17:19:00","lat":49.191574,"lon":16.576353,"is_passed":false},{"stop_id":"U1768Z4","name":"Výstaviště - hlavní vstup","arrival_time":"17:21:00","departure_time":"17:21:00","lat":49.1886,"lon":16.589153,"is_passed":false},{"stop_id":"U1378Z7","name":"Mendlovo náměstí","arrival_time":"17:24:00","departure_time":"17:33:00","lat":49.189919,"lon":16.593687,"is_passed":false}]