[{"stop_id":"U12633Z51","name":"Boskovice, 17. listopadu","arrival_time":"4:51:00","departure_time":"4:51:00","lat":49.489329,"lon":16.661724,"is_passed":false},{"stop_id":"U12655Z2","name":"Boskovice, Sokolská","arrival_time":"4:52:00","departure_time":"4:52:00","lat":49.49097,"lon":16.660723,"is_passed":false},{"stop_id":"U12644Z1","name":"Boskovice, Kras","arrival_time":"4:53:00","departure_time":"4:53:00","lat":49.491675,"lon":16.657418,"is_passed":false},{"stop_id":"U12635Z25","name":"Boskovice, aut.st.","arrival_time":"4:55:00","departure_time":"4:55:00","lat":49.491518,"lon":16.653113,"is_passed":false},{"stop_id":"U12650Z2","name":"Boskovice, nemocnice","arrival_time":"4:57:00","departure_time":"4:57:00","lat":49.49167,"lon":16.644917,"is_passed":false},{"stop_id":"U12648Z2","name":"Boskovice, Mladkov","arrival_time":"5:00:00","departure_time":"5:00:00","lat":49.490705,"lon":16.61905,"is_passed":false},{"stop_id":"U12649Z2","name":"Boskovice, Mladkov, pekárna","arrival_time":"5:01:00","departure_time":"5:01:00","lat":49.490322,"lon":16.61537,"is_passed":false},{"stop_id":"U12676Z4","name":"Skalice nad Svitavou, žel.st.","arrival_time":"5:03:00","departure_time":"5:03:00","lat":49.480519,"lon":16.608517,"is_passed":false},{"stop_id":"U12663Z2","name":"Jabloňany, rozc.","arrival_time":"5:06:00","departure_time":"5:06:00","lat":49.47452,"lon":16.59455,"is_passed":false},{"stop_id":"U12665Z2","name":"Krhov","arrival_time":"5:09:00","departure_time":"5:09:00","lat":49.463333,"lon":16.58325,"is_passed":false},{"stop_id":"U12523Z2","name":"Lysice, Perná","arrival_time":"5:12:00","departure_time":"5:12:00","lat":49.446505,"lon":16.574543,"is_passed":false},{"stop_id":"U12445Z2","name":"Bořitov, ZD","arrival_time":"5:15:00","departure_time":"5:15:00","lat":49.423147,"lon":16.583069,"is_passed":false},{"stop_id":"U12450Z2","name":"Černá Hora, nám.","arrival_time":"5:18:00","departure_time":"5:25:00","lat":49.414678,"lon":16.582145,"is_passed":false}]