[{"stop_id":"U1257Z2","name":"Komenského náměstí","arrival_time":"20:20:00","departure_time":"20:20:00","lat":49.197135,"lon":16.602612,"is_passed":false},{"stop_id":"U1442Z1","name":"Obilní trh","arrival_time":"20:21:00","departure_time":"20:21:00","lat":49.198221,"lon":16.597478,"is_passed":false},{"stop_id":"U1712Z3","name":"Úvoz","arrival_time":"20:22:00","departure_time":"20:22:00","lat":49.198432,"lon":16.594582,"is_passed":false},{"stop_id":"U1816Z1","name":"Žlutý kopec","arrival_time":"20:24:00","departure_time":"20:24:00","lat":49.19515,"lon":16.587289,"is_passed":false},{"stop_id":"U1723Z1","name":"Vaňkovo náměstí","arrival_time":"20:25:00","departure_time":"20:25:00","lat":49.195052,"lon":16.585013,"is_passed":false},{"stop_id":"U1228Z1","name":"Kampelíkova","arrival_time":"20:26:00","departure_time":"20:26:00","lat":49.197512,"lon":16.581178,"is_passed":false},{"stop_id":"U1597Z1","name":"Soukopova","arrival_time":"20:27:00","departure_time":"20:27:00","lat":49.198956,"lon":16.579053,"is_passed":false},{"stop_id":"U1013Z1","name":"Barvičova","arrival_time":"20:29:00","departure_time":"20:32:00","lat":49.201189,"lon":16.575746,"is_passed":false}]