[{"stop_id":"U1189Z2","name":"Ivanovice, Globus","arrival_time":"14:35:00","departure_time":"14:35:00","lat":49.26279,"lon":16.57768,"is_passed":false},{"stop_id":"U1351Z1","name":"Mácova","arrival_time":"14:38:00","departure_time":"14:38:00","lat":49.265819,"lon":16.569345,"is_passed":false},{"stop_id":"U1280Z1","name":"Kouty","arrival_time":"14:39:00","departure_time":"14:39:00","lat":49.264372,"lon":16.565032,"is_passed":false},{"stop_id":"U1526Z1","name":"Příjezdová","arrival_time":"14:39:00","departure_time":"14:39:00","lat":49.261553,"lon":16.569939,"is_passed":false},{"stop_id":"U1063Z2","name":"Černohorská","arrival_time":"14:40:00","departure_time":"14:40:00","lat":49.258654,"lon":16.57133,"is_passed":false},{"stop_id":"U1085Z2","name":"Díly","arrival_time":"14:41:00","departure_time":"14:41:00","lat":49.25425,"lon":16.574421,"is_passed":false},{"stop_id":"U1812Z2","name":"Žilkova","arrival_time":"14:42:00","departure_time":"14:42:00","lat":49.252181,"lon":16.576027,"is_passed":false},{"stop_id":"U1553Z4","name":"Řečkovice","arrival_time":"14:44:00","departure_time":"14:44:00","lat":49.246674,"lon":16.579384,"is_passed":false},{"stop_id":"U1457Z2","name":"Olšanského","arrival_time":"14:45:00","departure_time":"14:45:00","lat":49.24422,"lon":16.577351,"is_passed":false},{"stop_id":"U1376Z2","name":"Medlánky","arrival_time":"14:47:00","departure_time":"14:47:00","lat":49.240459,"lon":16.573676,"is_passed":false},{"stop_id":"U1377Z2","name":"Medlánky, škola","arrival_time":"14:48:00","departure_time":"14:48:00","lat":49.238196,"lon":16.57841,"is_passed":false},{"stop_id":"U1756Z4","name":"Vozovna Medlánky","arrival_time":"14:49:00","departure_time":"14:49:00","lat":49.235569,"lon":16.585596,"is_passed":false},{"stop_id":"U1683Z4","name":"Tylova","arrival_time":"14:50:00","departure_time":"14:50:00","lat":49.231926,"lon":16.589459,"is_passed":false},{"stop_id":"U1566Z4","name":"Semilasso","arrival_time":"14:52:00","departure_time":"14:52:00","lat":49.228055,"lon":16.593438,"is_passed":false},{"stop_id":"U1286Z8","name":"Královo Pole, nádraží","arrival_time":"14:54:00","departure_time":"15:04:00","lat":49.230335,"lon":16.595523,"is_passed":false}]