[{"stop_id":"U19522Z2","name":"Suchov, točna","arrival_time":"5:13:00","departure_time":"5:13:00","lat":48.904775,"lon":17.563885,"is_passed":false},{"stop_id":"U19518Z2","name":"Suchov","arrival_time":"5:15:00","departure_time":"5:15:00","lat":48.911858,"lon":17.562007,"is_passed":false},{"stop_id":"U19426Z2","name":"Boršice u Blatnice","arrival_time":"5:21:00","departure_time":"5:21:00","lat":48.934743,"lon":17.5715,"is_passed":false},{"stop_id":"U19427Z2","name":"Boršice u Blatnice, pošta","arrival_time":"5:22:00","departure_time":"5:22:00","lat":48.932417,"lon":17.574873,"is_passed":false},{"stop_id":"U19520Z2","name":"Boršice u Blatnice, rozcestí Suchov","arrival_time":"5:26:00","departure_time":"5:26:00","lat":48.927726,"lon":17.554598,"is_passed":false},{"stop_id":"U19402Z2","name":"Blatnička","arrival_time":"5:28:00","departure_time":"5:28:00","lat":48.934551,"lon":17.528469,"is_passed":false},{"stop_id":"U19401Z2","name":"Blatnice pod Sv. Antonínkem, Vrbové","arrival_time":"5:35:00","departure_time":"5:35:00","lat":48.946208,"lon":17.47048,"is_passed":false},{"stop_id":"U19400Z2","name":"Blatnice pod Sv. Antonínkem, křižovatka","arrival_time":"5:37:00","departure_time":"5:37:00","lat":48.945904,"lon":17.461513,"is_passed":false},{"stop_id":"U19312Z2","name":"Veselí nad Moravou, u polikliniky","arrival_time":"5:44:00","departure_time":"5:44:00","lat":48.949926,"lon":17.389528,"is_passed":false},{"stop_id":"U19316Z51","name":"Veselí nad Moravou, železniční stanice","arrival_time":"5:46:00","departure_time":"6:19:00","lat":48.949155,"lon":17.381792,"is_passed":false}]