[{"stop_id":"U1286Z5","name":"Královo Pole, nádraží","arrival_time":"6:04:00","departure_time":"6:04:00","lat":49.229633,"lon":16.595447,"is_passed":false},{"stop_id":"U1566Z6","name":"Semilasso","arrival_time":"6:05:00","departure_time":"6:05:00","lat":49.228248,"lon":16.593466,"is_passed":false},{"stop_id":"U1683Z3","name":"Tylova","arrival_time":"6:06:00","departure_time":"6:06:00","lat":49.23069,"lon":16.590539,"is_passed":false},{"stop_id":"U1167Z1","name":"Hudcova","arrival_time":"6:07:00","departure_time":"6:07:00","lat":49.235202,"lon":16.587471,"is_passed":false},{"stop_id":"U1272Z3","name":"Kořískova","arrival_time":"6:08:00","departure_time":"6:08:00","lat":49.238699,"lon":16.586215,"is_passed":false},{"stop_id":"U1813Z1","name":"Žitná","arrival_time":"6:09:00","departure_time":"6:09:00","lat":49.240327,"lon":16.58827,"is_passed":false},{"stop_id":"U1338Z1","name":"Letovická","arrival_time":"6:10:00","departure_time":"6:10:00","lat":49.246793,"lon":16.587057,"is_passed":false},{"stop_id":"U1153Z1","name":"Horácké náměstí","arrival_time":"6:11:00","departure_time":"6:11:00","lat":49.248178,"lon":16.58231,"is_passed":false},{"stop_id":"U1476Z1","name":"Palackého náměstí","arrival_time":"6:12:00","departure_time":"6:12:00","lat":49.25084,"lon":16.581903,"is_passed":false},{"stop_id":"U1298Z2","name":"Kronova","arrival_time":"6:13:00","departure_time":"6:13:00","lat":49.251441,"lon":16.589012,"is_passed":false},{"stop_id":"U1283Z1","name":"Královka","arrival_time":"6:14:00","departure_time":"6:14:00","lat":49.255962,"lon":16.586547,"is_passed":false},{"stop_id":"U1367Z3","name":"Maříkova","arrival_time":"6:15:00","departure_time":"6:15:00","lat":49.259137,"lon":16.580434,"is_passed":false},{"stop_id":"U1189Z1","name":"Ivanovice, Globus","arrival_time":"6:17:00","departure_time":"6:42:00","lat":49.262826,"lon":16.5783,"is_passed":false}]