[{"stop_id":"U12635Z10","name":"Boskovice, aut.st.","arrival_time":"14:09:00","departure_time":"14:09:00","lat":49.49169,"lon":16.653337,"is_passed":false},{"stop_id":"U12650Z2","name":"Boskovice, nemocnice","arrival_time":"14:11:00","departure_time":"14:11:00","lat":49.49167,"lon":16.644917,"is_passed":false},{"stop_id":"U12648Z2","name":"Boskovice, Mladkov","arrival_time":"14:14:00","departure_time":"14:14:00","lat":49.490705,"lon":16.61905,"is_passed":false},{"stop_id":"U12676Z5","name":"Skalice nad Svitavou, žel.st.","arrival_time":"14:17:00","departure_time":"14:17:00","lat":49.480279,"lon":16.608801,"is_passed":false},{"stop_id":"U12663Z2","name":"Jabloňany, rozc.","arrival_time":"14:20:00","departure_time":"14:20:00","lat":49.47452,"lon":16.59455,"is_passed":false},{"stop_id":"U12667Z2","name":"Krhov, rozc. 1.0","arrival_time":"14:21:00","departure_time":"14:21:00","lat":49.468313,"lon":16.584207,"is_passed":false},{"stop_id":"U12686Z2","name":"Voděrady, nám.","arrival_time":"14:25:00","departure_time":"14:25:00","lat":49.481015,"lon":16.5602,"is_passed":false},{"stop_id":"U12685Z2","name":"Voděrady, hor.zast.","arrival_time":"14:26:00","departure_time":"14:26:00","lat":49.47946,"lon":16.558258,"is_passed":false},{"stop_id":"U12519Z2","name":"Drnovice","arrival_time":"14:29:00","departure_time":"14:29:00","lat":49.46865,"lon":16.5411,"is_passed":false},{"stop_id":"U12520Z2","name":"Drnovice, hor.zast.","arrival_time":"14:31:00","departure_time":"14:31:00","lat":49.467878,"lon":16.534102,"is_passed":false},{"stop_id":"U12527Z1","name":"Lysice, škola","arrival_time":"14:33:00","departure_time":"14:33:00","lat":49.456986,"lon":16.538231,"is_passed":false},{"stop_id":"U12524Z4","name":"Lysice, pohostinství","arrival_time":"14:35:00","departure_time":"14:35:00","lat":49.452446,"lon":16.537857,"is_passed":false}]