[{"stop_id":"U1361Z1","name":"Mariánské náměstí","arrival_time":"15:35:00","departure_time":"15:35:00","lat":49.176433,"lon":16.622739,"is_passed":false},{"stop_id":"U1256Z5","name":"Komárov","arrival_time":"15:37:00","departure_time":"15:37:00","lat":49.174917,"lon":16.621279,"is_passed":false},{"stop_id":"U1308Z1","name":"Kšírova","arrival_time":"15:38:00","departure_time":"15:38:00","lat":49.17135,"lon":16.615769,"is_passed":false},{"stop_id":"U1156Z1","name":"Horní Heršpice","arrival_time":"15:39:00","departure_time":"15:39:00","lat":49.166342,"lon":16.616562,"is_passed":false},{"stop_id":"U1778Z1","name":"Záhumenice","arrival_time":"15:41:00","departure_time":"15:41:00","lat":49.16384,"lon":16.618237,"is_passed":false},{"stop_id":"U1136Z1","name":"Havránkova","arrival_time":"15:42:00","departure_time":"15:42:00","lat":49.157416,"lon":16.621598,"is_passed":false},{"stop_id":"U1092Z1","name":"Dolní Heršpice","arrival_time":"15:43:00","departure_time":"15:43:00","lat":49.152293,"lon":16.621527,"is_passed":false},{"stop_id":"U1354Z1","name":"Malá","arrival_time":"15:44:00","departure_time":"15:44:00","lat":49.149326,"lon":16.621809,"is_passed":false},{"stop_id":"U1531Z1","name":"Přízřenice","arrival_time":"15:45:00","departure_time":"15:45:00","lat":49.145289,"lon":16.62011,"is_passed":false},{"stop_id":"U1530Z1","name":"Přízřenice, smyčka","arrival_time":"15:46:00","departure_time":"15:57:00","lat":49.144321,"lon":16.620834,"is_passed":false}]