[{"stop_id":"U1612Z2","name":"Staré Černovice","arrival_time":"7:17:00","departure_time":"7:17:00","lat":49.170073,"lon":16.647998,"is_passed":false},{"stop_id":"U1737Z2","name":"Vinohradská","arrival_time":"7:17:00","departure_time":"7:17:00","lat":49.172984,"lon":16.645305,"is_passed":false},{"stop_id":"U1127Z2","name":"Hájecká","arrival_time":"7:18:00","departure_time":"7:18:00","lat":49.174868,"lon":16.641618,"is_passed":false},{"stop_id":"U1106Z2","name":"Faměrovo náměstí","arrival_time":"7:19:00","departure_time":"7:19:00","lat":49.176954,"lon":16.640512,"is_passed":false},{"stop_id":"U1662Z2","name":"Škola Charbulova","arrival_time":"7:20:00","departure_time":"7:20:00","lat":49.18111,"lon":16.63826,"is_passed":false},{"stop_id":"U1563Z2","name":"Psychiatrická nemocnice","arrival_time":"7:21:00","departure_time":"7:21:00","lat":49.185039,"lon":16.636538,"is_passed":false},{"stop_id":"U1207Z2","name":"Jiránkova","arrival_time":"7:22:00","departure_time":"7:22:00","lat":49.187576,"lon":16.633483,"is_passed":false},{"stop_id":"U1677Z2","name":"Tržní","arrival_time":"7:24:00","departure_time":"7:24:00","lat":49.189407,"lon":16.629972,"is_passed":false},{"stop_id":"U1372Z2","name":"Masná","arrival_time":"7:26:00","departure_time":"7:26:00","lat":49.191283,"lon":16.6245,"is_passed":false},{"stop_id":"U1746Z2","name":"Vlhká","arrival_time":"7:27:00","departure_time":"7:27:00","lat":49.191852,"lon":16.619157,"is_passed":false},{"stop_id":"U1146Z6","name":"Hlavní nádraží","arrival_time":"7:29:00","departure_time":"7:29:00","lat":49.192214,"lon":16.613823,"is_passed":false}]