[{"stop_id":"U12635Z10","name":"Boskovice, aut.st.","arrival_time":"7:10:00","departure_time":"7:10:00","lat":49.49169,"lon":16.653337,"is_passed":false},{"stop_id":"U12650Z2","name":"Boskovice, nemocnice","arrival_time":"7:12:00","departure_time":"7:12:00","lat":49.49167,"lon":16.644917,"is_passed":false},{"stop_id":"U12648Z2","name":"Boskovice, Mladkov","arrival_time":"7:15:00","departure_time":"7:15:00","lat":49.490705,"lon":16.61905,"is_passed":false},{"stop_id":"U12676Z5","name":"Skalice nad Svitavou, žel.st.","arrival_time":"7:19:00","departure_time":"7:19:00","lat":49.480279,"lon":16.608801,"is_passed":false},{"stop_id":"U12663Z2","name":"Jabloňany, rozc.","arrival_time":"7:22:00","departure_time":"7:22:00","lat":49.47452,"lon":16.59455,"is_passed":false},{"stop_id":"U12665Z2","name":"Krhov","arrival_time":"7:25:00","departure_time":"7:25:00","lat":49.463333,"lon":16.58325,"is_passed":false},{"stop_id":"U12686Z2","name":"Voděrady, nám.","arrival_time":"7:32:00","departure_time":"7:32:00","lat":49.481015,"lon":16.5602,"is_passed":false},{"stop_id":"U12685Z2","name":"Voděrady, hor.zast.","arrival_time":"7:33:00","departure_time":"7:33:00","lat":49.47946,"lon":16.558258,"is_passed":false},{"stop_id":"U12519Z2","name":"Drnovice","arrival_time":"7:37:00","departure_time":"7:37:00","lat":49.46865,"lon":16.5411,"is_passed":false},{"stop_id":"U12520Z2","name":"Drnovice, hor.zast.","arrival_time":"7:39:00","departure_time":"7:39:00","lat":49.467878,"lon":16.534102,"is_passed":false},{"stop_id":"U12805Z1","name":"Lysice, škola točna","arrival_time":"7:42:00","departure_time":"7:42:00","lat":49.457263,"lon":16.536873,"is_passed":false},{"stop_id":"U12524Z5","name":"Lysice, pohostinství","arrival_time":"7:44:00","departure_time":"7:44:00","lat":49.452249,"lon":16.537757,"is_passed":false}]