[{"stop_id":"U12450Z1","name":"Černá Hora, nám.","arrival_time":"14:09:00","departure_time":"14:09:00","lat":49.414767,"lon":16.582423,"is_passed":false},{"stop_id":"U12445Z1","name":"Bořitov, ZD","arrival_time":"14:11:00","departure_time":"14:11:00","lat":49.425028,"lon":16.582243,"is_passed":false},{"stop_id":"U12523Z1","name":"Lysice, Perná","arrival_time":"14:14:00","departure_time":"14:14:00","lat":49.44743,"lon":16.574607,"is_passed":false},{"stop_id":"U12665Z1","name":"Krhov","arrival_time":"14:16:00","departure_time":"14:16:00","lat":49.463333,"lon":16.58325,"is_passed":false},{"stop_id":"U12663Z1","name":"Jabloňany, rozc.","arrival_time":"14:19:00","departure_time":"14:19:00","lat":49.474687,"lon":16.594285,"is_passed":false},{"stop_id":"U12676Z1","name":"Skalice nad Svitavou, žel.st.","arrival_time":"14:22:00","departure_time":"14:23:00","lat":49.480276,"lon":16.609048,"is_passed":false},{"stop_id":"U12649Z1","name":"Boskovice, Mladkov, pekárna","arrival_time":"14:25:00","departure_time":"14:25:00","lat":49.49032,"lon":16.615547,"is_passed":false},{"stop_id":"U12648Z1","name":"Boskovice, Mladkov","arrival_time":"14:26:00","departure_time":"14:26:00","lat":49.490525,"lon":16.619477,"is_passed":false},{"stop_id":"U12650Z1","name":"Boskovice, nemocnice","arrival_time":"14:29:00","departure_time":"14:29:00","lat":49.491627,"lon":16.644028,"is_passed":false},{"stop_id":"U12635Z5","name":"Boskovice, aut.st.","arrival_time":"14:32:00","departure_time":"14:32:00","lat":49.491518,"lon":16.653113,"is_passed":false},{"stop_id":"U12642Z1","name":"Boskovice, Komenského","arrival_time":"14:33:00","departure_time":"14:33:00","lat":49.48951,"lon":16.655473,"is_passed":false},{"stop_id":"U12633Z3","name":"Boskovice, 17. listopadu","arrival_time":"14:35:00","departure_time":"14:35:00","lat":49.489329,"lon":16.661724,"is_passed":false}]