[{"stop_id":"U1716Z8","name":"Úzká","arrival_time":"22:47:00","departure_time":"22:47:00","lat":49.189068,"lon":16.613933,"is_passed":false},{"stop_id":"U1011Z1","name":"Autobusové nádraží","arrival_time":"22:48:00","departure_time":"22:48:00","lat":49.185873,"lon":16.61787,"is_passed":false},{"stop_id":"U1807Z1","name":"Železniční","arrival_time":"22:49:00","departure_time":"22:49:00","lat":49.18274,"lon":16.619609,"is_passed":false},{"stop_id":"U1266Z3","name":"Konopná","arrival_time":"22:50:00","departure_time":"22:50:00","lat":49.180126,"lon":16.621339,"is_passed":false},{"stop_id":"U1256Z3","name":"Komárov","arrival_time":"22:52:00","departure_time":"22:52:00","lat":49.17444,"lon":16.622448,"is_passed":false},{"stop_id":"U1148Z1","name":"Hněvkovského","arrival_time":"22:53:00","departure_time":"22:53:00","lat":49.169807,"lon":16.625991,"is_passed":false},{"stop_id":"U1533Z1","name":"Ráječek","arrival_time":"22:55:00","departure_time":"22:55:00","lat":49.160802,"lon":16.638242,"is_passed":false},{"stop_id":"U1511Z1","name":"Popelova","arrival_time":"22:56:00","departure_time":"22:56:00","lat":49.156621,"lon":16.646516,"is_passed":false},{"stop_id":"U1518Z1","name":"Prodloužená","arrival_time":"22:57:00","departure_time":"22:57:00","lat":49.151349,"lon":16.647722,"is_passed":false},{"stop_id":"U1717Z1","name":"V aleji","arrival_time":"22:57:00","departure_time":"22:57:00","lat":49.147687,"lon":16.648637,"is_passed":false},{"stop_id":"U1151Z1","name":"Holásky","arrival_time":"22:58:00","departure_time":"22:58:00","lat":49.143624,"lon":16.650395,"is_passed":false},{"stop_id":"U1543Z1","name":"Rolencova","arrival_time":"22:59:00","departure_time":"22:59:00","lat":49.145069,"lon":16.655039,"is_passed":false},{"stop_id":"U1154Z2","name":"Holásecká","arrival_time":"23:00:00","departure_time":"23:00:00","lat":49.147689,"lon":16.661673,"is_passed":false},{"stop_id":"U1131Z3","name":"Hanácká","arrival_time":"23:02:00","departure_time":"23:02:00","lat":49.147863,"lon":16.666583,"is_passed":false},{"stop_id":"U1738Z1","name":"Vítězná","arrival_time":"23:02:00","departure_time":"23:02:00","lat":49.146909,"lon":16.673259,"is_passed":false},{"stop_id":"U1513Z1","name":"Pratecká","arrival_time":"23:03:00","departure_time":"23:03:00","lat":49.146239,"lon":16.681655,"is_passed":false},{"stop_id":"U1742Z1","name":"Vlčkova","arrival_time":"23:05:00","departure_time":"23:05:00","lat":49.14097,"lon":16.7012,"is_passed":false},{"stop_id":"U1098Z3","name":"Dvorska, smyčka","arrival_time":"23:06:00","departure_time":"23:06:00","lat":49.143478,"lon":16.708414,"is_passed":false},{"stop_id":"U16112Z1","name":"Kobylnice, Na Rybníku","arrival_time":"23:08:00","departure_time":"23:08:00","lat":49.142746,"lon":16.726363,"is_passed":false},{"stop_id":"U16111Z1","name":"Kobylnice","arrival_time":"23:09:00","departure_time":"23:09:00","lat":49.140325,"lon":16.731953,"is_passed":false},{"stop_id":"U16115Z1","name":"Kobylnice, obecní úřad","arrival_time":"23:10:00","departure_time":"23:10:00","lat":49.137533,"lon":16.732766,"is_passed":false},{"stop_id":"U16141Z1","name":"Prace, škola","arrival_time":"23:12:00","departure_time":"23:12:00","lat":49.138783,"lon":16.762768,"is_passed":false},{"stop_id":"U16139Z1","name":"Prace, náves","arrival_time":"23:13:00","departure_time":"23:13:00","lat":49.139432,"lon":16.765133,"is_passed":false},{"stop_id":"U16143Z1","name":"Prace, točna","arrival_time":"23:14:00","departure_time":"23:14:00","lat":49.141017,"lon":16.764052,"is_passed":false}]