[{"stop_id":"U12690Z5","name":"Kunštát, nám.","arrival_time":"5:00:00","departure_time":"5:00:00","lat":49.507497,"lon":16.519371,"is_passed":false},{"stop_id":"U12687Z2","name":"Kunštát, U Bílého kříže","arrival_time":"5:02:00","departure_time":"5:02:00","lat":49.502893,"lon":16.523785,"is_passed":false},{"stop_id":"U12024Z2","name":"Zbraslavec, rozcestí k závodu","arrival_time":"5:03:00","departure_time":"5:03:00","lat":49.489705,"lon":16.522917,"is_passed":false},{"stop_id":"U12023Z2","name":"Zbraslavec","arrival_time":"5:05:00","departure_time":"5:05:00","lat":49.484302,"lon":16.528155,"is_passed":false},{"stop_id":"U12525Z2","name":"Drnovice, rozcestí Kunice","arrival_time":"5:07:00","departure_time":"5:07:00","lat":49.472484,"lon":16.53273,"is_passed":false},{"stop_id":"U12521Z2","name":"Drnovice, rozc.0.5","arrival_time":"5:09:00","departure_time":"5:09:00","lat":49.46816,"lon":16.533177,"is_passed":false},{"stop_id":"U12527Z1","name":"Lysice, škola","arrival_time":"5:11:00","departure_time":"5:11:00","lat":49.456986,"lon":16.538231,"is_passed":false},{"stop_id":"U12524Z6","name":"Lysice, pohostinství","arrival_time":"5:12:00","departure_time":"5:12:00","lat":49.452249,"lon":16.537757,"is_passed":false},{"stop_id":"U12526Z2","name":"Lysice, Brněnská","arrival_time":"5:13:00","departure_time":"5:13:00","lat":49.449737,"lon":16.545254,"is_passed":false},{"stop_id":"U12445Z2","name":"Bořitov, ZD","arrival_time":"5:19:00","departure_time":"5:19:00","lat":49.423147,"lon":16.583069,"is_passed":false},{"stop_id":"U12450Z2","name":"Černá Hora, nám.","arrival_time":"5:22:00","departure_time":"5:22:00","lat":49.414678,"lon":16.582145,"is_passed":false},{"stop_id":"U12449Z2","name":"Černá Hora, Na kopci","arrival_time":"5:23:00","departure_time":"5:23:00","lat":49.410245,"lon":16.58076,"is_passed":false},{"stop_id":"U12016Z2","name":"Závist","arrival_time":"5:27:00","departure_time":"5:27:00","lat":49.37451,"lon":16.572602,"is_passed":false},{"stop_id":"U12014Z1","name":"Milonice","arrival_time":"5:29:00","departure_time":"5:29:00","lat":49.36803,"lon":16.565543,"is_passed":false},{"stop_id":"U12240Z2","name":"Lažany, rozcestí Újezd","arrival_time":"5:31:00","departure_time":"5:31:00","lat":49.359442,"lon":16.554392,"is_passed":false},{"stop_id":"U12239Z2","name":"Lažany","arrival_time":"5:32:00","departure_time":"5:32:00","lat":49.353032,"lon":16.55062,"is_passed":false},{"stop_id":"U12004Z2","name":"Lipůvka","arrival_time":"5:35:00","departure_time":"5:35:00","lat":49.338367,"lon":16.552513,"is_passed":false},{"stop_id":"U13120Z2","name":"Kuřim, rozcestí 2.0","arrival_time":"5:37:00","departure_time":"5:37:00","lat":49.317569,"lon":16.551447,"is_passed":false},{"stop_id":"U13131Z2","name":"Kuřim, Prefa rozcestí","arrival_time":"5:38:00","departure_time":"5:38:00","lat":49.316222,"lon":16.548481,"is_passed":false},{"stop_id":"U13129Z1","name":"Kuřim, TE","arrival_time":"5:40:00","departure_time":"5:40:00","lat":49.314291,"lon":16.547073,"is_passed":false},{"stop_id":"U13127Z3","name":"Kuřim, TOS","arrival_time":"5:41:00","departure_time":"6:07:00","lat":49.312298,"lon":16.538821,"is_passed":false}]