[{"stop_id":"U1361Z1","name":"Mariánské náměstí","arrival_time":"5:31:00","departure_time":"5:31:00","lat":49.176433,"lon":16.622739,"is_passed":false},{"stop_id":"U1256Z5","name":"Komárov","arrival_time":"5:33:00","departure_time":"5:33:00","lat":49.174917,"lon":16.621279,"is_passed":false},{"stop_id":"U1308Z1","name":"Kšírova","arrival_time":"5:34:00","departure_time":"5:34:00","lat":49.17135,"lon":16.615769,"is_passed":false},{"stop_id":"U1156Z1","name":"Horní Heršpice","arrival_time":"5:35:00","departure_time":"5:35:00","lat":49.166342,"lon":16.616562,"is_passed":false},{"stop_id":"U1778Z1","name":"Záhumenice","arrival_time":"5:36:00","departure_time":"5:36:00","lat":49.16384,"lon":16.618237,"is_passed":false},{"stop_id":"U1016Z92","name":"Bednářova","arrival_time":"5:37:00","departure_time":"5:37:00","lat":49.161902,"lon":16.61357,"is_passed":false},{"stop_id":"U1319Z1","name":"K terminálu","arrival_time":"5:38:00","departure_time":"5:38:00","lat":49.161508,"lon":16.612183,"is_passed":false},{"stop_id":"U1136Z1","name":"Havránkova","arrival_time":"5:39:00","departure_time":"5:39:00","lat":49.157416,"lon":16.621598,"is_passed":false},{"stop_id":"U1092Z1","name":"Dolní Heršpice","arrival_time":"5:40:00","departure_time":"5:40:00","lat":49.152293,"lon":16.621527,"is_passed":false},{"stop_id":"U1354Z1","name":"Malá","arrival_time":"5:41:00","departure_time":"5:41:00","lat":49.149326,"lon":16.621809,"is_passed":false},{"stop_id":"U1531Z1","name":"Přízřenice","arrival_time":"5:42:00","departure_time":"5:42:00","lat":49.145289,"lon":16.62011,"is_passed":false},{"stop_id":"U1204Z1","name":"Jezerní","arrival_time":"5:43:00","departure_time":"5:43:00","lat":49.140706,"lon":16.616994,"is_passed":false},{"stop_id":"U1387Z1","name":"Modřická","arrival_time":"5:43:00","departure_time":"5:43:00","lat":49.137766,"lon":16.616316,"is_passed":false},{"stop_id":"U15141Z1","name":"Modřice, Žižkova","arrival_time":"5:45:00","departure_time":"5:45:00","lat":49.134158,"lon":16.615127,"is_passed":false},{"stop_id":"U15127Z1","name":"Modřice, Masarykova","arrival_time":"5:46:00","departure_time":"5:46:00","lat":49.130994,"lon":16.614563,"is_passed":false},{"stop_id":"U15129Z1","name":"Modřice, náměstí","arrival_time":"5:48:00","departure_time":"5:48:00","lat":49.127673,"lon":16.615841,"is_passed":false},{"stop_id":"U15139Z1","name":"Modřice, Za mlýnem","arrival_time":"5:49:00","departure_time":"5:49:00","lat":49.130699,"lon":16.624761,"is_passed":false},{"stop_id":"U15124Z1","name":"Modřice, Drůbežářské závody","arrival_time":"5:50:00","departure_time":"5:50:00","lat":49.133319,"lon":16.63039,"is_passed":false},{"stop_id":"U15130Z3","name":"Modřice, Olympia","arrival_time":"5:53:00","departure_time":"6:11:00","lat":49.139507,"lon":16.633749,"is_passed":false}]