[{"stop_id":"U12601Z1","name":"Benešov","arrival_time":"4:26:00","departure_time":"4:26:00","lat":49.508993,"lon":16.767662,"is_passed":false},{"stop_id":"U12605Z1","name":"Benešov, ZD střed","arrival_time":"4:28:00","departure_time":"4:28:00","lat":49.503152,"lon":16.764075,"is_passed":false},{"stop_id":"U12624Z1","name":"Suchý, u rybníka","arrival_time":"4:31:00","departure_time":"4:31:00","lat":49.487335,"lon":16.76129,"is_passed":false},{"stop_id":"U12623Z1","name":"Suchý","arrival_time":"4:33:00","departure_time":"4:33:00","lat":49.481303,"lon":16.76194,"is_passed":false},{"stop_id":"U12628Z1","name":"Žďárná","arrival_time":"4:35:00","departure_time":"4:35:00","lat":49.468497,"lon":16.754933,"is_passed":false},{"stop_id":"U12619Z4","name":"Ludíkov, rozcestí","arrival_time":"4:38:00","departure_time":"4:38:00","lat":49.458279,"lon":16.737047,"is_passed":false},{"stop_id":"U12625Z2","name":"Valchov","arrival_time":"4:41:00","departure_time":"4:41:00","lat":49.47184,"lon":16.71888,"is_passed":false},{"stop_id":"U12653Z2","name":"Boskovice, Podlesí","arrival_time":"4:45:00","departure_time":"4:45:00","lat":49.482323,"lon":16.685378,"is_passed":false},{"stop_id":"U12660Z2","name":"Boskovice, U Kapličky","arrival_time":"4:47:00","departure_time":"4:47:00","lat":49.48324,"lon":16.673848,"is_passed":false},{"stop_id":"U12646Z2","name":"Boskovice, Lidická","arrival_time":"4:49:00","departure_time":"4:49:00","lat":49.487068,"lon":16.665273,"is_passed":false},{"stop_id":"U12633Z5","name":"Boskovice, 17. listopadu","arrival_time":"4:50:00","departure_time":"4:50:00","lat":49.489829,"lon":16.662114,"is_passed":false}]