[{"stop_id":"U15729Z14","name":"Břeclav, autobusové nádraží","arrival_time":"18:45:00","departure_time":"18:45:00","lat":48.753851,"lon":16.893169,"is_passed":false},{"stop_id":"U15828Z10","name":"Valtice, železniční zastávka","arrival_time":"18:53:00","departure_time":"18:53:00","lat":48.748776,"lon":16.762369,"is_passed":false},{"stop_id":"U25701Z10","name":"Sedlec u Mikulova","arrival_time":"18:59:00","departure_time":"19:00:00","lat":48.774739,"lon":16.696954,"is_passed":false},{"stop_id":"U15714Z10","name":"Mikulov, železniční stanice","arrival_time":"19:05:00","departure_time":"19:06:00","lat":48.802203,"lon":16.625492,"is_passed":false},{"stop_id":"U25601Z10","name":"Březí","arrival_time":"19:11:00","departure_time":"19:11:00","lat":48.812925,"lon":16.554169,"is_passed":false},{"stop_id":"U25602Z10","name":"Dobré Pole","arrival_time":"19:13:00","departure_time":"19:13:00","lat":48.820008,"lon":16.533833,"is_passed":false},{"stop_id":"U15563Z10","name":"Novosedly, železniční stanice","arrival_time":"19:18:00","departure_time":"19:18:00","lat":48.825719,"lon":16.49405,"is_passed":false},{"stop_id":"U25505Z10","name":"Jevišovka","arrival_time":"19:21:00","departure_time":"19:21:00","lat":48.820272,"lon":16.467125,"is_passed":false},{"stop_id":"U15637Z10","name":"Hrušovany nad Jevišovkou, žel. st.","arrival_time":"19:28:00","departure_time":"19:28:00","lat":48.810029,"lon":16.383137,"is_passed":false}]