[{"stop_id":"U18009Z21","name":"Znojmo, autobusové nádraží","arrival_time":"18:00:00","departure_time":"18:00:00","lat":48.852761,"lon":16.059287,"is_passed":false},{"stop_id":"U28101Z11","name":"Hodonice","arrival_time":"18:09:00","departure_time":"18:10:00","lat":48.841514,"lon":16.164403,"is_passed":false},{"stop_id":"U15637Z11","name":"Hrušovany nad Jevišovkou, žel. st.","arrival_time":"18:25:00","departure_time":"18:28:00","lat":48.810029,"lon":16.383137,"is_passed":false},{"stop_id":"U15714Z11","name":"Mikulov, železniční stanice","arrival_time":"18:45:00","departure_time":"18:46:00","lat":48.802203,"lon":16.625492,"is_passed":false},{"stop_id":"U15828Z11","name":"Valtice, železniční zastávka","arrival_time":"18:58:00","departure_time":"18:59:00","lat":48.748776,"lon":16.762369,"is_passed":false},{"stop_id":"U15729Z15","name":"Břeclav, autobusové nádraží","arrival_time":"19:07:00","departure_time":"19:07:00","lat":48.753851,"lon":16.893169,"is_passed":false}]