[{"stop_id":"U1796Z7","name":"Zoologická zahrada","arrival_time":"13:44:00","departure_time":"13:44:00","lat":49.227823,"lon":16.531364,"is_passed":false},{"stop_id":"U1796Z3","name":"Zoologická zahrada","arrival_time":"13:45:00","departure_time":"13:45:00","lat":49.228465,"lon":16.531116,"is_passed":false},{"stop_id":"U1527Z3","name":"Přístaviště","arrival_time":"13:46:00","departure_time":"13:46:00","lat":49.228139,"lon":16.522365,"is_passed":false},{"stop_id":"U1537Z3","name":"Rakovecká","arrival_time":"13:47:00","departure_time":"13:47:00","lat":49.225834,"lon":16.518322,"is_passed":false},{"stop_id":"U1312Z5","name":"Kubíčkova","arrival_time":"13:48:00","departure_time":"13:48:00","lat":49.221996,"lon":16.519339,"is_passed":false},{"stop_id":"U1461Z3","name":"Ondrouškova","arrival_time":"13:50:00","departure_time":"13:50:00","lat":49.217721,"lon":16.517208,"is_passed":false}]