[{"stop_id":"U1796Z7","name":"Zoologická zahrada","arrival_time":"22:41:00","departure_time":"22:41:00","lat":49.227823,"lon":16.531364,"is_passed":false},{"stop_id":"U1796Z3","name":"Zoologická zahrada","arrival_time":"22:42:00","departure_time":"22:42:00","lat":49.228465,"lon":16.531116,"is_passed":false},{"stop_id":"U1527Z3","name":"Přístaviště","arrival_time":"22:43:00","departure_time":"22:43:00","lat":49.228139,"lon":16.522365,"is_passed":false},{"stop_id":"U1537Z3","name":"Rakovecká","arrival_time":"22:44:00","departure_time":"22:44:00","lat":49.225834,"lon":16.518322,"is_passed":false},{"stop_id":"U1312Z5","name":"Kubíčkova","arrival_time":"22:45:00","departure_time":"22:45:00","lat":49.221996,"lon":16.519339,"is_passed":false},{"stop_id":"U1461Z3","name":"Ondrouškova","arrival_time":"22:46:00","departure_time":"22:46:00","lat":49.217721,"lon":16.517208,"is_passed":false},{"stop_id":"U1102Z3","name":"Ečerova","arrival_time":"22:48:00","departure_time":"22:48:00","lat":49.218746,"lon":16.50885,"is_passed":false},{"stop_id":"U1550Z1","name":"Ruda","arrival_time":"22:49:00","departure_time":"22:49:00","lat":49.220738,"lon":16.503998,"is_passed":false},{"stop_id":"U1221Z2","name":"Kamechy","arrival_time":"22:51:00","departure_time":"22:51:00","lat":49.214794,"lon":16.49742,"is_passed":false},{"stop_id":"U1185Z92","name":"Chvalovka","arrival_time":"22:51:00","departure_time":"22:51:00","lat":49.21492,"lon":16.500086,"is_passed":false},{"stop_id":"U1230Z92","name":"Kavčí","arrival_time":"22:52:00","departure_time":"22:52:00","lat":49.216872,"lon":16.500241,"is_passed":false},{"stop_id":"U1559Z92","name":"Říčanská","arrival_time":"22:53:00","departure_time":"22:55:00","lat":49.218461,"lon":16.497565,"is_passed":false}]