[{"stop_id":"U1358Z5","name":"Maloměřický most","arrival_time":"19:40:00","departure_time":"19:40:00","lat":49.2152,"lon":16.643926,"is_passed":false},{"stop_id":"U1231Z2","name":"Karlova","arrival_time":"19:41:00","departure_time":"19:41:00","lat":49.212343,"lon":16.643285,"is_passed":false},{"stop_id":"U1668Z4","name":"Tomkovo náměstí","arrival_time":"19:43:00","departure_time":"19:43:00","lat":49.214128,"lon":16.634545,"is_passed":false},{"stop_id":"U1381Z2","name":"Merhautova","arrival_time":"19:44:00","departure_time":"19:44:00","lat":49.215,"lon":16.627633,"is_passed":false},{"stop_id":"U1646Z3","name":"Štefánikova čtvrť","arrival_time":"19:45:00","departure_time":"19:45:00","lat":49.216958,"lon":16.627543,"is_passed":false},{"stop_id":"U1331Z1","name":"Lesná, nádraží","arrival_time":"19:46:00","departure_time":"19:46:00","lat":49.220041,"lon":16.629534,"is_passed":false},{"stop_id":"U1506Z1","name":"Poliklinika Lesná","arrival_time":"19:47:00","departure_time":"19:47:00","lat":49.222513,"lon":16.625643,"is_passed":false},{"stop_id":"U1128Z3","name":"Halasovo náměstí","arrival_time":"19:48:00","departure_time":"19:49:00","lat":49.223406,"lon":16.622237,"is_passed":false},{"stop_id":"U1582Z1","name":"Slavíčkova","arrival_time":"19:50:00","departure_time":"19:50:00","lat":49.226088,"lon":16.617914,"is_passed":false},{"stop_id":"U1111Z1","name":"Fillova","arrival_time":"19:51:00","departure_time":"19:51:00","lat":49.229105,"lon":16.616814,"is_passed":false},{"stop_id":"U1348Z1","name":"Loosova","arrival_time":"19:52:00","departure_time":"19:52:00","lat":49.232374,"lon":16.619952,"is_passed":false},{"stop_id":"U1132Z1","name":"Haškova","arrival_time":"19:53:00","departure_time":"19:53:00","lat":49.233582,"lon":16.624766,"is_passed":false},{"stop_id":"U1317Z1","name":"Kupkova","arrival_time":"19:54:00","departure_time":"19:54:00","lat":49.236519,"lon":16.627603,"is_passed":false},{"stop_id":"U1691Z1","name":"U rozvodny","arrival_time":"19:55:00","departure_time":"19:55:00","lat":49.240973,"lon":16.62736,"is_passed":false},{"stop_id":"U1479Z1","name":"Panská lícha","arrival_time":"19:56:00","departure_time":"19:56:00","lat":49.24527,"lon":16.624807,"is_passed":false},{"stop_id":"U1647Z1","name":"Štěpánkova","arrival_time":"19:57:00","departure_time":"19:57:00","lat":49.251649,"lon":16.62312,"is_passed":false},{"stop_id":"U1548Z1","name":"Rozárka","arrival_time":"19:58:00","departure_time":"19:58:00","lat":49.254486,"lon":16.622791,"is_passed":false},{"stop_id":"U1235Z3","name":"Klarisky","arrival_time":"20:00:00","departure_time":"20:02:00","lat":49.256942,"lon":16.622725,"is_passed":false}]