[{"stop_id":"U1235Z4","name":"Klarisky","arrival_time":"10:04:00","departure_time":"10:04:00","lat":49.257063,"lon":16.622604,"is_passed":false},{"stop_id":"U1548Z2","name":"Rozárka","arrival_time":"10:04:00","departure_time":"10:04:00","lat":49.254088,"lon":16.622556,"is_passed":false},{"stop_id":"U1647Z2","name":"Štěpánkova","arrival_time":"10:05:00","departure_time":"10:05:00","lat":49.251234,"lon":16.623308,"is_passed":false},{"stop_id":"U1479Z2","name":"Panská lícha","arrival_time":"10:06:00","departure_time":"10:06:00","lat":49.245102,"lon":16.624834,"is_passed":false},{"stop_id":"U1691Z2","name":"U rozvodny","arrival_time":"10:07:00","departure_time":"10:07:00","lat":49.24075,"lon":16.627342,"is_passed":false},{"stop_id":"U1317Z2","name":"Kupkova","arrival_time":"10:08:00","departure_time":"10:08:00","lat":49.236128,"lon":16.627756,"is_passed":false},{"stop_id":"U1132Z3","name":"Haškova","arrival_time":"10:10:00","departure_time":"10:10:00","lat":49.233588,"lon":16.623836,"is_passed":false},{"stop_id":"U1348Z2","name":"Loosova","arrival_time":"10:11:00","departure_time":"10:11:00","lat":49.231571,"lon":16.618938,"is_passed":false},{"stop_id":"U1111Z2","name":"Fillova","arrival_time":"10:12:00","departure_time":"10:12:00","lat":49.229347,"lon":16.616979,"is_passed":false},{"stop_id":"U1582Z2","name":"Slavíčkova","arrival_time":"10:13:00","departure_time":"10:13:00","lat":49.225821,"lon":16.617957,"is_passed":false},{"stop_id":"U1128Z4","name":"Halasovo náměstí","arrival_time":"10:14:00","departure_time":"10:14:00","lat":49.22314,"lon":16.622438,"is_passed":false},{"stop_id":"U1506Z2","name":"Poliklinika Lesná","arrival_time":"10:15:00","departure_time":"10:15:00","lat":49.222411,"lon":16.625672,"is_passed":false},{"stop_id":"U1331Z2","name":"Lesná, nádraží","arrival_time":"10:16:00","departure_time":"10:16:00","lat":49.220094,"lon":16.62942,"is_passed":false},{"stop_id":"U1646Z4","name":"Štefánikova čtvrť","arrival_time":"10:17:00","departure_time":"10:17:00","lat":49.217288,"lon":16.627693,"is_passed":false},{"stop_id":"U1381Z1","name":"Merhautova","arrival_time":"10:19:00","departure_time":"10:19:00","lat":49.21485,"lon":16.627477,"is_passed":false},{"stop_id":"U1668Z1","name":"Tomkovo náměstí","arrival_time":"10:21:00","departure_time":"10:21:00","lat":49.214035,"lon":16.636587,"is_passed":false},{"stop_id":"U1358Z5","name":"Maloměřický most","arrival_time":"10:22:00","departure_time":"10:22:00","lat":49.2152,"lon":16.643926,"is_passed":false}]