[{"stop_id":"U12524Z2","name":"Lysice, pohostinství","arrival_time":"7:46:00","departure_time":"7:46:00","lat":49.452327,"lon":16.537945,"is_passed":false},{"stop_id":"U12529Z1","name":"Lysice, výzkum","arrival_time":"7:48:00","departure_time":"7:48:00","lat":49.456417,"lon":16.556818,"is_passed":false},{"stop_id":"U12666Z1","name":"Krhov, Pohodlí","arrival_time":"7:51:00","departure_time":"7:51:00","lat":49.462407,"lon":16.575283,"is_passed":false},{"stop_id":"U12686Z1","name":"Voděrady, nám.","arrival_time":"7:55:00","departure_time":"7:55:00","lat":49.480877,"lon":16.56021,"is_passed":false},{"stop_id":"U12665Z1","name":"Krhov","arrival_time":"8:00:00","departure_time":"8:00:00","lat":49.463333,"lon":16.58325,"is_passed":false},{"stop_id":"U12667Z1","name":"Krhov, rozc. 1.0","arrival_time":"8:02:00","departure_time":"8:02:00","lat":49.468313,"lon":16.584207,"is_passed":false},{"stop_id":"U12663Z1","name":"Jabloňany, rozc.","arrival_time":"8:03:00","departure_time":"8:03:00","lat":49.474687,"lon":16.594285,"is_passed":false},{"stop_id":"U12676Z1","name":"Skalice nad Svitavou, žel.st.","arrival_time":"8:06:00","departure_time":"8:06:00","lat":49.480276,"lon":16.609048,"is_passed":false},{"stop_id":"U12648Z1","name":"Boskovice, Mladkov","arrival_time":"8:09:00","departure_time":"8:09:00","lat":49.490525,"lon":16.619477,"is_passed":false},{"stop_id":"U12650Z1","name":"Boskovice, nemocnice","arrival_time":"8:12:00","departure_time":"8:12:00","lat":49.491627,"lon":16.644028,"is_passed":false},{"stop_id":"U12635Z30","name":"Boskovice, aut.st.","arrival_time":"8:14:00","departure_time":"8:14:00","lat":49.49169,"lon":16.653337,"is_passed":false},{"stop_id":"U12633Z31","name":"Boskovice, 17. listopadu","arrival_time":"8:17:00","departure_time":"8:17:00","lat":49.488891,"lon":16.661476,"is_passed":false}]