[{"stop_id":"U1132Z3","name":"Haškova","arrival_time":"15:57:00","departure_time":"15:57:00","lat":49.233588,"lon":16.623836,"is_passed":false},{"stop_id":"U1348Z2","name":"Loosova","arrival_time":"15:58:00","departure_time":"15:58:00","lat":49.231571,"lon":16.618938,"is_passed":false},{"stop_id":"U1111Z2","name":"Fillova","arrival_time":"15:59:00","departure_time":"15:59:00","lat":49.229347,"lon":16.616979,"is_passed":false},{"stop_id":"U1582Z2","name":"Slavíčkova","arrival_time":"16:00:00","departure_time":"16:00:00","lat":49.225821,"lon":16.617957,"is_passed":false},{"stop_id":"U1128Z4","name":"Halasovo náměstí","arrival_time":"16:01:00","departure_time":"16:01:00","lat":49.22314,"lon":16.622438,"is_passed":false}]