[{"stop_id":"U1132Z3","name":"Haškova","arrival_time":"15:43:00","departure_time":"15:43:00","lat":49.233588,"lon":16.623836,"is_passed":false},{"stop_id":"U1043Z2","name":"Brechtova","arrival_time":"15:44:00","departure_time":"15:44:00","lat":49.233462,"lon":16.629437,"is_passed":false},{"stop_id":"U1028Z2","name":"Blažkova","arrival_time":"15:45:00","departure_time":"15:45:00","lat":49.229597,"lon":16.631063,"is_passed":false},{"stop_id":"U1008Z2","name":"Arbesova","arrival_time":"15:46:00","departure_time":"15:46:00","lat":49.225668,"lon":16.630461,"is_passed":false},{"stop_id":"U1138Z2","name":"Heleny Malířové","arrival_time":"15:47:00","departure_time":"15:47:00","lat":49.223075,"lon":16.629159,"is_passed":false},{"stop_id":"U1506Z1","name":"Poliklinika Lesná","arrival_time":"15:48:00","departure_time":"15:48:00","lat":49.222513,"lon":16.625643,"is_passed":false},{"stop_id":"U1128Z3","name":"Halasovo náměstí","arrival_time":"15:49:00","departure_time":"15:49:00","lat":49.223406,"lon":16.622237,"is_passed":false}]