[{"stop_id":"U12004Z1","name":"Lipůvka","arrival_time":"4:12:00","departure_time":"4:12:00","lat":49.339155,"lon":16.552682,"is_passed":false},{"stop_id":"U12239Z1","name":"Lažany","arrival_time":"4:14:00","departure_time":"4:14:00","lat":49.354925,"lon":16.551363,"is_passed":false},{"stop_id":"U12032Z1","name":"Újezd u Černé Hory","arrival_time":"4:19:00","departure_time":"4:19:00","lat":49.370612,"lon":16.544427,"is_passed":false},{"stop_id":"U12031Z1","name":"Újezd u Černé Hory, SDP","arrival_time":"4:21:00","departure_time":"4:21:00","lat":49.378095,"lon":16.555766,"is_passed":false},{"stop_id":"U12458Z1","name":"Malá Lhota","arrival_time":"4:23:00","departure_time":"4:23:00","lat":49.391597,"lon":16.550408,"is_passed":false},{"stop_id":"U12463Z1","name":"Žernovník, Hasičský dům","arrival_time":"4:25:00","departure_time":"4:25:00","lat":49.404762,"lon":16.544333,"is_passed":false},{"stop_id":"U12455Z1","name":"Žernovník, obecní úřad","arrival_time":"4:26:00","departure_time":"4:26:00","lat":49.407048,"lon":16.545602,"is_passed":false}]