[{"stop_id":"U12633Z1","name":"Boskovice, 17. listopadu","arrival_time":"16:13:00","departure_time":"16:13:00","lat":49.488891,"lon":16.661476,"is_passed":false},{"stop_id":"U12635Z10","name":"Boskovice, aut.st.","arrival_time":"16:18:00","departure_time":"16:18:00","lat":49.49169,"lon":16.653337,"is_passed":false},{"stop_id":"U12650Z2","name":"Boskovice, nemocnice","arrival_time":"16:20:00","departure_time":"16:20:00","lat":49.49167,"lon":16.644917,"is_passed":false},{"stop_id":"U12648Z2","name":"Boskovice, Mladkov","arrival_time":"16:23:00","departure_time":"16:23:00","lat":49.490705,"lon":16.61905,"is_passed":false},{"stop_id":"U12676Z5","name":"Skalice nad Svitavou, žel.st.","arrival_time":"16:26:00","departure_time":"16:28:00","lat":49.480279,"lon":16.608801,"is_passed":false},{"stop_id":"U12663Z2","name":"Jabloňany, rozc.","arrival_time":"16:31:00","departure_time":"16:31:00","lat":49.47452,"lon":16.59455,"is_passed":false},{"stop_id":"U12665Z2","name":"Krhov","arrival_time":"16:34:00","departure_time":"16:34:00","lat":49.463333,"lon":16.58325,"is_passed":false},{"stop_id":"U12686Z2","name":"Voděrady, nám.","arrival_time":"16:40:00","departure_time":"16:40:00","lat":49.481015,"lon":16.5602,"is_passed":false},{"stop_id":"U12666Z2","name":"Krhov, Pohodlí","arrival_time":"16:44:00","departure_time":"16:44:00","lat":49.462515,"lon":16.575063,"is_passed":false},{"stop_id":"U12529Z2","name":"Lysice, výzkum","arrival_time":"16:47:00","departure_time":"16:47:00","lat":49.456417,"lon":16.556818,"is_passed":false},{"stop_id":"U12524Z5","name":"Lysice, pohostinství","arrival_time":"16:49:00","departure_time":"16:50:00","lat":49.452249,"lon":16.537757,"is_passed":false},{"stop_id":"U12528Z2","name":"Lysice, Štěchovská","arrival_time":"16:52:00","departure_time":"16:52:00","lat":49.450907,"lon":16.527685,"is_passed":false},{"stop_id":"U12531Z2","name":"Štěchov","arrival_time":"16:55:00","departure_time":"16:55:00","lat":49.451917,"lon":16.506837,"is_passed":false},{"stop_id":"U12532Z2","name":"Bedřichov","arrival_time":"17:00:00","departure_time":"17:00:00","lat":49.46161,"lon":16.465692,"is_passed":false},{"stop_id":"U12534Z3","name":"Brumov, rozc.3.0","arrival_time":"17:02:00","departure_time":"17:02:00","lat":49.465681,"lon":16.456082,"is_passed":false},{"stop_id":"U12505Z1","name":"Brumov, rozcestí 0.5","arrival_time":"17:05:00","departure_time":"17:05:00","lat":49.455272,"lon":16.4358,"is_passed":false},{"stop_id":"U12504Z1","name":"Brumov, dolní konec","arrival_time":"17:06:00","departure_time":"17:06:00","lat":49.458362,"lon":16.431693,"is_passed":false},{"stop_id":"U12503Z1","name":"Brumov","arrival_time":"17:07:00","departure_time":"17:07:00","lat":49.461652,"lon":16.427031,"is_passed":false},{"stop_id":"U12504Z2","name":"Brumov, dolní konec","arrival_time":"17:08:00","departure_time":"17:08:00","lat":49.458362,"lon":16.431693,"is_passed":false},{"stop_id":"U12505Z3","name":"Brumov, rozcestí 0.5","arrival_time":"17:09:00","departure_time":"17:09:00","lat":49.455,"lon":16.435755,"is_passed":false},{"stop_id":"U12535Z2","name":"Černovice","arrival_time":"17:16:00","departure_time":"17:16:00","lat":49.483107,"lon":16.424948,"is_passed":false},{"stop_id":"U12027Z2","name":"Tasovice","arrival_time":"17:20:00","departure_time":"17:20:00","lat":49.496425,"lon":16.440405,"is_passed":false},{"stop_id":"U12028Z3","name":"Tasovice, rozcestí","arrival_time":"17:23:00","departure_time":"17:23:00","lat":49.511078,"lon":16.435412,"is_passed":false},{"stop_id":"U12026Z1","name":"Hodonín u Kunštátu","arrival_time":"17:26:00","departure_time":"17:26:00","lat":49.501284,"lon":16.409916,"is_passed":false}]