[{"stop_id":"U12633Z1","name":"Boskovice, 17. listopadu","arrival_time":"13:10:00","departure_time":"13:10:00","lat":49.488891,"lon":16.661476,"is_passed":false},{"stop_id":"U12635Z10","name":"Boskovice, aut.st.","arrival_time":"13:15:00","departure_time":"13:15:00","lat":49.49169,"lon":16.653337,"is_passed":false},{"stop_id":"U12650Z2","name":"Boskovice, nemocnice","arrival_time":"13:17:00","departure_time":"13:17:00","lat":49.49167,"lon":16.644917,"is_passed":false},{"stop_id":"U12648Z2","name":"Boskovice, Mladkov","arrival_time":"13:20:00","departure_time":"13:20:00","lat":49.490705,"lon":16.61905,"is_passed":false},{"stop_id":"U12676Z5","name":"Skalice nad Svitavou, žel.st.","arrival_time":"13:23:00","departure_time":"13:23:00","lat":49.480279,"lon":16.608801,"is_passed":false},{"stop_id":"U12663Z2","name":"Jabloňany, rozc.","arrival_time":"13:26:00","departure_time":"13:26:00","lat":49.47452,"lon":16.59455,"is_passed":false},{"stop_id":"U12665Z2","name":"Krhov","arrival_time":"13:29:00","departure_time":"13:29:00","lat":49.463333,"lon":16.58325,"is_passed":false},{"stop_id":"U12686Z2","name":"Voděrady, nám.","arrival_time":"13:35:00","departure_time":"13:35:00","lat":49.481015,"lon":16.5602,"is_passed":false},{"stop_id":"U12666Z2","name":"Krhov, Pohodlí","arrival_time":"13:39:00","departure_time":"13:39:00","lat":49.462515,"lon":16.575063,"is_passed":false},{"stop_id":"U12529Z2","name":"Lysice, výzkum","arrival_time":"13:42:00","departure_time":"13:42:00","lat":49.456417,"lon":16.556818,"is_passed":false},{"stop_id":"U12524Z5","name":"Lysice, pohostinství","arrival_time":"13:44:00","departure_time":"13:52:00","lat":49.452249,"lon":16.537757,"is_passed":false},{"stop_id":"U12528Z2","name":"Lysice, Štěchovská","arrival_time":"13:54:00","departure_time":"13:54:00","lat":49.450907,"lon":16.527685,"is_passed":false},{"stop_id":"U12531Z2","name":"Štěchov","arrival_time":"13:57:00","departure_time":"13:57:00","lat":49.451917,"lon":16.506837,"is_passed":false},{"stop_id":"U12532Z2","name":"Bedřichov","arrival_time":"14:02:00","departure_time":"14:02:00","lat":49.46161,"lon":16.465692,"is_passed":false},{"stop_id":"U12534Z3","name":"Brumov, rozc.3.0","arrival_time":"14:04:00","departure_time":"14:04:00","lat":49.465681,"lon":16.456082,"is_passed":false},{"stop_id":"U12505Z1","name":"Brumov, rozcestí 0.5","arrival_time":"14:07:00","departure_time":"14:07:00","lat":49.455272,"lon":16.4358,"is_passed":false},{"stop_id":"U12504Z1","name":"Brumov, dolní konec","arrival_time":"14:08:00","departure_time":"14:08:00","lat":49.458362,"lon":16.431693,"is_passed":false},{"stop_id":"U12503Z1","name":"Brumov","arrival_time":"14:09:00","departure_time":"14:09:00","lat":49.461652,"lon":16.427031,"is_passed":false},{"stop_id":"U12504Z2","name":"Brumov, dolní konec","arrival_time":"14:10:00","departure_time":"14:10:00","lat":49.458362,"lon":16.431693,"is_passed":false},{"stop_id":"U12505Z3","name":"Brumov, rozcestí 0.5","arrival_time":"14:11:00","departure_time":"14:11:00","lat":49.455,"lon":16.435755,"is_passed":false},{"stop_id":"U12535Z2","name":"Černovice","arrival_time":"14:18:00","departure_time":"14:18:00","lat":49.483107,"lon":16.424948,"is_passed":false},{"stop_id":"U12027Z2","name":"Tasovice","arrival_time":"14:22:00","departure_time":"14:22:00","lat":49.496425,"lon":16.440405,"is_passed":false},{"stop_id":"U12028Z3","name":"Tasovice, rozcestí","arrival_time":"14:25:00","departure_time":"14:25:00","lat":49.511078,"lon":16.435412,"is_passed":false},{"stop_id":"U12026Z1","name":"Hodonín u Kunštátu","arrival_time":"14:28:00","departure_time":"14:28:00","lat":49.501284,"lon":16.409916,"is_passed":false},{"stop_id":"U12765Z1","name":"Louka, Karlov","arrival_time":"14:31:00","departure_time":"14:31:00","lat":49.515151,"lon":16.412635,"is_passed":false},{"stop_id":"U12773Z2","name":"Prosetín, rozcestí","arrival_time":"14:33:00","departure_time":"14:33:00","lat":49.523515,"lon":16.413892,"is_passed":false},{"stop_id":"U12764Z2","name":"Louka, Loucký Dvůr","arrival_time":"14:35:00","departure_time":"14:35:00","lat":49.532593,"lon":16.420752,"is_passed":false},{"stop_id":"U12760Z2","name":"Křtěnov","arrival_time":"14:37:00","departure_time":"14:37:00","lat":49.547074,"lon":16.419808,"is_passed":false},{"stop_id":"U12769Z2","name":"Olešnice, závod","arrival_time":"14:39:00","departure_time":"14:39:00","lat":49.551247,"lon":16.420538,"is_passed":false},{"stop_id":"U12767Z6","name":"Olešnice, nám.","arrival_time":"14:41:00","departure_time":"14:52:00","lat":49.557876,"lon":16.42226,"is_passed":false}]