[{"stop_id":"U1128Z4","name":"Halasovo náměstí","arrival_time":"15:11:00","departure_time":"15:11:00","lat":49.22314,"lon":16.622438,"is_passed":false},{"stop_id":"U1506Z2","name":"Poliklinika Lesná","arrival_time":"15:12:00","departure_time":"15:12:00","lat":49.222411,"lon":16.625672,"is_passed":false},{"stop_id":"U1331Z1","name":"Lesná, nádraží","arrival_time":"15:14:00","departure_time":"15:14:00","lat":49.220041,"lon":16.629534,"is_passed":false},{"stop_id":"U1138Z1","name":"Heleny Malířové","arrival_time":"15:15:00","departure_time":"15:15:00","lat":49.223481,"lon":16.629567,"is_passed":false},{"stop_id":"U1008Z1","name":"Arbesova","arrival_time":"15:16:00","departure_time":"15:16:00","lat":49.226286,"lon":16.630842,"is_passed":false},{"stop_id":"U1028Z1","name":"Blažkova","arrival_time":"15:17:00","departure_time":"15:17:00","lat":49.230568,"lon":16.631,"is_passed":false},{"stop_id":"U1043Z1","name":"Brechtova","arrival_time":"15:18:00","departure_time":"15:18:00","lat":49.234039,"lon":16.629206,"is_passed":false},{"stop_id":"U1132Z2","name":"Haškova","arrival_time":"15:19:00","departure_time":"15:23:00","lat":49.233801,"lon":16.624796,"is_passed":false}]