[{"stop_id":"U1128Z3","name":"Halasovo náměstí","arrival_time":"18:09:00","departure_time":"18:09:00","lat":49.223406,"lon":16.622237,"is_passed":false},{"stop_id":"U1582Z1","name":"Slavíčkova","arrival_time":"18:10:00","departure_time":"18:10:00","lat":49.226088,"lon":16.617914,"is_passed":false},{"stop_id":"U1111Z1","name":"Fillova","arrival_time":"18:11:00","departure_time":"18:11:00","lat":49.229105,"lon":16.616814,"is_passed":false},{"stop_id":"U1348Z1","name":"Loosova","arrival_time":"18:12:00","departure_time":"18:12:00","lat":49.232374,"lon":16.619952,"is_passed":false},{"stop_id":"U1132Z2","name":"Haškova","arrival_time":"18:13:00","departure_time":"18:13:00","lat":49.233801,"lon":16.624796,"is_passed":false}]