[{"stop_id":"U13419Z3","name":"Lomnice, náměstí","arrival_time":"6:30:00","departure_time":"6:30:00","lat":49.403413,"lon":16.414194,"is_passed":false},{"stop_id":"U13421Z2","name":"Lomnice, Družstevní","arrival_time":"6:32:00","departure_time":"6:32:00","lat":49.410328,"lon":16.408284,"is_passed":false},{"stop_id":"U13435Z3","name":"Synalov, rozcestí","arrival_time":"6:34:00","departure_time":"6:34:00","lat":49.420293,"lon":16.398563,"is_passed":false},{"stop_id":"U13422Z1","name":"Ochoz u Tišnova","arrival_time":"6:35:00","departure_time":"6:35:00","lat":49.427513,"lon":16.393658,"is_passed":false},{"stop_id":"U13501Z2","name":"Běleč","arrival_time":"6:37:00","departure_time":"6:37:00","lat":49.433247,"lon":16.384228,"is_passed":false},{"stop_id":"U13502Z1","name":"Běleč, dolní konec","arrival_time":"6:38:00","departure_time":"6:38:00","lat":49.428441,"lon":16.375921,"is_passed":false},{"stop_id":"U13505Z1","name":"Doubravník, Prudká, rozcestí","arrival_time":"6:39:00","departure_time":"6:39:00","lat":49.421944,"lon":16.370035,"is_passed":false},{"stop_id":"U13504Z52","name":"Doubravník, náměstí","arrival_time":"6:43:00","departure_time":"7:03:00","lat":49.424698,"lon":16.35174,"is_passed":false}]