[{"stop_id":"U1581Z2","name":"Areál Slatina","arrival_time":"17:06:00","departure_time":"17:06:00","lat":49.168677,"lon":16.678416,"is_passed":false},{"stop_id":"U1562Z3","name":"Řípská","arrival_time":"17:07:00","departure_time":"17:07:00","lat":49.172528,"lon":16.682138,"is_passed":false},{"stop_id":"U1300Z1","name":"Křehlíkova","arrival_time":"17:08:00","departure_time":"17:08:00","lat":49.174839,"lon":16.685145,"is_passed":false},{"stop_id":"U1525Z1","name":"Přemyslovo náměstí","arrival_time":"17:09:00","departure_time":"17:09:00","lat":49.176289,"lon":16.687296,"is_passed":false},{"stop_id":"U1292Z1","name":"Krejčího","arrival_time":"17:10:00","departure_time":"17:10:00","lat":49.177441,"lon":16.690968,"is_passed":false},{"stop_id":"U1576Z2","name":"Slatina, rozcestí","arrival_time":"17:12:00","departure_time":"17:13:00","lat":49.183366,"lon":16.691884,"is_passed":false},{"stop_id":"U1356Z2","name":"Malečkova","arrival_time":"17:13:00","departure_time":"17:13:00","lat":49.185667,"lon":16.692678,"is_passed":false},{"stop_id":"U1152Z2","name":"Holzova","arrival_time":"17:14:00","departure_time":"17:14:00","lat":49.194897,"lon":16.696973,"is_passed":false},{"stop_id":"U1339Z2","name":"Letecká","arrival_time":"17:15:00","departure_time":"17:15:00","lat":49.197812,"lon":16.695816,"is_passed":false},{"stop_id":"U1406Z2","name":"Muzeum dopravy","arrival_time":"17:16:00","departure_time":"17:16:00","lat":49.201777,"lon":16.694455,"is_passed":false},{"stop_id":"U1421Z1","name":"Náměstí Karla IV.","arrival_time":"17:18:00","departure_time":"17:18:00","lat":49.206363,"lon":16.694621,"is_passed":false},{"stop_id":"U1384Z3","name":"Mifkova","arrival_time":"17:18:00","departure_time":"17:18:00","lat":49.20716,"lon":16.692152,"is_passed":false},{"stop_id":"U1208Z5","name":"Jírova","arrival_time":"17:20:00","departure_time":"17:20:00","lat":49.209891,"lon":16.688265,"is_passed":false},{"stop_id":"U1392Z2","name":"Molákova","arrival_time":"17:21:00","departure_time":"17:21:00","lat":49.212602,"lon":16.687063,"is_passed":false},{"stop_id":"U1489Z2","name":"Podbělová","arrival_time":"17:22:00","departure_time":"17:22:00","lat":49.214049,"lon":16.681384,"is_passed":false},{"stop_id":"U1157Z2","name":"Horníkova","arrival_time":"17:23:00","departure_time":"17:23:00","lat":49.211809,"lon":16.67649,"is_passed":false},{"stop_id":"U1103Z2","name":"Elplova","arrival_time":"17:24:00","departure_time":"17:24:00","lat":49.210409,"lon":16.674871,"is_passed":false},{"stop_id":"U1623Z2","name":"Strnadova","arrival_time":"17:26:00","departure_time":"17:26:00","lat":49.205821,"lon":16.668465,"is_passed":false},{"stop_id":"U1551Z2","name":"Růženin dvůr","arrival_time":"17:28:00","departure_time":"17:28:00","lat":49.203263,"lon":16.666525,"is_passed":false},{"stop_id":"U1438Z4","name":"Novolíšeňská","arrival_time":"17:31:00","departure_time":"17:32:00","lat":49.201792,"lon":16.670352,"is_passed":false}]