[{"stop_id":"U1346Z2","name":"Líšeň, hřbitov","arrival_time":"16:13:00","departure_time":"16:13:00","lat":49.21748,"lon":16.702635,"is_passed":false},{"stop_id":"U1441Z2","name":"Obecká","arrival_time":"16:13:00","departure_time":"16:13:00","lat":49.21417,"lon":16.701205,"is_passed":false},{"stop_id":"U1311Z2","name":"Kubelíkova","arrival_time":"16:14:00","departure_time":"16:14:00","lat":49.21195,"lon":16.698702,"is_passed":false},{"stop_id":"U1638Z2","name":"Šimáčkova","arrival_time":"16:15:00","departure_time":"16:15:00","lat":49.209571,"lon":16.6961,"is_passed":false},{"stop_id":"U1421Z2","name":"Náměstí Karla IV.","arrival_time":"16:16:00","departure_time":"16:16:00","lat":49.206113,"lon":16.69444,"is_passed":false},{"stop_id":"U1232Z2","name":"Karolíny Světlé","arrival_time":"16:17:00","departure_time":"16:17:00","lat":49.203721,"lon":16.694074,"is_passed":false},{"stop_id":"U1238Z2","name":"Klicperova","arrival_time":"16:18:00","departure_time":"16:18:00","lat":49.20242,"lon":16.687862,"is_passed":false},{"stop_id":"U1780Z2","name":"Zaoralova","arrival_time":"16:20:00","departure_time":"16:20:00","lat":49.200382,"lon":16.678706,"is_passed":false},{"stop_id":"U1787Z2","name":"Zetor - silnice","arrival_time":"16:21:00","departure_time":"16:21:00","lat":49.200807,"lon":16.670053,"is_passed":false},{"stop_id":"U1438Z4","name":"Novolíšeňská","arrival_time":"16:23:00","departure_time":"16:24:00","lat":49.201792,"lon":16.670352,"is_passed":false}]