[{"stop_id":"U14339Z2","name":"Dolní Kounice, Masarykovo nám.","arrival_time":"14:31:00","departure_time":"14:31:00","lat":49.070302,"lon":16.464113,"is_passed":false},{"stop_id":"U14340Z2","name":"Dolní Kounice, Rybárna","arrival_time":"14:33:00","departure_time":"14:33:00","lat":49.071349,"lon":16.469196,"is_passed":false},{"stop_id":"U15206Z2","name":"Mělčany","arrival_time":"14:38:00","departure_time":"14:38:00","lat":49.075388,"lon":16.493876,"is_passed":false},{"stop_id":"U15201Z2","name":"Bratčice","arrival_time":"14:42:00","departure_time":"14:42:00","lat":49.0656,"lon":16.522952,"is_passed":false},{"stop_id":"U15243Z2","name":"Syrovice, Chocholáč","arrival_time":"14:44:00","departure_time":"14:44:00","lat":49.075586,"lon":16.541475,"is_passed":false},{"stop_id":"U15210Z2","name":"Syrovice","arrival_time":"14:45:00","departure_time":"14:45:00","lat":49.08029,"lon":16.548905,"is_passed":false},{"stop_id":"U15182Z2","name":"Rajhrad, GEIS","arrival_time":"14:47:00","departure_time":"14:47:00","lat":49.085595,"lon":16.583357,"is_passed":false},{"stop_id":"U15166Z2","name":"Rajhrad, stará pošta","arrival_time":"14:48:00","departure_time":"14:48:00","lat":49.087794,"lon":16.591688,"is_passed":false},{"stop_id":"U15134Z1","name":"Modřice, smyčka","arrival_time":"14:56:00","departure_time":"14:56:00","lat":49.127138,"lon":16.604706,"is_passed":false},{"stop_id":"U15122Z2","name":"Modřice, Brněnská","arrival_time":"14:56:00","departure_time":"14:56:00","lat":49.129392,"lon":16.604987,"is_passed":false},{"stop_id":"U15140Z1","name":"Modřice, železniční stanice","arrival_time":"14:58:00","departure_time":"15:00:00","lat":49.134137,"lon":16.606734,"is_passed":false}]