[{"stop_id":"U1438Z4","name":"Novolíšeňská","arrival_time":"17:44:00","departure_time":"17:44:00","lat":49.201792,"lon":16.670352,"is_passed":false},{"stop_id":"U1551Z1","name":"Růženin dvůr","arrival_time":"17:45:00","departure_time":"17:45:00","lat":49.203651,"lon":16.666867,"is_passed":false},{"stop_id":"U1623Z1","name":"Strnadova","arrival_time":"17:46:00","departure_time":"17:46:00","lat":49.205754,"lon":16.66904,"is_passed":false},{"stop_id":"U1103Z1","name":"Elplova","arrival_time":"17:48:00","departure_time":"17:48:00","lat":49.210484,"lon":16.675106,"is_passed":false},{"stop_id":"U1157Z1","name":"Horníkova","arrival_time":"17:49:00","departure_time":"17:49:00","lat":49.212138,"lon":16.676622,"is_passed":false},{"stop_id":"U1489Z1","name":"Podbělová","arrival_time":"17:50:00","departure_time":"17:50:00","lat":49.213881,"lon":16.681661,"is_passed":false},{"stop_id":"U1392Z1","name":"Molákova","arrival_time":"17:51:00","departure_time":"17:51:00","lat":49.212873,"lon":16.686835,"is_passed":false},{"stop_id":"U1208Z4","name":"Jírova","arrival_time":"17:52:00","departure_time":"17:52:00","lat":49.209099,"lon":16.688056,"is_passed":false},{"stop_id":"U1421Z2","name":"Náměstí Karla IV.","arrival_time":"17:53:00","departure_time":"17:53:00","lat":49.206113,"lon":16.69444,"is_passed":false},{"stop_id":"U1232Z2","name":"Karolíny Světlé","arrival_time":"17:54:00","departure_time":"17:54:00","lat":49.203721,"lon":16.694074,"is_passed":false},{"stop_id":"U1406Z1","name":"Muzeum dopravy","arrival_time":"17:55:00","departure_time":"17:55:00","lat":49.201045,"lon":16.69455,"is_passed":false},{"stop_id":"U1339Z1","name":"Letecká","arrival_time":"17:56:00","departure_time":"17:56:00","lat":49.197603,"lon":16.695882,"is_passed":false},{"stop_id":"U1152Z1","name":"Holzova","arrival_time":"17:57:00","departure_time":"17:57:00","lat":49.194703,"lon":16.696956,"is_passed":false},{"stop_id":"U1356Z1","name":"Malečkova","arrival_time":"17:58:00","departure_time":"17:58:00","lat":49.18583,"lon":16.69265,"is_passed":false},{"stop_id":"U1576Z1","name":"Slatina, rozcestí","arrival_time":"18:00:00","departure_time":"18:00:00","lat":49.181647,"lon":16.691923,"is_passed":false},{"stop_id":"U1292Z2","name":"Krejčího","arrival_time":"18:01:00","departure_time":"18:01:00","lat":49.177496,"lon":16.690785,"is_passed":false},{"stop_id":"U1525Z2","name":"Přemyslovo náměstí","arrival_time":"18:01:00","departure_time":"18:01:00","lat":49.176456,"lon":16.687324,"is_passed":false},{"stop_id":"U1300Z2","name":"Křehlíkova","arrival_time":"18:02:00","departure_time":"18:02:00","lat":49.174794,"lon":16.685267,"is_passed":false},{"stop_id":"U1562Z4","name":"Řípská","arrival_time":"18:04:00","departure_time":"18:04:00","lat":49.172829,"lon":16.682244,"is_passed":false},{"stop_id":"U1581Z1","name":"Areál Slatina","arrival_time":"18:05:00","departure_time":"18:07:00","lat":49.168614,"lon":16.67804,"is_passed":false}]