[{"stop_id":"U1696Z4","name":"ÚAN Zvonařka","arrival_time":"8:51:00","departure_time":"8:51:00","lat":49.185364,"lon":16.616151,"is_passed":false},{"stop_id":"U1677Z3","name":"Tržní","arrival_time":"8:55:00","departure_time":"8:55:00","lat":49.189342,"lon":16.630314,"is_passed":false},{"stop_id":"U1068Z3","name":"Černovičky","arrival_time":"9:00:00","departure_time":"9:00:00","lat":49.183143,"lon":16.669108,"is_passed":false},{"stop_id":"U1577Z5","name":"Slatina, sídliště","arrival_time":"9:02:00","departure_time":"9:02:00","lat":49.182195,"lon":16.690725,"is_passed":false},{"stop_id":"U16130Z1","name":"Šlapanice, Bedřichovice, rozc.","arrival_time":"9:05:00","departure_time":"9:05:00","lat":49.182882,"lon":16.723572,"is_passed":false},{"stop_id":"U16105Z1","name":"Jiříkovice, motorest Rohlenka","arrival_time":"9:08:00","departure_time":"9:08:00","lat":49.183436,"lon":16.761042,"is_passed":false},{"stop_id":"U16205Z1","name":"Holubice, kruh","arrival_time":"9:11:00","departure_time":"9:11:00","lat":49.184495,"lon":16.799497,"is_passed":false},{"stop_id":"U16210Z1","name":"Kovalovice, Stará pošta","arrival_time":"9:14:00","departure_time":"9:14:00","lat":49.185018,"lon":16.826655,"is_passed":false},{"stop_id":"U17348Z2","name":"Velešovice, u mostu","arrival_time":"9:16:00","departure_time":"9:16:00","lat":49.186552,"lon":16.841008,"is_passed":false},{"stop_id":"U17345Z1","name":"Velešovice","arrival_time":"9:18:00","departure_time":"9:18:00","lat":49.180494,"lon":16.847836,"is_passed":false},{"stop_id":"U17348Z1","name":"Velešovice, u mostu","arrival_time":"9:20:00","departure_time":"9:20:00","lat":49.186447,"lon":16.84118,"is_passed":false},{"stop_id":"U17337Z1","name":"Rousínov, rozc. k žel. st.","arrival_time":"9:24:00","departure_time":"9:24:00","lat":49.200012,"lon":16.873039,"is_passed":false},{"stop_id":"U17335Z1","name":"Rousínov, autobusová stanice","arrival_time":"9:26:00","departure_time":"9:29:00","lat":49.202947,"lon":16.88534,"is_passed":false},{"stop_id":"U17331Z1","name":"Rousínov, Čechyně, rozcestí","arrival_time":"9:31:00","departure_time":"9:31:00","lat":49.207062,"lon":16.891572,"is_passed":false},{"stop_id":"U17311Z1","name":"Komořany, EDP","arrival_time":"9:35:00","departure_time":"9:35:00","lat":49.219033,"lon":16.90472,"is_passed":false},{"stop_id":"U17310Z1","name":"Komořany, obecní úřad","arrival_time":"9:36:00","departure_time":"9:36:00","lat":49.216333,"lon":16.907,"is_passed":false},{"stop_id":"U17320Z1","name":"Podbřežice","arrival_time":"9:39:00","departure_time":"9:39:00","lat":49.211937,"lon":16.928283,"is_passed":false},{"stop_id":"U17321Z1","name":"Podbřežice, rozcestí","arrival_time":"9:42:00","departure_time":"9:42:00","lat":49.208098,"lon":16.920515,"is_passed":false},{"stop_id":"U17301Z1","name":"Dražovice","arrival_time":"9:46:00","departure_time":"9:46:00","lat":49.193317,"lon":16.94385,"is_passed":false},{"stop_id":"U17302Z1","name":"Dražovice, na kopci","arrival_time":"9:48:00","departure_time":"9:48:00","lat":49.191843,"lon":16.947002,"is_passed":false},{"stop_id":"U16408Z1","name":"Letonice, obecní úřad","arrival_time":"9:51:00","departure_time":"9:51:00","lat":49.177407,"lon":16.959458,"is_passed":false},{"stop_id":"U16409Z1","name":"Letonice, u kaple","arrival_time":"9:52:00","departure_time":"9:52:00","lat":49.17206,"lon":16.963823,"is_passed":false},{"stop_id":"U16406Z1","name":"Bučovice, Marefy, žel. st.","arrival_time":"9:56:00","departure_time":"9:56:00","lat":49.149528,"lon":16.973338,"is_passed":false},{"stop_id":"U16403Z1","name":"Bučovice, jatky","arrival_time":"9:58:00","departure_time":"9:58:00","lat":49.15388,"lon":16.987918,"is_passed":false},{"stop_id":"U16401Z20","name":"Bučovice, aut. st.","arrival_time":"10:01:00","departure_time":"10:01:00","lat":49.148057,"lon":17.001665,"is_passed":false}]