[{"stop_id":"U15344Z2","name":"Boleradice","arrival_time":"16:57:00","departure_time":"16:57:00","lat":48.967398,"lon":16.814058,"is_passed":false},{"stop_id":"U15346Z2","name":"Boleradice, u kříže","arrival_time":"16:59:00","departure_time":"16:59:00","lat":48.96958,"lon":16.806933,"is_passed":false},{"stop_id":"U15351Z2","name":"Diváky, samota","arrival_time":"17:02:00","departure_time":"17:02:00","lat":48.987323,"lon":16.803447,"is_passed":false},{"stop_id":"U15349Z2","name":"Diváky, dolní konec","arrival_time":"17:03:00","departure_time":"17:03:00","lat":48.991067,"lon":16.798233,"is_passed":false},{"stop_id":"U15350Z2","name":"Diváky, obecní úřad","arrival_time":"17:04:00","departure_time":"17:04:00","lat":48.989155,"lon":16.788704,"is_passed":false},{"stop_id":"U15348Z2","name":"Diváky, dílny","arrival_time":"17:05:00","departure_time":"17:05:00","lat":48.993525,"lon":16.784467,"is_passed":false},{"stop_id":"U15364Z2","name":"Šitbořice, na kopci","arrival_time":"17:08:00","departure_time":"17:08:00","lat":49.011538,"lon":16.778145,"is_passed":false},{"stop_id":"U15365Z2","name":"Šitbořice, Nikolčická","arrival_time":"17:12:00","departure_time":"17:12:00","lat":49.016426,"lon":16.775527,"is_passed":false},{"stop_id":"U15226Z2","name":"Těšany","arrival_time":"17:17:00","departure_time":"17:17:00","lat":49.039503,"lon":16.770935,"is_passed":false},{"stop_id":"U15225Z2","name":"Nesvačilka","arrival_time":"17:22:00","departure_time":"17:22:00","lat":49.06402,"lon":16.754398,"is_passed":false},{"stop_id":"U16149Z52","name":"Sokolnice, železniční stanice","arrival_time":"17:31:00","departure_time":"17:56:00","lat":49.108258,"lon":16.734145,"is_passed":false}]