[{"stop_id":"U1182Z2","name":"Chrlice, smyčka","arrival_time":"11:33:00","departure_time":"11:33:00","lat":49.126338,"lon":16.654668,"is_passed":false},{"stop_id":"U1183Z2","name":"Chrlice, nádraží","arrival_time":"11:34:00","departure_time":"11:34:00","lat":49.132136,"lon":16.656638,"is_passed":false},{"stop_id":"U1187Z2","name":"Chrlické náměstí","arrival_time":"11:35:00","departure_time":"11:35:00","lat":49.13548,"lon":16.653876,"is_passed":false},{"stop_id":"U1718Z2","name":"V rejích","arrival_time":"11:36:00","departure_time":"11:36:00","lat":49.138975,"lon":16.65507,"is_passed":false},{"stop_id":"U1151Z2","name":"Holásky","arrival_time":"11:37:00","departure_time":"11:37:00","lat":49.142863,"lon":16.651287,"is_passed":false},{"stop_id":"U1717Z2","name":"V aleji","arrival_time":"11:38:00","departure_time":"11:38:00","lat":49.148,"lon":16.648573,"is_passed":false},{"stop_id":"U1518Z2","name":"Prodloužená","arrival_time":"11:39:00","departure_time":"11:39:00","lat":49.152176,"lon":16.647669,"is_passed":false},{"stop_id":"U1511Z2","name":"Popelova","arrival_time":"11:41:00","departure_time":"11:41:00","lat":49.156919,"lon":16.646204,"is_passed":false},{"stop_id":"U1533Z2","name":"Ráječek","arrival_time":"11:42:00","departure_time":"11:42:00","lat":49.161397,"lon":16.637387,"is_passed":false},{"stop_id":"U1148Z2","name":"Hněvkovského","arrival_time":"11:44:00","departure_time":"11:44:00","lat":49.169618,"lon":16.626335,"is_passed":false},{"stop_id":"U1565Z2","name":"Sazenice","arrival_time":"11:45:00","departure_time":"11:45:00","lat":49.172877,"lon":16.623824,"is_passed":false},{"stop_id":"U1361Z4","name":"Mariánské náměstí","arrival_time":"11:47:00","departure_time":"11:47:00","lat":49.177094,"lon":16.621935,"is_passed":false},{"stop_id":"U1266Z4","name":"Konopná","arrival_time":"11:48:00","departure_time":"11:48:00","lat":49.179332,"lon":16.621811,"is_passed":false},{"stop_id":"U1639Z2","name":"Škrobárenská","arrival_time":"11:50:00","departure_time":"11:50:00","lat":49.183283,"lon":16.626321,"is_passed":false},{"stop_id":"U1144Z4","name":"Hladíkova","arrival_time":"11:51:00","departure_time":"11:51:00","lat":49.18682,"lon":16.626223,"is_passed":false},{"stop_id":"U1372Z5","name":"Masná","arrival_time":"11:53:00","departure_time":"11:53:00","lat":49.191189,"lon":16.626548,"is_passed":false},{"stop_id":"U1814Z3","name":"Životského","arrival_time":"11:55:00","departure_time":"11:55:00","lat":49.190892,"lon":16.634126,"is_passed":false},{"stop_id":"U1116Z1","name":"Geislerova","arrival_time":"11:56:00","departure_time":"11:56:00","lat":49.19278,"lon":16.635345,"is_passed":false},{"stop_id":"U1048Z1","name":"Buzkova","arrival_time":"11:57:00","departure_time":"11:57:00","lat":49.194159,"lon":16.641228,"is_passed":false},{"stop_id":"U1401Z1","name":"Mošnova","arrival_time":"11:59:00","departure_time":"11:59:00","lat":49.196198,"lon":16.640931,"is_passed":false},{"stop_id":"U1203Z2","name":"Jílkova","arrival_time":"12:00:00","departure_time":"12:00:00","lat":49.196095,"lon":16.635913,"is_passed":false},{"stop_id":"U1713Z2","name":"Uzavřená","arrival_time":"12:01:00","departure_time":"12:01:00","lat":49.196975,"lon":16.633346,"is_passed":false},{"stop_id":"U1669Z2","name":"Tomáškova","arrival_time":"12:01:00","departure_time":"12:01:00","lat":49.199647,"lon":16.631598,"is_passed":false},{"stop_id":"U1313Z1","name":"Kuldova","arrival_time":"12:03:00","departure_time":"12:03:00","lat":49.201297,"lon":16.634306,"is_passed":false},{"stop_id":"U1611Z8","name":"Stará osada","arrival_time":"12:06:00","departure_time":"12:06:00","lat":49.202294,"lon":16.642001,"is_passed":false},{"stop_id":"U1698Z1","name":"Údolíček","arrival_time":"12:08:00","departure_time":"12:08:00","lat":49.206732,"lon":16.644592,"is_passed":false},{"stop_id":"U1498Z1","name":"Podsednická","arrival_time":"12:09:00","departure_time":"12:09:00","lat":49.209376,"lon":16.645876,"is_passed":false},{"stop_id":"U1316Z1","name":"Kulkova","arrival_time":"12:09:00","departure_time":"12:09:00","lat":49.211717,"lon":16.64853,"is_passed":false},{"stop_id":"U1791Z51","name":"Zimní I","arrival_time":"12:11:00","departure_time":"12:11:00","lat":49.213186,"lon":16.658794,"is_passed":false},{"stop_id":"U1792Z51","name":"Zimní II","arrival_time":"12:12:00","departure_time":"12:12:00","lat":49.213409,"lon":16.655937,"is_passed":false},{"stop_id":"U1083Z1","name":"Depo ČD","arrival_time":"12:13:00","departure_time":"12:13:00","lat":49.215406,"lon":16.653524,"is_passed":false},{"stop_id":"U1808Z1","name":"Železniční stavitelství","arrival_time":"12:13:00","departure_time":"12:13:00","lat":49.217133,"lon":16.654292,"is_passed":false},{"stop_id":"U1197Z4","name":"Jarní ČD","arrival_time":"12:14:00","departure_time":"12:14:00","lat":49.220905,"lon":16.652747,"is_passed":false},{"stop_id":"U1503Z2","name":"Podzimní","arrival_time":"12:14:00","departure_time":"12:14:00","lat":49.221561,"lon":16.653136,"is_passed":false},{"stop_id":"U1071Z1","name":"Červený písek","arrival_time":"12:16:00","departure_time":"12:36:00","lat":49.220493,"lon":16.657264,"is_passed":false}]