[{"stop_id":"U16401Z6","name":"Bučovice, aut. st.","arrival_time":"14:06:00","departure_time":"14:06:00","lat":49.148057,"lon":17.001665,"is_passed":false},{"stop_id":"U16463Z3","name":"Bučovice, železniční stanice","arrival_time":"14:08:00","departure_time":"14:08:00","lat":49.145968,"lon":17.000305,"is_passed":false},{"stop_id":"U16451Z2","name":"Bučovice, zdravotní středisko","arrival_time":"14:10:00","departure_time":"14:10:00","lat":49.14811,"lon":17.005643,"is_passed":false},{"stop_id":"U16434Z1","name":"Bučovice, Vícemilice","arrival_time":"14:12:00","departure_time":"14:12:00","lat":49.14097,"lon":17.018388,"is_passed":false},{"stop_id":"U16511Z1","name":"Nevojice, točna","arrival_time":"14:16:00","departure_time":"14:16:00","lat":49.137013,"lon":17.047757,"is_passed":false},{"stop_id":"U16557Z1","name":"Nesovice, čerpací stanice","arrival_time":"14:21:00","departure_time":"14:21:00","lat":49.149513,"lon":17.080224,"is_passed":false},{"stop_id":"U16509Z1","name":"Nesovice, železniční stanice","arrival_time":"14:22:00","departure_time":"14:25:00","lat":49.149095,"lon":17.079312,"is_passed":false},{"stop_id":"U16508Z1","name":"Nesovice, požární zbrojnice","arrival_time":"14:27:00","departure_time":"14:27:00","lat":49.150423,"lon":17.081728,"is_passed":false},{"stop_id":"U16502Z1","name":"Milonice","arrival_time":"14:29:00","departure_time":"14:29:00","lat":49.15835,"lon":17.072118,"is_passed":false},{"stop_id":"U16514Z1","name":"Uhřice, rozcestí","arrival_time":"14:30:00","departure_time":"14:30:00","lat":49.163227,"lon":17.067172,"is_passed":false},{"stop_id":"U16513Z1","name":"Uhřice, na návsi","arrival_time":"14:32:00","departure_time":"14:32:00","lat":49.171422,"lon":17.07905,"is_passed":false},{"stop_id":"U16515Z2","name":"Hvězdlice, Nové Hvězdlice, rozcestí","arrival_time":"14:37:00","departure_time":"14:37:00","lat":49.191246,"lon":17.094247,"is_passed":false},{"stop_id":"U16516Z1","name":"Hvězdlice, Nové Hvězdlice","arrival_time":"14:39:00","departure_time":"14:39:00","lat":49.193314,"lon":17.083975,"is_passed":false},{"stop_id":"U16521Z1","name":"Chvalkovice","arrival_time":"14:44:00","departure_time":"14:44:00","lat":49.18721,"lon":17.110492,"is_passed":false},{"stop_id":"U16520Z1","name":"Chvalkovice, u hřiště","arrival_time":"14:46:00","departure_time":"14:46:00","lat":49.189783,"lon":17.11772,"is_passed":false},{"stop_id":"U16524Z1","name":"Nemochovice","arrival_time":"14:49:00","departure_time":"14:49:00","lat":49.17912,"lon":17.13714,"is_passed":false},{"stop_id":"U16626Z1","name":"Brankovice, obecní úřad","arrival_time":"14:53:00","departure_time":"14:53:00","lat":49.156312,"lon":17.134952,"is_passed":false},{"stop_id":"U16627Z1","name":"Brankovice, škola","arrival_time":"14:54:00","departure_time":"15:00:00","lat":49.15603,"lon":17.129673,"is_passed":false}]