[{"stop_id":"U16545Z3","name":"Čejč, náměstí","arrival_time":"4:58:00","departure_time":"4:58:00","lat":48.946403,"lon":16.965978,"is_passed":false},{"stop_id":"U16455Z2","name":"Karlín","arrival_time":"5:07:00","departure_time":"5:07:00","lat":48.975618,"lon":16.977372,"is_passed":false},{"stop_id":"U16456Z2","name":"Karlín, farma","arrival_time":"5:11:00","departure_time":"5:11:00","lat":48.983167,"lon":16.974167,"is_passed":false},{"stop_id":"U16437Z2","name":"Násedlovice, mlýn","arrival_time":"5:16:00","departure_time":"5:16:00","lat":49.007317,"lon":16.966767,"is_passed":false},{"stop_id":"U16438Z2","name":"Násedlovice, u hřiště","arrival_time":"5:18:00","departure_time":"5:18:00","lat":49.00918,"lon":16.958217,"is_passed":false},{"stop_id":"U16439Z2","name":"Násedlovice","arrival_time":"5:19:00","departure_time":"5:19:00","lat":49.012059,"lon":16.958993,"is_passed":false},{"stop_id":"U16440Z4","name":"Uhřice, Janův Dvůr","arrival_time":"5:22:00","departure_time":"5:22:00","lat":49.022987,"lon":16.962236,"is_passed":false},{"stop_id":"U16448Z1","name":"Žarošice, škola","arrival_time":"5:26:00","departure_time":"5:26:00","lat":49.039337,"lon":16.96142,"is_passed":false},{"stop_id":"U16449Z1","name":"Žarošice","arrival_time":"5:27:00","departure_time":"5:27:00","lat":49.040617,"lon":16.967482,"is_passed":false},{"stop_id":"U16525Z1","name":"Archlebov","arrival_time":"5:32:00","departure_time":"5:32:00","lat":49.043113,"lon":17.00413,"is_passed":false},{"stop_id":"U16527Z3","name":"Dražůvky","arrival_time":"5:36:00","departure_time":"5:36:00","lat":49.031967,"lon":17.020073,"is_passed":false},{"stop_id":"U16526Z1","name":"Dražůvky, rozcestí","arrival_time":"5:37:00","departure_time":"5:37:00","lat":49.039815,"lon":17.022695,"is_passed":false},{"stop_id":"U16542Z2","name":"Ždánice, šroubárna","arrival_time":"5:41:00","departure_time":"5:41:00","lat":49.057332,"lon":17.025485,"is_passed":false},{"stop_id":"U16544Z1","name":"Ždánice","arrival_time":"5:43:00","departure_time":"6:17:00","lat":49.064517,"lon":17.029768,"is_passed":false}]