[{"stop_id":"U1487Z6","name":"Pisárky","arrival_time":"7:15:00","departure_time":"7:15:00","lat":49.193537,"lon":16.570797,"is_passed":false},{"stop_id":"U1320Z2","name":"Květná","arrival_time":"7:16:00","departure_time":"7:16:00","lat":49.193384,"lon":16.576691,"is_passed":false},{"stop_id":"U1478Z4","name":"Pavlíkova","arrival_time":"7:17:00","departure_time":"7:17:00","lat":49.194603,"lon":16.584264,"is_passed":false},{"stop_id":"U1723Z4","name":"Vaňkovo náměstí","arrival_time":"7:18:00","departure_time":"7:18:00","lat":49.195446,"lon":16.585783,"is_passed":false},{"stop_id":"U1328Z2","name":"Lerchova","arrival_time":"7:19:00","departure_time":"7:19:00","lat":49.198598,"lon":16.583814,"is_passed":false},{"stop_id":"U1371Z3","name":"Náměstí Míru","arrival_time":"7:22:00","departure_time":"7:22:00","lat":49.201996,"lon":16.581664,"is_passed":false},{"stop_id":"U1279Z1","name":"Kounicovy koleje","arrival_time":"7:23:00","departure_time":"7:23:00","lat":49.207874,"lon":16.583463,"is_passed":false},{"stop_id":"U1657Z3","name":"Tábor","arrival_time":"7:25:00","departure_time":"7:25:00","lat":49.210683,"lon":16.587238,"is_passed":false},{"stop_id":"U1242Z2","name":"Klusáčkova","arrival_time":"7:28:00","departure_time":"7:28:00","lat":49.211903,"lon":16.592875,"is_passed":false}]