[{"stop_id":"U1557Z2","name":"Řečkovice, nádraží","arrival_time":"6:22:00","departure_time":"6:22:00","lat":49.2509,"lon":16.589916,"is_passed":false},{"stop_id":"U1298Z1","name":"Kronova","arrival_time":"6:23:00","departure_time":"6:23:00","lat":49.25118,"lon":16.588181,"is_passed":false},{"stop_id":"U1556Z2","name":"Řečkovice, hřbitov","arrival_time":"6:25:00","departure_time":"6:25:00","lat":49.253356,"lon":16.582329,"is_passed":false},{"stop_id":"U1476Z2","name":"Palackého náměstí","arrival_time":"6:26:00","departure_time":"6:26:00","lat":49.250816,"lon":16.581773,"is_passed":false},{"stop_id":"U1553Z4","name":"Řečkovice","arrival_time":"6:27:00","departure_time":"6:27:00","lat":49.246674,"lon":16.579384,"is_passed":false},{"stop_id":"U1457Z2","name":"Olšanského","arrival_time":"6:28:00","departure_time":"6:28:00","lat":49.24422,"lon":16.577351,"is_passed":false},{"stop_id":"U1539Z2","name":"Renčova","arrival_time":"6:29:00","departure_time":"6:29:00","lat":49.247214,"lon":16.574968,"is_passed":false},{"stop_id":"U1414Z1","name":"Nadační","arrival_time":"6:31:00","departure_time":"6:31:00","lat":49.245595,"lon":16.571098,"is_passed":false},{"stop_id":"U1719Z2","name":"V Újezdech","arrival_time":"6:32:00","departure_time":"6:32:00","lat":49.241856,"lon":16.573203,"is_passed":false},{"stop_id":"U1376Z2","name":"Medlánky","arrival_time":"6:33:00","departure_time":"6:33:00","lat":49.240459,"lon":16.573676,"is_passed":false},{"stop_id":"U1377Z2","name":"Medlánky, škola","arrival_time":"6:34:00","departure_time":"6:34:00","lat":49.238196,"lon":16.57841,"is_passed":false},{"stop_id":"U1756Z4","name":"Vozovna Medlánky","arrival_time":"6:35:00","departure_time":"6:35:00","lat":49.235569,"lon":16.585596,"is_passed":false},{"stop_id":"U1659Z3","name":"Technologický park","arrival_time":"6:38:00","departure_time":"6:38:00","lat":49.23192,"lon":16.576848,"is_passed":false},{"stop_id":"U1104Z1","name":"Edisonova","arrival_time":"6:39:00","departure_time":"6:39:00","lat":49.22828,"lon":16.576461,"is_passed":false},{"stop_id":"U1499Z2","name":"Podnikatelská","arrival_time":"6:40:00","departure_time":"6:40:00","lat":49.227023,"lon":16.576248,"is_passed":false},{"stop_id":"U1777Z3","name":"Záhřebská","arrival_time":"6:43:00","departure_time":"6:43:00","lat":49.22001,"lon":16.579572,"is_passed":false}]