[{"stop_id":"U17212Z1","name":"Pozořice, náměstí","arrival_time":"9:54:00","departure_time":"9:54:00","lat":49.208924,"lon":16.790865,"is_passed":false},{"stop_id":"U17211Z1","name":"Pozořice, Jezera","arrival_time":"9:57:00","departure_time":"9:57:00","lat":49.215403,"lon":16.795607,"is_passed":false},{"stop_id":"U17209Z1","name":"Pozořice, Jezera, vodojem","arrival_time":"9:58:00","departure_time":"9:58:00","lat":49.221987,"lon":16.797157,"is_passed":false},{"stop_id":"U17205Z1","name":"Hostěnice, rozc.Červený vrch","arrival_time":"10:00:00","departure_time":"10:00:00","lat":49.232777,"lon":16.795863,"is_passed":false},{"stop_id":"U17203Z3","name":"Hostěnice, kasárna","arrival_time":"10:02:00","departure_time":"10:02:00","lat":49.232903,"lon":16.778737,"is_passed":false},{"stop_id":"U17204Z61","name":"Hostěnice, obecní úřad","arrival_time":"10:04:00","departure_time":"10:04:00","lat":49.239232,"lon":16.771882,"is_passed":false},{"stop_id":"U17202Z3","name":"Hostěnice, chaty","arrival_time":"10:05:00","departure_time":"10:05:00","lat":49.241877,"lon":16.764803,"is_passed":false},{"stop_id":"U17204Z2","name":"Hostěnice, obecní úřad","arrival_time":"10:07:00","departure_time":"10:07:00","lat":49.239232,"lon":16.771882,"is_passed":false},{"stop_id":"U17203Z2","name":"Hostěnice, kasárna","arrival_time":"10:09:00","departure_time":"10:09:00","lat":49.232903,"lon":16.778737,"is_passed":false},{"stop_id":"U16168Z2","name":"Mokrá-Horákov, lom","arrival_time":"10:13:00","departure_time":"10:13:00","lat":49.226117,"lon":16.756382,"is_passed":false},{"stop_id":"U16113Z2","name":"Mokrá-Horákov, Mokrá","arrival_time":"10:15:00","departure_time":"10:15:00","lat":49.223592,"lon":16.751325,"is_passed":false},{"stop_id":"U16114Z2","name":"Mokrá-Horákov, sídliště","arrival_time":"10:17:00","departure_time":"10:17:00","lat":49.221072,"lon":16.751731,"is_passed":false},{"stop_id":"U16166Z51","name":"Mokrá-Horákov, Horákov","arrival_time":"10:19:00","departure_time":"10:19:00","lat":49.215676,"lon":16.749652,"is_passed":false},{"stop_id":"U16167Z2","name":"Mokrá-Horákov, rozc.cementárna","arrival_time":"10:20:00","departure_time":"10:20:00","lat":49.210003,"lon":16.752575,"is_passed":false},{"stop_id":"U16148Z2","name":"Velatice","arrival_time":"10:23:00","departure_time":"10:23:00","lat":49.197461,"lon":16.753006,"is_passed":false},{"stop_id":"U16160Z2","name":"Velatice, Maxlůvka","arrival_time":"10:25:00","departure_time":"10:25:00","lat":49.184092,"lon":16.752442,"is_passed":false},{"stop_id":"U16130Z2","name":"Šlapanice, Bedřichovice, rozc.","arrival_time":"10:28:00","departure_time":"10:28:00","lat":49.182977,"lon":16.72308,"is_passed":false},{"stop_id":"U1577Z6","name":"Slatina, sídliště","arrival_time":"10:32:00","departure_time":"10:32:00","lat":49.18229,"lon":16.690089,"is_passed":false},{"stop_id":"U1068Z2","name":"Černovičky","arrival_time":"10:34:00","departure_time":"10:34:00","lat":49.183555,"lon":16.666764,"is_passed":false},{"stop_id":"U1677Z2","name":"Tržní","arrival_time":"10:40:00","departure_time":"10:40:00","lat":49.189407,"lon":16.629972,"is_passed":false},{"stop_id":"U1798Z5","name":"Zvonařka","arrival_time":"10:43:00","departure_time":"10:43:00","lat":49.18754,"lon":16.620139,"is_passed":false},{"stop_id":"U1716Z3","name":"Úzká","arrival_time":"10:47:00","departure_time":"13:21:00","lat":49.189244,"lon":16.613733,"is_passed":false}]