[{"stop_id":"U18009Z6","name":"Znojmo, autobusové nádraží","arrival_time":"6:22:00","departure_time":"6:22:00","lat":48.85175,"lon":16.056878,"is_passed":false},{"stop_id":"U18011Z1","name":"Znojmo, nám.Svobody, lázně","arrival_time":"6:27:00","departure_time":"6:27:00","lat":48.860815,"lon":16.049749,"is_passed":false},{"stop_id":"U18015Z1","name":"Znojmo, Přímětická, Resslova","arrival_time":"6:30:00","departure_time":"6:30:00","lat":48.867857,"lon":16.041419,"is_passed":false},{"stop_id":"U18068Z1","name":"Znojmo, Městský lesík","arrival_time":"6:32:00","departure_time":"6:32:00","lat":48.873072,"lon":16.052399,"is_passed":false},{"stop_id":"U18139Z3","name":"Únanov, závod","arrival_time":"6:34:00","departure_time":"6:34:00","lat":48.888422,"lon":16.064178,"is_passed":false},{"stop_id":"U18138Z3","name":"Únanov, obecní úřad","arrival_time":"6:36:00","departure_time":"6:36:00","lat":48.900695,"lon":16.063443,"is_passed":false},{"stop_id":"U18136Z3","name":"Plaveč","arrival_time":"6:42:00","departure_time":"6:42:00","lat":48.929175,"lon":16.079838,"is_passed":false},{"stop_id":"U18229Z3","name":"Němčičky, rozcestí","arrival_time":"6:45:00","departure_time":"6:45:00","lat":48.939468,"lon":16.083075,"is_passed":false},{"stop_id":"U18232Z3","name":"Rudlice, u pomníku","arrival_time":"6:48:00","departure_time":"6:48:00","lat":48.94913,"lon":16.067282,"is_passed":false},{"stop_id":"U18231Z1","name":"Rudlice, samota","arrival_time":"6:49:00","departure_time":"6:49:00","lat":48.954267,"lon":16.056114,"is_passed":false},{"stop_id":"U18247Z1","name":"Vevčice","arrival_time":"6:52:00","departure_time":"6:52:00","lat":48.962087,"lon":16.044367,"is_passed":false},{"stop_id":"U18244Z1","name":"Černín, Závoda","arrival_time":"6:56:00","departure_time":"6:56:00","lat":48.981192,"lon":16.026243,"is_passed":false},{"stop_id":"U18243Z1","name":"Černín, lávka","arrival_time":"6:57:00","departure_time":"6:57:00","lat":48.980218,"lon":16.015953,"is_passed":false},{"stop_id":"U18245Z3","name":"Jevišovice, náměstí","arrival_time":"7:02:00","departure_time":"7:02:00","lat":48.98813,"lon":15.992482,"is_passed":false}]