[{"stop_id":"U12919Z3","name":"Velké Opatovice, aut.st.","arrival_time":"7:02:00","departure_time":"7:02:00","lat":49.610978,"lon":16.673748,"is_passed":false},{"stop_id":"U12925Z2","name":"Velké Opatovice, závod","arrival_time":"7:04:00","departure_time":"7:04:00","lat":49.611702,"lon":16.685438,"is_passed":false},{"stop_id":"U12807Z1","name":"Borotín","arrival_time":"7:09:00","departure_time":"7:09:00","lat":49.583038,"lon":16.676638,"is_passed":false},{"stop_id":"U12812Z1","name":"Cetkovice, žel.st.","arrival_time":"7:12:00","departure_time":"7:12:00","lat":49.588443,"lon":16.705057,"is_passed":false},{"stop_id":"U12810Z1","name":"Cetkovice","arrival_time":"7:15:00","departure_time":"7:15:00","lat":49.577921,"lon":16.721165,"is_passed":false},{"stop_id":"U12821Z1","name":"Světlá","arrival_time":"7:17:00","departure_time":"7:17:00","lat":49.565807,"lon":16.717958,"is_passed":false},{"stop_id":"U12745Z2","name":"Šebetov","arrival_time":"7:20:00","departure_time":"7:20:00","lat":49.549295,"lon":16.70985,"is_passed":false},{"stop_id":"U12705Z1","name":"Knínice, horní zastávka","arrival_time":"7:22:00","departure_time":"7:22:00","lat":49.539683,"lon":16.702813,"is_passed":false},{"stop_id":"U12704Z1","name":"Knínice, Městečko","arrival_time":"7:24:00","departure_time":"7:24:00","lat":49.539615,"lon":16.69428,"is_passed":false},{"stop_id":"U12711Z1","name":"Knínice, U Nádraží","arrival_time":"7:25:00","departure_time":"7:25:00","lat":49.535502,"lon":16.689879,"is_passed":false},{"stop_id":"U12752Z1","name":"Vážany","arrival_time":"7:26:00","departure_time":"7:26:00","lat":49.530415,"lon":16.685962,"is_passed":false},{"stop_id":"U12743Z1","name":"Sudice, Semíč","arrival_time":"7:28:00","departure_time":"7:28:00","lat":49.51399,"lon":16.678513,"is_passed":false},{"stop_id":"U12659Z1","name":"Boskovice, podnikatelský park","arrival_time":"7:31:00","departure_time":"7:31:00","lat":49.498843,"lon":16.665685,"is_passed":false},{"stop_id":"U12655Z2","name":"Boskovice, Sokolská","arrival_time":"7:34:00","departure_time":"7:34:00","lat":49.49097,"lon":16.660723,"is_passed":false},{"stop_id":"U12635Z22","name":"Boskovice, aut.st.","arrival_time":"7:36:00","departure_time":"10:18:00","lat":49.491367,"lon":16.652925,"is_passed":false}]