{"357":[{"stop_id":"U1696Z12","name":"ÚAN Zvonařka","arrival_time":"22:54:00","departure_time":"22:54:00","lat":49.185364,"lon":16.616151,"is_passed":false},{"stop_id":"U1266Z3","name":"Konopná","arrival_time":"22:56:00","departure_time":"22:56:00","lat":49.180126,"lon":16.621339,"is_passed":false},{"stop_id":"U1256Z3","name":"Komárov","arrival_time":"22:59:00","departure_time":"22:59:00","lat":49.17444,"lon":16.622448,"is_passed":false},{"stop_id":"U1533Z1","name":"Ráječek","arrival_time":"23:03:00","departure_time":"23:03:00","lat":49.160802,"lon":16.638242,"is_passed":false},{"stop_id":"U1191Z1","name":"Ivanovické náměstí","arrival_time":"23:05:00","departure_time":"23:05:00","lat":49.153066,"lon":16.653791,"is_passed":false},{"stop_id":"U1131Z7","name":"Hanácká","arrival_time":"23:09:00","departure_time":"23:09:00","lat":49.146163,"lon":16.665975,"is_passed":false},{"stop_id":"U1681Z3","name":"Tuřany, smyčka","arrival_time":"23:11:00","departure_time":"23:11:00","lat":49.141407,"lon":16.667828,"is_passed":false},{"stop_id":"U16147Z1","name":"Sokolnice, rozvodna","arrival_time":"23:15:00","departure_time":"23:15:00","lat":49.115062,"lon":16.704663,"is_passed":false},{"stop_id":"U16138Z3","name":"Telnice","arrival_time":"23:17:00","departure_time":"23:17:00","lat":49.101602,"lon":16.717823,"is_passed":false},{"stop_id":"U15167Z2","name":"Měnín, rozcestí","arrival_time":"23:19:00","departure_time":"23:19:00","lat":49.087125,"lon":16.716473,"is_passed":false},{"stop_id":"U15232Z1","name":"Moutnice, Rozařín","arrival_time":"23:23:00","departure_time":"23:23:00","lat":49.05247,"lon":16.737351,"is_passed":false},{"stop_id":"U15223Z1","name":"Moutnice, střed","arrival_time":"23:25:00","departure_time":"23:25:00","lat":49.048967,"lon":16.736746,"is_passed":false},{"stop_id":"U15227Z1","name":"Těšany, u váhy","arrival_time":"23:27:00","departure_time":"23:27:00","lat":49.041022,"lon":16.764925,"is_passed":false},{"stop_id":"U15226Z1","name":"Těšany","arrival_time":"23:29:00","departure_time":"23:29:00","lat":49.039299,"lon":16.771319,"is_passed":false},{"stop_id":"U16341Z1","name":"Borkovany, Tomášov","arrival_time":"23:32:00","departure_time":"23:32:00","lat":49.029118,"lon":16.804862,"is_passed":false},{"stop_id":"U16340Z1","name":"Borkovany","arrival_time":"23:33:00","departure_time":"23:33:00","lat":49.028483,"lon":16.809738,"is_passed":false},{"stop_id":"U16342Z1","name":"Borkovany, Štoček","arrival_time":"23:34:00","departure_time":"23:34:00","lat":49.024727,"lon":16.812867,"is_passed":false},{"stop_id":"U16344Z1","name":"Klobouky u Brna, Martinice, rozcestí","arrival_time":"23:36:00","departure_time":"23:36:00","lat":49.013442,"lon":16.828372,"is_passed":false},{"stop_id":"U16347Z1","name":"Klobouky u Brna, rozcestí","arrival_time":"23:39:00","departure_time":"23:39:00","lat":49.000525,"lon":16.862658,"is_passed":false},{"stop_id":"U16356Z1","name":"Klobouky u Brna, hřbitov","arrival_time":"23:40:00","departure_time":"23:40:00","lat":48.998318,"lon":16.862927,"is_passed":false},{"stop_id":"U16345Z1","name":"Klobouky u Brna, náměstí","arrival_time":"23:41:00","departure_time":"23:42:00","lat":48.99538,"lon":16.85736,"is_passed":false}],"3570":[{"stop_id":"U13265Z4","name":"Veverská Bítýška, náměstí","arrival_time":"6:15:00","departure_time":"6:15:00","lat":49.276085,"lon":16.43615,"is_passed":false},{"stop_id":"U13269Z2","name":"Veverská Bítýška, sídliště","arrival_time":"6:17:00","departure_time":"6:17:00","lat":49.269697,"lon":16.433243,"is_passed":false},{"stop_id":"U13261Z2","name":"Veverská Bítýška, hájovna Na Hlince","arrival_time":"6:19:00","departure_time":"6:19:00","lat":49.25138,"lon":16.429081,"is_passed":false},{"stop_id":"U13251Z2","name":"Hvozdec","arrival_time":"6:21:00","departure_time":"6:21:00","lat":49.247131,"lon":16.426248,"is_passed":false},{"stop_id":"U13227Z2","name":"Veverská Bítýška, Vápenice","arrival_time":"6:23:00","departure_time":"6:23:00","lat":49.2449,"lon":16.44601,"is_passed":false},{"stop_id":"U13214Z2","name":"Brno, Nové Dvory","arrival_time":"6:25:00","departure_time":"6:25:00","lat":49.251438,"lon":16.45032,"is_passed":false},{"stop_id":"U13191Z2","name":"Brno, Hrad Veveří","arrival_time":"6:27:00","departure_time":"6:27:00","lat":49.25448,"lon":16.461502,"is_passed":false},{"stop_id":"U13194Z2","name":"Brno, Lávka Pod Hradem","arrival_time":"6:28:00","departure_time":"6:28:00","lat":49.26016,"lon":16.465338,"is_passed":false},{"stop_id":"U13195Z2","name":"Brno, Obora","arrival_time":"6:30:00","departure_time":"6:30:00","lat":49.255383,"lon":16.476201,"is_passed":false},{"stop_id":"U13192Z2","name":"Brno, Jelenice","arrival_time":"6:31:00","departure_time":"6:31:00","lat":49.250718,"lon":16.485109,"is_passed":false},{"stop_id":"U13197Z2","name":"Brno, Rokle","arrival_time":"6:32:00","departure_time":"6:32:00","lat":49.245681,"lon":16.496096,"is_passed":false},{"stop_id":"U13193Z2","name":"Brno, Kozí horka","arrival_time":"6:34:00","departure_time":"6:34:00","lat":49.236114,"lon":16.504482,"is_passed":false},{"stop_id":"U1536Z2","name":"Rakovec","arrival_time":"6:35:00","departure_time":"6:35:00","lat":49.227996,"lon":16.508585,"is_passed":false},{"stop_id":"U1491Z2","name":"Podkomorská","arrival_time":"6:36:00","departure_time":"6:36:00","lat":49.225544,"lon":16.512868,"is_passed":false},{"stop_id":"U1537Z4","name":"Rakovecká","arrival_time":"6:37:00","departure_time":"6:37:00","lat":49.226308,"lon":16.518652,"is_passed":false},{"stop_id":"U1527Z4","name":"Přístaviště","arrival_time":"6:38:00","departure_time":"6:38:00","lat":49.228127,"lon":16.522637,"is_passed":false},{"stop_id":"U1796Z5","name":"Zoologická zahrada","arrival_time":"6:40:00","departure_time":"6:40:00","lat":49.227735,"lon":16.531369,"is_passed":false}],"3571":[{"stop_id":"U1689Z2","name":"U Luhu","arrival_time":"7:54:00","departure_time":"7:54:00","lat":49.239053,"lon":16.530136,"is_passed":false},{"stop_id":"U1690Z2","name":"U památníku","arrival_time":"7:55:00","departure_time":"7:55:00","lat":49.235964,"lon":16.527962,"is_passed":false},{"stop_id":"U1494Z2","name":"Pod Mniší horou","arrival_time":"7:57:00","departure_time":"7:57:00","lat":49.227995,"lon":16.533868,"is_passed":false},{"stop_id":"U1796Z5","name":"Zoologická zahrada","arrival_time":"8:01:00","departure_time":"8:01:00","lat":49.227735,"lon":16.531369,"is_passed":false}],"3572":[{"stop_id":"U1796Z8","name":"Zoologická zahrada","arrival_time":"8:13:00","departure_time":"8:13:00","lat":49.227603,"lon":16.531473,"is_passed":false},{"stop_id":"U1796Z3","name":"Zoologická zahrada","arrival_time":"8:14:00","departure_time":"8:14:00","lat":49.228465,"lon":16.531116,"is_passed":false},{"stop_id":"U1527Z3","name":"Přístaviště","arrival_time":"8:15:00","departure_time":"8:15:00","lat":49.228139,"lon":16.522365,"is_passed":false},{"stop_id":"U1537Z3","name":"Rakovecká","arrival_time":"8:16:00","departure_time":"8:16:00","lat":49.225834,"lon":16.518322,"is_passed":false},{"stop_id":"U1491Z1","name":"Podkomorská","arrival_time":"8:16:00","departure_time":"8:16:00","lat":49.225423,"lon":16.514275,"is_passed":false},{"stop_id":"U1536Z1","name":"Rakovec","arrival_time":"8:17:00","departure_time":"8:17:00","lat":49.227614,"lon":16.508487,"is_passed":false},{"stop_id":"U13193Z1","name":"Brno, Kozí horka","arrival_time":"8:19:00","departure_time":"8:19:00","lat":49.236884,"lon":16.504661,"is_passed":false},{"stop_id":"U13197Z1","name":"Brno, Rokle","arrival_time":"8:21:00","departure_time":"8:21:00","lat":49.245683,"lon":16.496174,"is_passed":false},{"stop_id":"U13192Z1","name":"Brno, Jelenice","arrival_time":"8:22:00","departure_time":"8:22:00","lat":49.250702,"lon":16.485209,"is_passed":false},{"stop_id":"U13195Z1","name":"Brno, Obora","arrival_time":"8:23:00","departure_time":"8:23:00","lat":49.255668,"lon":16.475811,"is_passed":false},{"stop_id":"U13194Z1","name":"Brno, Lávka Pod Hradem","arrival_time":"8:24:00","departure_time":"8:24:00","lat":49.260154,"lon":16.465243,"is_passed":false},{"stop_id":"U13191Z1","name":"Brno, Hrad Veveří","arrival_time":"8:26:00","departure_time":"8:26:00","lat":49.254602,"lon":16.461532,"is_passed":false},{"stop_id":"U13214Z1","name":"Brno, Nové Dvory","arrival_time":"8:28:00","departure_time":"8:28:00","lat":49.251526,"lon":16.450321,"is_passed":false},{"stop_id":"U13227Z1","name":"Veverská Bítýška, Vápenice","arrival_time":"8:29:00","departure_time":"8:29:00","lat":49.245014,"lon":16.44595,"is_passed":false},{"stop_id":"U13251Z1","name":"Hvozdec","arrival_time":"8:32:00","departure_time":"8:32:00","lat":49.247011,"lon":16.426425,"is_passed":false},{"stop_id":"U13261Z1","name":"Veverská Bítýška, hájovna Na Hlince","arrival_time":"8:33:00","departure_time":"8:33:00","lat":49.251681,"lon":16.429227,"is_passed":false},{"stop_id":"U13269Z1","name":"Veverská Bítýška, sídliště","arrival_time":"8:35:00","departure_time":"8:35:00","lat":49.270108,"lon":16.433653,"is_passed":false},{"stop_id":"U13265Z3","name":"Veverská Bítýška, náměstí","arrival_time":"8:38:00","departure_time":"9:15:00","lat":49.276085,"lon":16.43615,"is_passed":false}],"3573":[{"stop_id":"U13265Z4","name":"Veverská Bítýška, náměstí","arrival_time":"9:15:00","departure_time":"9:15:00","lat":49.276085,"lon":16.43615,"is_passed":false},{"stop_id":"U13269Z2","name":"Veverská Bítýška, sídliště","arrival_time":"9:17:00","departure_time":"9:17:00","lat":49.269697,"lon":16.433243,"is_passed":false},{"stop_id":"U13261Z2","name":"Veverská Bítýška, hájovna Na Hlince","arrival_time":"9:19:00","departure_time":"9:19:00","lat":49.25138,"lon":16.429081,"is_passed":false},{"stop_id":"U13251Z2","name":"Hvozdec","arrival_time":"9:21:00","departure_time":"9:21:00","lat":49.247131,"lon":16.426248,"is_passed":false},{"stop_id":"U13227Z2","name":"Veverská Bítýška, Vápenice","arrival_time":"9:23:00","departure_time":"9:23:00","lat":49.2449,"lon":16.44601,"is_passed":false},{"stop_id":"U13214Z2","name":"Brno, Nové Dvory","arrival_time":"9:25:00","departure_time":"9:25:00","lat":49.251438,"lon":16.45032,"is_passed":false},{"stop_id":"U13191Z2","name":"Brno, Hrad Veveří","arrival_time":"9:27:00","departure_time":"9:27:00","lat":49.25448,"lon":16.461502,"is_passed":false},{"stop_id":"U13194Z2","name":"Brno, Lávka Pod Hradem","arrival_time":"9:28:00","departure_time":"9:28:00","lat":49.26016,"lon":16.465338,"is_passed":false},{"stop_id":"U13195Z2","name":"Brno, Obora","arrival_time":"9:30:00","departure_time":"9:30:00","lat":49.255383,"lon":16.476201,"is_passed":false},{"stop_id":"U13192Z2","name":"Brno, Jelenice","arrival_time":"9:31:00","departure_time":"9:31:00","lat":49.250718,"lon":16.485109,"is_passed":false},{"stop_id":"U13197Z2","name":"Brno, Rokle","arrival_time":"9:32:00","departure_time":"9:32:00","lat":49.245681,"lon":16.496096,"is_passed":false},{"stop_id":"U13193Z2","name":"Brno, Kozí horka","arrival_time":"9:34:00","departure_time":"9:34:00","lat":49.236114,"lon":16.504482,"is_passed":false},{"stop_id":"U1536Z2","name":"Rakovec","arrival_time":"9:35:00","departure_time":"9:35:00","lat":49.227996,"lon":16.508585,"is_passed":false},{"stop_id":"U1491Z2","name":"Podkomorská","arrival_time":"9:36:00","departure_time":"9:36:00","lat":49.225544,"lon":16.512868,"is_passed":false},{"stop_id":"U1537Z4","name":"Rakovecká","arrival_time":"9:37:00","departure_time":"9:37:00","lat":49.226308,"lon":16.518652,"is_passed":false},{"stop_id":"U1527Z4","name":"Přístaviště","arrival_time":"9:38:00","departure_time":"9:38:00","lat":49.228127,"lon":16.522637,"is_passed":false},{"stop_id":"U1796Z5","name":"Zoologická zahrada","arrival_time":"9:40:00","departure_time":"12:13:00","lat":49.227735,"lon":16.531369,"is_passed":false}],"3574":[{"stop_id":"U1796Z8","name":"Zoologická zahrada","arrival_time":"12:13:00","departure_time":"12:13:00","lat":49.227603,"lon":16.531473,"is_passed":false},{"stop_id":"U1796Z3","name":"Zoologická zahrada","arrival_time":"12:14:00","departure_time":"12:14:00","lat":49.228465,"lon":16.531116,"is_passed":false},{"stop_id":"U1527Z3","name":"Přístaviště","arrival_time":"12:15:00","departure_time":"12:15:00","lat":49.228139,"lon":16.522365,"is_passed":false},{"stop_id":"U1537Z3","name":"Rakovecká","arrival_time":"12:16:00","departure_time":"12:16:00","lat":49.225834,"lon":16.518322,"is_passed":false},{"stop_id":"U1491Z1","name":"Podkomorská","arrival_time":"12:16:00","departure_time":"12:16:00","lat":49.225423,"lon":16.514275,"is_passed":false},{"stop_id":"U1536Z1","name":"Rakovec","arrival_time":"12:17:00","departure_time":"12:17:00","lat":49.227614,"lon":16.508487,"is_passed":false},{"stop_id":"U13193Z1","name":"Brno, Kozí horka","arrival_time":"12:19:00","departure_time":"12:19:00","lat":49.236884,"lon":16.504661,"is_passed":false},{"stop_id":"U13197Z1","name":"Brno, Rokle","arrival_time":"12:21:00","departure_time":"12:21:00","lat":49.245683,"lon":16.496174,"is_passed":false},{"stop_id":"U13192Z1","name":"Brno, Jelenice","arrival_time":"12:22:00","departure_time":"12:22:00","lat":49.250702,"lon":16.485209,"is_passed":false},{"stop_id":"U13195Z1","name":"Brno, Obora","arrival_time":"12:23:00","departure_time":"12:23:00","lat":49.255668,"lon":16.475811,"is_passed":false},{"stop_id":"U13194Z1","name":"Brno, Lávka Pod Hradem","arrival_time":"12:24:00","departure_time":"12:24:00","lat":49.260154,"lon":16.465243,"is_passed":false},{"stop_id":"U13191Z1","name":"Brno, Hrad Veveří","arrival_time":"12:26:00","departure_time":"12:26:00","lat":49.254602,"lon":16.461532,"is_passed":false},{"stop_id":"U13214Z1","name":"Brno, Nové Dvory","arrival_time":"12:28:00","departure_time":"12:28:00","lat":49.251526,"lon":16.450321,"is_passed":false},{"stop_id":"U13227Z1","name":"Veverská Bítýška, Vápenice","arrival_time":"12:29:00","departure_time":"12:29:00","lat":49.245014,"lon":16.44595,"is_passed":false},{"stop_id":"U13251Z1","name":"Hvozdec","arrival_time":"12:32:00","departure_time":"12:32:00","lat":49.247011,"lon":16.426425,"is_passed":false},{"stop_id":"U13261Z1","name":"Veverská Bítýška, hájovna Na Hlince","arrival_time":"12:33:00","departure_time":"12:33:00","lat":49.251681,"lon":16.429227,"is_passed":false},{"stop_id":"U13269Z1","name":"Veverská Bítýška, sídliště","arrival_time":"12:35:00","departure_time":"12:35:00","lat":49.270108,"lon":16.433653,"is_passed":false},{"stop_id":"U13265Z3","name":"Veverská Bítýška, náměstí","arrival_time":"12:38:00","departure_time":"12:45:00","lat":49.276085,"lon":16.43615,"is_passed":false}],"3575":[{"stop_id":"U13265Z4","name":"Veverská Bítýška, náměstí","arrival_time":"12:45:00","departure_time":"12:45:00","lat":49.276085,"lon":16.43615,"is_passed":false},{"stop_id":"U13269Z2","name":"Veverská Bítýška, sídliště","arrival_time":"12:47:00","departure_time":"12:47:00","lat":49.269697,"lon":16.433243,"is_passed":false},{"stop_id":"U13261Z2","name":"Veverská Bítýška, hájovna Na Hlince","arrival_time":"12:49:00","departure_time":"12:49:00","lat":49.25138,"lon":16.429081,"is_passed":false},{"stop_id":"U13251Z2","name":"Hvozdec","arrival_time":"12:51:00","departure_time":"12:51:00","lat":49.247131,"lon":16.426248,"is_passed":false},{"stop_id":"U13227Z2","name":"Veverská Bítýška, Vápenice","arrival_time":"12:53:00","departure_time":"12:53:00","lat":49.2449,"lon":16.44601,"is_passed":false},{"stop_id":"U13214Z2","name":"Brno, Nové Dvory","arrival_time":"12:55:00","departure_time":"12:55:00","lat":49.251438,"lon":16.45032,"is_passed":false},{"stop_id":"U13191Z2","name":"Brno, Hrad Veveří","arrival_time":"12:57:00","departure_time":"12:57:00","lat":49.25448,"lon":16.461502,"is_passed":false},{"stop_id":"U13194Z2","name":"Brno, Lávka Pod Hradem","arrival_time":"12:58:00","departure_time":"12:58:00","lat":49.26016,"lon":16.465338,"is_passed":false},{"stop_id":"U13195Z2","name":"Brno, Obora","arrival_time":"13:00:00","departure_time":"13:00:00","lat":49.255383,"lon":16.476201,"is_passed":false},{"stop_id":"U13192Z2","name":"Brno, Jelenice","arrival_time":"13:01:00","departure_time":"13:01:00","lat":49.250718,"lon":16.485109,"is_passed":false},{"stop_id":"U13197Z2","name":"Brno, Rokle","arrival_time":"13:02:00","departure_time":"13:02:00","lat":49.245681,"lon":16.496096,"is_passed":false},{"stop_id":"U13193Z2","name":"Brno, Kozí horka","arrival_time":"13:04:00","departure_time":"13:04:00","lat":49.236114,"lon":16.504482,"is_passed":false},{"stop_id":"U1536Z2","name":"Rakovec","arrival_time":"13:05:00","departure_time":"13:05:00","lat":49.227996,"lon":16.508585,"is_passed":false},{"stop_id":"U1491Z2","name":"Podkomorská","arrival_time":"13:06:00","departure_time":"13:06:00","lat":49.225544,"lon":16.512868,"is_passed":false},{"stop_id":"U1537Z4","name":"Rakovecká","arrival_time":"13:07:00","departure_time":"13:07:00","lat":49.226308,"lon":16.518652,"is_passed":false},{"stop_id":"U1527Z4","name":"Přístaviště","arrival_time":"13:08:00","departure_time":"13:08:00","lat":49.228127,"lon":16.522637,"is_passed":false},{"stop_id":"U1796Z5","name":"Zoologická zahrada","arrival_time":"13:10:00","departure_time":"13:43:00","lat":49.227735,"lon":16.531369,"is_passed":false}],"3576":[{"stop_id":"U1796Z8","name":"Zoologická zahrada","arrival_time":"13:43:00","departure_time":"13:43:00","lat":49.227603,"lon":16.531473,"is_passed":false},{"stop_id":"U1796Z3","name":"Zoologická zahrada","arrival_time":"13:44:00","departure_time":"13:44:00","lat":49.228465,"lon":16.531116,"is_passed":false},{"stop_id":"U1527Z3","name":"Přístaviště","arrival_time":"13:45:00","departure_time":"13:45:00","lat":49.228139,"lon":16.522365,"is_passed":false},{"stop_id":"U1537Z3","name":"Rakovecká","arrival_time":"13:46:00","departure_time":"13:46:00","lat":49.225834,"lon":16.518322,"is_passed":false},{"stop_id":"U1491Z1","name":"Podkomorská","arrival_time":"13:46:00","departure_time":"13:46:00","lat":49.225423,"lon":16.514275,"is_passed":false},{"stop_id":"U1536Z1","name":"Rakovec","arrival_time":"13:47:00","departure_time":"13:47:00","lat":49.227614,"lon":16.508487,"is_passed":false},{"stop_id":"U13193Z1","name":"Brno, Kozí horka","arrival_time":"13:49:00","departure_time":"13:49:00","lat":49.236884,"lon":16.504661,"is_passed":false},{"stop_id":"U13197Z1","name":"Brno, Rokle","arrival_time":"13:51:00","departure_time":"13:51:00","lat":49.245683,"lon":16.496174,"is_passed":false},{"stop_id":"U13192Z1","name":"Brno, Jelenice","arrival_time":"13:52:00","departure_time":"13:52:00","lat":49.250702,"lon":16.485209,"is_passed":false},{"stop_id":"U13195Z1","name":"Brno, Obora","arrival_time":"13:53:00","departure_time":"13:53:00","lat":49.255668,"lon":16.475811,"is_passed":false},{"stop_id":"U13194Z1","name":"Brno, Lávka Pod Hradem","arrival_time":"13:54:00","departure_time":"13:54:00","lat":49.260154,"lon":16.465243,"is_passed":false},{"stop_id":"U13191Z1","name":"Brno, Hrad Veveří","arrival_time":"13:56:00","departure_time":"13:56:00","lat":49.254602,"lon":16.461532,"is_passed":false},{"stop_id":"U13214Z1","name":"Brno, Nové Dvory","arrival_time":"13:58:00","departure_time":"13:58:00","lat":49.251526,"lon":16.450321,"is_passed":false},{"stop_id":"U13215Z1","name":"Brno, U Matky Boží","arrival_time":"13:59:00","departure_time":"13:59:00","lat":49.25424,"lon":16.453227,"is_passed":false},{"stop_id":"U13263Z1","name":"Veverská Bítýška, rozcestí Mečkov","arrival_time":"14:00:00","departure_time":"14:00:00","lat":49.261131,"lon":16.443633,"is_passed":false},{"stop_id":"U13265Z3","name":"Veverská Bítýška, náměstí","arrival_time":"14:04:00","departure_time":"14:21:00","lat":49.276085,"lon":16.43615,"is_passed":false}],"3577":[{"stop_id":"U13265Z4","name":"Veverská Bítýška, náměstí","arrival_time":"14:21:00","departure_time":"14:21:00","lat":49.276085,"lon":16.43615,"is_passed":false},{"stop_id":"U13263Z2","name":"Veverská Bítýška, rozcestí Mečkov","arrival_time":"14:23:00","departure_time":"14:23:00","lat":49.260968,"lon":16.443716,"is_passed":false},{"stop_id":"U13215Z2","name":"Brno, U Matky Boží","arrival_time":"14:24:00","departure_time":"14:24:00","lat":49.254145,"lon":16.453284,"is_passed":false},{"stop_id":"U13214Z2","name":"Brno, Nové Dvory","arrival_time":"14:25:00","departure_time":"14:25:00","lat":49.251438,"lon":16.45032,"is_passed":false},{"stop_id":"U13191Z2","name":"Brno, Hrad Veveří","arrival_time":"14:27:00","departure_time":"14:27:00","lat":49.25448,"lon":16.461502,"is_passed":false},{"stop_id":"U13194Z2","name":"Brno, Lávka Pod Hradem","arrival_time":"14:28:00","departure_time":"14:28:00","lat":49.26016,"lon":16.465338,"is_passed":false},{"stop_id":"U13195Z2","name":"Brno, Obora","arrival_time":"14:30:00","departure_time":"14:30:00","lat":49.255383,"lon":16.476201,"is_passed":false},{"stop_id":"U13192Z2","name":"Brno, Jelenice","arrival_time":"14:31:00","departure_time":"14:31:00","lat":49.250718,"lon":16.485109,"is_passed":false},{"stop_id":"U13197Z2","name":"Brno, Rokle","arrival_time":"14:32:00","departure_time":"14:32:00","lat":49.245681,"lon":16.496096,"is_passed":false},{"stop_id":"U13193Z2","name":"Brno, Kozí horka","arrival_time":"14:34:00","departure_time":"14:34:00","lat":49.236114,"lon":16.504482,"is_passed":false},{"stop_id":"U1536Z2","name":"Rakovec","arrival_time":"14:35:00","departure_time":"14:35:00","lat":49.227996,"lon":16.508585,"is_passed":false},{"stop_id":"U1491Z2","name":"Podkomorská","arrival_time":"14:36:00","departure_time":"14:36:00","lat":49.225544,"lon":16.512868,"is_passed":false},{"stop_id":"U1537Z4","name":"Rakovecká","arrival_time":"14:37:00","departure_time":"14:37:00","lat":49.226308,"lon":16.518652,"is_passed":false},{"stop_id":"U1527Z4","name":"Přístaviště","arrival_time":"14:38:00","departure_time":"14:38:00","lat":49.228127,"lon":16.522637,"is_passed":false},{"stop_id":"U1796Z5","name":"Zoologická zahrada","arrival_time":"14:40:00","departure_time":"15:13:00","lat":49.227735,"lon":16.531369,"is_passed":false}],"3578":[{"stop_id":"U1796Z8","name":"Zoologická zahrada","arrival_time":"15:13:00","departure_time":"15:13:00","lat":49.227603,"lon":16.531473,"is_passed":false},{"stop_id":"U1796Z3","name":"Zoologická zahrada","arrival_time":"15:14:00","departure_time":"15:14:00","lat":49.228465,"lon":16.531116,"is_passed":false},{"stop_id":"U1527Z3","name":"Přístaviště","arrival_time":"15:15:00","departure_time":"15:15:00","lat":49.228139,"lon":16.522365,"is_passed":false},{"stop_id":"U1537Z3","name":"Rakovecká","arrival_time":"15:16:00","departure_time":"15:16:00","lat":49.225834,"lon":16.518322,"is_passed":false},{"stop_id":"U1491Z1","name":"Podkomorská","arrival_time":"15:16:00","departure_time":"15:16:00","lat":49.225423,"lon":16.514275,"is_passed":false},{"stop_id":"U1536Z1","name":"Rakovec","arrival_time":"15:17:00","departure_time":"15:17:00","lat":49.227614,"lon":16.508487,"is_passed":false},{"stop_id":"U13193Z1","name":"Brno, Kozí horka","arrival_time":"15:19:00","departure_time":"15:19:00","lat":49.236884,"lon":16.504661,"is_passed":false},{"stop_id":"U13197Z1","name":"Brno, Rokle","arrival_time":"15:21:00","departure_time":"15:21:00","lat":49.245683,"lon":16.496174,"is_passed":false},{"stop_id":"U13192Z1","name":"Brno, Jelenice","arrival_time":"15:22:00","departure_time":"15:22:00","lat":49.250702,"lon":16.485209,"is_passed":false},{"stop_id":"U13195Z1","name":"Brno, Obora","arrival_time":"15:23:00","departure_time":"15:23:00","lat":49.255668,"lon":16.475811,"is_passed":false},{"stop_id":"U13194Z1","name":"Brno, Lávka Pod Hradem","arrival_time":"15:24:00","departure_time":"15:24:00","lat":49.260154,"lon":16.465243,"is_passed":false},{"stop_id":"U13191Z1","name":"Brno, Hrad Veveří","arrival_time":"15:26:00","departure_time":"15:26:00","lat":49.254602,"lon":16.461532,"is_passed":false},{"stop_id":"U13214Z1","name":"Brno, Nové Dvory","arrival_time":"15:28:00","departure_time":"15:28:00","lat":49.251526,"lon":16.450321,"is_passed":false},{"stop_id":"U13227Z1","name":"Veverská Bítýška, Vápenice","arrival_time":"15:29:00","departure_time":"15:29:00","lat":49.245014,"lon":16.44595,"is_passed":false},{"stop_id":"U13251Z1","name":"Hvozdec","arrival_time":"15:32:00","departure_time":"15:32:00","lat":49.247011,"lon":16.426425,"is_passed":false},{"stop_id":"U13261Z1","name":"Veverská Bítýška, hájovna Na Hlince","arrival_time":"15:33:00","departure_time":"15:33:00","lat":49.251681,"lon":16.429227,"is_passed":false},{"stop_id":"U13269Z1","name":"Veverská Bítýška, sídliště","arrival_time":"15:35:00","departure_time":"15:35:00","lat":49.270108,"lon":16.433653,"is_passed":false},{"stop_id":"U13265Z3","name":"Veverská Bítýška, náměstí","arrival_time":"15:38:00","departure_time":"15:51:00","lat":49.276085,"lon":16.43615,"is_passed":false}],"3579":[{"stop_id":"U13265Z4","name":"Veverská Bítýška, náměstí","arrival_time":"15:51:00","departure_time":"15:51:00","lat":49.276085,"lon":16.43615,"is_passed":false},{"stop_id":"U13263Z2","name":"Veverská Bítýška, rozcestí Mečkov","arrival_time":"15:53:00","departure_time":"15:53:00","lat":49.260968,"lon":16.443716,"is_passed":false},{"stop_id":"U13215Z2","name":"Brno, U Matky Boží","arrival_time":"15:54:00","departure_time":"15:54:00","lat":49.254145,"lon":16.453284,"is_passed":false},{"stop_id":"U13214Z2","name":"Brno, Nové Dvory","arrival_time":"15:55:00","departure_time":"15:55:00","lat":49.251438,"lon":16.45032,"is_passed":false},{"stop_id":"U13191Z2","name":"Brno, Hrad Veveří","arrival_time":"15:57:00","departure_time":"15:57:00","lat":49.25448,"lon":16.461502,"is_passed":false},{"stop_id":"U13194Z2","name":"Brno, Lávka Pod Hradem","arrival_time":"15:58:00","departure_time":"15:58:00","lat":49.26016,"lon":16.465338,"is_passed":false},{"stop_id":"U13195Z2","name":"Brno, Obora","arrival_time":"16:00:00","departure_time":"16:00:00","lat":49.255383,"lon":16.476201,"is_passed":false},{"stop_id":"U13192Z2","name":"Brno, Jelenice","arrival_time":"16:01:00","departure_time":"16:01:00","lat":49.250718,"lon":16.485109,"is_passed":false},{"stop_id":"U13197Z2","name":"Brno, Rokle","arrival_time":"16:02:00","departure_time":"16:02:00","lat":49.245681,"lon":16.496096,"is_passed":false},{"stop_id":"U13193Z2","name":"Brno, Kozí horka","arrival_time":"16:04:00","departure_time":"16:04:00","lat":49.236114,"lon":16.504482,"is_passed":false},{"stop_id":"U1536Z2","name":"Rakovec","arrival_time":"16:05:00","departure_time":"16:05:00","lat":49.227996,"lon":16.508585,"is_passed":false},{"stop_id":"U1491Z2","name":"Podkomorská","arrival_time":"16:06:00","departure_time":"16:06:00","lat":49.225544,"lon":16.512868,"is_passed":false},{"stop_id":"U1537Z4","name":"Rakovecká","arrival_time":"16:07:00","departure_time":"16:07:00","lat":49.226308,"lon":16.518652,"is_passed":false},{"stop_id":"U1527Z4","name":"Přístaviště","arrival_time":"16:08:00","departure_time":"16:08:00","lat":49.228127,"lon":16.522637,"is_passed":false},{"stop_id":"U1796Z5","name":"Zoologická zahrada","arrival_time":"16:10:00","departure_time":"16:43:00","lat":49.227735,"lon":16.531369,"is_passed":false}],"35700":[{"stop_id":"U1756Z2","name":"Vozovna Medlánky","arrival_time":"4:42:00","departure_time":"4:42:00","lat":49.235314,"lon":16.586529,"is_passed":false},{"stop_id":"U1272Z1","name":"Kořískova","arrival_time":"4:44:00","departure_time":"4:44:00","lat":49.240579,"lon":16.58388,"is_passed":false},{"stop_id":"U1108Z1","name":"Filkukova","arrival_time":"4:45:00","departure_time":"4:45:00","lat":49.244244,"lon":16.58143,"is_passed":false},{"stop_id":"U1553Z1","name":"Řečkovice","arrival_time":"4:47:00","departure_time":"4:47:00","lat":49.247295,"lon":16.578803,"is_passed":false}],"35701":[{"stop_id":"U1553Z2","name":"Řečkovice","arrival_time":"4:59:00","departure_time":"4:59:00","lat":49.246978,"lon":16.5794,"is_passed":false},{"stop_id":"U1108Z2","name":"Filkukova","arrival_time":"5:00:00","departure_time":"5:00:00","lat":49.243517,"lon":16.581881,"is_passed":false},{"stop_id":"U1272Z2","name":"Kořískova","arrival_time":"5:01:00","departure_time":"5:01:00","lat":49.238898,"lon":16.584964,"is_passed":false},{"stop_id":"U1167Z2","name":"Hudcova","arrival_time":"5:02:00","departure_time":"5:02:00","lat":49.235791,"lon":16.587041,"is_passed":false},{"stop_id":"U1683Z2","name":"Tylova","arrival_time":"5:03:00","departure_time":"5:03:00","lat":49.232055,"lon":16.589539,"is_passed":false},{"stop_id":"U1566Z2","name":"Semilasso","arrival_time":"5:04:00","departure_time":"5:04:00","lat":49.228227,"lon":16.592081,"is_passed":false},{"stop_id":"U1171Z2","name":"Husitská","arrival_time":"5:06:00","departure_time":"5:06:00","lat":49.223415,"lon":16.595016,"is_passed":false},{"stop_id":"U1218Z2","name":"Jungmannova","arrival_time":"5:07:00","departure_time":"5:07:00","lat":49.221083,"lon":16.596416,"is_passed":false},{"stop_id":"U1233Z2","name":"Kartouzská","arrival_time":"5:08:00","departure_time":"5:08:00","lat":49.21665,"lon":16.599078,"is_passed":false},{"stop_id":"U1652Z2","name":"Šumavská","arrival_time":"5:09:00","departure_time":"5:09:00","lat":49.214022,"lon":16.60062,"is_passed":false},{"stop_id":"U1166Z2","name":"Hrnčířská","arrival_time":"5:10:00","departure_time":"5:10:00","lat":49.21062,"lon":16.602628,"is_passed":false},{"stop_id":"U1483Z2","name":"Pionýrská","arrival_time":"5:11:00","departure_time":"5:11:00","lat":49.207904,"lon":16.604201,"is_passed":false},{"stop_id":"U1006Z2","name":"Antonínská","arrival_time":"5:12:00","departure_time":"5:12:00","lat":49.203166,"lon":16.606915,"is_passed":false},{"stop_id":"U1397Z2","name":"Moravské náměstí","arrival_time":"5:14:00","departure_time":"5:14:00","lat":49.199237,"lon":16.608067,"is_passed":false},{"stop_id":"U1357Z4","name":"Malinovského náměstí","arrival_time":"5:17:00","departure_time":"5:17:00","lat":49.195612,"lon":16.613248,"is_passed":false},{"stop_id":"U1146Z1","name":"Hlavní nádraží","arrival_time":"5:20:00","departure_time":"5:20:00","lat":49.191185,"lon":16.611879,"is_passed":false},{"stop_id":"U1436Z1","name":"Nové sady","arrival_time":"5:21:00","departure_time":"5:21:00","lat":49.190116,"lon":16.609025,"is_passed":false},{"stop_id":"U1176Z1","name":"Hybešova","arrival_time":"5:23:00","departure_time":"5:23:00","lat":49.189322,"lon":16.602863,"is_passed":false},{"stop_id":"U1721Z1","name":"Václavská","arrival_time":"5:24:00","departure_time":"5:24:00","lat":49.188681,"lon":16.597217,"is_passed":false},{"stop_id":"U1378Z1","name":"Mendlovo náměstí","arrival_time":"5:26:00","departure_time":"5:26:00","lat":49.189659,"lon":16.592283,"is_passed":false},{"stop_id":"U1768Z1","name":"Výstaviště - hlavní vstup","arrival_time":"5:28:00","departure_time":"5:28:00","lat":49.189583,"lon":16.584499,"is_passed":false},{"stop_id":"U1769Z1","name":"Výstaviště - vstup G2","arrival_time":"5:29:00","departure_time":"5:29:00","lat":49.190338,"lon":16.579837,"is_passed":false},{"stop_id":"U1343Z1","name":"ARENA BRNO","arrival_time":"5:30:00","departure_time":"5:30:00","lat":49.191523,"lon":16.576065,"is_passed":false},{"stop_id":"U1487Z3","name":"Pisárky","arrival_time":"5:32:00","departure_time":"5:32:00","lat":49.194099,"lon":16.569741,"is_passed":false},{"stop_id":"U1041Z1","name":"Bráfova","arrival_time":"5:34:00","departure_time":"5:34:00","lat":49.206955,"lon":16.570536,"is_passed":false},{"stop_id":"U1621Z1","name":"Stránského","arrival_time":"5:35:00","departure_time":"5:35:00","lat":49.211954,"lon":16.568673,"is_passed":false},{"stop_id":"U1217Z11","name":"Vozovna Komín","arrival_time":"5:36:00","departure_time":"5:36:00","lat":49.212594,"lon":16.563449,"is_passed":false},{"stop_id":"U1633Z1","name":"Svratecká","arrival_time":"5:40:00","departure_time":"5:40:00","lat":49.217898,"lon":16.553656,"is_passed":false},{"stop_id":"U1042Z1","name":"Branka","arrival_time":"5:41:00","departure_time":"5:41:00","lat":49.219419,"lon":16.54726,"is_passed":false},{"stop_id":"U1493Z1","name":"Podlesí","arrival_time":"5:42:00","departure_time":"5:42:00","lat":49.218711,"lon":16.542392,"is_passed":false},{"stop_id":"U1226Z1","name":"Kamenolom","arrival_time":"5:43:00","departure_time":"5:43:00","lat":49.221657,"lon":16.536794,"is_passed":false},{"stop_id":"U1796Z1","name":"Zoologická zahrada","arrival_time":"5:45:00","departure_time":"5:45:00","lat":49.227674,"lon":16.532002,"is_passed":false},{"stop_id":"U1527Z1","name":"Přístaviště","arrival_time":"5:46:00","departure_time":"5:46:00","lat":49.22814,"lon":16.521658,"is_passed":false},{"stop_id":"U1537Z1","name":"Rakovecká","arrival_time":"5:48:00","departure_time":"6:06:00","lat":49.225877,"lon":16.518739,"is_passed":false}],"35702":[{"stop_id":"U1537Z2","name":"Rakovecká","arrival_time":"6:06:00","departure_time":"6:06:00","lat":49.226177,"lon":16.519315,"is_passed":false},{"stop_id":"U1527Z2","name":"Přístaviště","arrival_time":"6:07:00","departure_time":"6:07:00","lat":49.228519,"lon":16.522556,"is_passed":false},{"stop_id":"U1796Z2","name":"Zoologická zahrada","arrival_time":"6:09:00","departure_time":"6:09:00","lat":49.22774,"lon":16.531898,"is_passed":false},{"stop_id":"U1226Z2","name":"Kamenolom","arrival_time":"6:10:00","departure_time":"6:10:00","lat":49.221888,"lon":16.536713,"is_passed":false},{"stop_id":"U1493Z2","name":"Podlesí","arrival_time":"6:11:00","departure_time":"6:11:00","lat":49.21871,"lon":16.542217,"is_passed":false},{"stop_id":"U1042Z2","name":"Branka","arrival_time":"6:12:00","departure_time":"6:12:00","lat":49.219368,"lon":16.548224,"is_passed":false},{"stop_id":"U1633Z2","name":"Svratecká","arrival_time":"6:13:00","departure_time":"6:13:00","lat":49.21799,"lon":16.553492,"is_passed":false},{"stop_id":"U1217Z12","name":"Vozovna Komín","arrival_time":"6:17:00","departure_time":"6:17:00","lat":49.212491,"lon":16.563754,"is_passed":false},{"stop_id":"U1621Z2","name":"Stránského","arrival_time":"6:18:00","departure_time":"6:18:00","lat":49.211937,"lon":16.568408,"is_passed":false},{"stop_id":"U1041Z2","name":"Bráfova","arrival_time":"6:19:00","departure_time":"6:19:00","lat":49.207033,"lon":16.570558,"is_passed":false},{"stop_id":"U1487Z4","name":"Pisárky","arrival_time":"6:22:00","departure_time":"6:22:00","lat":49.194163,"lon":16.569615,"is_passed":false},{"stop_id":"U1343Z2","name":"ARENA BRNO","arrival_time":"6:23:00","departure_time":"6:23:00","lat":49.191387,"lon":16.576425,"is_passed":false},{"stop_id":"U1769Z2","name":"Výstaviště - vstup G2","arrival_time":"6:24:00","departure_time":"6:24:00","lat":49.190207,"lon":16.580555,"is_passed":false},{"stop_id":"U1768Z2","name":"Výstaviště - hlavní vstup","arrival_time":"6:25:00","departure_time":"6:25:00","lat":49.189325,"lon":16.585699,"is_passed":false},{"stop_id":"U1378Z2","name":"Mendlovo náměstí","arrival_time":"6:28:00","departure_time":"6:28:00","lat":49.190034,"lon":16.593837,"is_passed":false},{"stop_id":"U1721Z2","name":"Václavská","arrival_time":"6:30:00","departure_time":"6:30:00","lat":49.188715,"lon":16.596878,"is_passed":false},{"stop_id":"U1176Z2","name":"Hybešova","arrival_time":"6:31:00","departure_time":"6:31:00","lat":49.189209,"lon":16.603364,"is_passed":false},{"stop_id":"U1436Z2","name":"Nové sady","arrival_time":"6:34:00","departure_time":"6:34:00","lat":49.190222,"lon":16.609403,"is_passed":false},{"stop_id":"U1146Z2","name":"Hlavní nádraží","arrival_time":"6:36:00","departure_time":"6:36:00","lat":49.191394,"lon":16.612548,"is_passed":false},{"stop_id":"U1357Z3","name":"Malinovského náměstí","arrival_time":"6:38:00","departure_time":"6:38:00","lat":49.196131,"lon":16.612953,"is_passed":false},{"stop_id":"U1397Z1","name":"Moravské náměstí","arrival_time":"6:40:00","departure_time":"6:40:00","lat":49.19996,"lon":16.607931,"is_passed":false},{"stop_id":"U1006Z1","name":"Antonínská","arrival_time":"6:42:00","departure_time":"6:42:00","lat":49.203685,"lon":16.606678,"is_passed":false},{"stop_id":"U1483Z1","name":"Pionýrská","arrival_time":"6:43:00","departure_time":"6:43:00","lat":49.207491,"lon":16.604472,"is_passed":false},{"stop_id":"U1166Z1","name":"Hrnčířská","arrival_time":"6:45:00","departure_time":"6:45:00","lat":49.210254,"lon":16.602868,"is_passed":false},{"stop_id":"U1652Z1","name":"Šumavská","arrival_time":"6:46:00","departure_time":"6:46:00","lat":49.213991,"lon":16.600669,"is_passed":false},{"stop_id":"U1233Z1","name":"Kartouzská","arrival_time":"6:47:00","departure_time":"6:47:00","lat":49.216998,"lon":16.598896,"is_passed":false},{"stop_id":"U1218Z1","name":"Jungmannova","arrival_time":"6:48:00","departure_time":"6:48:00","lat":49.220856,"lon":16.596583,"is_passed":false},{"stop_id":"U1171Z1","name":"Husitská","arrival_time":"6:49:00","departure_time":"6:49:00","lat":49.223125,"lon":16.59524,"is_passed":false},{"stop_id":"U1566Z1","name":"Semilasso","arrival_time":"6:51:00","departure_time":"6:51:00","lat":49.227417,"lon":16.592683,"is_passed":false},{"stop_id":"U1683Z1","name":"Tylova","arrival_time":"6:52:00","departure_time":"6:52:00","lat":49.23243,"lon":16.589321,"is_passed":false},{"stop_id":"U1167Z1","name":"Hudcova","arrival_time":"6:53:00","departure_time":"6:53:00","lat":49.235202,"lon":16.587471,"is_passed":false},{"stop_id":"U1272Z1","name":"Kořískova","arrival_time":"6:55:00","departure_time":"6:55:00","lat":49.240579,"lon":16.58388,"is_passed":false},{"stop_id":"U1108Z1","name":"Filkukova","arrival_time":"6:56:00","departure_time":"6:56:00","lat":49.244244,"lon":16.58143,"is_passed":false},{"stop_id":"U1553Z1","name":"Řečkovice","arrival_time":"6:58:00","departure_time":"7:07:00","lat":49.247295,"lon":16.578803,"is_passed":false}],"35703":[{"stop_id":"U1553Z2","name":"Řečkovice","arrival_time":"7:07:00","departure_time":"7:07:00","lat":49.246978,"lon":16.5794,"is_passed":false},{"stop_id":"U1108Z2","name":"Filkukova","arrival_time":"7:08:00","departure_time":"7:08:00","lat":49.243517,"lon":16.581881,"is_passed":false},{"stop_id":"U1272Z2","name":"Kořískova","arrival_time":"7:09:00","departure_time":"7:09:00","lat":49.238898,"lon":16.584964,"is_passed":false},{"stop_id":"U1167Z2","name":"Hudcova","arrival_time":"7:10:00","departure_time":"7:10:00","lat":49.235791,"lon":16.587041,"is_passed":false},{"stop_id":"U1683Z2","name":"Tylova","arrival_time":"7:11:00","departure_time":"7:11:00","lat":49.232055,"lon":16.589539,"is_passed":false},{"stop_id":"U1566Z2","name":"Semilasso","arrival_time":"7:13:00","departure_time":"7:13:00","lat":49.228227,"lon":16.592081,"is_passed":false},{"stop_id":"U1171Z2","name":"Husitská","arrival_time":"7:15:00","departure_time":"7:15:00","lat":49.223415,"lon":16.595016,"is_passed":false},{"stop_id":"U1218Z2","name":"Jungmannova","arrival_time":"7:16:00","departure_time":"7:16:00","lat":49.221083,"lon":16.596416,"is_passed":false},{"stop_id":"U1233Z2","name":"Kartouzská","arrival_time":"7:17:00","departure_time":"7:17:00","lat":49.21665,"lon":16.599078,"is_passed":false},{"stop_id":"U1652Z2","name":"Šumavská","arrival_time":"7:18:00","departure_time":"7:18:00","lat":49.214022,"lon":16.60062,"is_passed":false},{"stop_id":"U1166Z2","name":"Hrnčířská","arrival_time":"7:19:00","departure_time":"7:19:00","lat":49.21062,"lon":16.602628,"is_passed":false},{"stop_id":"U1483Z2","name":"Pionýrská","arrival_time":"7:20:00","departure_time":"7:20:00","lat":49.207904,"lon":16.604201,"is_passed":false},{"stop_id":"U1006Z2","name":"Antonínská","arrival_time":"7:21:00","departure_time":"7:21:00","lat":49.203166,"lon":16.606915,"is_passed":false},{"stop_id":"U1397Z2","name":"Moravské náměstí","arrival_time":"7:23:00","departure_time":"7:23:00","lat":49.199237,"lon":16.608067,"is_passed":false},{"stop_id":"U1357Z4","name":"Malinovského náměstí","arrival_time":"7:26:00","departure_time":"7:26:00","lat":49.195612,"lon":16.613248,"is_passed":false},{"stop_id":"U1146Z1","name":"Hlavní nádraží","arrival_time":"7:29:00","departure_time":"7:29:00","lat":49.191185,"lon":16.611879,"is_passed":false},{"stop_id":"U1436Z1","name":"Nové sady","arrival_time":"7:30:00","departure_time":"7:30:00","lat":49.190116,"lon":16.609025,"is_passed":false},{"stop_id":"U1176Z1","name":"Hybešova","arrival_time":"7:32:00","departure_time":"7:32:00","lat":49.189322,"lon":16.602863,"is_passed":false},{"stop_id":"U1721Z1","name":"Václavská","arrival_time":"7:33:00","departure_time":"7:33:00","lat":49.188681,"lon":16.597217,"is_passed":false},{"stop_id":"U1378Z1","name":"Mendlovo náměstí","arrival_time":"7:36:00","departure_time":"7:36:00","lat":49.189659,"lon":16.592283,"is_passed":false},{"stop_id":"U1768Z1","name":"Výstaviště - hlavní vstup","arrival_time":"7:38:00","departure_time":"7:38:00","lat":49.189583,"lon":16.584499,"is_passed":false},{"stop_id":"U1769Z1","name":"Výstaviště - vstup G2","arrival_time":"7:39:00","departure_time":"7:39:00","lat":49.190338,"lon":16.579837,"is_passed":false},{"stop_id":"U1343Z1","name":"ARENA BRNO","arrival_time":"7:40:00","departure_time":"7:40:00","lat":49.191523,"lon":16.576065,"is_passed":false},{"stop_id":"U1487Z3","name":"Pisárky","arrival_time":"7:42:00","departure_time":"7:42:00","lat":49.194099,"lon":16.569741,"is_passed":false},{"stop_id":"U1041Z1","name":"Bráfova","arrival_time":"7:44:00","departure_time":"7:44:00","lat":49.206955,"lon":16.570536,"is_passed":false},{"stop_id":"U1621Z1","name":"Stránského","arrival_time":"7:45:00","departure_time":"7:45:00","lat":49.211954,"lon":16.568673,"is_passed":false},{"stop_id":"U1217Z11","name":"Vozovna Komín","arrival_time":"7:46:00","departure_time":"7:46:00","lat":49.212594,"lon":16.563449,"is_passed":false},{"stop_id":"U1633Z1","name":"Svratecká","arrival_time":"7:50:00","departure_time":"7:50:00","lat":49.217898,"lon":16.553656,"is_passed":false},{"stop_id":"U1042Z1","name":"Branka","arrival_time":"7:51:00","departure_time":"7:51:00","lat":49.219419,"lon":16.54726,"is_passed":false},{"stop_id":"U1493Z1","name":"Podlesí","arrival_time":"7:52:00","departure_time":"7:52:00","lat":49.218711,"lon":16.542392,"is_passed":false},{"stop_id":"U1226Z1","name":"Kamenolom","arrival_time":"7:53:00","departure_time":"7:53:00","lat":49.221657,"lon":16.536794,"is_passed":false},{"stop_id":"U1796Z1","name":"Zoologická zahrada","arrival_time":"7:55:00","departure_time":"7:55:00","lat":49.227674,"lon":16.532002,"is_passed":false},{"stop_id":"U1527Z1","name":"Přístaviště","arrival_time":"7:56:00","departure_time":"7:56:00","lat":49.22814,"lon":16.521658,"is_passed":false},{"stop_id":"U1537Z1","name":"Rakovecká","arrival_time":"7:58:00","departure_time":"8:20:00","lat":49.225877,"lon":16.518739,"is_passed":false}],"35704":[{"stop_id":"U1537Z2","name":"Rakovecká","arrival_time":"8:20:00","departure_time":"8:20:00","lat":49.226177,"lon":16.519315,"is_passed":false},{"stop_id":"U1527Z2","name":"Přístaviště","arrival_time":"8:21:00","departure_time":"8:21:00","lat":49.228519,"lon":16.522556,"is_passed":false},{"stop_id":"U1796Z2","name":"Zoologická zahrada","arrival_time":"8:23:00","departure_time":"8:23:00","lat":49.22774,"lon":16.531898,"is_passed":false},{"stop_id":"U1226Z2","name":"Kamenolom","arrival_time":"8:24:00","departure_time":"8:24:00","lat":49.221888,"lon":16.536713,"is_passed":false},{"stop_id":"U1493Z2","name":"Podlesí","arrival_time":"8:25:00","departure_time":"8:25:00","lat":49.21871,"lon":16.542217,"is_passed":false},{"stop_id":"U1042Z2","name":"Branka","arrival_time":"8:26:00","departure_time":"8:26:00","lat":49.219368,"lon":16.548224,"is_passed":false},{"stop_id":"U1633Z2","name":"Svratecká","arrival_time":"8:27:00","departure_time":"8:27:00","lat":49.21799,"lon":16.553492,"is_passed":false},{"stop_id":"U1217Z12","name":"Vozovna Komín","arrival_time":"8:31:00","departure_time":"8:31:00","lat":49.212491,"lon":16.563754,"is_passed":false},{"stop_id":"U1621Z2","name":"Stránského","arrival_time":"8:32:00","departure_time":"8:32:00","lat":49.211937,"lon":16.568408,"is_passed":false},{"stop_id":"U1041Z2","name":"Bráfova","arrival_time":"8:33:00","departure_time":"8:33:00","lat":49.207033,"lon":16.570558,"is_passed":false},{"stop_id":"U1487Z4","name":"Pisárky","arrival_time":"8:36:00","departure_time":"8:36:00","lat":49.194163,"lon":16.569615,"is_passed":false},{"stop_id":"U1343Z2","name":"ARENA BRNO","arrival_time":"8:37:00","departure_time":"8:37:00","lat":49.191387,"lon":16.576425,"is_passed":false},{"stop_id":"U1769Z2","name":"Výstaviště - vstup G2","arrival_time":"8:38:00","departure_time":"8:38:00","lat":49.190207,"lon":16.580555,"is_passed":false},{"stop_id":"U1768Z2","name":"Výstaviště - hlavní vstup","arrival_time":"8:39:00","departure_time":"8:39:00","lat":49.189325,"lon":16.585699,"is_passed":false},{"stop_id":"U1378Z2","name":"Mendlovo náměstí","arrival_time":"8:42:00","departure_time":"8:42:00","lat":49.190034,"lon":16.593837,"is_passed":false},{"stop_id":"U1721Z2","name":"Václavská","arrival_time":"8:44:00","departure_time":"8:44:00","lat":49.188715,"lon":16.596878,"is_passed":false},{"stop_id":"U1176Z2","name":"Hybešova","arrival_time":"8:45:00","departure_time":"8:45:00","lat":49.189209,"lon":16.603364,"is_passed":false},{"stop_id":"U1436Z2","name":"Nové sady","arrival_time":"8:48:00","departure_time":"8:48:00","lat":49.190222,"lon":16.609403,"is_passed":false},{"stop_id":"U1146Z2","name":"Hlavní nádraží","arrival_time":"8:50:00","departure_time":"8:50:00","lat":49.191394,"lon":16.612548,"is_passed":false},{"stop_id":"U1357Z3","name":"Malinovského náměstí","arrival_time":"8:52:00","departure_time":"8:52:00","lat":49.196131,"lon":16.612953,"is_passed":false},{"stop_id":"U1397Z1","name":"Moravské náměstí","arrival_time":"8:54:00","departure_time":"8:54:00","lat":49.19996,"lon":16.607931,"is_passed":false},{"stop_id":"U1006Z1","name":"Antonínská","arrival_time":"8:56:00","departure_time":"8:56:00","lat":49.203685,"lon":16.606678,"is_passed":false},{"stop_id":"U1483Z1","name":"Pionýrská","arrival_time":"8:57:00","departure_time":"8:57:00","lat":49.207491,"lon":16.604472,"is_passed":false},{"stop_id":"U1166Z1","name":"Hrnčířská","arrival_time":"8:59:00","departure_time":"8:59:00","lat":49.210254,"lon":16.602868,"is_passed":false},{"stop_id":"U1652Z1","name":"Šumavská","arrival_time":"9:00:00","departure_time":"9:00:00","lat":49.213991,"lon":16.600669,"is_passed":false},{"stop_id":"U1233Z1","name":"Kartouzská","arrival_time":"9:01:00","departure_time":"9:01:00","lat":49.216998,"lon":16.598896,"is_passed":false},{"stop_id":"U1218Z1","name":"Jungmannova","arrival_time":"9:02:00","departure_time":"9:02:00","lat":49.220856,"lon":16.596583,"is_passed":false},{"stop_id":"U1171Z1","name":"Husitská","arrival_time":"9:03:00","departure_time":"9:03:00","lat":49.223125,"lon":16.59524,"is_passed":false},{"stop_id":"U1566Z1","name":"Semilasso","arrival_time":"9:05:00","departure_time":"9:05:00","lat":49.227417,"lon":16.592683,"is_passed":false},{"stop_id":"U1683Z1","name":"Tylova","arrival_time":"9:06:00","departure_time":"9:06:00","lat":49.23243,"lon":16.589321,"is_passed":false},{"stop_id":"U1167Z1","name":"Hudcova","arrival_time":"9:07:00","departure_time":"9:07:00","lat":49.235202,"lon":16.587471,"is_passed":false},{"stop_id":"U1272Z1","name":"Kořískova","arrival_time":"9:09:00","departure_time":"9:09:00","lat":49.240579,"lon":16.58388,"is_passed":false},{"stop_id":"U1108Z1","name":"Filkukova","arrival_time":"9:10:00","departure_time":"9:10:00","lat":49.244244,"lon":16.58143,"is_passed":false},{"stop_id":"U1553Z1","name":"Řečkovice","arrival_time":"9:12:00","departure_time":"9:21:00","lat":49.247295,"lon":16.578803,"is_passed":false}],"35705":[{"stop_id":"U1553Z2","name":"Řečkovice","arrival_time":"9:21:00","departure_time":"9:21:00","lat":49.246978,"lon":16.5794,"is_passed":false},{"stop_id":"U1108Z2","name":"Filkukova","arrival_time":"9:22:00","departure_time":"9:22:00","lat":49.243517,"lon":16.581881,"is_passed":false},{"stop_id":"U1272Z2","name":"Kořískova","arrival_time":"9:23:00","departure_time":"9:23:00","lat":49.238898,"lon":16.584964,"is_passed":false},{"stop_id":"U1167Z2","name":"Hudcova","arrival_time":"9:24:00","departure_time":"9:24:00","lat":49.235791,"lon":16.587041,"is_passed":false},{"stop_id":"U1683Z2","name":"Tylova","arrival_time":"9:25:00","departure_time":"9:25:00","lat":49.232055,"lon":16.589539,"is_passed":false},{"stop_id":"U1566Z2","name":"Semilasso","arrival_time":"9:27:00","departure_time":"9:27:00","lat":49.228227,"lon":16.592081,"is_passed":false},{"stop_id":"U1171Z2","name":"Husitská","arrival_time":"9:29:00","departure_time":"9:29:00","lat":49.223415,"lon":16.595016,"is_passed":false},{"stop_id":"U1218Z2","name":"Jungmannova","arrival_time":"9:30:00","departure_time":"9:30:00","lat":49.221083,"lon":16.596416,"is_passed":false},{"stop_id":"U1233Z2","name":"Kartouzská","arrival_time":"9:31:00","departure_time":"9:31:00","lat":49.21665,"lon":16.599078,"is_passed":false},{"stop_id":"U1652Z2","name":"Šumavská","arrival_time":"9:32:00","departure_time":"9:32:00","lat":49.214022,"lon":16.60062,"is_passed":false},{"stop_id":"U1166Z2","name":"Hrnčířská","arrival_time":"9:33:00","departure_time":"9:33:00","lat":49.21062,"lon":16.602628,"is_passed":false},{"stop_id":"U1483Z2","name":"Pionýrská","arrival_time":"9:34:00","departure_time":"9:34:00","lat":49.207904,"lon":16.604201,"is_passed":false},{"stop_id":"U1006Z2","name":"Antonínská","arrival_time":"9:35:00","departure_time":"9:35:00","lat":49.203166,"lon":16.606915,"is_passed":false},{"stop_id":"U1397Z2","name":"Moravské náměstí","arrival_time":"9:37:00","departure_time":"9:37:00","lat":49.199237,"lon":16.608067,"is_passed":false},{"stop_id":"U1357Z4","name":"Malinovského náměstí","arrival_time":"9:40:00","departure_time":"9:40:00","lat":49.195612,"lon":16.613248,"is_passed":false},{"stop_id":"U1146Z1","name":"Hlavní nádraží","arrival_time":"9:43:00","departure_time":"9:43:00","lat":49.191185,"lon":16.611879,"is_passed":false},{"stop_id":"U1436Z1","name":"Nové sady","arrival_time":"9:44:00","departure_time":"9:44:00","lat":49.190116,"lon":16.609025,"is_passed":false},{"stop_id":"U1176Z1","name":"Hybešova","arrival_time":"9:46:00","departure_time":"9:46:00","lat":49.189322,"lon":16.602863,"is_passed":false},{"stop_id":"U1721Z1","name":"Václavská","arrival_time":"9:47:00","departure_time":"9:47:00","lat":49.188681,"lon":16.597217,"is_passed":false},{"stop_id":"U1378Z1","name":"Mendlovo náměstí","arrival_time":"9:50:00","departure_time":"9:50:00","lat":49.189659,"lon":16.592283,"is_passed":false},{"stop_id":"U1768Z1","name":"Výstaviště - hlavní vstup","arrival_time":"9:52:00","departure_time":"9:52:00","lat":49.189583,"lon":16.584499,"is_passed":false},{"stop_id":"U1769Z1","name":"Výstaviště - vstup G2","arrival_time":"9:53:00","departure_time":"9:53:00","lat":49.190338,"lon":16.579837,"is_passed":false},{"stop_id":"U1343Z1","name":"ARENA BRNO","arrival_time":"9:54:00","departure_time":"9:54:00","lat":49.191523,"lon":16.576065,"is_passed":false},{"stop_id":"U1487Z3","name":"Pisárky","arrival_time":"9:56:00","departure_time":"9:56:00","lat":49.194099,"lon":16.569741,"is_passed":false},{"stop_id":"U1041Z1","name":"Bráfova","arrival_time":"9:58:00","departure_time":"9:58:00","lat":49.206955,"lon":16.570536,"is_passed":false},{"stop_id":"U1621Z1","name":"Stránského","arrival_time":"9:59:00","departure_time":"9:59:00","lat":49.211954,"lon":16.568673,"is_passed":false},{"stop_id":"U1217Z11","name":"Vozovna Komín","arrival_time":"10:00:00","departure_time":"10:00:00","lat":49.212594,"lon":16.563449,"is_passed":false},{"stop_id":"U1633Z1","name":"Svratecká","arrival_time":"10:04:00","departure_time":"10:04:00","lat":49.217898,"lon":16.553656,"is_passed":false},{"stop_id":"U1042Z1","name":"Branka","arrival_time":"10:05:00","departure_time":"10:05:00","lat":49.219419,"lon":16.54726,"is_passed":false},{"stop_id":"U1493Z1","name":"Podlesí","arrival_time":"10:06:00","departure_time":"10:06:00","lat":49.218711,"lon":16.542392,"is_passed":false},{"stop_id":"U1226Z1","name":"Kamenolom","arrival_time":"10:07:00","departure_time":"10:07:00","lat":49.221657,"lon":16.536794,"is_passed":false},{"stop_id":"U1796Z1","name":"Zoologická zahrada","arrival_time":"10:09:00","departure_time":"10:09:00","lat":49.227674,"lon":16.532002,"is_passed":false},{"stop_id":"U1527Z1","name":"Přístaviště","arrival_time":"10:10:00","departure_time":"10:10:00","lat":49.22814,"lon":16.521658,"is_passed":false},{"stop_id":"U1537Z1","name":"Rakovecká","arrival_time":"10:12:00","departure_time":"10:33:00","lat":49.225877,"lon":16.518739,"is_passed":false}],"35706":[{"stop_id":"U1537Z2","name":"Rakovecká","arrival_time":"10:33:00","departure_time":"10:33:00","lat":49.226177,"lon":16.519315,"is_passed":false},{"stop_id":"U1527Z2","name":"Přístaviště","arrival_time":"10:34:00","departure_time":"10:34:00","lat":49.228519,"lon":16.522556,"is_passed":false},{"stop_id":"U1796Z2","name":"Zoologická zahrada","arrival_time":"10:36:00","departure_time":"10:36:00","lat":49.22774,"lon":16.531898,"is_passed":false},{"stop_id":"U1226Z2","name":"Kamenolom","arrival_time":"10:37:00","departure_time":"10:37:00","lat":49.221888,"lon":16.536713,"is_passed":false},{"stop_id":"U1493Z2","name":"Podlesí","arrival_time":"10:38:00","departure_time":"10:38:00","lat":49.21871,"lon":16.542217,"is_passed":false},{"stop_id":"U1042Z2","name":"Branka","arrival_time":"10:39:00","departure_time":"10:39:00","lat":49.219368,"lon":16.548224,"is_passed":false},{"stop_id":"U1633Z2","name":"Svratecká","arrival_time":"10:40:00","departure_time":"10:40:00","lat":49.21799,"lon":16.553492,"is_passed":false},{"stop_id":"U1217Z12","name":"Vozovna Komín","arrival_time":"10:44:00","departure_time":"10:44:00","lat":49.212491,"lon":16.563754,"is_passed":false},{"stop_id":"U1621Z2","name":"Stránského","arrival_time":"10:45:00","departure_time":"10:45:00","lat":49.211937,"lon":16.568408,"is_passed":false},{"stop_id":"U1041Z2","name":"Bráfova","arrival_time":"10:46:00","departure_time":"10:46:00","lat":49.207033,"lon":16.570558,"is_passed":false},{"stop_id":"U1487Z4","name":"Pisárky","arrival_time":"10:49:00","departure_time":"10:49:00","lat":49.194163,"lon":16.569615,"is_passed":false},{"stop_id":"U1343Z2","name":"ARENA BRNO","arrival_time":"10:50:00","departure_time":"10:50:00","lat":49.191387,"lon":16.576425,"is_passed":false},{"stop_id":"U1769Z2","name":"Výstaviště - vstup G2","arrival_time":"10:51:00","departure_time":"10:51:00","lat":49.190207,"lon":16.580555,"is_passed":false},{"stop_id":"U1768Z2","name":"Výstaviště - hlavní vstup","arrival_time":"10:52:00","departure_time":"10:52:00","lat":49.189325,"lon":16.585699,"is_passed":false},{"stop_id":"U1378Z2","name":"Mendlovo náměstí","arrival_time":"10:55:00","departure_time":"10:55:00","lat":49.190034,"lon":16.593837,"is_passed":false},{"stop_id":"U1721Z2","name":"Václavská","arrival_time":"10:57:00","departure_time":"10:57:00","lat":49.188715,"lon":16.596878,"is_passed":false},{"stop_id":"U1176Z2","name":"Hybešova","arrival_time":"10:58:00","departure_time":"10:58:00","lat":49.189209,"lon":16.603364,"is_passed":false},{"stop_id":"U1436Z2","name":"Nové sady","arrival_time":"11:01:00","departure_time":"11:01:00","lat":49.190222,"lon":16.609403,"is_passed":false},{"stop_id":"U1146Z2","name":"Hlavní nádraží","arrival_time":"11:03:00","departure_time":"11:03:00","lat":49.191394,"lon":16.612548,"is_passed":false},{"stop_id":"U1357Z3","name":"Malinovského náměstí","arrival_time":"11:05:00","departure_time":"11:05:00","lat":49.196131,"lon":16.612953,"is_passed":false},{"stop_id":"U1397Z1","name":"Moravské náměstí","arrival_time":"11:07:00","departure_time":"11:07:00","lat":49.19996,"lon":16.607931,"is_passed":false},{"stop_id":"U1006Z1","name":"Antonínská","arrival_time":"11:09:00","departure_time":"11:09:00","lat":49.203685,"lon":16.606678,"is_passed":false},{"stop_id":"U1483Z1","name":"Pionýrská","arrival_time":"11:10:00","departure_time":"11:10:00","lat":49.207491,"lon":16.604472,"is_passed":false},{"stop_id":"U1166Z1","name":"Hrnčířská","arrival_time":"11:12:00","departure_time":"11:12:00","lat":49.210254,"lon":16.602868,"is_passed":false},{"stop_id":"U1652Z1","name":"Šumavská","arrival_time":"11:13:00","departure_time":"11:13:00","lat":49.213991,"lon":16.600669,"is_passed":false},{"stop_id":"U1233Z1","name":"Kartouzská","arrival_time":"11:14:00","departure_time":"11:14:00","lat":49.216998,"lon":16.598896,"is_passed":false},{"stop_id":"U1218Z1","name":"Jungmannova","arrival_time":"11:15:00","departure_time":"11:15:00","lat":49.220856,"lon":16.596583,"is_passed":false},{"stop_id":"U1171Z1","name":"Husitská","arrival_time":"11:16:00","departure_time":"11:16:00","lat":49.223125,"lon":16.59524,"is_passed":false},{"stop_id":"U1566Z1","name":"Semilasso","arrival_time":"11:18:00","departure_time":"11:18:00","lat":49.227417,"lon":16.592683,"is_passed":false},{"stop_id":"U1683Z1","name":"Tylova","arrival_time":"11:19:00","departure_time":"11:19:00","lat":49.23243,"lon":16.589321,"is_passed":false},{"stop_id":"U1167Z1","name":"Hudcova","arrival_time":"11:20:00","departure_time":"11:20:00","lat":49.235202,"lon":16.587471,"is_passed":false},{"stop_id":"U1272Z1","name":"Kořískova","arrival_time":"11:22:00","departure_time":"11:22:00","lat":49.240579,"lon":16.58388,"is_passed":false},{"stop_id":"U1108Z1","name":"Filkukova","arrival_time":"11:23:00","departure_time":"11:23:00","lat":49.244244,"lon":16.58143,"is_passed":false},{"stop_id":"U1553Z1","name":"Řečkovice","arrival_time":"11:25:00","departure_time":"11:34:00","lat":49.247295,"lon":16.578803,"is_passed":false}],"35707":[{"stop_id":"U1553Z2","name":"Řečkovice","arrival_time":"11:34:00","departure_time":"11:34:00","lat":49.246978,"lon":16.5794,"is_passed":false},{"stop_id":"U1108Z2","name":"Filkukova","arrival_time":"11:35:00","departure_time":"11:35:00","lat":49.243517,"lon":16.581881,"is_passed":false},{"stop_id":"U1272Z2","name":"Kořískova","arrival_time":"11:36:00","departure_time":"11:36:00","lat":49.238898,"lon":16.584964,"is_passed":false},{"stop_id":"U1167Z2","name":"Hudcova","arrival_time":"11:37:00","departure_time":"11:37:00","lat":49.235791,"lon":16.587041,"is_passed":false},{"stop_id":"U1683Z2","name":"Tylova","arrival_time":"11:38:00","departure_time":"11:38:00","lat":49.232055,"lon":16.589539,"is_passed":false},{"stop_id":"U1566Z2","name":"Semilasso","arrival_time":"11:40:00","departure_time":"11:40:00","lat":49.228227,"lon":16.592081,"is_passed":false},{"stop_id":"U1171Z2","name":"Husitská","arrival_time":"11:42:00","departure_time":"11:42:00","lat":49.223415,"lon":16.595016,"is_passed":false},{"stop_id":"U1218Z2","name":"Jungmannova","arrival_time":"11:43:00","departure_time":"11:43:00","lat":49.221083,"lon":16.596416,"is_passed":false},{"stop_id":"U1233Z2","name":"Kartouzská","arrival_time":"11:44:00","departure_time":"11:44:00","lat":49.21665,"lon":16.599078,"is_passed":false},{"stop_id":"U1652Z2","name":"Šumavská","arrival_time":"11:45:00","departure_time":"11:45:00","lat":49.214022,"lon":16.60062,"is_passed":false},{"stop_id":"U1166Z2","name":"Hrnčířská","arrival_time":"11:46:00","departure_time":"11:46:00","lat":49.21062,"lon":16.602628,"is_passed":false},{"stop_id":"U1483Z2","name":"Pionýrská","arrival_time":"11:47:00","departure_time":"11:47:00","lat":49.207904,"lon":16.604201,"is_passed":false},{"stop_id":"U1006Z2","name":"Antonínská","arrival_time":"11:48:00","departure_time":"11:48:00","lat":49.203166,"lon":16.606915,"is_passed":false},{"stop_id":"U1397Z2","name":"Moravské náměstí","arrival_time":"11:50:00","departure_time":"11:50:00","lat":49.199237,"lon":16.608067,"is_passed":false},{"stop_id":"U1357Z4","name":"Malinovského náměstí","arrival_time":"11:53:00","departure_time":"11:53:00","lat":49.195612,"lon":16.613248,"is_passed":false},{"stop_id":"U1146Z1","name":"Hlavní nádraží","arrival_time":"11:56:00","departure_time":"11:56:00","lat":49.191185,"lon":16.611879,"is_passed":false},{"stop_id":"U1436Z1","name":"Nové sady","arrival_time":"11:57:00","departure_time":"11:57:00","lat":49.190116,"lon":16.609025,"is_passed":false},{"stop_id":"U1176Z1","name":"Hybešova","arrival_time":"11:59:00","departure_time":"11:59:00","lat":49.189322,"lon":16.602863,"is_passed":false},{"stop_id":"U1721Z1","name":"Václavská","arrival_time":"12:00:00","departure_time":"12:00:00","lat":49.188681,"lon":16.597217,"is_passed":false},{"stop_id":"U1378Z1","name":"Mendlovo náměstí","arrival_time":"12:03:00","departure_time":"12:03:00","lat":49.189659,"lon":16.592283,"is_passed":false},{"stop_id":"U1768Z1","name":"Výstaviště - hlavní vstup","arrival_time":"12:05:00","departure_time":"12:05:00","lat":49.189583,"lon":16.584499,"is_passed":false},{"stop_id":"U1769Z1","name":"Výstaviště - vstup G2","arrival_time":"12:06:00","departure_time":"12:06:00","lat":49.190338,"lon":16.579837,"is_passed":false},{"stop_id":"U1343Z1","name":"ARENA BRNO","arrival_time":"12:07:00","departure_time":"12:07:00","lat":49.191523,"lon":16.576065,"is_passed":false},{"stop_id":"U1487Z3","name":"Pisárky","arrival_time":"12:09:00","departure_time":"12:09:00","lat":49.194099,"lon":16.569741,"is_passed":false},{"stop_id":"U1041Z1","name":"Bráfova","arrival_time":"12:11:00","departure_time":"12:11:00","lat":49.206955,"lon":16.570536,"is_passed":false},{"stop_id":"U1621Z1","name":"Stránského","arrival_time":"12:12:00","departure_time":"12:12:00","lat":49.211954,"lon":16.568673,"is_passed":false},{"stop_id":"U1217Z11","name":"Vozovna Komín","arrival_time":"12:13:00","departure_time":"12:13:00","lat":49.212594,"lon":16.563449,"is_passed":false},{"stop_id":"U1633Z1","name":"Svratecká","arrival_time":"12:17:00","departure_time":"12:17:00","lat":49.217898,"lon":16.553656,"is_passed":false},{"stop_id":"U1042Z1","name":"Branka","arrival_time":"12:18:00","departure_time":"12:18:00","lat":49.219419,"lon":16.54726,"is_passed":false},{"stop_id":"U1493Z1","name":"Podlesí","arrival_time":"12:19:00","departure_time":"12:19:00","lat":49.218711,"lon":16.542392,"is_passed":false},{"stop_id":"U1226Z1","name":"Kamenolom","arrival_time":"12:20:00","departure_time":"12:20:00","lat":49.221657,"lon":16.536794,"is_passed":false},{"stop_id":"U1796Z1","name":"Zoologická zahrada","arrival_time":"12:22:00","departure_time":"12:22:00","lat":49.227674,"lon":16.532002,"is_passed":false},{"stop_id":"U1527Z1","name":"Přístaviště","arrival_time":"12:23:00","departure_time":"12:23:00","lat":49.22814,"lon":16.521658,"is_passed":false},{"stop_id":"U1537Z1","name":"Rakovecká","arrival_time":"12:25:00","departure_time":"12:46:00","lat":49.225877,"lon":16.518739,"is_passed":false}],"35708":[{"stop_id":"U1537Z2","name":"Rakovecká","arrival_time":"12:46:00","departure_time":"12:46:00","lat":49.226177,"lon":16.519315,"is_passed":false},{"stop_id":"U1527Z2","name":"Přístaviště","arrival_time":"12:47:00","departure_time":"12:47:00","lat":49.228519,"lon":16.522556,"is_passed":false},{"stop_id":"U1796Z2","name":"Zoologická zahrada","arrival_time":"12:49:00","departure_time":"12:49:00","lat":49.22774,"lon":16.531898,"is_passed":false},{"stop_id":"U1226Z2","name":"Kamenolom","arrival_time":"12:50:00","departure_time":"12:50:00","lat":49.221888,"lon":16.536713,"is_passed":false},{"stop_id":"U1493Z2","name":"Podlesí","arrival_time":"12:51:00","departure_time":"12:51:00","lat":49.21871,"lon":16.542217,"is_passed":false},{"stop_id":"U1042Z2","name":"Branka","arrival_time":"12:52:00","departure_time":"12:52:00","lat":49.219368,"lon":16.548224,"is_passed":false},{"stop_id":"U1633Z2","name":"Svratecká","arrival_time":"12:53:00","departure_time":"12:53:00","lat":49.21799,"lon":16.553492,"is_passed":false},{"stop_id":"U1217Z12","name":"Vozovna Komín","arrival_time":"12:57:00","departure_time":"12:57:00","lat":49.212491,"lon":16.563754,"is_passed":false},{"stop_id":"U1621Z2","name":"Stránského","arrival_time":"12:58:00","departure_time":"12:58:00","lat":49.211937,"lon":16.568408,"is_passed":false},{"stop_id":"U1041Z2","name":"Bráfova","arrival_time":"12:59:00","departure_time":"12:59:00","lat":49.207033,"lon":16.570558,"is_passed":false},{"stop_id":"U1487Z4","name":"Pisárky","arrival_time":"13:02:00","departure_time":"13:02:00","lat":49.194163,"lon":16.569615,"is_passed":false},{"stop_id":"U1343Z2","name":"ARENA BRNO","arrival_time":"13:03:00","departure_time":"13:03:00","lat":49.191387,"lon":16.576425,"is_passed":false},{"stop_id":"U1769Z2","name":"Výstaviště - vstup G2","arrival_time":"13:04:00","departure_time":"13:04:00","lat":49.190207,"lon":16.580555,"is_passed":false},{"stop_id":"U1768Z2","name":"Výstaviště - hlavní vstup","arrival_time":"13:05:00","departure_time":"13:05:00","lat":49.189325,"lon":16.585699,"is_passed":false},{"stop_id":"U1378Z2","name":"Mendlovo náměstí","arrival_time":"13:08:00","departure_time":"13:08:00","lat":49.190034,"lon":16.593837,"is_passed":false},{"stop_id":"U1721Z2","name":"Václavská","arrival_time":"13:10:00","departure_time":"13:10:00","lat":49.188715,"lon":16.596878,"is_passed":false},{"stop_id":"U1176Z2","name":"Hybešova","arrival_time":"13:11:00","departure_time":"13:11:00","lat":49.189209,"lon":16.603364,"is_passed":false},{"stop_id":"U1436Z2","name":"Nové sady","arrival_time":"13:14:00","departure_time":"13:14:00","lat":49.190222,"lon":16.609403,"is_passed":false},{"stop_id":"U1146Z2","name":"Hlavní nádraží","arrival_time":"13:16:00","departure_time":"13:16:00","lat":49.191394,"lon":16.612548,"is_passed":false},{"stop_id":"U1357Z3","name":"Malinovského náměstí","arrival_time":"13:18:00","departure_time":"13:18:00","lat":49.196131,"lon":16.612953,"is_passed":false},{"stop_id":"U1397Z1","name":"Moravské náměstí","arrival_time":"13:20:00","departure_time":"13:20:00","lat":49.19996,"lon":16.607931,"is_passed":false},{"stop_id":"U1006Z1","name":"Antonínská","arrival_time":"13:22:00","departure_time":"13:22:00","lat":49.203685,"lon":16.606678,"is_passed":false},{"stop_id":"U1483Z1","name":"Pionýrská","arrival_time":"13:23:00","departure_time":"13:23:00","lat":49.207491,"lon":16.604472,"is_passed":false},{"stop_id":"U1166Z1","name":"Hrnčířská","arrival_time":"13:25:00","departure_time":"13:25:00","lat":49.210254,"lon":16.602868,"is_passed":false},{"stop_id":"U1652Z1","name":"Šumavská","arrival_time":"13:26:00","departure_time":"13:26:00","lat":49.213991,"lon":16.600669,"is_passed":false},{"stop_id":"U1233Z1","name":"Kartouzská","arrival_time":"13:27:00","departure_time":"13:27:00","lat":49.216998,"lon":16.598896,"is_passed":false},{"stop_id":"U1218Z1","name":"Jungmannova","arrival_time":"13:28:00","departure_time":"13:28:00","lat":49.220856,"lon":16.596583,"is_passed":false},{"stop_id":"U1171Z1","name":"Husitská","arrival_time":"13:29:00","departure_time":"13:29:00","lat":49.223125,"lon":16.59524,"is_passed":false},{"stop_id":"U1566Z1","name":"Semilasso","arrival_time":"13:31:00","departure_time":"13:31:00","lat":49.227417,"lon":16.592683,"is_passed":false},{"stop_id":"U1683Z1","name":"Tylova","arrival_time":"13:32:00","departure_time":"13:32:00","lat":49.23243,"lon":16.589321,"is_passed":false},{"stop_id":"U1167Z1","name":"Hudcova","arrival_time":"13:33:00","departure_time":"13:33:00","lat":49.235202,"lon":16.587471,"is_passed":false},{"stop_id":"U1272Z1","name":"Kořískova","arrival_time":"13:35:00","departure_time":"13:35:00","lat":49.240579,"lon":16.58388,"is_passed":false},{"stop_id":"U1108Z1","name":"Filkukova","arrival_time":"13:36:00","departure_time":"13:36:00","lat":49.244244,"lon":16.58143,"is_passed":false},{"stop_id":"U1553Z1","name":"Řečkovice","arrival_time":"13:38:00","departure_time":"13:47:00","lat":49.247295,"lon":16.578803,"is_passed":false}],"35709":[{"stop_id":"U1553Z2","name":"Řečkovice","arrival_time":"13:47:00","departure_time":"13:47:00","lat":49.246978,"lon":16.5794,"is_passed":false},{"stop_id":"U1108Z2","name":"Filkukova","arrival_time":"13:48:00","departure_time":"13:48:00","lat":49.243517,"lon":16.581881,"is_passed":false},{"stop_id":"U1272Z2","name":"Kořískova","arrival_time":"13:49:00","departure_time":"13:49:00","lat":49.238898,"lon":16.584964,"is_passed":false},{"stop_id":"U1167Z2","name":"Hudcova","arrival_time":"13:50:00","departure_time":"13:50:00","lat":49.235791,"lon":16.587041,"is_passed":false},{"stop_id":"U1683Z2","name":"Tylova","arrival_time":"13:51:00","departure_time":"13:51:00","lat":49.232055,"lon":16.589539,"is_passed":false},{"stop_id":"U1566Z2","name":"Semilasso","arrival_time":"13:53:00","departure_time":"13:53:00","lat":49.228227,"lon":16.592081,"is_passed":false},{"stop_id":"U1171Z2","name":"Husitská","arrival_time":"13:55:00","departure_time":"13:55:00","lat":49.223415,"lon":16.595016,"is_passed":false},{"stop_id":"U1218Z2","name":"Jungmannova","arrival_time":"13:56:00","departure_time":"13:56:00","lat":49.221083,"lon":16.596416,"is_passed":false},{"stop_id":"U1233Z2","name":"Kartouzská","arrival_time":"13:57:00","departure_time":"13:57:00","lat":49.21665,"lon":16.599078,"is_passed":false},{"stop_id":"U1652Z2","name":"Šumavská","arrival_time":"13:58:00","departure_time":"13:58:00","lat":49.214022,"lon":16.60062,"is_passed":false},{"stop_id":"U1166Z2","name":"Hrnčířská","arrival_time":"13:59:00","departure_time":"13:59:00","lat":49.21062,"lon":16.602628,"is_passed":false},{"stop_id":"U1483Z2","name":"Pionýrská","arrival_time":"14:00:00","departure_time":"14:00:00","lat":49.207904,"lon":16.604201,"is_passed":false},{"stop_id":"U1006Z2","name":"Antonínská","arrival_time":"14:01:00","departure_time":"14:01:00","lat":49.203166,"lon":16.606915,"is_passed":false},{"stop_id":"U1397Z2","name":"Moravské náměstí","arrival_time":"14:03:00","departure_time":"14:03:00","lat":49.199237,"lon":16.608067,"is_passed":false},{"stop_id":"U1357Z4","name":"Malinovského náměstí","arrival_time":"14:06:00","departure_time":"14:06:00","lat":49.195612,"lon":16.613248,"is_passed":false},{"stop_id":"U1146Z1","name":"Hlavní nádraží","arrival_time":"14:09:00","departure_time":"14:09:00","lat":49.191185,"lon":16.611879,"is_passed":false},{"stop_id":"U1436Z1","name":"Nové sady","arrival_time":"14:10:00","departure_time":"14:10:00","lat":49.190116,"lon":16.609025,"is_passed":false},{"stop_id":"U1176Z1","name":"Hybešova","arrival_time":"14:12:00","departure_time":"14:12:00","lat":49.189322,"lon":16.602863,"is_passed":false},{"stop_id":"U1721Z1","name":"Václavská","arrival_time":"14:13:00","departure_time":"14:13:00","lat":49.188681,"lon":16.597217,"is_passed":false},{"stop_id":"U1378Z1","name":"Mendlovo náměstí","arrival_time":"14:16:00","departure_time":"14:16:00","lat":49.189659,"lon":16.592283,"is_passed":false},{"stop_id":"U1768Z1","name":"Výstaviště - hlavní vstup","arrival_time":"14:18:00","departure_time":"14:18:00","lat":49.189583,"lon":16.584499,"is_passed":false},{"stop_id":"U1769Z1","name":"Výstaviště - vstup G2","arrival_time":"14:19:00","departure_time":"14:19:00","lat":49.190338,"lon":16.579837,"is_passed":false},{"stop_id":"U1343Z1","name":"ARENA BRNO","arrival_time":"14:20:00","departure_time":"14:20:00","lat":49.191523,"lon":16.576065,"is_passed":false},{"stop_id":"U1487Z3","name":"Pisárky","arrival_time":"14:22:00","departure_time":"14:22:00","lat":49.194099,"lon":16.569741,"is_passed":false},{"stop_id":"U1041Z1","name":"Bráfova","arrival_time":"14:24:00","departure_time":"14:24:00","lat":49.206955,"lon":16.570536,"is_passed":false},{"stop_id":"U1621Z1","name":"Stránského","arrival_time":"14:25:00","departure_time":"14:25:00","lat":49.211954,"lon":16.568673,"is_passed":false},{"stop_id":"U1217Z11","name":"Vozovna Komín","arrival_time":"14:26:00","departure_time":"14:26:00","lat":49.212594,"lon":16.563449,"is_passed":false},{"stop_id":"U1633Z1","name":"Svratecká","arrival_time":"14:30:00","departure_time":"14:30:00","lat":49.217898,"lon":16.553656,"is_passed":false},{"stop_id":"U1042Z1","name":"Branka","arrival_time":"14:31:00","departure_time":"14:31:00","lat":49.219419,"lon":16.54726,"is_passed":false},{"stop_id":"U1493Z1","name":"Podlesí","arrival_time":"14:32:00","departure_time":"14:32:00","lat":49.218711,"lon":16.542392,"is_passed":false},{"stop_id":"U1226Z1","name":"Kamenolom","arrival_time":"14:33:00","departure_time":"14:33:00","lat":49.221657,"lon":16.536794,"is_passed":false},{"stop_id":"U1796Z1","name":"Zoologická zahrada","arrival_time":"14:35:00","departure_time":"14:35:00","lat":49.227674,"lon":16.532002,"is_passed":false},{"stop_id":"U1527Z1","name":"Přístaviště","arrival_time":"14:36:00","departure_time":"14:36:00","lat":49.22814,"lon":16.521658,"is_passed":false},{"stop_id":"U1537Z1","name":"Rakovecká","arrival_time":"14:38:00","departure_time":"15:00:00","lat":49.225877,"lon":16.518739,"is_passed":false}],"35710":[{"stop_id":"U1537Z2","name":"Rakovecká","arrival_time":"15:00:00","departure_time":"15:00:00","lat":49.226177,"lon":16.519315,"is_passed":false},{"stop_id":"U1527Z2","name":"Přístaviště","arrival_time":"15:01:00","departure_time":"15:01:00","lat":49.228519,"lon":16.522556,"is_passed":false},{"stop_id":"U1796Z2","name":"Zoologická zahrada","arrival_time":"15:03:00","departure_time":"15:03:00","lat":49.22774,"lon":16.531898,"is_passed":false},{"stop_id":"U1226Z2","name":"Kamenolom","arrival_time":"15:04:00","departure_time":"15:04:00","lat":49.221888,"lon":16.536713,"is_passed":false},{"stop_id":"U1493Z2","name":"Podlesí","arrival_time":"15:05:00","departure_time":"15:05:00","lat":49.21871,"lon":16.542217,"is_passed":false},{"stop_id":"U1042Z2","name":"Branka","arrival_time":"15:06:00","departure_time":"15:06:00","lat":49.219368,"lon":16.548224,"is_passed":false},{"stop_id":"U1633Z2","name":"Svratecká","arrival_time":"15:07:00","departure_time":"15:07:00","lat":49.21799,"lon":16.553492,"is_passed":false},{"stop_id":"U1217Z12","name":"Vozovna Komín","arrival_time":"15:11:00","departure_time":"15:11:00","lat":49.212491,"lon":16.563754,"is_passed":false},{"stop_id":"U1621Z2","name":"Stránského","arrival_time":"15:12:00","departure_time":"15:12:00","lat":49.211937,"lon":16.568408,"is_passed":false},{"stop_id":"U1041Z2","name":"Bráfova","arrival_time":"15:13:00","departure_time":"15:13:00","lat":49.207033,"lon":16.570558,"is_passed":false},{"stop_id":"U1487Z4","name":"Pisárky","arrival_time":"15:16:00","departure_time":"15:16:00","lat":49.194163,"lon":16.569615,"is_passed":false},{"stop_id":"U1343Z2","name":"ARENA BRNO","arrival_time":"15:17:00","departure_time":"15:17:00","lat":49.191387,"lon":16.576425,"is_passed":false},{"stop_id":"U1769Z2","name":"Výstaviště - vstup G2","arrival_time":"15:18:00","departure_time":"15:18:00","lat":49.190207,"lon":16.580555,"is_passed":false},{"stop_id":"U1768Z2","name":"Výstaviště - hlavní vstup","arrival_time":"15:19:00","departure_time":"15:19:00","lat":49.189325,"lon":16.585699,"is_passed":false},{"stop_id":"U1378Z2","name":"Mendlovo náměstí","arrival_time":"15:22:00","departure_time":"15:22:00","lat":49.190034,"lon":16.593837,"is_passed":false},{"stop_id":"U1721Z2","name":"Václavská","arrival_time":"15:24:00","departure_time":"15:24:00","lat":49.188715,"lon":16.596878,"is_passed":false},{"stop_id":"U1176Z2","name":"Hybešova","arrival_time":"15:25:00","departure_time":"15:25:00","lat":49.189209,"lon":16.603364,"is_passed":false},{"stop_id":"U1436Z2","name":"Nové sady","arrival_time":"15:28:00","departure_time":"15:28:00","lat":49.190222,"lon":16.609403,"is_passed":false},{"stop_id":"U1146Z2","name":"Hlavní nádraží","arrival_time":"15:30:00","departure_time":"15:30:00","lat":49.191394,"lon":16.612548,"is_passed":false},{"stop_id":"U1357Z3","name":"Malinovského náměstí","arrival_time":"15:32:00","departure_time":"15:32:00","lat":49.196131,"lon":16.612953,"is_passed":false},{"stop_id":"U1397Z1","name":"Moravské náměstí","arrival_time":"15:34:00","departure_time":"15:34:00","lat":49.19996,"lon":16.607931,"is_passed":false},{"stop_id":"U1006Z1","name":"Antonínská","arrival_time":"15:36:00","departure_time":"15:36:00","lat":49.203685,"lon":16.606678,"is_passed":false},{"stop_id":"U1483Z1","name":"Pionýrská","arrival_time":"15:37:00","departure_time":"15:37:00","lat":49.207491,"lon":16.604472,"is_passed":false},{"stop_id":"U1166Z1","name":"Hrnčířská","arrival_time":"15:39:00","departure_time":"15:39:00","lat":49.210254,"lon":16.602868,"is_passed":false},{"stop_id":"U1652Z1","name":"Šumavská","arrival_time":"15:40:00","departure_time":"15:40:00","lat":49.213991,"lon":16.600669,"is_passed":false},{"stop_id":"U1233Z1","name":"Kartouzská","arrival_time":"15:41:00","departure_time":"15:41:00","lat":49.216998,"lon":16.598896,"is_passed":false},{"stop_id":"U1218Z1","name":"Jungmannova","arrival_time":"15:42:00","departure_time":"15:42:00","lat":49.220856,"lon":16.596583,"is_passed":false},{"stop_id":"U1171Z1","name":"Husitská","arrival_time":"15:43:00","departure_time":"15:43:00","lat":49.223125,"lon":16.59524,"is_passed":false},{"stop_id":"U1566Z1","name":"Semilasso","arrival_time":"15:45:00","departure_time":"15:45:00","lat":49.227417,"lon":16.592683,"is_passed":false},{"stop_id":"U1683Z1","name":"Tylova","arrival_time":"15:46:00","departure_time":"15:46:00","lat":49.23243,"lon":16.589321,"is_passed":false},{"stop_id":"U1167Z1","name":"Hudcova","arrival_time":"15:47:00","departure_time":"15:47:00","lat":49.235202,"lon":16.587471,"is_passed":false},{"stop_id":"U1272Z1","name":"Kořískova","arrival_time":"15:49:00","departure_time":"15:49:00","lat":49.240579,"lon":16.58388,"is_passed":false},{"stop_id":"U1108Z1","name":"Filkukova","arrival_time":"15:50:00","departure_time":"15:50:00","lat":49.244244,"lon":16.58143,"is_passed":false},{"stop_id":"U1553Z1","name":"Řečkovice","arrival_time":"15:52:00","departure_time":"16:07:00","lat":49.247295,"lon":16.578803,"is_passed":false}],"35711":[{"stop_id":"U1553Z2","name":"Řečkovice","arrival_time":"16:07:00","departure_time":"16:07:00","lat":49.246978,"lon":16.5794,"is_passed":false},{"stop_id":"U1108Z2","name":"Filkukova","arrival_time":"16:08:00","departure_time":"16:08:00","lat":49.243517,"lon":16.581881,"is_passed":false},{"stop_id":"U1272Z2","name":"Kořískova","arrival_time":"16:09:00","departure_time":"16:09:00","lat":49.238898,"lon":16.584964,"is_passed":false},{"stop_id":"U1167Z2","name":"Hudcova","arrival_time":"16:10:00","departure_time":"16:10:00","lat":49.235791,"lon":16.587041,"is_passed":false},{"stop_id":"U1683Z2","name":"Tylova","arrival_time":"16:11:00","departure_time":"16:11:00","lat":49.232055,"lon":16.589539,"is_passed":false},{"stop_id":"U1566Z2","name":"Semilasso","arrival_time":"16:13:00","departure_time":"16:13:00","lat":49.228227,"lon":16.592081,"is_passed":false},{"stop_id":"U1171Z2","name":"Husitská","arrival_time":"16:15:00","departure_time":"16:15:00","lat":49.223415,"lon":16.595016,"is_passed":false},{"stop_id":"U1218Z2","name":"Jungmannova","arrival_time":"16:16:00","departure_time":"16:16:00","lat":49.221083,"lon":16.596416,"is_passed":false},{"stop_id":"U1233Z2","name":"Kartouzská","arrival_time":"16:17:00","departure_time":"16:17:00","lat":49.21665,"lon":16.599078,"is_passed":false},{"stop_id":"U1652Z2","name":"Šumavská","arrival_time":"16:18:00","departure_time":"16:18:00","lat":49.214022,"lon":16.60062,"is_passed":false},{"stop_id":"U1166Z2","name":"Hrnčířská","arrival_time":"16:19:00","departure_time":"16:19:00","lat":49.21062,"lon":16.602628,"is_passed":false},{"stop_id":"U1483Z2","name":"Pionýrská","arrival_time":"16:20:00","departure_time":"16:20:00","lat":49.207904,"lon":16.604201,"is_passed":false},{"stop_id":"U1006Z2","name":"Antonínská","arrival_time":"16:21:00","departure_time":"16:21:00","lat":49.203166,"lon":16.606915,"is_passed":false},{"stop_id":"U1397Z2","name":"Moravské náměstí","arrival_time":"16:23:00","departure_time":"16:23:00","lat":49.199237,"lon":16.608067,"is_passed":false},{"stop_id":"U1357Z4","name":"Malinovského náměstí","arrival_time":"16:26:00","departure_time":"16:26:00","lat":49.195612,"lon":16.613248,"is_passed":false},{"stop_id":"U1146Z1","name":"Hlavní nádraží","arrival_time":"16:29:00","departure_time":"16:29:00","lat":49.191185,"lon":16.611879,"is_passed":false},{"stop_id":"U1436Z1","name":"Nové sady","arrival_time":"16:30:00","departure_time":"16:30:00","lat":49.190116,"lon":16.609025,"is_passed":false},{"stop_id":"U1176Z1","name":"Hybešova","arrival_time":"16:32:00","departure_time":"16:32:00","lat":49.189322,"lon":16.602863,"is_passed":false},{"stop_id":"U1721Z1","name":"Václavská","arrival_time":"16:33:00","departure_time":"16:33:00","lat":49.188681,"lon":16.597217,"is_passed":false},{"stop_id":"U1378Z1","name":"Mendlovo náměstí","arrival_time":"16:36:00","departure_time":"16:36:00","lat":49.189659,"lon":16.592283,"is_passed":false},{"stop_id":"U1768Z1","name":"Výstaviště - hlavní vstup","arrival_time":"16:38:00","departure_time":"16:38:00","lat":49.189583,"lon":16.584499,"is_passed":false},{"stop_id":"U1769Z1","name":"Výstaviště - vstup G2","arrival_time":"16:39:00","departure_time":"16:39:00","lat":49.190338,"lon":16.579837,"is_passed":false},{"stop_id":"U1343Z1","name":"ARENA BRNO","arrival_time":"16:40:00","departure_time":"16:40:00","lat":49.191523,"lon":16.576065,"is_passed":false},{"stop_id":"U1487Z3","name":"Pisárky","arrival_time":"16:42:00","departure_time":"16:42:00","lat":49.194099,"lon":16.569741,"is_passed":false},{"stop_id":"U1041Z1","name":"Bráfova","arrival_time":"16:44:00","departure_time":"16:44:00","lat":49.206955,"lon":16.570536,"is_passed":false},{"stop_id":"U1621Z1","name":"Stránského","arrival_time":"16:45:00","departure_time":"16:45:00","lat":49.211954,"lon":16.568673,"is_passed":false},{"stop_id":"U1217Z11","name":"Vozovna Komín","arrival_time":"16:46:00","departure_time":"16:46:00","lat":49.212594,"lon":16.563449,"is_passed":false},{"stop_id":"U1633Z1","name":"Svratecká","arrival_time":"16:50:00","departure_time":"16:50:00","lat":49.217898,"lon":16.553656,"is_passed":false},{"stop_id":"U1042Z1","name":"Branka","arrival_time":"16:51:00","departure_time":"16:51:00","lat":49.219419,"lon":16.54726,"is_passed":false},{"stop_id":"U1493Z1","name":"Podlesí","arrival_time":"16:52:00","departure_time":"16:52:00","lat":49.218711,"lon":16.542392,"is_passed":false},{"stop_id":"U1226Z1","name":"Kamenolom","arrival_time":"16:53:00","departure_time":"16:53:00","lat":49.221657,"lon":16.536794,"is_passed":false},{"stop_id":"U1796Z1","name":"Zoologická zahrada","arrival_time":"16:55:00","departure_time":"16:55:00","lat":49.227674,"lon":16.532002,"is_passed":false},{"stop_id":"U1527Z1","name":"Přístaviště","arrival_time":"16:56:00","departure_time":"16:56:00","lat":49.22814,"lon":16.521658,"is_passed":false},{"stop_id":"U1537Z1","name":"Rakovecká","arrival_time":"16:58:00","departure_time":"17:20:00","lat":49.225877,"lon":16.518739,"is_passed":false}],"35712":[{"stop_id":"U1537Z2","name":"Rakovecká","arrival_time":"17:20:00","departure_time":"17:20:00","lat":49.226177,"lon":16.519315,"is_passed":false},{"stop_id":"U1527Z2","name":"Přístaviště","arrival_time":"17:21:00","departure_time":"17:21:00","lat":49.228519,"lon":16.522556,"is_passed":false},{"stop_id":"U1796Z2","name":"Zoologická zahrada","arrival_time":"17:23:00","departure_time":"17:23:00","lat":49.22774,"lon":16.531898,"is_passed":false},{"stop_id":"U1226Z2","name":"Kamenolom","arrival_time":"17:24:00","departure_time":"17:24:00","lat":49.221888,"lon":16.536713,"is_passed":false},{"stop_id":"U1493Z2","name":"Podlesí","arrival_time":"17:25:00","departure_time":"17:25:00","lat":49.21871,"lon":16.542217,"is_passed":false},{"stop_id":"U1042Z2","name":"Branka","arrival_time":"17:26:00","departure_time":"17:26:00","lat":49.219368,"lon":16.548224,"is_passed":false},{"stop_id":"U1633Z2","name":"Svratecká","arrival_time":"17:27:00","departure_time":"17:27:00","lat":49.21799,"lon":16.553492,"is_passed":false},{"stop_id":"U1217Z12","name":"Vozovna Komín","arrival_time":"17:31:00","departure_time":"17:31:00","lat":49.212491,"lon":16.563754,"is_passed":false},{"stop_id":"U1621Z2","name":"Stránského","arrival_time":"17:32:00","departure_time":"17:32:00","lat":49.211937,"lon":16.568408,"is_passed":false},{"stop_id":"U1041Z2","name":"Bráfova","arrival_time":"17:33:00","departure_time":"17:33:00","lat":49.207033,"lon":16.570558,"is_passed":false},{"stop_id":"U1487Z4","name":"Pisárky","arrival_time":"17:36:00","departure_time":"17:36:00","lat":49.194163,"lon":16.569615,"is_passed":false},{"stop_id":"U1343Z2","name":"ARENA BRNO","arrival_time":"17:37:00","departure_time":"17:37:00","lat":49.191387,"lon":16.576425,"is_passed":false},{"stop_id":"U1769Z2","name":"Výstaviště - vstup G2","arrival_time":"17:38:00","departure_time":"17:38:00","lat":49.190207,"lon":16.580555,"is_passed":false},{"stop_id":"U1768Z2","name":"Výstaviště - hlavní vstup","arrival_time":"17:39:00","departure_time":"17:39:00","lat":49.189325,"lon":16.585699,"is_passed":false},{"stop_id":"U1378Z2","name":"Mendlovo náměstí","arrival_time":"17:42:00","departure_time":"17:42:00","lat":49.190034,"lon":16.593837,"is_passed":false},{"stop_id":"U1721Z2","name":"Václavská","arrival_time":"17:44:00","departure_time":"17:44:00","lat":49.188715,"lon":16.596878,"is_passed":false},{"stop_id":"U1176Z2","name":"Hybešova","arrival_time":"17:45:00","departure_time":"17:45:00","lat":49.189209,"lon":16.603364,"is_passed":false},{"stop_id":"U1436Z2","name":"Nové sady","arrival_time":"17:48:00","departure_time":"17:48:00","lat":49.190222,"lon":16.609403,"is_passed":false},{"stop_id":"U1146Z2","name":"Hlavní nádraží","arrival_time":"17:50:00","departure_time":"17:50:00","lat":49.191394,"lon":16.612548,"is_passed":false},{"stop_id":"U1357Z3","name":"Malinovského náměstí","arrival_time":"17:52:00","departure_time":"17:52:00","lat":49.196131,"lon":16.612953,"is_passed":false},{"stop_id":"U1397Z1","name":"Moravské náměstí","arrival_time":"17:54:00","departure_time":"17:54:00","lat":49.19996,"lon":16.607931,"is_passed":false},{"stop_id":"U1006Z1","name":"Antonínská","arrival_time":"17:56:00","departure_time":"17:56:00","lat":49.203685,"lon":16.606678,"is_passed":false},{"stop_id":"U1483Z1","name":"Pionýrská","arrival_time":"17:57:00","departure_time":"17:57:00","lat":49.207491,"lon":16.604472,"is_passed":false},{"stop_id":"U1166Z1","name":"Hrnčířská","arrival_time":"17:59:00","departure_time":"17:59:00","lat":49.210254,"lon":16.602868,"is_passed":false},{"stop_id":"U1652Z1","name":"Šumavská","arrival_time":"18:00:00","departure_time":"18:00:00","lat":49.213991,"lon":16.600669,"is_passed":false},{"stop_id":"U1233Z1","name":"Kartouzská","arrival_time":"18:01:00","departure_time":"18:01:00","lat":49.216998,"lon":16.598896,"is_passed":false},{"stop_id":"U1218Z1","name":"Jungmannova","arrival_time":"18:02:00","departure_time":"18:02:00","lat":49.220856,"lon":16.596583,"is_passed":false},{"stop_id":"U1171Z1","name":"Husitská","arrival_time":"18:03:00","departure_time":"18:03:00","lat":49.223125,"lon":16.59524,"is_passed":false},{"stop_id":"U1566Z1","name":"Semilasso","arrival_time":"18:05:00","departure_time":"18:05:00","lat":49.227417,"lon":16.592683,"is_passed":false},{"stop_id":"U1683Z1","name":"Tylova","arrival_time":"18:06:00","departure_time":"18:06:00","lat":49.23243,"lon":16.589321,"is_passed":false},{"stop_id":"U1167Z1","name":"Hudcova","arrival_time":"18:07:00","departure_time":"18:07:00","lat":49.235202,"lon":16.587471,"is_passed":false},{"stop_id":"U1272Z1","name":"Kořískova","arrival_time":"18:09:00","departure_time":"18:09:00","lat":49.240579,"lon":16.58388,"is_passed":false},{"stop_id":"U1108Z1","name":"Filkukova","arrival_time":"18:10:00","departure_time":"18:10:00","lat":49.244244,"lon":16.58143,"is_passed":false},{"stop_id":"U1553Z1","name":"Řečkovice","arrival_time":"18:12:00","departure_time":"18:19:00","lat":49.247295,"lon":16.578803,"is_passed":false}],"35713":[{"stop_id":"U1553Z2","name":"Řečkovice","arrival_time":"18:19:00","departure_time":"18:19:00","lat":49.246978,"lon":16.5794,"is_passed":false},{"stop_id":"U1108Z2","name":"Filkukova","arrival_time":"18:20:00","departure_time":"18:20:00","lat":49.243517,"lon":16.581881,"is_passed":false},{"stop_id":"U1272Z2","name":"Kořískova","arrival_time":"18:21:00","departure_time":"18:21:00","lat":49.238898,"lon":16.584964,"is_passed":false},{"stop_id":"U1167Z2","name":"Hudcova","arrival_time":"18:22:00","departure_time":"18:22:00","lat":49.235791,"lon":16.587041,"is_passed":false},{"stop_id":"U1683Z2","name":"Tylova","arrival_time":"18:23:00","departure_time":"18:23:00","lat":49.232055,"lon":16.589539,"is_passed":false},{"stop_id":"U1566Z2","name":"Semilasso","arrival_time":"18:24:00","departure_time":"18:24:00","lat":49.228227,"lon":16.592081,"is_passed":false},{"stop_id":"U1171Z2","name":"Husitská","arrival_time":"18:26:00","departure_time":"18:26:00","lat":49.223415,"lon":16.595016,"is_passed":false},{"stop_id":"U1218Z2","name":"Jungmannova","arrival_time":"18:27:00","departure_time":"18:27:00","lat":49.221083,"lon":16.596416,"is_passed":false},{"stop_id":"U1233Z2","name":"Kartouzská","arrival_time":"18:28:00","departure_time":"18:28:00","lat":49.21665,"lon":16.599078,"is_passed":false},{"stop_id":"U1652Z2","name":"Šumavská","arrival_time":"18:29:00","departure_time":"18:29:00","lat":49.214022,"lon":16.60062,"is_passed":false},{"stop_id":"U1166Z2","name":"Hrnčířská","arrival_time":"18:30:00","departure_time":"18:30:00","lat":49.21062,"lon":16.602628,"is_passed":false},{"stop_id":"U1483Z2","name":"Pionýrská","arrival_time":"18:31:00","departure_time":"18:31:00","lat":49.207904,"lon":16.604201,"is_passed":false},{"stop_id":"U1006Z2","name":"Antonínská","arrival_time":"18:32:00","departure_time":"18:32:00","lat":49.203166,"lon":16.606915,"is_passed":false},{"stop_id":"U1397Z2","name":"Moravské náměstí","arrival_time":"18:34:00","departure_time":"18:34:00","lat":49.199237,"lon":16.608067,"is_passed":false},{"stop_id":"U1357Z4","name":"Malinovského náměstí","arrival_time":"18:37:00","departure_time":"18:37:00","lat":49.195612,"lon":16.613248,"is_passed":false},{"stop_id":"U1146Z1","name":"Hlavní nádraží","arrival_time":"18:40:00","departure_time":"18:40:00","lat":49.191185,"lon":16.611879,"is_passed":false},{"stop_id":"U1436Z1","name":"Nové sady","arrival_time":"18:41:00","departure_time":"18:41:00","lat":49.190116,"lon":16.609025,"is_passed":false},{"stop_id":"U1176Z1","name":"Hybešova","arrival_time":"18:43:00","departure_time":"18:43:00","lat":49.189322,"lon":16.602863,"is_passed":false},{"stop_id":"U1721Z1","name":"Václavská","arrival_time":"18:44:00","departure_time":"18:44:00","lat":49.188681,"lon":16.597217,"is_passed":false},{"stop_id":"U1378Z1","name":"Mendlovo náměstí","arrival_time":"18:46:00","departure_time":"18:46:00","lat":49.189659,"lon":16.592283,"is_passed":false},{"stop_id":"U1768Z1","name":"Výstaviště - hlavní vstup","arrival_time":"18:48:00","departure_time":"18:48:00","lat":49.189583,"lon":16.584499,"is_passed":false},{"stop_id":"U1769Z1","name":"Výstaviště - vstup G2","arrival_time":"18:49:00","departure_time":"18:49:00","lat":49.190338,"lon":16.579837,"is_passed":false},{"stop_id":"U1343Z1","name":"ARENA BRNO","arrival_time":"18:50:00","departure_time":"18:50:00","lat":49.191523,"lon":16.576065,"is_passed":false},{"stop_id":"U1487Z3","name":"Pisárky","arrival_time":"18:52:00","departure_time":"18:52:00","lat":49.194099,"lon":16.569741,"is_passed":false},{"stop_id":"U1041Z1","name":"Bráfova","arrival_time":"18:54:00","departure_time":"18:54:00","lat":49.206955,"lon":16.570536,"is_passed":false},{"stop_id":"U1621Z1","name":"Stránského","arrival_time":"18:55:00","departure_time":"18:55:00","lat":49.211954,"lon":16.568673,"is_passed":false},{"stop_id":"U1217Z11","name":"Vozovna Komín","arrival_time":"18:56:00","departure_time":"18:56:00","lat":49.212594,"lon":16.563449,"is_passed":false},{"stop_id":"U1633Z1","name":"Svratecká","arrival_time":"19:00:00","departure_time":"19:00:00","lat":49.217898,"lon":16.553656,"is_passed":false},{"stop_id":"U1042Z1","name":"Branka","arrival_time":"19:01:00","departure_time":"19:01:00","lat":49.219419,"lon":16.54726,"is_passed":false},{"stop_id":"U1493Z1","name":"Podlesí","arrival_time":"19:02:00","departure_time":"19:02:00","lat":49.218711,"lon":16.542392,"is_passed":false},{"stop_id":"U1226Z1","name":"Kamenolom","arrival_time":"19:03:00","departure_time":"19:03:00","lat":49.221657,"lon":16.536794,"is_passed":false},{"stop_id":"U1796Z1","name":"Zoologická zahrada","arrival_time":"19:05:00","departure_time":"19:05:00","lat":49.227674,"lon":16.532002,"is_passed":false},{"stop_id":"U1527Z1","name":"Přístaviště","arrival_time":"19:06:00","departure_time":"19:06:00","lat":49.22814,"lon":16.521658,"is_passed":false},{"stop_id":"U1537Z1","name":"Rakovecká","arrival_time":"19:08:00","departure_time":"19:22:00","lat":49.225877,"lon":16.518739,"is_passed":false}],"35714":[{"stop_id":"U1756Z2","name":"Vozovna Medlánky","arrival_time":"4:52:00","departure_time":"4:52:00","lat":49.235314,"lon":16.586529,"is_passed":false},{"stop_id":"U1272Z1","name":"Kořískova","arrival_time":"4:54:00","departure_time":"4:54:00","lat":49.240579,"lon":16.58388,"is_passed":false},{"stop_id":"U1108Z1","name":"Filkukova","arrival_time":"4:55:00","departure_time":"4:55:00","lat":49.244244,"lon":16.58143,"is_passed":false},{"stop_id":"U1553Z1","name":"Řečkovice","arrival_time":"4:57:00","departure_time":"4:57:00","lat":49.247295,"lon":16.578803,"is_passed":false}],"35715":[{"stop_id":"U1553Z2","name":"Řečkovice","arrival_time":"5:09:00","departure_time":"5:09:00","lat":49.246978,"lon":16.5794,"is_passed":false},{"stop_id":"U1108Z2","name":"Filkukova","arrival_time":"5:10:00","departure_time":"5:10:00","lat":49.243517,"lon":16.581881,"is_passed":false},{"stop_id":"U1272Z2","name":"Kořískova","arrival_time":"5:11:00","departure_time":"5:11:00","lat":49.238898,"lon":16.584964,"is_passed":false},{"stop_id":"U1167Z2","name":"Hudcova","arrival_time":"5:12:00","departure_time":"5:12:00","lat":49.235791,"lon":16.587041,"is_passed":false},{"stop_id":"U1683Z2","name":"Tylova","arrival_time":"5:13:00","departure_time":"5:13:00","lat":49.232055,"lon":16.589539,"is_passed":false},{"stop_id":"U1566Z2","name":"Semilasso","arrival_time":"5:14:00","departure_time":"5:14:00","lat":49.228227,"lon":16.592081,"is_passed":false},{"stop_id":"U1171Z2","name":"Husitská","arrival_time":"5:16:00","departure_time":"5:16:00","lat":49.223415,"lon":16.595016,"is_passed":false},{"stop_id":"U1218Z2","name":"Jungmannova","arrival_time":"5:17:00","departure_time":"5:17:00","lat":49.221083,"lon":16.596416,"is_passed":false},{"stop_id":"U1233Z2","name":"Kartouzská","arrival_time":"5:18:00","departure_time":"5:18:00","lat":49.21665,"lon":16.599078,"is_passed":false},{"stop_id":"U1652Z2","name":"Šumavská","arrival_time":"5:19:00","departure_time":"5:19:00","lat":49.214022,"lon":16.60062,"is_passed":false},{"stop_id":"U1166Z2","name":"Hrnčířská","arrival_time":"5:20:00","departure_time":"5:20:00","lat":49.21062,"lon":16.602628,"is_passed":false},{"stop_id":"U1483Z2","name":"Pionýrská","arrival_time":"5:21:00","departure_time":"5:21:00","lat":49.207904,"lon":16.604201,"is_passed":false},{"stop_id":"U1006Z2","name":"Antonínská","arrival_time":"5:22:00","departure_time":"5:22:00","lat":49.203166,"lon":16.606915,"is_passed":false},{"stop_id":"U1397Z2","name":"Moravské náměstí","arrival_time":"5:24:00","departure_time":"5:24:00","lat":49.199237,"lon":16.608067,"is_passed":false},{"stop_id":"U1357Z4","name":"Malinovského náměstí","arrival_time":"5:27:00","departure_time":"5:27:00","lat":49.195612,"lon":16.613248,"is_passed":false},{"stop_id":"U1146Z1","name":"Hlavní nádraží","arrival_time":"5:30:00","departure_time":"5:30:00","lat":49.191185,"lon":16.611879,"is_passed":false},{"stop_id":"U1436Z1","name":"Nové sady","arrival_time":"5:31:00","departure_time":"5:31:00","lat":49.190116,"lon":16.609025,"is_passed":false},{"stop_id":"U1176Z1","name":"Hybešova","arrival_time":"5:33:00","departure_time":"5:33:00","lat":49.189322,"lon":16.602863,"is_passed":false},{"stop_id":"U1721Z1","name":"Václavská","arrival_time":"5:34:00","departure_time":"5:34:00","lat":49.188681,"lon":16.597217,"is_passed":false},{"stop_id":"U1378Z1","name":"Mendlovo náměstí","arrival_time":"5:36:00","departure_time":"5:36:00","lat":49.189659,"lon":16.592283,"is_passed":false},{"stop_id":"U1768Z1","name":"Výstaviště - hlavní vstup","arrival_time":"5:38:00","departure_time":"5:38:00","lat":49.189583,"lon":16.584499,"is_passed":false},{"stop_id":"U1769Z1","name":"Výstaviště - vstup G2","arrival_time":"5:39:00","departure_time":"5:39:00","lat":49.190338,"lon":16.579837,"is_passed":false},{"stop_id":"U1343Z1","name":"ARENA BRNO","arrival_time":"5:40:00","departure_time":"5:40:00","lat":49.191523,"lon":16.576065,"is_passed":false},{"stop_id":"U1487Z3","name":"Pisárky","arrival_time":"5:42:00","departure_time":"5:42:00","lat":49.194099,"lon":16.569741,"is_passed":false},{"stop_id":"U1041Z1","name":"Bráfova","arrival_time":"5:44:00","departure_time":"5:44:00","lat":49.206955,"lon":16.570536,"is_passed":false},{"stop_id":"U1621Z1","name":"Stránského","arrival_time":"5:45:00","departure_time":"5:45:00","lat":49.211954,"lon":16.568673,"is_passed":false},{"stop_id":"U1217Z11","name":"Vozovna Komín","arrival_time":"5:46:00","departure_time":"5:46:00","lat":49.212594,"lon":16.563449,"is_passed":false},{"stop_id":"U1633Z1","name":"Svratecká","arrival_time":"5:50:00","departure_time":"5:50:00","lat":49.217898,"lon":16.553656,"is_passed":false},{"stop_id":"U1042Z1","name":"Branka","arrival_time":"5:51:00","departure_time":"5:51:00","lat":49.219419,"lon":16.54726,"is_passed":false},{"stop_id":"U1493Z1","name":"Podlesí","arrival_time":"5:52:00","departure_time":"5:52:00","lat":49.218711,"lon":16.542392,"is_passed":false},{"stop_id":"U1226Z1","name":"Kamenolom","arrival_time":"5:53:00","departure_time":"5:53:00","lat":49.221657,"lon":16.536794,"is_passed":false},{"stop_id":"U1796Z1","name":"Zoologická zahrada","arrival_time":"5:55:00","departure_time":"5:55:00","lat":49.227674,"lon":16.532002,"is_passed":false},{"stop_id":"U1527Z1","name":"Přístaviště","arrival_time":"5:56:00","departure_time":"5:56:00","lat":49.22814,"lon":16.521658,"is_passed":false},{"stop_id":"U1537Z1","name":"Rakovecká","arrival_time":"5:58:00","departure_time":"6:13:00","lat":49.225877,"lon":16.518739,"is_passed":false}],"35716":[{"stop_id":"U1537Z2","name":"Rakovecká","arrival_time":"6:13:00","departure_time":"6:13:00","lat":49.226177,"lon":16.519315,"is_passed":false},{"stop_id":"U1527Z2","name":"Přístaviště","arrival_time":"6:14:00","departure_time":"6:14:00","lat":49.228519,"lon":16.522556,"is_passed":false},{"stop_id":"U1796Z2","name":"Zoologická zahrada","arrival_time":"6:16:00","departure_time":"6:16:00","lat":49.22774,"lon":16.531898,"is_passed":false},{"stop_id":"U1226Z2","name":"Kamenolom","arrival_time":"6:17:00","departure_time":"6:17:00","lat":49.221888,"lon":16.536713,"is_passed":false},{"stop_id":"U1493Z2","name":"Podlesí","arrival_time":"6:18:00","departure_time":"6:18:00","lat":49.21871,"lon":16.542217,"is_passed":false},{"stop_id":"U1042Z2","name":"Branka","arrival_time":"6:19:00","departure_time":"6:19:00","lat":49.219368,"lon":16.548224,"is_passed":false},{"stop_id":"U1633Z2","name":"Svratecká","arrival_time":"6:20:00","departure_time":"6:20:00","lat":49.21799,"lon":16.553492,"is_passed":false},{"stop_id":"U1217Z12","name":"Vozovna Komín","arrival_time":"6:24:00","departure_time":"6:24:00","lat":49.212491,"lon":16.563754,"is_passed":false},{"stop_id":"U1621Z2","name":"Stránského","arrival_time":"6:25:00","departure_time":"6:25:00","lat":49.211937,"lon":16.568408,"is_passed":false},{"stop_id":"U1041Z2","name":"Bráfova","arrival_time":"6:26:00","departure_time":"6:26:00","lat":49.207033,"lon":16.570558,"is_passed":false},{"stop_id":"U1487Z4","name":"Pisárky","arrival_time":"6:29:00","departure_time":"6:29:00","lat":49.194163,"lon":16.569615,"is_passed":false},{"stop_id":"U1343Z2","name":"ARENA BRNO","arrival_time":"6:30:00","departure_time":"6:30:00","lat":49.191387,"lon":16.576425,"is_passed":false},{"stop_id":"U1769Z2","name":"Výstaviště - vstup G2","arrival_time":"6:31:00","departure_time":"6:31:00","lat":49.190207,"lon":16.580555,"is_passed":false},{"stop_id":"U1768Z2","name":"Výstaviště - hlavní vstup","arrival_time":"6:32:00","departure_time":"6:32:00","lat":49.189325,"lon":16.585699,"is_passed":false},{"stop_id":"U1378Z2","name":"Mendlovo náměstí","arrival_time":"6:35:00","departure_time":"6:35:00","lat":49.190034,"lon":16.593837,"is_passed":false},{"stop_id":"U1721Z2","name":"Václavská","arrival_time":"6:37:00","departure_time":"6:37:00","lat":49.188715,"lon":16.596878,"is_passed":false},