[{"stop_id":"U1581Z2","name":"Areál Slatina","arrival_time":"22:06:00","departure_time":"22:06:00","lat":49.168677,"lon":16.678416,"is_passed":false},{"stop_id":"U1562Z3","name":"Řípská","arrival_time":"22:07:00","departure_time":"22:07:00","lat":49.172528,"lon":16.682138,"is_passed":false},{"stop_id":"U1300Z1","name":"Křehlíkova","arrival_time":"22:08:00","departure_time":"22:08:00","lat":49.174839,"lon":16.685145,"is_passed":false},{"stop_id":"U1525Z1","name":"Přemyslovo náměstí","arrival_time":"22:09:00","departure_time":"22:09:00","lat":49.176289,"lon":16.687296,"is_passed":false},{"stop_id":"U1292Z1","name":"Krejčího","arrival_time":"22:10:00","departure_time":"22:10:00","lat":49.177441,"lon":16.690968,"is_passed":false},{"stop_id":"U1576Z2","name":"Slatina, rozcestí","arrival_time":"22:12:00","departure_time":"22:12:00","lat":49.183366,"lon":16.691884,"is_passed":false},{"stop_id":"U1356Z2","name":"Malečkova","arrival_time":"22:12:00","departure_time":"22:12:00","lat":49.185667,"lon":16.692678,"is_passed":false},{"stop_id":"U1152Z2","name":"Holzova","arrival_time":"22:13:00","departure_time":"22:13:00","lat":49.194897,"lon":16.696973,"is_passed":false},{"stop_id":"U1339Z2","name":"Letecká","arrival_time":"22:14:00","departure_time":"22:14:00","lat":49.197812,"lon":16.695816,"is_passed":false},{"stop_id":"U1406Z2","name":"Muzeum dopravy","arrival_time":"22:15:00","departure_time":"22:15:00","lat":49.201777,"lon":16.694455,"is_passed":false},{"stop_id":"U1421Z1","name":"Náměstí Karla IV.","arrival_time":"22:16:00","departure_time":"22:16:00","lat":49.206363,"lon":16.694621,"is_passed":false},{"stop_id":"U1384Z3","name":"Mifkova","arrival_time":"22:16:00","departure_time":"22:16:00","lat":49.20716,"lon":16.692152,"is_passed":false},{"stop_id":"U1208Z5","name":"Jírova","arrival_time":"22:18:00","departure_time":"22:18:00","lat":49.209891,"lon":16.688265,"is_passed":false},{"stop_id":"U1392Z2","name":"Molákova","arrival_time":"22:19:00","departure_time":"22:19:00","lat":49.212602,"lon":16.687063,"is_passed":false},{"stop_id":"U1489Z2","name":"Podbělová","arrival_time":"22:20:00","departure_time":"22:20:00","lat":49.214049,"lon":16.681384,"is_passed":false},{"stop_id":"U1157Z2","name":"Horníkova","arrival_time":"22:21:00","departure_time":"22:21:00","lat":49.211809,"lon":16.67649,"is_passed":false},{"stop_id":"U1103Z2","name":"Elplova","arrival_time":"22:22:00","departure_time":"22:22:00","lat":49.210409,"lon":16.674871,"is_passed":false},{"stop_id":"U1623Z2","name":"Strnadova","arrival_time":"22:23:00","departure_time":"22:23:00","lat":49.205821,"lon":16.668465,"is_passed":false},{"stop_id":"U1383Z2","name":"Mikulovská","arrival_time":"22:24:00","departure_time":"22:24:00","lat":49.206311,"lon":16.664823,"is_passed":false},{"stop_id":"U1052Z1","name":"Bzenecká","arrival_time":"22:25:00","departure_time":"22:25:00","lat":49.206117,"lon":16.660595,"is_passed":false},{"stop_id":"U1477Z3","name":"Pálavské náměstí","arrival_time":"22:26:00","departure_time":"22:26:00","lat":49.20612,"lon":16.657683,"is_passed":false},{"stop_id":"U1403Z1","name":"Mutěnická","arrival_time":"22:27:00","departure_time":"22:27:00","lat":49.20299,"lon":16.654796,"is_passed":false},{"stop_id":"U1036Z1","name":"Bořetická","arrival_time":"22:28:00","departure_time":"22:28:00","lat":49.201326,"lon":16.659292,"is_passed":false},{"stop_id":"U1058Z1","name":"Čejkovická","arrival_time":"22:29:00","departure_time":"22:31:00","lat":49.200178,"lon":16.662528,"is_passed":false}]