[{"stop_id":"U1051Z1","name":"Bystrc, přístav","arrival_time":"8:30:00","departure_time":"8:30:00","lat":49.230431,"lon":16.515959,"is_passed":false},{"stop_id":"U1281Z3","name":"Kozí horka, přístaviště","arrival_time":"8:36:00","departure_time":"8:36:00","lat":49.234641,"lon":16.508315,"is_passed":false},{"stop_id":"U1593Z1","name":"Sokolské koupaliště","arrival_time":"8:44:00","departure_time":"8:44:00","lat":49.244213,"lon":16.506676,"is_passed":false},{"stop_id":"U1685Z1","name":"U kotvy","arrival_time":"8:48:00","departure_time":"8:48:00","lat":49.241663,"lon":16.501716,"is_passed":false},{"stop_id":"U1545Z1","name":"Rokle, přístaviště","arrival_time":"8:55:00","departure_time":"8:55:00","lat":49.248437,"lon":16.493926,"is_passed":false},{"stop_id":"U1500Z1","name":"Pod Trnůvkou","arrival_time":"9:06:00","departure_time":"9:06:00","lat":49.257728,"lon":16.481484,"is_passed":false},{"stop_id":"U1165Z1","name":"Hrad Veveří, přístaviště","arrival_time":"9:18:00","departure_time":"9:18:00","lat":49.258186,"lon":16.463154,"is_passed":false},{"stop_id":"U1375Z1","name":"Mečkov, přístaviště","arrival_time":"9:24:00","departure_time":"9:24:00","lat":49.261144,"lon":16.454898,"is_passed":false},{"stop_id":"U1571Z1","name":"Skály","arrival_time":"9:29:00","departure_time":"9:29:00","lat":49.265416,"lon":16.456877,"is_passed":false},{"stop_id":"U1734Z1","name":"Veverská Bítýška, přístaviště","arrival_time":"9:40:00","departure_time":"9:50:00","lat":49.275836,"lon":16.456717,"is_passed":false}]