[{"stop_id":"U1633Z6","name":"Svratecká","arrival_time":"23:06:00","departure_time":"23:06:00","lat":49.21759,"lon":16.553789,"is_passed":false},{"stop_id":"U1215Z2","name":"Jundrovská","arrival_time":"23:07:00","departure_time":"23:07:00","lat":49.211911,"lon":16.560194,"is_passed":false},{"stop_id":"U1217Z4","name":"Vozovna Komín","arrival_time":"23:08:00","departure_time":"23:08:00","lat":49.213659,"lon":16.559498,"is_passed":false},{"stop_id":"U1143Z2","name":"Hlavní","arrival_time":"23:08:00","departure_time":"23:08:00","lat":49.21715,"lon":16.560506,"is_passed":false},{"stop_id":"U1651Z2","name":"Štursova","arrival_time":"23:09:00","departure_time":"23:09:00","lat":49.215854,"lon":16.564522,"is_passed":false},{"stop_id":"U1758Z2","name":"Vrázova","arrival_time":"23:10:00","departure_time":"23:10:00","lat":49.216977,"lon":16.568646,"is_passed":false},{"stop_id":"U1528Z6","name":"Přívrat","arrival_time":"23:11:00","departure_time":"23:11:00","lat":49.218109,"lon":16.574404,"is_passed":false},{"stop_id":"U1352Z2","name":"Makovského náměstí","arrival_time":"23:11:00","departure_time":"23:11:00","lat":49.217881,"lon":16.576657,"is_passed":false},{"stop_id":"U1426Z2","name":"Náměstí Svornosti","arrival_time":"23:12:00","departure_time":"23:12:00","lat":49.215179,"lon":16.58299,"is_passed":false},{"stop_id":"U1206Z2","name":"Jindřichova","arrival_time":"23:13:00","departure_time":"23:13:00","lat":49.213132,"lon":16.583163,"is_passed":false},{"stop_id":"U1601Z2","name":"Spojovací","arrival_time":"23:14:00","departure_time":"23:14:00","lat":49.211772,"lon":16.58703,"is_passed":false},{"stop_id":"U1279Z2","name":"Kounicovy koleje","arrival_time":"23:15:00","departure_time":"23:15:00","lat":49.20763,"lon":16.582971,"is_passed":false},{"stop_id":"U1371Z4","name":"Náměstí Míru","arrival_time":"23:17:00","departure_time":"23:17:00","lat":49.202111,"lon":16.581823,"is_passed":false},{"stop_id":"U1137Z1","name":"Heinrichova","arrival_time":"23:17:00","departure_time":"23:17:00","lat":49.200413,"lon":16.584511,"is_passed":false},{"stop_id":"U1762Z2","name":"Všetičkova","arrival_time":"23:18:00","departure_time":"23:18:00","lat":49.198648,"lon":16.589335,"is_passed":false},{"stop_id":"U1712Z2","name":"Úvoz","arrival_time":"23:19:00","departure_time":"23:19:00","lat":49.198275,"lon":16.593189,"is_passed":false},{"stop_id":"U1442Z2","name":"Obilní trh","arrival_time":"23:20:00","departure_time":"23:20:00","lat":49.198022,"lon":16.598215,"is_passed":false},{"stop_id":"U1257Z2","name":"Komenského náměstí","arrival_time":"23:21:00","departure_time":"23:21:00","lat":49.197135,"lon":16.602612,"is_passed":false},{"stop_id":"U1637Z1","name":"Šilingrovo náměstí","arrival_time":"23:23:00","departure_time":"23:23:00","lat":49.19171,"lon":16.605355,"is_passed":false},{"stop_id":"U1146Z4","name":"Hlavní nádraží","arrival_time":"23:26:00","departure_time":"23:30:00","lat":49.19125,"lon":16.612674,"is_passed":false},{"stop_id":"U1746Z1","name":"Vlhká","arrival_time":"23:31:00","departure_time":"23:31:00","lat":49.191847,"lon":16.618976,"is_passed":false},{"stop_id":"U1372Z1","name":"Masná","arrival_time":"23:32:00","departure_time":"23:32:00","lat":49.191244,"lon":16.625642,"is_passed":false},{"stop_id":"U1677Z1","name":"Tržní","arrival_time":"23:34:00","departure_time":"23:34:00","lat":49.189973,"lon":16.632193,"is_passed":false},{"stop_id":"U1641Z1","name":"Škroupova","arrival_time":"23:36:00","departure_time":"23:36:00","lat":49.192022,"lon":16.648112,"is_passed":false},{"stop_id":"U1473Z4","name":"Otakara Ševčíka","arrival_time":"23:37:00","departure_time":"23:37:00","lat":49.194988,"lon":16.646643,"is_passed":false},{"stop_id":"U1082Z1","name":"Dělnický dům","arrival_time":"23:38:00","departure_time":"23:38:00","lat":49.195559,"lon":16.650177,"is_passed":false},{"stop_id":"U1496Z1","name":"Podlomní","arrival_time":"23:39:00","departure_time":"23:39:00","lat":49.192252,"lon":16.655367,"is_passed":false},{"stop_id":"U1642Z1","name":"Špačkova","arrival_time":"23:39:00","departure_time":"23:39:00","lat":49.190929,"lon":16.658793,"is_passed":false},{"stop_id":"U1018Z6","name":"Bělohorská","arrival_time":"23:40:00","departure_time":"23:40:00","lat":49.189603,"lon":16.662473,"is_passed":false},{"stop_id":"U1501Z4","name":"Podstránská","arrival_time":"23:40:00","departure_time":"23:40:00","lat":49.186139,"lon":16.667061,"is_passed":false},{"stop_id":"U1068Z1","name":"Černovičky","arrival_time":"23:42:00","departure_time":"23:42:00","lat":49.182244,"lon":16.66894,"is_passed":false},{"stop_id":"U1741Z1","name":"Vlárská","arrival_time":"23:42:00","departure_time":"23:42:00","lat":49.180745,"lon":16.671647,"is_passed":false},{"stop_id":"U1105Z1","name":"Ericha Roučky","arrival_time":"23:44:00","departure_time":"23:44:00","lat":49.174784,"lon":16.66987,"is_passed":false},{"stop_id":"U1064Z1","name":"Černovická terasa I","arrival_time":"23:45:00","departure_time":"23:45:00","lat":49.171172,"lon":16.673495,"is_passed":false},{"stop_id":"U1065Z1","name":"Černovická terasa II","arrival_time":"23:45:00","departure_time":"23:45:00","lat":49.167108,"lon":16.67608,"is_passed":false},{"stop_id":"U1772Z1","name":"Za křížem","arrival_time":"23:46:00","departure_time":"23:46:00","lat":49.15982,"lon":16.670772,"is_passed":false},{"stop_id":"U1738Z1","name":"Vítězná","arrival_time":"23:48:00","departure_time":"23:48:00","lat":49.146909,"lon":16.673259,"is_passed":false},{"stop_id":"U1513Z1","name":"Pratecká","arrival_time":"23:49:00","departure_time":"23:49:00","lat":49.146239,"lon":16.681655,"is_passed":false},{"stop_id":"U1742Z1","name":"Vlčkova","arrival_time":"23:51:00","departure_time":"23:51:00","lat":49.14097,"lon":16.7012,"is_passed":false},{"stop_id":"U1098Z1","name":"Dvorska, smyčka","arrival_time":"23:52:00","departure_time":"23:57:00","lat":49.143271,"lon":16.70702,"is_passed":false}]