[{"stop_id":"U1357Z4","name":"Malinovského náměstí","arrival_time":"9:21:00","departure_time":"9:21:00","lat":49.195612,"lon":16.613248,"is_passed":false},{"stop_id":"U1146Z1","name":"Hlavní nádraží","arrival_time":"9:24:00","departure_time":"9:24:00","lat":49.191185,"lon":16.611879,"is_passed":false},{"stop_id":"U1436Z1","name":"Nové sady","arrival_time":"9:25:00","departure_time":"9:25:00","lat":49.190116,"lon":16.609025,"is_passed":false},{"stop_id":"U1176Z1","name":"Hybešova","arrival_time":"9:27:00","departure_time":"9:27:00","lat":49.189322,"lon":16.602863,"is_passed":false},{"stop_id":"U1721Z1","name":"Václavská","arrival_time":"9:28:00","departure_time":"9:28:00","lat":49.188681,"lon":16.597217,"is_passed":false},{"stop_id":"U1378Z1","name":"Mendlovo náměstí","arrival_time":"9:30:00","departure_time":"9:30:00","lat":49.189659,"lon":16.592283,"is_passed":false},{"stop_id":"U1768Z1","name":"Výstaviště - hlavní vstup","arrival_time":"9:32:00","departure_time":"9:32:00","lat":49.189583,"lon":16.584499,"is_passed":false},{"stop_id":"U1769Z1","name":"Výstaviště - vstup G2","arrival_time":"9:33:00","departure_time":"9:33:00","lat":49.190338,"lon":16.579837,"is_passed":false},{"stop_id":"U1343Z1","name":"ARENA BRNO","arrival_time":"9:34:00","departure_time":"9:34:00","lat":49.191523,"lon":16.576065,"is_passed":false},{"stop_id":"U1487Z1","name":"Pisárky","arrival_time":"9:36:00","departure_time":"10:10:00","lat":49.192994,"lon":16.570702,"is_passed":false}]