[{"stop_id":"U1343Z2","name":"ARENA BRNO","arrival_time":"10:11:00","departure_time":"10:11:00","lat":49.191387,"lon":16.576425,"is_passed":false},{"stop_id":"U1769Z2","name":"Výstaviště - vstup G2","arrival_time":"10:12:00","departure_time":"10:12:00","lat":49.190207,"lon":16.580555,"is_passed":false},{"stop_id":"U1768Z2","name":"Výstaviště - hlavní vstup","arrival_time":"10:13:00","departure_time":"10:13:00","lat":49.189325,"lon":16.585699,"is_passed":false},{"stop_id":"U1378Z2","name":"Mendlovo náměstí","arrival_time":"10:15:00","departure_time":"10:15:00","lat":49.190034,"lon":16.593837,"is_passed":false},{"stop_id":"U1721Z2","name":"Václavská","arrival_time":"10:17:00","departure_time":"10:17:00","lat":49.188715,"lon":16.596878,"is_passed":false},{"stop_id":"U1176Z2","name":"Hybešova","arrival_time":"10:18:00","departure_time":"10:18:00","lat":49.189209,"lon":16.603364,"is_passed":false},{"stop_id":"U1436Z2","name":"Nové sady","arrival_time":"10:21:00","departure_time":"10:21:00","lat":49.190222,"lon":16.609403,"is_passed":false},{"stop_id":"U1146Z4","name":"Hlavní nádraží","arrival_time":"10:23:00","departure_time":"10:23:00","lat":49.19125,"lon":16.612674,"is_passed":false},{"stop_id":"U1716Z1","name":"Úzká","arrival_time":"10:24:00","departure_time":"10:24:00","lat":49.189807,"lon":16.614666,"is_passed":false},{"stop_id":"U1011Z1","name":"Autobusové nádraží","arrival_time":"10:26:00","departure_time":"10:26:00","lat":49.185873,"lon":16.61787,"is_passed":false},{"stop_id":"U1807Z1","name":"Železniční","arrival_time":"10:27:00","departure_time":"10:27:00","lat":49.18274,"lon":16.619609,"is_passed":false},{"stop_id":"U1266Z1","name":"Konopná","arrival_time":"10:28:00","departure_time":"10:28:00","lat":49.18026,"lon":16.621122,"is_passed":false},{"stop_id":"U1256Z1","name":"Komárov","arrival_time":"10:30:00","departure_time":"10:38:00","lat":49.175889,"lon":16.621291,"is_passed":false}]