[{"stop_id":"U1357Z4","name":"Malinovského náměstí","arrival_time":"6:50:00","departure_time":"6:50:00","lat":49.195612,"lon":16.613248,"is_passed":false},{"stop_id":"U1146Z1","name":"Hlavní nádraží","arrival_time":"6:53:00","departure_time":"6:53:00","lat":49.191185,"lon":16.611879,"is_passed":false},{"stop_id":"U1436Z1","name":"Nové sady","arrival_time":"6:54:00","departure_time":"6:54:00","lat":49.190116,"lon":16.609025,"is_passed":false},{"stop_id":"U1176Z1","name":"Hybešova","arrival_time":"6:56:00","departure_time":"6:56:00","lat":49.189322,"lon":16.602863,"is_passed":false},{"stop_id":"U1721Z1","name":"Václavská","arrival_time":"6:57:00","departure_time":"6:57:00","lat":49.188681,"lon":16.597217,"is_passed":false},{"stop_id":"U1378Z1","name":"Mendlovo náměstí","arrival_time":"6:59:00","departure_time":"6:59:00","lat":49.189659,"lon":16.592283,"is_passed":false},{"stop_id":"U1768Z1","name":"Výstaviště - hlavní vstup","arrival_time":"7:01:00","departure_time":"7:01:00","lat":49.189583,"lon":16.584499,"is_passed":false},{"stop_id":"U1769Z1","name":"Výstaviště - vstup G2","arrival_time":"7:02:00","departure_time":"7:02:00","lat":49.190338,"lon":16.579837,"is_passed":false},{"stop_id":"U1343Z1","name":"ARENA BRNO","arrival_time":"7:03:00","departure_time":"7:03:00","lat":49.191523,"lon":16.576065,"is_passed":false},{"stop_id":"U1487Z3","name":"Pisárky","arrival_time":"7:05:00","departure_time":"7:05:00","lat":49.194099,"lon":16.569741,"is_passed":false},{"stop_id":"U1041Z1","name":"Bráfova","arrival_time":"7:07:00","departure_time":"7:07:00","lat":49.206955,"lon":16.570536,"is_passed":false},{"stop_id":"U1621Z1","name":"Stránského","arrival_time":"7:08:00","departure_time":"7:08:00","lat":49.211954,"lon":16.568673,"is_passed":false},{"stop_id":"U1217Z1","name":"Vozovna Komín","arrival_time":"7:10:00","departure_time":"7:10:00","lat":49.2132,"lon":16.559792,"is_passed":false},{"stop_id":"U1633Z1","name":"Svratecká","arrival_time":"7:11:00","departure_time":"7:11:00","lat":49.217898,"lon":16.553656,"is_passed":false},{"stop_id":"U1042Z1","name":"Branka","arrival_time":"7:12:00","departure_time":"7:12:00","lat":49.219419,"lon":16.54726,"is_passed":false},{"stop_id":"U1493Z1","name":"Podlesí","arrival_time":"7:13:00","departure_time":"7:13:00","lat":49.218711,"lon":16.542392,"is_passed":false},{"stop_id":"U1226Z1","name":"Kamenolom","arrival_time":"7:14:00","departure_time":"7:14:00","lat":49.221657,"lon":16.536794,"is_passed":false},{"stop_id":"U1796Z1","name":"Zoologická zahrada","arrival_time":"7:16:00","departure_time":"7:16:00","lat":49.227674,"lon":16.532002,"is_passed":false},{"stop_id":"U1527Z1","name":"Přístaviště","arrival_time":"7:17:00","departure_time":"7:17:00","lat":49.22814,"lon":16.521658,"is_passed":false},{"stop_id":"U1537Z1","name":"Rakovecká","arrival_time":"7:19:00","departure_time":"7:33:00","lat":49.225877,"lon":16.518739,"is_passed":false}]