[{"stop_id":"U1378Z4","name":"Mendlovo náměstí","arrival_time":"6:26:00","departure_time":"6:26:00","lat":49.190204,"lon":16.594235,"is_passed":false},{"stop_id":"U1512Z1","name":"Poříčí","arrival_time":"6:28:00","departure_time":"6:28:00","lat":49.187182,"lon":16.594633,"is_passed":false},{"stop_id":"U1430Z1","name":"Nemocnice Milosrdných bratří","arrival_time":"6:29:00","departure_time":"6:29:00","lat":49.183515,"lon":16.594981,"is_passed":false},{"stop_id":"U1053Z1","name":"Celní","arrival_time":"6:31:00","departure_time":"6:31:00","lat":49.179109,"lon":16.595328,"is_passed":false},{"stop_id":"U1147Z1","name":"Hluboká","arrival_time":"6:32:00","departure_time":"6:32:00","lat":49.175524,"lon":16.596095,"is_passed":false},{"stop_id":"U1703Z1","name":"Ústřední hřbitov","arrival_time":"6:34:00","departure_time":"6:34:00","lat":49.17132,"lon":16.597273,"is_passed":false},{"stop_id":"U1031Z1","name":"Bohunická","arrival_time":"6:36:00","departure_time":"6:36:00","lat":49.161831,"lon":16.599198,"is_passed":false},{"stop_id":"U1466Z1","name":"Ořechovská","arrival_time":"6:37:00","departure_time":"6:37:00","lat":49.157643,"lon":16.599953,"is_passed":false},{"stop_id":"U1396Z1","name":"Moravanské lány","arrival_time":"6:38:00","departure_time":"6:38:00","lat":49.149621,"lon":16.601338,"is_passed":false},{"stop_id":"U1393Z1","name":"Moravanská","arrival_time":"6:39:00","departure_time":"6:39:00","lat":49.142921,"lon":16.602487,"is_passed":false},{"stop_id":"U1389Z1","name":"Modřická cihelna","arrival_time":"6:40:00","departure_time":"6:40:00","lat":49.137565,"lon":16.603379,"is_passed":false},{"stop_id":"U15137Z1","name":"Modřice, Tyršova","arrival_time":"6:42:00","departure_time":"6:42:00","lat":49.129635,"lon":16.603701,"is_passed":false},{"stop_id":"U15134Z4","name":"Modřice, smyčka","arrival_time":"6:44:00","departure_time":"7:05:00","lat":49.126987,"lon":16.604121,"is_passed":false}]