[{"stop_id":"U1646Z2","name":"Štefánikova čtvrť","arrival_time":"23:02:00","departure_time":"23:02:00","lat":49.217169,"lon":16.627801,"is_passed":false},{"stop_id":"U1731Z2","name":"Venhudova","arrival_time":"23:03:00","departure_time":"23:03:00","lat":49.212541,"lon":16.62512,"is_passed":false},{"stop_id":"U1782Z2","name":"Zdráhalova","arrival_time":"23:04:00","departure_time":"23:04:00","lat":49.209742,"lon":16.623799,"is_passed":false},{"stop_id":"U1211Z4","name":"Jugoslávská","arrival_time":"23:05:00","departure_time":"23:05:00","lat":49.204725,"lon":16.624081,"is_passed":false},{"stop_id":"U1086Z2","name":"Dětská nemocnice","arrival_time":"23:06:00","departure_time":"23:06:00","lat":49.203029,"lon":16.619052,"is_passed":false},{"stop_id":"U1418Z2","name":"Náměstí 28. října","arrival_time":"23:07:00","departure_time":"23:07:00","lat":49.200787,"lon":16.613174,"is_passed":false},{"stop_id":"U1397Z4","name":"Moravské náměstí","arrival_time":"23:09:00","departure_time":"23:09:00","lat":49.199159,"lon":16.608704,"is_passed":false},{"stop_id":"U1073Z1","name":"Česká","arrival_time":"23:11:00","departure_time":"23:11:00","lat":49.197618,"lon":16.605584,"is_passed":false},{"stop_id":"U1637Z3","name":"Šilingrovo náměstí","arrival_time":"23:13:00","departure_time":"23:13:00","lat":49.1923,"lon":16.60424,"is_passed":false},{"stop_id":"U1428Z2","name":"Nemocnice u sv. Anny","arrival_time":"23:14:00","departure_time":"23:14:00","lat":49.191523,"lon":16.598757,"is_passed":false},{"stop_id":"U1378Z1","name":"Mendlovo náměstí","arrival_time":"23:16:00","departure_time":"23:16:00","lat":49.189659,"lon":16.592283,"is_passed":false},{"stop_id":"U1768Z1","name":"Výstaviště - hlavní vstup","arrival_time":"23:18:00","departure_time":"23:18:00","lat":49.189583,"lon":16.584499,"is_passed":false},{"stop_id":"U1769Z1","name":"Výstaviště - vstup G2","arrival_time":"23:19:00","departure_time":"23:19:00","lat":49.190338,"lon":16.579837,"is_passed":false},{"stop_id":"U1343Z1","name":"ARENA BRNO","arrival_time":"23:20:00","departure_time":"23:20:00","lat":49.191523,"lon":16.576065,"is_passed":false}]