[{"stop_id":"U12635Z2","name":"Boskovice, aut.st.","arrival_time":"14:07:00","departure_time":"14:07:00","lat":49.491547,"lon":16.652987,"is_passed":false},{"stop_id":"U12633Z6","name":"Boskovice, 17. listopadu","arrival_time":"14:11:00","departure_time":"14:11:00","lat":49.489965,"lon":16.662222,"is_passed":false},{"stop_id":"U12659Z2","name":"Boskovice, podnikatelský park","arrival_time":"14:13:00","departure_time":"14:13:00","lat":49.498835,"lon":16.665792,"is_passed":false},{"stop_id":"U12743Z2","name":"Sudice, Semíč","arrival_time":"14:15:00","departure_time":"14:15:00","lat":49.51399,"lon":16.678513,"is_passed":false},{"stop_id":"U12752Z2","name":"Vážany","arrival_time":"14:17:00","departure_time":"14:17:00","lat":49.530408,"lon":16.686083,"is_passed":false},{"stop_id":"U12711Z2","name":"Knínice, U Nádraží","arrival_time":"14:18:00","departure_time":"14:18:00","lat":49.535469,"lon":16.689975,"is_passed":false},{"stop_id":"U12704Z2","name":"Knínice, Městečko","arrival_time":"14:19:00","departure_time":"14:19:00","lat":49.539403,"lon":16.69412,"is_passed":false},{"stop_id":"U12705Z2","name":"Knínice, horní zastávka","arrival_time":"14:21:00","departure_time":"14:21:00","lat":49.539622,"lon":16.702802,"is_passed":false},{"stop_id":"U12745Z4","name":"Šebetov","arrival_time":"14:23:00","departure_time":"14:24:00","lat":49.549375,"lon":16.709469,"is_passed":false}]