[{"stop_id":"U1069Z2","name":"Čertova rokle","arrival_time":"22:54:00","departure_time":"22:54:00","lat":49.226406,"lon":16.622909,"is_passed":false},{"stop_id":"U1128Z2","name":"Halasovo náměstí","arrival_time":"22:55:00","departure_time":"22:55:00","lat":49.223413,"lon":16.622837,"is_passed":false},{"stop_id":"U1112Z2","name":"Fügnerova","arrival_time":"22:56:00","departure_time":"22:56:00","lat":49.219868,"lon":16.619336,"is_passed":false},{"stop_id":"U1023Z2","name":"Bieblova","arrival_time":"22:57:00","departure_time":"22:57:00","lat":49.216071,"lon":16.615488,"is_passed":false},{"stop_id":"U1336Z2","name":"Lesnická","arrival_time":"22:58:00","departure_time":"22:58:00","lat":49.212985,"lon":16.617065,"is_passed":false},{"stop_id":"U1786Z2","name":"Zemědělská","arrival_time":"22:59:00","departure_time":"22:59:00","lat":49.210627,"lon":16.618463,"is_passed":false},{"stop_id":"U1667Z2","name":"Tomanova","arrival_time":"23:00:00","departure_time":"23:00:00","lat":49.207862,"lon":16.620381,"is_passed":false},{"stop_id":"U1211Z2","name":"Jugoslávská","arrival_time":"23:01:00","departure_time":"23:01:00","lat":49.204779,"lon":16.623466,"is_passed":false},{"stop_id":"U1086Z2","name":"Dětská nemocnice","arrival_time":"23:02:00","departure_time":"23:02:00","lat":49.203029,"lon":16.619052,"is_passed":false},{"stop_id":"U1418Z2","name":"Náměstí 28. října","arrival_time":"23:03:00","departure_time":"23:03:00","lat":49.200787,"lon":16.613174,"is_passed":false},{"stop_id":"U1397Z4","name":"Moravské náměstí","arrival_time":"23:05:00","departure_time":"23:05:00","lat":49.199159,"lon":16.608704,"is_passed":false},{"stop_id":"U1073Z1","name":"Česká","arrival_time":"23:07:00","departure_time":"23:07:00","lat":49.197618,"lon":16.605584,"is_passed":false},{"stop_id":"U1637Z3","name":"Šilingrovo náměstí","arrival_time":"23:09:00","departure_time":"23:09:00","lat":49.1923,"lon":16.60424,"is_passed":false},{"stop_id":"U1428Z2","name":"Nemocnice u sv. Anny","arrival_time":"23:10:00","departure_time":"23:10:00","lat":49.191523,"lon":16.598757,"is_passed":false},{"stop_id":"U1378Z1","name":"Mendlovo náměstí","arrival_time":"23:12:00","departure_time":"23:12:00","lat":49.189659,"lon":16.592283,"is_passed":false},{"stop_id":"U1768Z1","name":"Výstaviště - hlavní vstup","arrival_time":"23:14:00","departure_time":"23:14:00","lat":49.189583,"lon":16.584499,"is_passed":false},{"stop_id":"U1769Z1","name":"Výstaviště - vstup G2","arrival_time":"23:15:00","departure_time":"23:15:00","lat":49.190338,"lon":16.579837,"is_passed":false},{"stop_id":"U1343Z1","name":"ARENA BRNO","arrival_time":"23:16:00","departure_time":"23:16:00","lat":49.191523,"lon":16.576065,"is_passed":false}]