[{"stop_id":"U1616Z2","name":"Starý Lískovec, smyčka","arrival_time":"9:24:00","departure_time":"9:24:00","lat":49.170465,"lon":16.554565,"is_passed":false},{"stop_id":"U1097Z2","name":"Dunajská","arrival_time":"9:24:00","departure_time":"9:24:00","lat":49.169112,"lon":16.556485,"is_passed":false},{"stop_id":"U1227Z2","name":"Karpatská","arrival_time":"9:25:00","departure_time":"9:25:00","lat":49.168021,"lon":16.561879,"is_passed":false},{"stop_id":"U1472Z2","name":"Osová","arrival_time":"9:27:00","departure_time":"9:27:00","lat":49.169005,"lon":16.567514,"is_passed":false},{"stop_id":"U1653Z4","name":"Švermova","arrival_time":"9:28:00","departure_time":"9:28:00","lat":49.169191,"lon":16.573122,"is_passed":false},{"stop_id":"U1021Z2","name":"Běloruská","arrival_time":"9:29:00","departure_time":"9:29:00","lat":49.170662,"lon":16.580727,"is_passed":false},{"stop_id":"U1293Z2","name":"Krematorium","arrival_time":"9:30:00","departure_time":"9:30:00","lat":49.172257,"lon":16.586414,"is_passed":false},{"stop_id":"U1761Z2","name":"Vsetínská","arrival_time":"9:32:00","departure_time":"9:32:00","lat":49.179747,"lon":16.598055,"is_passed":false},{"stop_id":"U1751Z2","name":"Vojtova","arrival_time":"9:33:00","departure_time":"9:33:00","lat":49.182667,"lon":16.600802,"is_passed":false},{"stop_id":"U1301Z2","name":"Křídlovická","arrival_time":"9:35:00","departure_time":"9:35:00","lat":49.185304,"lon":16.60328,"is_passed":false},{"stop_id":"U1596Z2","name":"Soukenická","arrival_time":"9:36:00","departure_time":"9:36:00","lat":49.188943,"lon":16.60751,"is_passed":false},{"stop_id":"U1436Z4","name":"Nové sady","arrival_time":"9:38:00","departure_time":"9:38:00","lat":49.190137,"lon":16.609472,"is_passed":false},{"stop_id":"U1146Z2","name":"Hlavní nádraží","arrival_time":"9:40:00","departure_time":"9:40:00","lat":49.191394,"lon":16.612548,"is_passed":false},{"stop_id":"U1357Z2","name":"Malinovského náměstí","arrival_time":"9:42:00","departure_time":"9:42:00","lat":49.195034,"lon":16.614825,"is_passed":false},{"stop_id":"U1271Z1","name":"Körnerova","arrival_time":"9:44:00","departure_time":"9:44:00","lat":49.19828,"lon":16.619945,"is_passed":false},{"stop_id":"U1663Z1","name":"Tkalcovská","arrival_time":"9:46:00","departure_time":"9:46:00","lat":49.200261,"lon":16.626109,"is_passed":false},{"stop_id":"U1211Z8","name":"Jugoslávská","arrival_time":"9:48:00","departure_time":"9:48:00","lat":49.204197,"lon":16.624075,"is_passed":false},{"stop_id":"U1211Z1","name":"Jugoslávská","arrival_time":"9:49:00","departure_time":"9:49:00","lat":49.205423,"lon":16.622876,"is_passed":false},{"stop_id":"U1667Z1","name":"Tomanova","arrival_time":"9:50:00","departure_time":"9:50:00","lat":49.208192,"lon":16.62013,"is_passed":false},{"stop_id":"U1786Z11","name":"Zemědělská","arrival_time":"9:51:00","departure_time":"9:58:00","lat":49.210333,"lon":16.618656,"is_passed":false}]