[{"stop_id":"U1262Z2","name":"Konečného náměstí","arrival_time":"13:48:00","departure_time":"13:48:00","lat":49.203961,"lon":16.596051,"is_passed":false},{"stop_id":"U1121Z2","name":"Grohova","arrival_time":"13:49:00","departure_time":"13:49:00","lat":49.201327,"lon":16.59934,"is_passed":false},{"stop_id":"U1073Z3","name":"Česká","arrival_time":"13:51:00","departure_time":"13:51:00","lat":49.197742,"lon":16.605147,"is_passed":false},{"stop_id":"U1637Z1","name":"Šilingrovo náměstí","arrival_time":"13:54:00","departure_time":"13:54:00","lat":49.19171,"lon":16.605355,"is_passed":false},{"stop_id":"U1436Z2","name":"Nové sady","arrival_time":"13:56:00","departure_time":"13:56:00","lat":49.190222,"lon":16.609403,"is_passed":false},{"stop_id":"U1146Z4","name":"Hlavní nádraží","arrival_time":"13:58:00","departure_time":"13:58:00","lat":49.19125,"lon":16.612674,"is_passed":false},{"stop_id":"U1746Z1","name":"Vlhká","arrival_time":"13:59:00","departure_time":"13:59:00","lat":49.191847,"lon":16.618976,"is_passed":false},{"stop_id":"U1372Z1","name":"Masná","arrival_time":"14:01:00","departure_time":"14:01:00","lat":49.191244,"lon":16.625642,"is_passed":false},{"stop_id":"U1814Z1","name":"Životského","arrival_time":"14:03:00","departure_time":"14:03:00","lat":49.191036,"lon":16.633968,"is_passed":false},{"stop_id":"U1116Z1","name":"Geislerova","arrival_time":"14:04:00","departure_time":"14:04:00","lat":49.19278,"lon":16.635345,"is_passed":false},{"stop_id":"U1810Z1","name":"Židovský hřbitov","arrival_time":"14:05:00","departure_time":"14:05:00","lat":49.191354,"lon":16.641711,"is_passed":false},{"stop_id":"U1291Z1","name":"Krásného","arrival_time":"14:06:00","departure_time":"14:06:00","lat":49.190434,"lon":16.650066,"is_passed":false},{"stop_id":"U1018Z1","name":"Bělohorská","arrival_time":"14:08:00","departure_time":"14:08:00","lat":49.190201,"lon":16.6637,"is_passed":false},{"stop_id":"U1026Z1","name":"Bílá hora","arrival_time":"14:09:00","departure_time":"14:09:00","lat":49.194847,"lon":16.667411,"is_passed":false},{"stop_id":"U1347Z1","name":"Líšeňská","arrival_time":"14:09:00","departure_time":"14:09:00","lat":49.197876,"lon":16.664849,"is_passed":false},{"stop_id":"U1438Z1","name":"Novolíšeňská","arrival_time":"14:11:00","departure_time":"14:11:00","lat":49.202014,"lon":16.670642,"is_passed":false}]