[{"stop_id":"U1286Z12","name":"Královo Pole, nádraží","arrival_time":"6:01:00","departure_time":"6:01:00","lat":49.23045,"lon":16.595801,"is_passed":false},{"stop_id":"U13126Z1","name":"Kuřim, Podlesí, rozc.","arrival_time":"6:11:00","departure_time":"6:11:00","lat":49.305568,"lon":16.554963,"is_passed":false},{"stop_id":"U13120Z1","name":"Kuřim, rozcestí 2.0","arrival_time":"6:13:00","departure_time":"6:13:00","lat":49.318142,"lon":16.551936,"is_passed":false},{"stop_id":"U12004Z1","name":"Lipůvka","arrival_time":"6:16:00","departure_time":"6:16:00","lat":49.339155,"lon":16.552682,"is_passed":false},{"stop_id":"U12239Z1","name":"Lažany","arrival_time":"6:18:00","departure_time":"6:18:00","lat":49.354925,"lon":16.551363,"is_passed":false},{"stop_id":"U12240Z1","name":"Lažany, rozcestí Újezd","arrival_time":"6:19:00","departure_time":"6:19:00","lat":49.359483,"lon":16.554537,"is_passed":false},{"stop_id":"U12014Z2","name":"Milonice","arrival_time":"6:21:00","departure_time":"6:21:00","lat":49.36813,"lon":16.565875,"is_passed":false},{"stop_id":"U12016Z1","name":"Závist","arrival_time":"6:23:00","departure_time":"6:23:00","lat":49.374753,"lon":16.573022,"is_passed":false},{"stop_id":"U12449Z1","name":"Černá Hora, Na kopci","arrival_time":"6:28:00","departure_time":"6:28:00","lat":49.410472,"lon":16.580877,"is_passed":false},{"stop_id":"U12450Z1","name":"Černá Hora, nám.","arrival_time":"6:29:00","departure_time":"6:29:00","lat":49.414767,"lon":16.582423,"is_passed":false},{"stop_id":"U12445Z1","name":"Bořitov, ZD","arrival_time":"6:31:00","departure_time":"6:31:00","lat":49.425028,"lon":16.582243,"is_passed":false},{"stop_id":"U12526Z1","name":"Lysice, Brněnská","arrival_time":"6:37:00","departure_time":"6:37:00","lat":49.449723,"lon":16.545254,"is_passed":false},{"stop_id":"U12524Z3","name":"Lysice, pohostinství","arrival_time":"6:39:00","departure_time":"6:55:00","lat":49.452453,"lon":16.53802,"is_passed":false}]