[{"stop_id":"U12844Z1","name":"Rovečné","arrival_time":"13:11:00","departure_time":"13:11:00","lat":49.577878,"lon":16.363352,"is_passed":false},{"stop_id":"U12845Z3","name":"Rovečné, rozcestí","arrival_time":"13:14:00","departure_time":"13:14:00","lat":49.587845,"lon":16.371983,"is_passed":false},{"stop_id":"U12846Z2","name":"Velké Tresné, rozc.","arrival_time":"13:16:00","departure_time":"13:16:00","lat":49.582943,"lon":16.384725,"is_passed":false},{"stop_id":"U12766Z2","name":"Olešnice, Lamberk","arrival_time":"13:20:00","departure_time":"13:20:00","lat":49.569197,"lon":16.409317,"is_passed":false},{"stop_id":"U12767Z4","name":"Olešnice, nám.","arrival_time":"13:23:00","departure_time":"13:25:00","lat":49.557883,"lon":16.42226,"is_passed":false},{"stop_id":"U12768Z1","name":"Olešnice, u lávky","arrival_time":"13:26:00","departure_time":"13:26:00","lat":49.554382,"lon":16.422187,"is_passed":false},{"stop_id":"U12758Z1","name":"Crhov","arrival_time":"13:29:00","departure_time":"13:29:00","lat":49.544628,"lon":16.436218,"is_passed":false},{"stop_id":"U12775Z1","name":"Rozseč nad Kunštátem, rozcestí","arrival_time":"13:33:00","departure_time":"13:33:00","lat":49.528047,"lon":16.46396,"is_passed":false},{"stop_id":"U12021Z1","name":"Makov, hájenka","arrival_time":"13:35:00","departure_time":"13:35:00","lat":49.517438,"lon":16.477055,"is_passed":false},{"stop_id":"U12697Z2","name":"Kunštát, Sychotín","arrival_time":"13:38:00","departure_time":"13:38:00","lat":49.503652,"lon":16.509257,"is_passed":false},{"stop_id":"U12690Z5","name":"Kunštát, nám.","arrival_time":"13:40:00","departure_time":"13:43:00","lat":49.507497,"lon":16.519371,"is_passed":false},{"stop_id":"U12687Z2","name":"Kunštát, U Bílého kříže","arrival_time":"13:45:00","departure_time":"13:45:00","lat":49.502893,"lon":16.523785,"is_passed":false},{"stop_id":"U12024Z2","name":"Zbraslavec, rozcestí k závodu","arrival_time":"13:46:00","departure_time":"13:46:00","lat":49.489705,"lon":16.522917,"is_passed":false},{"stop_id":"U12023Z2","name":"Zbraslavec","arrival_time":"13:48:00","departure_time":"13:48:00","lat":49.484302,"lon":16.528155,"is_passed":false},{"stop_id":"U12525Z2","name":"Drnovice, rozcestí Kunice","arrival_time":"13:50:00","departure_time":"13:50:00","lat":49.472484,"lon":16.53273,"is_passed":false},{"stop_id":"U12521Z2","name":"Drnovice, rozc.0.5","arrival_time":"13:52:00","departure_time":"13:52:00","lat":49.46816,"lon":16.533177,"is_passed":false},{"stop_id":"U12527Z1","name":"Lysice, škola","arrival_time":"13:54:00","departure_time":"13:54:00","lat":49.456986,"lon":16.538231,"is_passed":false},{"stop_id":"U12524Z6","name":"Lysice, pohostinství","arrival_time":"13:55:00","departure_time":"13:55:00","lat":49.452249,"lon":16.537757,"is_passed":false},{"stop_id":"U12526Z2","name":"Lysice, Brněnská","arrival_time":"13:56:00","departure_time":"13:56:00","lat":49.449737,"lon":16.545254,"is_passed":false},{"stop_id":"U12445Z2","name":"Bořitov, ZD","arrival_time":"14:02:00","departure_time":"14:02:00","lat":49.423147,"lon":16.583069,"is_passed":false},{"stop_id":"U12450Z2","name":"Černá Hora, nám.","arrival_time":"14:05:00","departure_time":"14:05:00","lat":49.414678,"lon":16.582145,"is_passed":false},{"stop_id":"U12449Z2","name":"Černá Hora, Na kopci","arrival_time":"14:06:00","departure_time":"14:06:00","lat":49.410245,"lon":16.58076,"is_passed":false},{"stop_id":"U12016Z2","name":"Závist","arrival_time":"14:10:00","departure_time":"14:10:00","lat":49.37451,"lon":16.572602,"is_passed":false},{"stop_id":"U12014Z1","name":"Milonice","arrival_time":"14:12:00","departure_time":"14:12:00","lat":49.36803,"lon":16.565543,"is_passed":false},{"stop_id":"U12240Z2","name":"Lažany, rozcestí Újezd","arrival_time":"14:14:00","departure_time":"14:14:00","lat":49.359442,"lon":16.554392,"is_passed":false},{"stop_id":"U12239Z2","name":"Lažany","arrival_time":"14:15:00","departure_time":"14:15:00","lat":49.353032,"lon":16.55062,"is_passed":false},{"stop_id":"U12004Z2","name":"Lipůvka","arrival_time":"14:18:00","departure_time":"14:18:00","lat":49.338367,"lon":16.552513,"is_passed":false},{"stop_id":"U13120Z2","name":"Kuřim, rozcestí 2.0","arrival_time":"14:20:00","departure_time":"14:20:00","lat":49.317569,"lon":16.551447,"is_passed":false},{"stop_id":"U13126Z2","name":"Kuřim, Podlesí, rozc.","arrival_time":"14:22:00","departure_time":"14:22:00","lat":49.305549,"lon":16.554781,"is_passed":false},{"stop_id":"U1286Z8","name":"Královo Pole, nádraží","arrival_time":"14:32:00","departure_time":"14:46:00","lat":49.230335,"lon":16.595523,"is_passed":false}]