{"381":[{"stop_id":"U31028Z1","name":"Staré Město u Uherského Hradiště","arrival_time":"7:39:00","departure_time":"7:39:00","lat":49.076029,"lon":17.422624,"is_passed":false},{"stop_id":"U31027Z1","name":"Uherské Hradiště","arrival_time":"7:45:00","departure_time":"7:47:00","lat":49.066881,"lon":17.457171,"is_passed":false},{"stop_id":"U31026Z2","name":"Kunovice","arrival_time":"7:50:00","departure_time":"7:50:00","lat":49.051914,"lon":17.470711,"is_passed":false}],"3810":[{"stop_id":"U12524Z7","name":"Lysice, pohostinství","arrival_time":"4:05:00","departure_time":"4:05:00","lat":49.452249,"lon":16.537757,"is_passed":false},{"stop_id":"U12460Z2","name":"Žerůtky","arrival_time":"4:07:00","departure_time":"4:07:00","lat":49.440576,"lon":16.536524,"is_passed":false},{"stop_id":"U12461Z2","name":"Býkovice, kaple","arrival_time":"4:11:00","departure_time":"4:11:00","lat":49.430178,"lon":16.538707,"is_passed":false},{"stop_id":"U12459Z2","name":"Býkovice","arrival_time":"4:12:00","departure_time":"4:12:00","lat":49.429608,"lon":16.535263,"is_passed":false},{"stop_id":"U12462Z2","name":"Dlouhá Lhota","arrival_time":"4:16:00","departure_time":"4:16:00","lat":49.428423,"lon":16.510978,"is_passed":false},{"stop_id":"U12448Z2","name":"Brťov-Jeneč, Na Návsi","arrival_time":"4:19:00","departure_time":"4:19:00","lat":49.414727,"lon":16.513962,"is_passed":false},{"stop_id":"U12446Z1","name":"Brťov-Jeneč, obecní úřad","arrival_time":"4:21:00","departure_time":"4:21:00","lat":49.413818,"lon":16.517367,"is_passed":false},{"stop_id":"U12455Z1","name":"Žernovník, obecní úřad","arrival_time":"4:25:00","departure_time":"4:51:00","lat":49.407048,"lon":16.545602,"is_passed":false}],"3811":[{"stop_id":"U12455Z2","name":"Žernovník, obecní úřad","arrival_time":"4:51:00","departure_time":"4:51:00","lat":49.407142,"lon":16.54555,"is_passed":false},{"stop_id":"U12446Z2","name":"Brťov-Jeneč, obecní úřad","arrival_time":"4:55:00","departure_time":"4:55:00","lat":49.413737,"lon":16.517037,"is_passed":false},{"stop_id":"U12448Z1","name":"Brťov-Jeneč, Na Návsi","arrival_time":"4:56:00","departure_time":"4:56:00","lat":49.414688,"lon":16.51396,"is_passed":false},{"stop_id":"U12462Z1","name":"Dlouhá Lhota","arrival_time":"4:59:00","departure_time":"4:59:00","lat":49.428423,"lon":16.510978,"is_passed":false},{"stop_id":"U12459Z1","name":"Býkovice","arrival_time":"5:03:00","departure_time":"5:03:00","lat":49.429527,"lon":16.535408,"is_passed":false},{"stop_id":"U12461Z1","name":"Býkovice, kaple","arrival_time":"5:04:00","departure_time":"5:04:00","lat":49.430137,"lon":16.538677,"is_passed":false},{"stop_id":"U12460Z1","name":"Žerůtky","arrival_time":"5:08:00","departure_time":"5:08:00","lat":49.44055,"lon":16.536667,"is_passed":false},{"stop_id":"U12524Z8","name":"Lysice, pohostinství","arrival_time":"5:11:00","departure_time":"5:36:00","lat":49.452453,"lon":16.53802,"is_passed":false}],"3812":[{"stop_id":"U12524Z7","name":"Lysice, pohostinství","arrival_time":"5:36:00","departure_time":"5:36:00","lat":49.452249,"lon":16.537757,"is_passed":false},{"stop_id":"U12460Z2","name":"Žerůtky","arrival_time":"5:38:00","departure_time":"5:38:00","lat":49.440576,"lon":16.536524,"is_passed":false},{"stop_id":"U12461Z2","name":"Býkovice, kaple","arrival_time":"5:42:00","departure_time":"5:42:00","lat":49.430178,"lon":16.538707,"is_passed":false},{"stop_id":"U12459Z2","name":"Býkovice","arrival_time":"5:43:00","departure_time":"5:43:00","lat":49.429608,"lon":16.535263,"is_passed":false},{"stop_id":"U12462Z2","name":"Dlouhá Lhota","arrival_time":"5:47:00","departure_time":"5:47:00","lat":49.428423,"lon":16.510978,"is_passed":false},{"stop_id":"U12448Z2","name":"Brťov-Jeneč, Na Návsi","arrival_time":"5:50:00","departure_time":"5:50:00","lat":49.414727,"lon":16.513962,"is_passed":false},{"stop_id":"U12446Z1","name":"Brťov-Jeneč, obecní úřad","arrival_time":"5:52:00","departure_time":"5:52:00","lat":49.413818,"lon":16.517367,"is_passed":false},{"stop_id":"U12455Z1","name":"Žernovník, obecní úřad","arrival_time":"5:56:00","departure_time":"6:01:00","lat":49.407048,"lon":16.545602,"is_passed":false},{"stop_id":"U12463Z2","name":"Žernovník, Hasičský dům","arrival_time":"6:02:00","departure_time":"6:02:00","lat":49.404762,"lon":16.544333,"is_passed":false},{"stop_id":"U12458Z2","name":"Malá Lhota","arrival_time":"6:05:00","departure_time":"6:05:00","lat":49.391597,"lon":16.550408,"is_passed":false},{"stop_id":"U12031Z2","name":"Újezd u Černé Hory, SDP","arrival_time":"6:08:00","departure_time":"6:08:00","lat":49.378358,"lon":16.556281,"is_passed":false},{"stop_id":"U12032Z2","name":"Újezd u Černé Hory","arrival_time":"6:10:00","departure_time":"6:10:00","lat":49.370188,"lon":16.544788,"is_passed":false},{"stop_id":"U12239Z2","name":"Lažany","arrival_time":"6:15:00","departure_time":"6:15:00","lat":49.353032,"lon":16.55062,"is_passed":false},{"stop_id":"U12004Z2","name":"Lipůvka","arrival_time":"6:18:00","departure_time":"6:18:00","lat":49.338367,"lon":16.552513,"is_passed":false},{"stop_id":"U13131Z2","name":"Kuřim, Prefa rozcestí","arrival_time":"6:22:00","departure_time":"6:22:00","lat":49.316222,"lon":16.548481,"is_passed":false},{"stop_id":"U13127Z1","name":"Kuřim, TOS","arrival_time":"6:24:00","departure_time":"6:24:00","lat":49.312475,"lon":16.538187,"is_passed":false},{"stop_id":"U13128Z2","name":"Kuřim, poliklinika","arrival_time":"6:25:00","departure_time":"6:25:00","lat":49.309396,"lon":16.533817,"is_passed":false},{"stop_id":"U13123Z2","name":"Kuřim, kulturní dům","arrival_time":"6:26:00","departure_time":"6:26:00","lat":49.307705,"lon":16.531739,"is_passed":false},{"stop_id":"U13143Z6","name":"Kuřim, železniční stanice","arrival_time":"6:29:00","departure_time":"6:43:00","lat":49.300544,"lon":16.534166,"is_passed":false}],"3813":[{"stop_id":"U13143Z2","name":"Kuřim, železniční stanice","arrival_time":"6:43:00","departure_time":"6:43:00","lat":49.300264,"lon":16.533575,"is_passed":false},{"stop_id":"U13123Z1","name":"Kuřim, kulturní dům","arrival_time":"6:46:00","departure_time":"6:46:00","lat":49.307683,"lon":16.531878,"is_passed":false},{"stop_id":"U13128Z1","name":"Kuřim, poliklinika","arrival_time":"6:47:00","departure_time":"6:47:00","lat":49.310168,"lon":16.535507,"is_passed":false},{"stop_id":"U13127Z2","name":"Kuřim, TOS","arrival_time":"6:48:00","departure_time":"6:48:00","lat":49.312411,"lon":16.539181,"is_passed":false},{"stop_id":"U13131Z1","name":"Kuřim, Prefa rozcestí","arrival_time":"6:50:00","departure_time":"6:50:00","lat":49.316222,"lon":16.548481,"is_passed":false},{"stop_id":"U12004Z1","name":"Lipůvka","arrival_time":"6:54:00","departure_time":"6:54:00","lat":49.339155,"lon":16.552682,"is_passed":false},{"stop_id":"U12239Z1","name":"Lažany","arrival_time":"6:56:00","departure_time":"6:56:00","lat":49.354925,"lon":16.551363,"is_passed":false},{"stop_id":"U12032Z1","name":"Újezd u Černé Hory","arrival_time":"7:01:00","departure_time":"7:01:00","lat":49.370612,"lon":16.544427,"is_passed":false},{"stop_id":"U12031Z1","name":"Újezd u Černé Hory, SDP","arrival_time":"7:03:00","departure_time":"7:03:00","lat":49.378095,"lon":16.555766,"is_passed":false},{"stop_id":"U12458Z1","name":"Malá Lhota","arrival_time":"7:06:00","departure_time":"7:06:00","lat":49.391597,"lon":16.550408,"is_passed":false},{"stop_id":"U12463Z1","name":"Žernovník, Hasičský dům","arrival_time":"7:08:00","departure_time":"7:08:00","lat":49.404762,"lon":16.544333,"is_passed":false},{"stop_id":"U12455Z2","name":"Žernovník, obecní úřad","arrival_time":"7:09:00","departure_time":"7:17:00","lat":49.407142,"lon":16.54555,"is_passed":false},{"stop_id":"U12446Z2","name":"Brťov-Jeneč, obecní úřad","arrival_time":"7:21:00","departure_time":"7:21:00","lat":49.413737,"lon":16.517037,"is_passed":false},{"stop_id":"U12448Z1","name":"Brťov-Jeneč, Na Návsi","arrival_time":"7:22:00","departure_time":"7:22:00","lat":49.414688,"lon":16.51396,"is_passed":false},{"stop_id":"U12462Z1","name":"Dlouhá Lhota","arrival_time":"7:25:00","departure_time":"7:25:00","lat":49.428423,"lon":16.510978,"is_passed":false},{"stop_id":"U12459Z1","name":"Býkovice","arrival_time":"7:29:00","departure_time":"7:29:00","lat":49.429527,"lon":16.535408,"is_passed":false},{"stop_id":"U12461Z1","name":"Býkovice, kaple","arrival_time":"7:30:00","departure_time":"7:30:00","lat":49.430137,"lon":16.538677,"is_passed":false},{"stop_id":"U12460Z1","name":"Žerůtky","arrival_time":"7:34:00","departure_time":"7:34:00","lat":49.44055,"lon":16.536667,"is_passed":false},{"stop_id":"U12524Z8","name":"Lysice, pohostinství","arrival_time":"7:37:00","departure_time":"7:37:00","lat":49.452453,"lon":16.53802,"is_passed":false},{"stop_id":"U12805Z1","name":"Lysice, škola točna","arrival_time":"7:39:00","departure_time":"7:43:00","lat":49.457263,"lon":16.536873,"is_passed":false}],"3814":[{"stop_id":"U12524Z7","name":"Lysice, pohostinství","arrival_time":"8:36:00","departure_time":"8:36:00","lat":49.452249,"lon":16.537757,"is_passed":false},{"stop_id":"U12460Z2","name":"Žerůtky","arrival_time":"8:38:00","departure_time":"8:38:00","lat":49.440576,"lon":16.536524,"is_passed":false},{"stop_id":"U12461Z2","name":"Býkovice, kaple","arrival_time":"8:42:00","departure_time":"8:42:00","lat":49.430178,"lon":16.538707,"is_passed":false},{"stop_id":"U12459Z2","name":"Býkovice","arrival_time":"8:43:00","departure_time":"8:43:00","lat":49.429608,"lon":16.535263,"is_passed":false},{"stop_id":"U12462Z2","name":"Dlouhá Lhota","arrival_time":"8:47:00","departure_time":"8:47:00","lat":49.428423,"lon":16.510978,"is_passed":false},{"stop_id":"U12448Z2","name":"Brťov-Jeneč, Na Návsi","arrival_time":"8:50:00","departure_time":"8:50:00","lat":49.414727,"lon":16.513962,"is_passed":false},{"stop_id":"U12446Z1","name":"Brťov-Jeneč, obecní úřad","arrival_time":"8:52:00","departure_time":"8:52:00","lat":49.413818,"lon":16.517367,"is_passed":false},{"stop_id":"U12455Z1","name":"Žernovník, obecní úřad","arrival_time":"8:56:00","departure_time":"9:01:00","lat":49.407048,"lon":16.545602,"is_passed":false},{"stop_id":"U12463Z2","name":"Žernovník, Hasičský dům","arrival_time":"9:02:00","departure_time":"9:02:00","lat":49.404762,"lon":16.544333,"is_passed":false},{"stop_id":"U12458Z2","name":"Malá Lhota","arrival_time":"9:05:00","departure_time":"9:05:00","lat":49.391597,"lon":16.550408,"is_passed":false},{"stop_id":"U12031Z2","name":"Újezd u Černé Hory, SDP","arrival_time":"9:08:00","departure_time":"9:08:00","lat":49.378358,"lon":16.556281,"is_passed":false},{"stop_id":"U12032Z2","name":"Újezd u Černé Hory","arrival_time":"9:10:00","departure_time":"9:10:00","lat":49.370188,"lon":16.544788,"is_passed":false},{"stop_id":"U12239Z2","name":"Lažany","arrival_time":"9:15:00","departure_time":"9:15:00","lat":49.353032,"lon":16.55062,"is_passed":false},{"stop_id":"U12004Z2","name":"Lipůvka","arrival_time":"9:18:00","departure_time":"10:41:00","lat":49.338367,"lon":16.552513,"is_passed":false}],"3815":[{"stop_id":"U12004Z1","name":"Lipůvka","arrival_time":"10:41:00","departure_time":"10:41:00","lat":49.339155,"lon":16.552682,"is_passed":false},{"stop_id":"U12239Z1","name":"Lažany","arrival_time":"10:43:00","departure_time":"10:43:00","lat":49.354925,"lon":16.551363,"is_passed":false},{"stop_id":"U12032Z1","name":"Újezd u Černé Hory","arrival_time":"10:48:00","departure_time":"10:48:00","lat":49.370612,"lon":16.544427,"is_passed":false},{"stop_id":"U12031Z1","name":"Újezd u Černé Hory, SDP","arrival_time":"10:50:00","departure_time":"10:50:00","lat":49.378095,"lon":16.555766,"is_passed":false},{"stop_id":"U12458Z1","name":"Malá Lhota","arrival_time":"10:53:00","departure_time":"10:53:00","lat":49.391597,"lon":16.550408,"is_passed":false},{"stop_id":"U12463Z1","name":"Žernovník, Hasičský dům","arrival_time":"10:55:00","departure_time":"10:55:00","lat":49.404762,"lon":16.544333,"is_passed":false},{"stop_id":"U12455Z2","name":"Žernovník, obecní úřad","arrival_time":"10:56:00","departure_time":"11:01:00","lat":49.407142,"lon":16.54555,"is_passed":false},{"stop_id":"U12446Z2","name":"Brťov-Jeneč, obecní úřad","arrival_time":"11:05:00","departure_time":"11:05:00","lat":49.413737,"lon":16.517037,"is_passed":false},{"stop_id":"U12448Z1","name":"Brťov-Jeneč, Na Návsi","arrival_time":"11:06:00","departure_time":"11:06:00","lat":49.414688,"lon":16.51396,"is_passed":false},{"stop_id":"U12462Z1","name":"Dlouhá Lhota","arrival_time":"11:09:00","departure_time":"11:09:00","lat":49.428423,"lon":16.510978,"is_passed":false},{"stop_id":"U12459Z1","name":"Býkovice","arrival_time":"11:13:00","departure_time":"11:13:00","lat":49.429527,"lon":16.535408,"is_passed":false},{"stop_id":"U12461Z1","name":"Býkovice, kaple","arrival_time":"11:14:00","departure_time":"11:14:00","lat":49.430137,"lon":16.538677,"is_passed":false},{"stop_id":"U12460Z1","name":"Žerůtky","arrival_time":"11:18:00","departure_time":"11:18:00","lat":49.44055,"lon":16.536667,"is_passed":false},{"stop_id":"U12524Z8","name":"Lysice, pohostinství","arrival_time":"11:21:00","departure_time":"11:21:00","lat":49.452453,"lon":16.53802,"is_passed":false}],"3816":[{"stop_id":"U12805Z1","name":"Lysice, škola točna","arrival_time":"12:33:00","departure_time":"12:33:00","lat":49.457263,"lon":16.536873,"is_passed":false},{"stop_id":"U12524Z7","name":"Lysice, pohostinství","arrival_time":"12:36:00","departure_time":"12:36:00","lat":49.452249,"lon":16.537757,"is_passed":false},{"stop_id":"U12460Z2","name":"Žerůtky","arrival_time":"12:38:00","departure_time":"12:38:00","lat":49.440576,"lon":16.536524,"is_passed":false},{"stop_id":"U12461Z2","name":"Býkovice, kaple","arrival_time":"12:42:00","departure_time":"12:42:00","lat":49.430178,"lon":16.538707,"is_passed":false},{"stop_id":"U12459Z2","name":"Býkovice","arrival_time":"12:43:00","departure_time":"12:43:00","lat":49.429608,"lon":16.535263,"is_passed":false},{"stop_id":"U12462Z2","name":"Dlouhá Lhota","arrival_time":"12:47:00","departure_time":"12:47:00","lat":49.428423,"lon":16.510978,"is_passed":false},{"stop_id":"U12448Z2","name":"Brťov-Jeneč, Na Návsi","arrival_time":"12:50:00","departure_time":"12:50:00","lat":49.414727,"lon":16.513962,"is_passed":false},{"stop_id":"U12446Z1","name":"Brťov-Jeneč, obecní úřad","arrival_time":"12:52:00","departure_time":"12:52:00","lat":49.413818,"lon":16.517367,"is_passed":false},{"stop_id":"U12455Z1","name":"Žernovník, obecní úřad","arrival_time":"12:56:00","departure_time":"13:01:00","lat":49.407048,"lon":16.545602,"is_passed":false},{"stop_id":"U12463Z2","name":"Žernovník, Hasičský dům","arrival_time":"13:02:00","departure_time":"13:02:00","lat":49.404762,"lon":16.544333,"is_passed":false},{"stop_id":"U12458Z2","name":"Malá Lhota","arrival_time":"13:05:00","departure_time":"13:05:00","lat":49.391597,"lon":16.550408,"is_passed":false},{"stop_id":"U12031Z2","name":"Újezd u Černé Hory, SDP","arrival_time":"13:08:00","departure_time":"13:08:00","lat":49.378358,"lon":16.556281,"is_passed":false},{"stop_id":"U12032Z2","name":"Újezd u Černé Hory","arrival_time":"13:10:00","departure_time":"13:10:00","lat":49.370188,"lon":16.544788,"is_passed":false},{"stop_id":"U12239Z2","name":"Lažany","arrival_time":"13:15:00","departure_time":"13:15:00","lat":49.353032,"lon":16.55062,"is_passed":false},{"stop_id":"U12004Z2","name":"Lipůvka","arrival_time":"13:18:00","departure_time":"13:18:00","lat":49.338367,"lon":16.552513,"is_passed":false},{"stop_id":"U13131Z2","name":"Kuřim, Prefa rozcestí","arrival_time":"13:22:00","departure_time":"13:22:00","lat":49.316222,"lon":16.548481,"is_passed":false},{"stop_id":"U13127Z1","name":"Kuřim, TOS","arrival_time":"13:24:00","departure_time":"13:24:00","lat":49.312475,"lon":16.538187,"is_passed":false},{"stop_id":"U13128Z2","name":"Kuřim, poliklinika","arrival_time":"13:25:00","departure_time":"13:25:00","lat":49.309396,"lon":16.533817,"is_passed":false},{"stop_id":"U13123Z2","name":"Kuřim, kulturní dům","arrival_time":"13:26:00","departure_time":"13:26:00","lat":49.307705,"lon":16.531739,"is_passed":false},{"stop_id":"U13143Z6","name":"Kuřim, železniční stanice","arrival_time":"13:29:00","departure_time":"14:30:00","lat":49.300544,"lon":16.534166,"is_passed":false}],"3817":[{"stop_id":"U13143Z2","name":"Kuřim, železniční stanice","arrival_time":"14:30:00","departure_time":"14:30:00","lat":49.300264,"lon":16.533575,"is_passed":false},{"stop_id":"U13123Z1","name":"Kuřim, kulturní dům","arrival_time":"14:33:00","departure_time":"14:33:00","lat":49.307683,"lon":16.531878,"is_passed":false},{"stop_id":"U13128Z1","name":"Kuřim, poliklinika","arrival_time":"14:34:00","departure_time":"14:34:00","lat":49.310168,"lon":16.535507,"is_passed":false},{"stop_id":"U13127Z2","name":"Kuřim, TOS","arrival_time":"14:35:00","departure_time":"14:35:00","lat":49.312411,"lon":16.539181,"is_passed":false},{"stop_id":"U13131Z1","name":"Kuřim, Prefa rozcestí","arrival_time":"14:37:00","departure_time":"14:37:00","lat":49.316222,"lon":16.548481,"is_passed":false},{"stop_id":"U12004Z1","name":"Lipůvka","arrival_time":"14:41:00","departure_time":"14:41:00","lat":49.339155,"lon":16.552682,"is_passed":false},{"stop_id":"U12239Z1","name":"Lažany","arrival_time":"14:43:00","departure_time":"14:43:00","lat":49.354925,"lon":16.551363,"is_passed":false},{"stop_id":"U12032Z1","name":"Újezd u Černé Hory","arrival_time":"14:48:00","departure_time":"14:48:00","lat":49.370612,"lon":16.544427,"is_passed":false},{"stop_id":"U12031Z1","name":"Újezd u Černé Hory, SDP","arrival_time":"14:50:00","departure_time":"14:50:00","lat":49.378095,"lon":16.555766,"is_passed":false},{"stop_id":"U12458Z1","name":"Malá Lhota","arrival_time":"14:53:00","departure_time":"14:53:00","lat":49.391597,"lon":16.550408,"is_passed":false},{"stop_id":"U12463Z1","name":"Žernovník, Hasičský dům","arrival_time":"14:55:00","departure_time":"14:55:00","lat":49.404762,"lon":16.544333,"is_passed":false},{"stop_id":"U12455Z2","name":"Žernovník, obecní úřad","arrival_time":"14:56:00","departure_time":"15:01:00","lat":49.407142,"lon":16.54555,"is_passed":false},{"stop_id":"U12446Z2","name":"Brťov-Jeneč, obecní úřad","arrival_time":"15:05:00","departure_time":"15:05:00","lat":49.413737,"lon":16.517037,"is_passed":false},{"stop_id":"U12448Z1","name":"Brťov-Jeneč, Na Návsi","arrival_time":"15:06:00","departure_time":"15:06:00","lat":49.414688,"lon":16.51396,"is_passed":false},{"stop_id":"U12462Z1","name":"Dlouhá Lhota","arrival_time":"15:09:00","departure_time":"15:09:00","lat":49.428423,"lon":16.510978,"is_passed":false},{"stop_id":"U12459Z1","name":"Býkovice","arrival_time":"15:13:00","departure_time":"15:13:00","lat":49.429527,"lon":16.535408,"is_passed":false},{"stop_id":"U12461Z1","name":"Býkovice, kaple","arrival_time":"15:14:00","departure_time":"15:14:00","lat":49.430137,"lon":16.538677,"is_passed":false},{"stop_id":"U12460Z1","name":"Žerůtky","arrival_time":"15:18:00","departure_time":"15:18:00","lat":49.44055,"lon":16.536667,"is_passed":false},{"stop_id":"U12524Z8","name":"Lysice, pohostinství","arrival_time":"15:21:00","departure_time":"15:21:00","lat":49.452453,"lon":16.53802,"is_passed":false},{"stop_id":"U12805Z1","name":"Lysice, škola točna","arrival_time":"15:23:00","departure_time":"15:33:00","lat":49.457263,"lon":16.536873,"is_passed":false}],"3818":[{"stop_id":"U12805Z1","name":"Lysice, škola točna","arrival_time":"15:33:00","departure_time":"15:33:00","lat":49.457263,"lon":16.536873,"is_passed":false},{"stop_id":"U12524Z7","name":"Lysice, pohostinství","arrival_time":"15:36:00","departure_time":"15:36:00","lat":49.452249,"lon":16.537757,"is_passed":false},{"stop_id":"U12460Z2","name":"Žerůtky","arrival_time":"15:38:00","departure_time":"15:38:00","lat":49.440576,"lon":16.536524,"is_passed":false},{"stop_id":"U12461Z2","name":"Býkovice, kaple","arrival_time":"15:42:00","departure_time":"15:42:00","lat":49.430178,"lon":16.538707,"is_passed":false},{"stop_id":"U12459Z2","name":"Býkovice","arrival_time":"15:43:00","departure_time":"15:43:00","lat":49.429608,"lon":16.535263,"is_passed":false},{"stop_id":"U12462Z2","name":"Dlouhá Lhota","arrival_time":"15:47:00","departure_time":"15:47:00","lat":49.428423,"lon":16.510978,"is_passed":false},{"stop_id":"U12448Z2","name":"Brťov-Jeneč, Na Návsi","arrival_time":"15:50:00","departure_time":"15:50:00","lat":49.414727,"lon":16.513962,"is_passed":false},{"stop_id":"U12446Z1","name":"Brťov-Jeneč, obecní úřad","arrival_time":"15:52:00","departure_time":"15:52:00","lat":49.413818,"lon":16.517367,"is_passed":false},{"stop_id":"U12455Z1","name":"Žernovník, obecní úřad","arrival_time":"15:56:00","departure_time":"16:01:00","lat":49.407048,"lon":16.545602,"is_passed":false},{"stop_id":"U12463Z2","name":"Žernovník, Hasičský dům","arrival_time":"16:02:00","departure_time":"16:02:00","lat":49.404762,"lon":16.544333,"is_passed":false},{"stop_id":"U12458Z2","name":"Malá Lhota","arrival_time":"16:05:00","departure_time":"16:05:00","lat":49.391597,"lon":16.550408,"is_passed":false},{"stop_id":"U12031Z2","name":"Újezd u Černé Hory, SDP","arrival_time":"16:08:00","departure_time":"16:08:00","lat":49.378358,"lon":16.556281,"is_passed":false},{"stop_id":"U12032Z2","name":"Újezd u Černé Hory","arrival_time":"16:10:00","departure_time":"16:10:00","lat":49.370188,"lon":16.544788,"is_passed":false},{"stop_id":"U12239Z2","name":"Lažany","arrival_time":"16:15:00","departure_time":"16:15:00","lat":49.353032,"lon":16.55062,"is_passed":false},{"stop_id":"U12004Z2","name":"Lipůvka","arrival_time":"16:18:00","departure_time":"16:18:00","lat":49.338367,"lon":16.552513,"is_passed":false},{"stop_id":"U13131Z2","name":"Kuřim, Prefa rozcestí","arrival_time":"16:22:00","departure_time":"16:22:00","lat":49.316222,"lon":16.548481,"is_passed":false},{"stop_id":"U13127Z1","name":"Kuřim, TOS","arrival_time":"16:24:00","departure_time":"16:24:00","lat":49.312475,"lon":16.538187,"is_passed":false},{"stop_id":"U13128Z2","name":"Kuřim, poliklinika","arrival_time":"16:25:00","departure_time":"16:25:00","lat":49.309396,"lon":16.533817,"is_passed":false},{"stop_id":"U13123Z2","name":"Kuřim, kulturní dům","arrival_time":"16:26:00","departure_time":"16:26:00","lat":49.307705,"lon":16.531739,"is_passed":false},{"stop_id":"U13143Z6","name":"Kuřim, železniční stanice","arrival_time":"16:29:00","departure_time":"16:30:00","lat":49.300544,"lon":16.534166,"is_passed":false}],"3819":[{"stop_id":"U13143Z2","name":"Kuřim, železniční stanice","arrival_time":"16:30:00","departure_time":"16:30:00","lat":49.300264,"lon":16.533575,"is_passed":false},{"stop_id":"U13123Z1","name":"Kuřim, kulturní dům","arrival_time":"16:33:00","departure_time":"16:33:00","lat":49.307683,"lon":16.531878,"is_passed":false},{"stop_id":"U13128Z1","name":"Kuřim, poliklinika","arrival_time":"16:34:00","departure_time":"16:34:00","lat":49.310168,"lon":16.535507,"is_passed":false},{"stop_id":"U13127Z2","name":"Kuřim, TOS","arrival_time":"16:35:00","departure_time":"16:35:00","lat":49.312411,"lon":16.539181,"is_passed":false},{"stop_id":"U13131Z1","name":"Kuřim, Prefa rozcestí","arrival_time":"16:37:00","departure_time":"16:37:00","lat":49.316222,"lon":16.548481,"is_passed":false},{"stop_id":"U12004Z1","name":"Lipůvka","arrival_time":"16:41:00","departure_time":"16:41:00","lat":49.339155,"lon":16.552682,"is_passed":false},{"stop_id":"U12239Z1","name":"Lažany","arrival_time":"16:43:00","departure_time":"16:43:00","lat":49.354925,"lon":16.551363,"is_passed":false},{"stop_id":"U12032Z1","name":"Újezd u Černé Hory","arrival_time":"16:48:00","departure_time":"16:48:00","lat":49.370612,"lon":16.544427,"is_passed":false},{"stop_id":"U12031Z1","name":"Újezd u Černé Hory, SDP","arrival_time":"16:50:00","departure_time":"16:50:00","lat":49.378095,"lon":16.555766,"is_passed":false},{"stop_id":"U12458Z1","name":"Malá Lhota","arrival_time":"16:53:00","departure_time":"16:53:00","lat":49.391597,"lon":16.550408,"is_passed":false},{"stop_id":"U12463Z1","name":"Žernovník, Hasičský dům","arrival_time":"16:55:00","departure_time":"16:55:00","lat":49.404762,"lon":16.544333,"is_passed":false},{"stop_id":"U12455Z2","name":"Žernovník, obecní úřad","arrival_time":"16:56:00","departure_time":"17:01:00","lat":49.407142,"lon":16.54555,"is_passed":false},{"stop_id":"U12446Z2","name":"Brťov-Jeneč, obecní úřad","arrival_time":"17:05:00","departure_time":"17:05:00","lat":49.413737,"lon":16.517037,"is_passed":false},{"stop_id":"U12448Z1","name":"Brťov-Jeneč, Na Návsi","arrival_time":"17:06:00","departure_time":"17:06:00","lat":49.414688,"lon":16.51396,"is_passed":false},{"stop_id":"U12462Z1","name":"Dlouhá Lhota","arrival_time":"17:09:00","departure_time":"17:09:00","lat":49.428423,"lon":16.510978,"is_passed":false},{"stop_id":"U12459Z1","name":"Býkovice","arrival_time":"17:13:00","departure_time":"17:13:00","lat":49.429527,"lon":16.535408,"is_passed":false},{"stop_id":"U12461Z1","name":"Býkovice, kaple","arrival_time":"17:14:00","departure_time":"17:14:00","lat":49.430137,"lon":16.538677,"is_passed":false},{"stop_id":"U12460Z1","name":"Žerůtky","arrival_time":"17:18:00","departure_time":"17:18:00","lat":49.44055,"lon":16.536667,"is_passed":false},{"stop_id":"U12524Z8","name":"Lysice, pohostinství","arrival_time":"17:21:00","departure_time":"17:21:00","lat":49.452453,"lon":16.53802,"is_passed":false}],"38100":[{"stop_id":"U1062Z2","name":"Černého","arrival_time":"6:20:00","departure_time":"6:20:00","lat":49.213885,"lon":16.523087,"is_passed":false},{"stop_id":"U1107Z2","name":"Filipova","arrival_time":"6:21:00","departure_time":"6:21:00","lat":49.217593,"lon":16.525217,"is_passed":false},{"stop_id":"U1326Z4","name":"Laštůvkova","arrival_time":"6:22:00","departure_time":"6:22:00","lat":49.220549,"lon":16.526237,"is_passed":false},{"stop_id":"U1752Z2","name":"Vondrákova","arrival_time":"6:23:00","departure_time":"6:23:00","lat":49.221445,"lon":16.528853,"is_passed":false},{"stop_id":"U1417Z2","name":"Náměstí 28. dubna","arrival_time":"6:24:00","departure_time":"6:24:00","lat":49.226314,"lon":16.53213,"is_passed":false},{"stop_id":"U1226Z4","name":"Kamenolom","arrival_time":"6:26:00","departure_time":"6:26:00","lat":49.221655,"lon":16.536983,"is_passed":false},{"stop_id":"U1493Z4","name":"Podlesí","arrival_time":"6:27:00","departure_time":"6:27:00","lat":49.218759,"lon":16.542623,"is_passed":false},{"stop_id":"U1345Z2","name":"Lísky","arrival_time":"6:28:00","departure_time":"6:28:00","lat":49.219967,"lon":16.549281,"is_passed":false},{"stop_id":"U1633Z4","name":"Svratecká","arrival_time":"6:30:00","departure_time":"6:30:00","lat":49.218696,"lon":16.554399,"is_passed":false},{"stop_id":"U1502Z2","name":"Podveská","arrival_time":"6:32:00","departure_time":"6:32:00","lat":49.217607,"lon":16.558178,"is_passed":false},{"stop_id":"U1651Z2","name":"Štursova","arrival_time":"6:33:00","departure_time":"6:33:00","lat":49.215854,"lon":16.564522,"is_passed":false},{"stop_id":"U1758Z2","name":"Vrázova","arrival_time":"6:34:00","departure_time":"6:34:00","lat":49.216977,"lon":16.568646,"is_passed":false},{"stop_id":"U1528Z4","name":"Přívrat","arrival_time":"6:36:00","departure_time":"6:36:00","lat":49.218647,"lon":16.574085,"is_passed":false},{"stop_id":"U1777Z2","name":"Záhřebská","arrival_time":"6:37:00","departure_time":"6:37:00","lat":49.219845,"lon":16.580415,"is_passed":false},{"stop_id":"U1567Z6","name":"Skácelova","arrival_time":"6:39:00","departure_time":"6:39:00","lat":49.22163,"lon":16.585935,"is_passed":false},{"stop_id":"U1586Z4","name":"Slovanské náměstí","arrival_time":"6:40:00","departure_time":"6:40:00","lat":49.222774,"lon":16.591332,"is_passed":false},{"stop_id":"U1171Z3","name":"Husitská","arrival_time":"6:41:00","departure_time":"6:41:00","lat":49.223851,"lon":16.594116,"is_passed":false},{"stop_id":"U1566Z4","name":"Semilasso","arrival_time":"6:43:00","departure_time":"6:43:00","lat":49.228055,"lon":16.593438,"is_passed":false},{"stop_id":"U1286Z3","name":"Královo Pole, nádraží","arrival_time":"6:44:00","departure_time":"6:44:00","lat":49.229218,"lon":16.596271,"is_passed":false},{"stop_id":"U1388Z2","name":"Mojmírovo náměstí","arrival_time":"6:45:00","departure_time":"6:45:00","lat":49.226499,"lon":16.598423,"is_passed":false},{"stop_id":"U1150Z1","name":"Högrova","arrival_time":"6:47:00","departure_time":"6:47:00","lat":49.228296,"lon":16.604528,"is_passed":false},{"stop_id":"U1195Z1","name":"Jarmily Kurandové","arrival_time":"6:47:00","departure_time":"6:47:00","lat":49.230235,"lon":16.604438,"is_passed":false},{"stop_id":"U1399Z1","name":"Moskalykova","arrival_time":"6:48:00","departure_time":"6:48:00","lat":49.231252,"lon":16.607921,"is_passed":false},{"stop_id":"U1564Z1","name":"Sadová","arrival_time":"6:50:00","departure_time":"6:50:00","lat":49.234166,"lon":16.603978,"is_passed":false},{"stop_id":"U1130Z2","name":"Hamerláky","arrival_time":"6:51:00","departure_time":"6:51:00","lat":49.237225,"lon":16.60407,"is_passed":false},{"stop_id":"U1407Z1","name":"Myslivecký stadion","arrival_time":"6:52:00","departure_time":"6:52:00","lat":49.241317,"lon":16.609929,"is_passed":false},{"stop_id":"U1711Z1","name":"Útěchovská","arrival_time":"6:54:00","departure_time":"6:54:00","lat":49.2475,"lon":16.616402,"is_passed":false},{"stop_id":"U1091Z1","name":"Dohnalova","arrival_time":"6:55:00","departure_time":"6:55:00","lat":49.251124,"lon":16.618901,"is_passed":false},{"stop_id":"U1412Z1","name":"Na kovárně","arrival_time":"6:56:00","departure_time":"6:56:00","lat":49.253213,"lon":16.620275,"is_passed":false},{"stop_id":"U1548Z1","name":"Rozárka","arrival_time":"6:57:00","departure_time":"6:57:00","lat":49.254486,"lon":16.622791,"is_passed":false},{"stop_id":"U1235Z3","name":"Klarisky","arrival_time":"6:59:00","departure_time":"7:01:00","lat":49.256942,"lon":16.622725,"is_passed":false}],"38101":[{"stop_id":"U1235Z4","name":"Klarisky","arrival_time":"7:01:00","departure_time":"7:01:00","lat":49.257063,"lon":16.622604,"is_passed":false},{"stop_id":"U1412Z2","name":"Na kovárně","arrival_time":"7:02:00","departure_time":"7:02:00","lat":49.254426,"lon":16.620777,"is_passed":false},{"stop_id":"U1091Z2","name":"Dohnalova","arrival_time":"7:03:00","departure_time":"7:03:00","lat":49.249657,"lon":16.617775,"is_passed":false},{"stop_id":"U1711Z2","name":"Útěchovská","arrival_time":"7:04:00","departure_time":"7:04:00","lat":49.246974,"lon":16.61581,"is_passed":false},{"stop_id":"U1407Z2","name":"Myslivecký stadion","arrival_time":"7:05:00","departure_time":"7:05:00","lat":49.241075,"lon":16.609359,"is_passed":false},{"stop_id":"U1130Z1","name":"Hamerláky","arrival_time":"7:06:00","departure_time":"7:06:00","lat":49.237082,"lon":16.603873,"is_passed":false},{"stop_id":"U1564Z2","name":"Sadová","arrival_time":"7:07:00","departure_time":"7:07:00","lat":49.233904,"lon":16.604679,"is_passed":false},{"stop_id":"U1399Z2","name":"Moskalykova","arrival_time":"7:08:00","departure_time":"7:08:00","lat":49.23163,"lon":16.608178,"is_passed":false},{"stop_id":"U1150Z2","name":"Högrova","arrival_time":"7:10:00","departure_time":"7:10:00","lat":49.229128,"lon":16.604259,"is_passed":false},{"stop_id":"U1388Z1","name":"Mojmírovo náměstí","arrival_time":"7:12:00","departure_time":"7:12:00","lat":49.226134,"lon":16.597399,"is_passed":false},{"stop_id":"U1286Z5","name":"Královo Pole, nádraží","arrival_time":"7:15:00","departure_time":"7:15:00","lat":49.229633,"lon":16.595447,"is_passed":false},{"stop_id":"U1566Z6","name":"Semilasso","arrival_time":"7:16:00","departure_time":"7:16:00","lat":49.228248,"lon":16.593466,"is_passed":false},{"stop_id":"U1171Z4","name":"Husitská","arrival_time":"7:18:00","departure_time":"7:18:00","lat":49.224063,"lon":16.593994,"is_passed":false},{"stop_id":"U1586Z3","name":"Slovanské náměstí","arrival_time":"7:19:00","departure_time":"7:19:00","lat":49.223525,"lon":16.591009,"is_passed":false},{"stop_id":"U1567Z5","name":"Skácelova","arrival_time":"7:20:00","departure_time":"7:20:00","lat":49.221353,"lon":16.584711,"is_passed":false},{"stop_id":"U1777Z1","name":"Záhřebská","arrival_time":"7:22:00","departure_time":"7:22:00","lat":49.219602,"lon":16.579157,"is_passed":false},{"stop_id":"U1528Z3","name":"Přívrat","arrival_time":"7:23:00","departure_time":"7:23:00","lat":49.218788,"lon":16.574147,"is_passed":false},{"stop_id":"U1758Z1","name":"Vrázova","arrival_time":"7:24:00","departure_time":"7:24:00","lat":49.216968,"lon":16.568321,"is_passed":false},{"stop_id":"U1651Z1","name":"Štursova","arrival_time":"7:25:00","departure_time":"7:25:00","lat":49.216462,"lon":16.563614,"is_passed":false},{"stop_id":"U1502Z1","name":"Podveská","arrival_time":"7:26:00","departure_time":"7:26:00","lat":49.217623,"lon":16.559017,"is_passed":false},{"stop_id":"U1633Z3","name":"Svratecká","arrival_time":"7:27:00","departure_time":"7:27:00","lat":49.219008,"lon":16.554451,"is_passed":false},{"stop_id":"U1345Z1","name":"Lísky","arrival_time":"7:29:00","departure_time":"7:29:00","lat":49.219825,"lon":16.548868,"is_passed":false},{"stop_id":"U1493Z3","name":"Podlesí","arrival_time":"7:30:00","departure_time":"7:30:00","lat":49.218861,"lon":16.542049,"is_passed":false},{"stop_id":"U1226Z3","name":"Kamenolom","arrival_time":"7:31:00","departure_time":"7:31:00","lat":49.222506,"lon":16.537085,"is_passed":false},{"stop_id":"U1796Z7","name":"Zoologická zahrada","arrival_time":"7:35:00","departure_time":"7:35:00","lat":49.227823,"lon":16.531364,"is_passed":false},{"stop_id":"U1417Z1","name":"Náměstí 28. dubna","arrival_time":"7:36:00","departure_time":"7:36:00","lat":49.225188,"lon":16.531132,"is_passed":false},{"stop_id":"U1752Z1","name":"Vondrákova","arrival_time":"7:37:00","departure_time":"7:37:00","lat":49.221303,"lon":16.528376,"is_passed":false},{"stop_id":"U1326Z1","name":"Laštůvkova","arrival_time":"7:38:00","departure_time":"7:38:00","lat":49.220185,"lon":16.525212,"is_passed":false},{"stop_id":"U1107Z1","name":"Filipova","arrival_time":"7:39:00","departure_time":"7:39:00","lat":49.217684,"lon":16.525123,"is_passed":false},{"stop_id":"U1062Z1","name":"Černého","arrival_time":"7:41:00","departure_time":"8:05:00","lat":49.214083,"lon":16.522812,"is_passed":false}],"38102":[{"stop_id":"U1062Z2","name":"Černého","arrival_time":"8:05:00","departure_time":"8:05:00","lat":49.213885,"lon":16.523087,"is_passed":false},{"stop_id":"U1107Z2","name":"Filipova","arrival_time":"8:06:00","departure_time":"8:06:00","lat":49.217593,"lon":16.525217,"is_passed":false},{"stop_id":"U1326Z4","name":"Laštůvkova","arrival_time":"8:07:00","departure_time":"8:07:00","lat":49.220549,"lon":16.526237,"is_passed":false},{"stop_id":"U1752Z2","name":"Vondrákova","arrival_time":"8:08:00","departure_time":"8:08:00","lat":49.221445,"lon":16.528853,"is_passed":false},{"stop_id":"U1417Z2","name":"Náměstí 28. dubna","arrival_time":"8:09:00","departure_time":"8:09:00","lat":49.226314,"lon":16.53213,"is_passed":false},{"stop_id":"U1226Z4","name":"Kamenolom","arrival_time":"8:11:00","departure_time":"8:11:00","lat":49.221655,"lon":16.536983,"is_passed":false},{"stop_id":"U1493Z4","name":"Podlesí","arrival_time":"8:12:00","departure_time":"8:12:00","lat":49.218759,"lon":16.542623,"is_passed":false},{"stop_id":"U1345Z2","name":"Lísky","arrival_time":"8:13:00","departure_time":"8:13:00","lat":49.219967,"lon":16.549281,"is_passed":false},{"stop_id":"U1633Z4","name":"Svratecká","arrival_time":"8:15:00","departure_time":"8:15:00","lat":49.218696,"lon":16.554399,"is_passed":false},{"stop_id":"U1502Z2","name":"Podveská","arrival_time":"8:17:00","departure_time":"8:17:00","lat":49.217607,"lon":16.558178,"is_passed":false},{"stop_id":"U1651Z2","name":"Štursova","arrival_time":"8:18:00","departure_time":"8:18:00","lat":49.215854,"lon":16.564522,"is_passed":false},{"stop_id":"U1758Z2","name":"Vrázova","arrival_time":"8:19:00","departure_time":"8:19:00","lat":49.216977,"lon":16.568646,"is_passed":false},{"stop_id":"U1528Z4","name":"Přívrat","arrival_time":"8:21:00","departure_time":"8:21:00","lat":49.218647,"lon":16.574085,"is_passed":false},{"stop_id":"U1777Z2","name":"Záhřebská","arrival_time":"8:22:00","departure_time":"8:22:00","lat":49.219845,"lon":16.580415,"is_passed":false},{"stop_id":"U1567Z6","name":"Skácelova","arrival_time":"8:24:00","departure_time":"8:24:00","lat":49.22163,"lon":16.585935,"is_passed":false},{"stop_id":"U1586Z4","name":"Slovanské náměstí","arrival_time":"8:25:00","departure_time":"8:25:00","lat":49.222774,"lon":16.591332,"is_passed":false},{"stop_id":"U1171Z3","name":"Husitská","arrival_time":"8:26:00","departure_time":"8:26:00","lat":49.223851,"lon":16.594116,"is_passed":false},{"stop_id":"U1566Z4","name":"Semilasso","arrival_time":"8:28:00","departure_time":"8:28:00","lat":49.228055,"lon":16.593438,"is_passed":false},{"stop_id":"U1286Z3","name":"Královo Pole, nádraží","arrival_time":"8:29:00","departure_time":"8:29:00","lat":49.229218,"lon":16.596271,"is_passed":false},{"stop_id":"U1388Z2","name":"Mojmírovo náměstí","arrival_time":"8:30:00","departure_time":"8:30:00","lat":49.226499,"lon":16.598423,"is_passed":false},{"stop_id":"U1150Z1","name":"Högrova","arrival_time":"8:32:00","departure_time":"8:32:00","lat":49.228296,"lon":16.604528,"is_passed":false},{"stop_id":"U1195Z1","name":"Jarmily Kurandové","arrival_time":"8:32:00","departure_time":"8:32:00","lat":49.230235,"lon":16.604438,"is_passed":false},{"stop_id":"U1399Z1","name":"Moskalykova","arrival_time":"8:33:00","departure_time":"8:33:00","lat":49.231252,"lon":16.607921,"is_passed":false},{"stop_id":"U1564Z1","name":"Sadová","arrival_time":"8:35:00","departure_time":"8:35:00","lat":49.234166,"lon":16.603978,"is_passed":false},{"stop_id":"U1130Z2","name":"Hamerláky","arrival_time":"8:36:00","departure_time":"8:36:00","lat":49.237225,"lon":16.60407,"is_passed":false},{"stop_id":"U1407Z1","name":"Myslivecký stadion","arrival_time":"8:37:00","departure_time":"8:37:00","lat":49.241317,"lon":16.609929,"is_passed":false},{"stop_id":"U1711Z1","name":"Útěchovská","arrival_time":"8:39:00","departure_time":"8:39:00","lat":49.2475,"lon":16.616402,"is_passed":false},{"stop_id":"U1091Z1","name":"Dohnalova","arrival_time":"8:40:00","departure_time":"8:40:00","lat":49.251124,"lon":16.618901,"is_passed":false},{"stop_id":"U1412Z1","name":"Na kovárně","arrival_time":"8:41:00","departure_time":"8:41:00","lat":49.253213,"lon":16.620275,"is_passed":false},{"stop_id":"U1548Z1","name":"Rozárka","arrival_time":"8:42:00","departure_time":"8:42:00","lat":49.254486,"lon":16.622791,"is_passed":false},{"stop_id":"U1235Z3","name":"Klarisky","arrival_time":"8:44:00","departure_time":"8:46:00","lat":49.256942,"lon":16.622725,"is_passed":false}],"38103":[{"stop_id":"U1235Z4","name":"Klarisky","arrival_time":"8:46:00","departure_time":"8:46:00","lat":49.257063,"lon":16.622604,"is_passed":false},{"stop_id":"U1412Z2","name":"Na kovárně","arrival_time":"8:47:00","departure_time":"8:47:00","lat":49.254426,"lon":16.620777,"is_passed":false},{"stop_id":"U1091Z2","name":"Dohnalova","arrival_time":"8:48:00","departure_time":"8:48:00","lat":49.249657,"lon":16.617775,"is_passed":false},{"stop_id":"U1711Z2","name":"Útěchovská","arrival_time":"8:49:00","departure_time":"8:49:00","lat":49.246974,"lon":16.61581,"is_passed":false},{"stop_id":"U1407Z2","name":"Myslivecký stadion","arrival_time":"8:50:00","departure_time":"8:50:00","lat":49.241075,"lon":16.609359,"is_passed":false},{"stop_id":"U1130Z1","name":"Hamerláky","arrival_time":"8:51:00","departure_time":"8:51:00","lat":49.237082,"lon":16.603873,"is_passed":false},{"stop_id":"U1564Z2","name":"Sadová","arrival_time":"8:52:00","departure_time":"8:52:00","lat":49.233904,"lon":16.604679,"is_passed":false},{"stop_id":"U1399Z2","name":"Moskalykova","arrival_time":"8:53:00","departure_time":"8:53:00","lat":49.23163,"lon":16.608178,"is_passed":false},{"stop_id":"U1150Z2","name":"Högrova","arrival_time":"8:55:00","departure_time":"8:55:00","lat":49.229128,"lon":16.604259,"is_passed":false},{"stop_id":"U1388Z1","name":"Mojmírovo náměstí","arrival_time":"8:57:00","departure_time":"8:57:00","lat":49.226134,"lon":16.597399,"is_passed":false},{"stop_id":"U1286Z5","name":"Královo Pole, nádraží","arrival_time":"9:00:00","departure_time":"9:00:00","lat":49.229633,"lon":16.595447,"is_passed":false},{"stop_id":"U1566Z6","name":"Semilasso","arrival_time":"9:01:00","departure_time":"9:01:00","lat":49.228248,"lon":16.593466,"is_passed":false},{"stop_id":"U1171Z4","name":"Husitská","arrival_time":"9:03:00","departure_time":"9:03:00","lat":49.224063,"lon":16.593994,"is_passed":false},{"stop_id":"U1586Z3","name":"Slovanské náměstí","arrival_time":"9:04:00","departure_time":"9:04:00","lat":49.223525,"lon":16.591009,"is_passed":false},{"stop_id":"U1567Z5","name":"Skácelova","arrival_time":"9:05:00","departure_time":"9:05:00","lat":49.221353,"lon":16.584711,"is_passed":false},{"stop_id":"U1777Z1","name":"Záhřebská","arrival_time":"9:07:00","departure_time":"9:07:00","lat":49.219602,"lon":16.579157,"is_passed":false},{"stop_id":"U1528Z3","name":"Přívrat","arrival_time":"9:08:00","departure_time":"9:08:00","lat":49.218788,"lon":16.574147,"is_passed":false},{"stop_id":"U1758Z1","name":"Vrázova","arrival_time":"9:09:00","departure_time":"9:09:00","lat":49.216968,"lon":16.568321,"is_passed":false},{"stop_id":"U1651Z1","name":"Štursova","arrival_time":"9:10:00","departure_time":"9:10:00","lat":49.216462,"lon":16.563614,"is_passed":false},{"stop_id":"U1502Z1","name":"Podveská","arrival_time":"9:11:00","departure_time":"9:11:00","lat":49.217623,"lon":16.559017,"is_passed":false},{"stop_id":"U1633Z3","name":"Svratecká","arrival_time":"9:12:00","departure_time":"9:12:00","lat":49.219008,"lon":16.554451,"is_passed":false},{"stop_id":"U1345Z1","name":"Lísky","arrival_time":"9:14:00","departure_time":"9:14:00","lat":49.219825,"lon":16.548868,"is_passed":false},{"stop_id":"U1493Z3","name":"Podlesí","arrival_time":"9:15:00","departure_time":"9:15:00","lat":49.218861,"lon":16.542049,"is_passed":false},{"stop_id":"U1226Z3","name":"Kamenolom","arrival_time":"9:16:00","departure_time":"9:16:00","lat":49.222506,"lon":16.537085,"is_passed":false},{"stop_id":"U1796Z7","name":"Zoologická zahrada","arrival_time":"9:20:00","departure_time":"9:20:00","lat":49.227823,"lon":16.531364,"is_passed":false},{"stop_id":"U1417Z1","name":"Náměstí 28. dubna","arrival_time":"9:21:00","departure_time":"9:21:00","lat":49.225188,"lon":16.531132,"is_passed":false},{"stop_id":"U1752Z1","name":"Vondrákova","arrival_time":"9:22:00","departure_time":"9:22:00","lat":49.221303,"lon":16.528376,"is_passed":false},{"stop_id":"U1326Z1","name":"Laštůvkova","arrival_time":"9:23:00","departure_time":"9:23:00","lat":49.220185,"lon":16.525212,"is_passed":false},{"stop_id":"U1107Z1","name":"Filipova","arrival_time":"9:24:00","departure_time":"9:24:00","lat":49.217684,"lon":16.525123,"is_passed":false},{"stop_id":"U1062Z1","name":"Černého","arrival_time":"9:26:00","departure_time":"10:05:00","lat":49.214083,"lon":16.522812,"is_passed":false}],"38104":[{"stop_id":"U1062Z2","name":"Černého","arrival_time":"10:05:00","departure_time":"10:05:00","lat":49.213885,"lon":16.523087,"is_passed":false},{"stop_id":"U1107Z2","name":"Filipova","arrival_time":"10:06:00","departure_time":"10:06:00","lat":49.217593,"lon":16.525217,"is_passed":false},{"stop_id":"U1326Z4","name":"Laštůvkova","arrival_time":"10:07:00","departure_time":"10:07:00","lat":49.220549,"lon":16.526237,"is_passed":false},{"stop_id":"U1752Z2","name":"Vondrákova","arrival_time":"10:08:00","departure_time":"10:08:00","lat":49.221445,"lon":16.528853,"is_passed":false},{"stop_id":"U1417Z2","name":"Náměstí 28. dubna","arrival_time":"10:09:00","departure_time":"10:09:00","lat":49.226314,"lon":16.53213,"is_passed":false},{"stop_id":"U1226Z4","name":"Kamenolom","arrival_time":"10:11:00","departure_time":"10:11:00","lat":49.221655,"lon":16.536983,"is_passed":false},{"stop_id":"U1493Z4","name":"Podlesí","arrival_time":"10:12:00","departure_time":"10:12:00","lat":49.218759,"lon":16.542623,"is_passed":false},{"stop_id":"U1345Z2","name":"Lísky","arrival_time":"10:13:00","departure_time":"10:13:00","lat":49.219967,"lon":16.549281,"is_passed":false},{"stop_id":"U1633Z4","name":"Svratecká","arrival_time":"10:15:00","departure_time":"10:15:00","lat":49.218696,"lon":16.554399,"is_passed":false},{"stop_id":"U1502Z2","name":"Podveská","arrival_time":"10:17:00","departure_time":"10:17:00","lat":49.217607,"lon":16.558178,"is_passed":false},{"stop_id":"U1651Z2","name":"Štursova","arrival_time":"10:18:00","departure_time":"10:18:00","lat":49.215854,"lon":16.564522,"is_passed":false},{"stop_id":"U1758Z2","name":"Vrázova","arrival_time":"10:19:00","departure_time":"10:19:00","lat":49.216977,"lon":16.568646,"is_passed":false},{"stop_id":"U1528Z4","name":"Přívrat","arrival_time":"10:21:00","departure_time":"10:21:00","lat":49.218647,"lon":16.574085,"is_passed":false},{"stop_id":"U1777Z2","name":"Záhřebská","arrival_time":"10:22:00","departure_time":"10:22:00","lat":49.219845,"lon":16.580415,"is_passed":false},{"stop_id":"U1567Z6","name":"Skácelova","arrival_time":"10:24:00","departure_time":"10:24:00","lat":49.22163,"lon":16.585935,"is_passed":false},{"stop_id":"U1586Z4","name":"Slovanské náměstí","arrival_time":"10:25:00","departure_time":"10:25:00","lat":49.222774,"lon":16.591332,"is_passed":false},{"stop_id":"U1171Z3","name":"Husitská","arrival_time":"10:26:00","departure_time":"10:26:00","lat":49.223851,"lon":16.594116,"is_passed":false},{"stop_id":"U1566Z4","name":"Semilasso","arrival_time":"10:28:00","departure_time":"10:28:00","lat":49.228055,"lon":16.593438,"is_passed":false},{"stop_id":"U1286Z3","name":"Královo Pole, nádraží","arrival_time":"10:29:00","departure_time":"10:29:00","lat":49.229218,"lon":16.596271,"is_passed":false},{"stop_id":"U1388Z2","name":"Mojmírovo náměstí","arrival_time":"10:30:00","departure_time":"10:30:00","lat":49.226499,"lon":16.598423,"is_passed":false},{"stop_id":"U1150Z1","name":"Högrova","arrival_time":"10:32:00","departure_time":"10:32:00","lat":49.228296,"lon":16.604528,"is_passed":false},{"stop_id":"U1195Z1","name":"Jarmily Kurandové","arrival_time":"10:32:00","departure_time":"10:32:00","lat":49.230235,"lon":16.604438,"is_passed":false},{"stop_id":"U1399Z1","name":"Moskalykova","arrival_time":"10:33:00","departure_time":"10:33:00","lat":49.231252,"lon":16.607921,"is_passed":false},{"stop_id":"U1564Z1","name":"Sadová","arrival_time":"10:35:00","departure_time":"10:35:00","lat":49.234166,"lon":16.603978,"is_passed":false},{"stop_id":"U1130Z2","name":"Hamerláky","arrival_time":"10:36:00","departure_time":"10:36:00","lat":49.237225,"lon":16.60407,"is_passed":false},{"stop_id":"U1407Z1","name":"Myslivecký stadion","arrival_time":"10:37:00","departure_time":"10:37:00","lat":49.241317,"lon":16.609929,"is_passed":false},{"stop_id":"U1711Z1","name":"Útěchovská","arrival_time":"10:39:00","departure_time":"10:39:00","lat":49.2475,"lon":16.616402,"is_passed":false},{"stop_id":"U1091Z1","name":"Dohnalova","arrival_time":"10:40:00","departure_time":"10:40:00","lat":49.251124,"lon":16.618901,"is_passed":false},{"stop_id":"U1412Z1","name":"Na kovárně","arrival_time":"10:41:00","departure_time":"10:41:00","lat":49.253213,"lon":16.620275,"is_passed":false},{"stop_id":"U1548Z1","name":"Rozárka","arrival_time":"10:42:00","departure_time":"10:42:00","lat":49.254486,"lon":16.622791,"is_passed":false},{"stop_id":"U1235Z3","name":"Klarisky","arrival_time":"10:44:00","departure_time":"10:46:00","lat":49.256942,"lon":16.622725,"is_passed":false}],"38105":[{"stop_id":"U1235Z4","name":"Klarisky","arrival_time":"10:46:00","departure_time":"10:46:00","lat":49.257063,"lon":16.622604,"is_passed":false},{"stop_id":"U1412Z2","name":"Na kovárně","arrival_time":"10:47:00","departure_time":"10:47:00","lat":49.254426,"lon":16.620777,"is_passed":false},{"stop_id":"U1091Z2","name":"Dohnalova","arrival_time":"10:48:00","departure_time":"10:48:00","lat":49.249657,"lon":16.617775,"is_passed":false},{"stop_id":"U1711Z2","name":"Útěchovská","arrival_time":"10:49:00","departure_time":"10:49:00","lat":49.246974,"lon":16.61581,"is_passed":false},{"stop_id":"U1407Z2","name":"Myslivecký stadion","arrival_time":"10:50:00","departure_time":"10:50:00","lat":49.241075,"lon":16.609359,"is_passed":false},{"stop_id":"U1130Z1","name":"Hamerláky","arrival_time":"10:51:00","departure_time":"10:51:00","lat":49.237082,"lon":16.603873,"is_passed":false},{"stop_id":"U1564Z2","name":"Sadová","arrival_time":"10:52:00","departure_time":"10:52:00","lat":49.233904,"lon":16.604679,"is_passed":false},{"stop_id":"U1399Z2","name":"Moskalykova","arrival_time":"10:53:00","departure_time":"10:53:00","lat":49.23163,"lon":16.608178,"is_passed":false},{"stop_id":"U1150Z2","name":"Högrova","arrival_time":"10:55:00","departure_time":"10:55:00","lat":49.229128,"lon":16.604259,"is_passed":false},{"stop_id":"U1388Z1","name":"Mojmírovo náměstí","arrival_time":"10:57:00","departure_time":"10:57:00","lat":49.226134,"lon":16.597399,"is_passed":false},{"stop_id":"U1286Z5","name":"Královo Pole, nádraží","arrival_time":"11:00:00","departure_time":"11:00:00","lat":49.229633,"lon":16.595447,"is_passed":false},{"stop_id":"U1566Z6","name":"Semilasso","arrival_time":"11:01:00","departure_time":"11:01:00","lat":49.228248,"lon":16.593466,"is_passed":false},{"stop_id":"U1171Z4","name":"Husitská","arrival_time":"11:03:00","departure_time":"11:03:00","lat":49.224063,"lon":16.593994,"is_passed":false},{"stop_id":"U1586Z3","name":"Slovanské náměstí","arrival_time":"11:04:00","departure_time":"11:04:00","lat":49.223525,"lon":16.591009,"is_passed":false},{"stop_id":"U1567Z5","name":"Skácelova","arrival_time":"11:05:00","departure_time":"11:05:00","lat":49.221353,"lon":16.584711,"is_passed":false},{"stop_id":"U1777Z1","name":"Záhřebská","arrival_time":"11:07:00","departure_time":"11:07:00","lat":49.219602,"lon":16.579157,"is_passed":false},{"stop_id":"U1528Z3","name":"Přívrat","arrival_time":"11:08:00","departure_time":"11:08:00","lat":49.218788,"lon":16.574147,"is_passed":false},{"stop_id":"U1758Z1","name":"Vrázova","arrival_time":"11:09:00","departure_time":"11:09:00","lat":49.216968,"lon":16.568321,"is_passed":false},{"stop_id":"U1651Z1","name":"Štursova","arrival_time":"11:10:00","departure_time":"11:10:00","lat":49.216462,"lon":16.563614,"is_passed":false},{"stop_id":"U1502Z1","name":"Podveská","arrival_time":"11:11:00","departure_time":"11:11:00","lat":49.217623,"lon":16.559017,"is_passed":false},{"stop_id":"U1633Z3","name":"Svratecká","arrival_time":"11:12:00","departure_time":"11:12:00","lat":49.219008,"lon":16.554451,"is_passed":false},{"stop_id":"U1345Z1","name":"Lísky","arrival_time":"11:14:00","departure_time":"11:14:00","lat":49.219825,"lon":16.548868,"is_passed":false},{"stop_id":"U1493Z3","name":"Podlesí","arrival_time":"11:15:00","departure_time":"11:15:00","lat":49.218861,"lon":16.542049,"is_passed":false},{"stop_id":"U1226Z3","name":"Kamenolom","arrival_time":"11:16:00","departure_time":"11:16:00","lat":49.222506,"lon":16.537085,"is_passed":false},{"stop_id":"U1796Z7","name":"Zoologická zahrada","arrival_time":"11:20:00","departure_time":"11:20:00","lat":49.227823,"lon":16.531364,"is_passed":false},{"stop_id":"U1417Z1","name":"Náměstí 28. dubna","arrival_time":"11:21:00","departure_time":"11:21:00","lat":49.225188,"lon":16.531132,"is_passed":false},{"stop_id":"U1752Z1","name":"Vondrákova","arrival_time":"11:22:00","departure_time":"11:22:00","lat":49.221303,"lon":16.528376,"is_passed":false},{"stop_id":"U1326Z1","name":"Laštůvkova","arrival_time":"11:23:00","departure_time":"11:23:00","lat":49.220185,"lon":16.525212,"is_passed":false},{"stop_id":"U1107Z1","name":"Filipova","arrival_time":"11:24:00","departure_time":"11:24:00","lat":49.217684,"lon":16.525123,"is_passed":false},{"stop_id":"U1062Z1","name":"Černého","arrival_time":"11:26:00","departure_time":"11:50:00","lat":49.214083,"lon":16.522812,"is_passed":false}],"38106":[{"stop_id":"U1062Z2","name":"Černého","arrival_time":"11:50:00","departure_time":"11:50:00","lat":49.213885,"lon":16.523087,"is_passed":false},{"stop_id":"U1107Z2","name":"Filipova","arrival_time":"11:51:00","departure_time":"11:51:00","lat":49.217593,"lon":16.525217,"is_passed":false},{"stop_id":"U1326Z4","name":"Laštůvkova","arrival_time":"11:52:00","departure_time":"11:52:00","lat":49.220549,"lon":16.526237,"is_passed":false},{"stop_id":"U1752Z2","name":"Vondrákova","arrival_time":"11:53:00","departure_time":"11:53:00","lat":49.221445,"lon":16.528853,"is_passed":false},{"stop_id":"U1417Z2","name":"Náměstí 28. dubna","arrival_time":"11:54:00","departure_time":"11:54:00","lat":49.226314,"lon":16.53213,"is_passed":false},{"stop_id":"U1226Z4","name":"Kamenolom","arrival_time":"11:56:00","departure_time":"11:56:00","lat":49.221655,"lon":16.536983,"is_passed":false},{"stop_id":"U1493Z4","name":"Podlesí","arrival_time":"11:57:00","departure_time":"11:57:00","lat":49.218759,"lon":16.542623,"is_passed":false},{"stop_id":"U1345Z2","name":"Lísky","arrival_time":"11:58:00","departure_time":"11:58:00","lat":49.219967,"lon":16.549281,"is_passed":false},{"stop_id":"U1633Z4","name":"Svratecká","arrival_time":"12:00:00","departure_time":"12:00:00","lat":49.218696,"lon":16.554399,"is_passed":false},{"stop_id":"U1502Z2","name":"Podveská","arrival_time":"12:02:00","departure_time":"12:02:00","lat":49.217607,"lon":16.558178,"is_passed":false},{"stop_id":"U1651Z2","name":"Štursova","arrival_time":"12:03:00","departure_time":"12:03:00","lat":49.215854,"lon":16.564522,"is_passed":false},{"stop_id":"U1758Z2","name":"Vrázova","arrival_time":"12:04:00","departure_time":"12:04:00","lat":49.216977,"lon":16.568646,"is_passed":false},{"stop_id":"U1528Z4","name":"Přívrat","arrival_time":"12:06:00","departure_time":"12:06:00","lat":49.218647,"lon":16.574085,"is_passed":false},{"stop_id":"U1777Z2","name":"Záhřebská","arrival_time":"12:07:00","departure_time":"12:07:00","lat":49.219845,"lon":16.580415,"is_passed":false},{"stop_id":"U1567Z6","name":"Skácelova","arrival_time":"12:09:00","departure_time":"12:09:00","lat":49.22163,"lon":16.585935,"is_passed":false},{"stop_id":"U1586Z4","name":"Slovanské náměstí","arrival_time":"12:10:00","departure_time":"12:10:00","lat":49.222774,"lon":16.591332,"is_passed":false},{"stop_id":"U1171Z3","name":"Husitská","arrival_time":"12:11:00","departure_time":"12:11:00","lat":49.223851,"lon":16.594116,"is_passed":false},{"stop_id":"U1566Z4","name":"Semilasso","arrival_time":"12:13:00","departure_time":"12:13:00","lat":49.228055,"lon":16.593438,"is_passed":false},{"stop_id":"U1286Z3","name":"Královo Pole, nádraží","arrival_time":"12:14:00","departure_time":"12:14:00","lat":49.229218,"lon":16.596271,"is_passed":false},{"stop_id":"U1388Z2","name":"Mojmírovo náměstí","arrival_time":"12:15:00","departure_time":"12:15:00","lat":49.226499,"lon":16.598423,"is_passed":false},{"stop_id":"U1150Z1","name":"Högrova","arrival_time":"12:17:00","departure_time":"12:17:00","lat":49.228296,"lon":16.604528,"is_passed":false},{"stop_id":"U1195Z1","name":"Jarmily Kurandové","arrival_time":"12:17:00","departure_time":"12:17:00","lat":49.230235,"lon":16.604438,"is_passed":false},{"stop_id":"U1399Z1","name":"Moskalykova","arrival_time":"12:18:00","departure_time":"12:18:00","lat":49.231252,"lon":16.607921,"is_passed":false},{"stop_id":"U1564Z1","name":"Sadová","arrival_time":"12:20:00","departure_time":"12:20:00","lat":49.234166,"lon":16.603978,"is_passed":false},{"stop_id":"U1130Z2","name":"Hamerláky","arrival_time":"12:21:00","departure_time":"12:21:00","lat":49.237225,"lon":16.60407,"is_passed":false},{"stop_id":"U1407Z1","name":"Myslivecký stadion","arrival_time":"12:22:00","departure_time":"12:22:00","lat":49.241317,"lon":16.609929,"is_passed":false},{"stop_id":"U1711Z1","name":"Útěchovská","arrival_time":"12:24:00","departure_time":"12:24:00","lat":49.2475,"lon":16.616402,"is_passed":false},{"stop_id":"U1091Z1","name":"Dohnalova","arrival_time":"12:25:00","departure_time":"12:25:00","lat":49.251124,"lon":16.618901,"is_passed":false},{"stop_id":"U1412Z1","name":"Na kovárně","arrival_time":"12:26:00","departure_time":"12:26:00","lat":49.253213,"lon":16.620275,"is_passed":false},{"stop_id":"U1548Z1","name":"Rozárka","arrival_time":"12:27:00","departure_time":"12:27:00","lat":49.254486,"lon":16.622791,"is_passed":false},{"stop_id":"U1235Z3","name":"Klarisky","arrival_time":"12:29:00","departure_time":"12:31:00","lat":49.256942,"lon":16.622725,"is_passed":false}],"38107":[{"stop_id":"U1235Z4","name":"Klarisky","arrival_time":"12:31:00","departure_time":"12:31:00","lat":49.257063,"lon":16.622604,"is_passed":false},{"stop_id":"U1412Z2","name":"Na kovárně","arrival_time":"12:32:00","departure_time":"12:32:00","lat":49.254426,"lon":16.620777,"is_passed":false},{"stop_id":"U1091Z2","name":"Dohnalova","arrival_time":"12:33:00","departure_time":"12:33:00","lat":49.249657,"lon":16.617775,"is_passed":false},{"stop_id":"U1711Z2","name":"Útěchovská","arrival_time":"12:34:00","departure_time":"12:34:00","lat":49.246974,"lon":16.61581,"is_passed":false},{"stop_id":"U1407Z2","name":"Myslivecký stadion","arrival_time":"12:35:00","departure_time":"12:35:00","lat":49.241075,"lon":16.609359,"is_passed":false},{"stop_id":"U1130Z1","name":"Hamerláky","arrival_time":"12:36:00","departure_time":"12:36:00","lat":49.237082,"lon":16.603873,"is_passed":false},{"stop_id":"U1564Z2","name":"Sadová","arrival_time":"12:37:00","departure_time":"12:37:00","lat":49.233904,"lon":16.604679,"is_passed":false},{"stop_id":"U1399Z2","name":"Moskalykova","arrival_time":"12:38:00","departure_time":"12:38:00","lat":49.23163,"lon":16.608178,"is_passed":false},{"stop_id":"U1150Z2","name":"Högrova","arrival_time":"12:40:00","departure_time":"12:40:00","lat":49.229128,"lon":16.604259,"is_passed":false},{"stop_id":"U1388Z1","name":"Mojmírovo náměstí","arrival_time":"12:42:00","departure_time":"12:42:00","lat":49.226134,"lon":16.597399,"is_passed":false},{"stop_id":"U1286Z5","name":"Královo Pole, nádraží","arrival_time":"12:45:00","departure_time":"12:45:00","lat":49.229633,"lon":16.595447,"is_passed":false},{"stop_id":"U1566Z6","name":"Semilasso","arrival_time":"12:46:00","departure_time":"12:46:00","lat":49.228248,"lon":16.593466,"is_passed":false},{"stop_id":"U1171Z4","name":"Husitská","arrival_time":"12:48:00","departure_time":"12:48:00","lat":49.224063,"lon":16.593994,"is_passed":false},{"stop_id":"U1586Z3","name":"Slovanské náměstí","arrival_time":"12:49:00","departure_time":"12:49:00","lat":49.223525,"lon":16.591009,"is_passed":false},{"stop_id":"U1567Z5","name":"Skácelova","arrival_time":"12:50:00","departure_time":"12:50:00","lat":49.221353,"lon":16.584711,"is_passed":false},{"stop_id":"U1777Z1","name":"Záhřebská","arrival_time":"12:52:00","departure_time":"12:52:00","lat":49.219602,"lon":16.579157,"is_passed":false},{"stop_id":"U1528Z3","name":"Přívrat","arrival_time":"12:53:00","departure_time":"12:53:00","lat":49.218788,"lon":16.574147,"is_passed":false},{"stop_id":"U1758Z1","name":"Vrázova","arrival_time":"12:54:00","departure_time":"12:54:00","lat":49.216968,"lon":16.568321,"is_passed":false},{"stop_id":"U1651Z1","name":"Štursova","arrival_time":"12:55:00","departure_time":"12:55:00","lat":49.216462,"lon":16.563614,"is_passed":false},{"stop_id":"U1502Z1","name":"Podveská","arrival_time":"12:56:00","departure_time":"12:56:00","lat":49.217623,"lon":16.559017,"is_passed":false},{"stop_id":"U1633Z3","name":"Svratecká","arrival_time":"12:57:00","departure_time":"12:57:00","lat":49.219008,"lon":16.554451,"is_passed":false},{"stop_id":"U1345Z1","name":"Lísky","arrival_time":"12:59:00","departure_time":"12:59:00","lat":49.219825,"lon":16.548868,"is_passed":false},{"stop_id":"U1493Z3","name":"Podlesí","arrival_time":"13:00:00","departure_time":"13:00:00","lat":49.218861,"lon":16.542049,"is_passed":false},{"stop_id":"U1226Z3","name":"Kamenolom","arrival_time":"13:01:00","departure_time":"13:01:00","lat":49.222506,"lon":16.537085,"is_passed":false},{"stop_id":"U1796Z7","name":"Zoologická zahrada","arrival_time":"13:05:00","departure_time":"13:05:00","lat":49.227823,"lon":16.531364,"is_passed":false},{"stop_id":"U1417Z1","name":"Náměstí 28. dubna","arrival_time":"13:06:00","departure_time":"13:06:00","lat":49.225188,"lon":16.531132,"is_passed":false},{"stop_id":"U1752Z1","name":"Vondrákova","arrival_time":"13:07:00","departure_time":"13:07:00","lat":49.221303,"lon":16.528376,"is_passed":false},{"stop_id":"U1326Z1","name":"Laštůvkova","arrival_time":"13:08:00","departure_time":"13:08:00","lat":49.220185,"lon":16.525212,"is_passed":false},{"stop_id":"U1107Z1","name":"Filipova","arrival_time":"13:09:00","departure_time":"13:09:00","lat":49.217684,"lon":16.525123,"is_passed":false},{"stop_id":"U1062Z1","name":"Černého","arrival_time":"13:11:00","departure_time":"13:35:00","lat":49.214083,"lon":16.522812,"is_passed":false}],"38108":[{"stop_id":"U1062Z2","name":"Černého","arrival_time":"13:35:00","departure_time":"13:35:00","lat":49.213885,"lon":16.523087,"is_passed":false},{"stop_id":"U1107Z2","name":"Filipova","arrival_time":"13:36:00","departure_time":"13:36:00","lat":49.217593,"lon":16.525217,"is_passed":false},{"stop_id":"U1326Z4","name":"Laštůvkova","arrival_time":"13:37:00","departure_time":"13:37:00","lat":49.220549,"lon":16.526237,"is_passed":false},{"stop_id":"U1752Z2","name":"Vondrákova","arrival_time":"13:38:00","departure_time":"13:38:00","lat":49.221445,"lon":16.528853,"is_passed":false},{"stop_id":"U1417Z2","name":"Náměstí 28. dubna","arrival_time":"13:39:00","departure_time":"13:39:00","lat":49.226314,"lon":16.53213,"is_passed":false},{"stop_id":"U1226Z4","name":"Kamenolom","arrival_time":"13:41:00","departure_time":"13:41:00","lat":49.221655,"lon":16.536983,"is_passed":false},{"stop_id":"U1493Z4","name":"Podlesí","arrival_time":"13:42:00","departure_time":"13:42:00","lat":49.218759,"lon":16.542623,"is_passed":false},{"stop_id":"U1345Z2","name":"Lísky","arrival_time":"13:43:00","departure_time":"13:43:00","lat":49.219967,"lon":16.549281,"is_passed":false},{"stop_id":"U1633Z4","name":"Svratecká","arrival_time":"13:45:00","departure_time":"13:45:00","lat":49.218696,"lon":16.554399,"is_passed":false},{"stop_id":"U1502Z2","name":"Podveská","arrival_time":"13:47:00","departure_time":"13:47:00","lat":49.217607,"lon":16.558178,"is_passed":false},{"stop_id":"U1651Z2","name":"Štursova","arrival_time":"13:48:00","departure_time":"13:48:00","lat":49.215854,"lon":16.564522,"is_passed":false},{"stop_id":"U1758Z2","name":"Vrázova","arrival_time":"13:49:00","departure_time":"13:49:00","lat":49.216977,"lon":16.568646,"is_passed":false},{"stop_id":"U1528Z4","name":"Přívrat","arrival_time":"13:51:00","departure_time":"13:51:00","lat":49.218647,"lon":16.574085,"is_passed":false},{"stop_id":"U1777Z2","name":"Záhřebská","arrival_time":"13:52:00","departure_time":"13:52:00","lat":49.219845,"lon":16.580415,"is_passed":false},{"stop_id":"U1567Z6","name":"Skácelova","arrival_time":"13:54:00","departure_time":"13:54:00","lat":49.22163,"lon":16.585935,"is_passed":false},{"stop_id":"U1586Z4","name":"Slovanské náměstí","arrival_time":"13:55:00","departure_time":"13:55:00","lat":49.222774,"lon":16.591332,"is_passed":false},{"stop_id":"U1171Z3","name":"Husitská","arrival_time":"13:56:00","departure_time":"13:56:00","lat":49.223851,"lon":16.594116,"is_passed":false},{"stop_id":"U1566Z4","name":"Semilasso","arrival_time":"13:58:00","departure_time":"13:58:00","lat":49.228055,"lon":16.593438,"is_passed":false},{"stop_id":"U1286Z3","name":"Královo Pole, nádraží","arrival_time":"13:59:00","departure_time":"13:59:00","lat":49.229218,"lon":16.596271,"is_passed":false},{"stop_id":"U1388Z2","name":"Mojmírovo náměstí","arrival_time":"14:00:00","departure_time":"14:00:00","lat":49.226499,"lon":16.598423,"is_passed":false},{"stop_id":"U1150Z1","name":"Högrova","arrival_time":"14:02:00","departure_time":"14:02:00","lat":49.228296,"lon":16.604528,"is_passed":false},{"stop_id":"U1195Z1","name":"Jarmily Kurandové","arrival_time":"14:02:00","departure_time":"14:02:00","lat":49.230235,"lon":16.604438,"is_passed":false},{"stop_id":"U1399Z1","name":"Moskalykova","arrival_time":"14:03:00","departure_time":"14:03:00","lat":49.231252,"lon":16.607921,"is_passed":false},{"stop_id":"U1564Z1","name":"Sadová","arrival_time":"14:05:00","departure_time":"14:05:00","lat":49.234166,"lon":16.603978,"is_passed":false},{"stop_id":"U1130Z2","name":"Hamerláky","arrival_time":"14:06:00","departure_time":"14:06:00","lat":49.237225,"lon":16.60407,"is_passed":false},{"stop_id":"U1407Z1","name":"Myslivecký stadion","arrival_time":"14:07:00","departure_time":"14:07:00","lat":49.241317,"lon":16.609929,"is_passed":false},{"stop_id":"U1711Z1","name":"Útěchovská","arrival_time":"14:09:00","departure_time":"14:09:00","lat":49.2475,"lon":16.616402,"is_passed":false},{"stop_id":"U1091Z1","name":"Dohnalova","arrival_time":"14:10:00","departure_time":"14:10:00","lat":49.251124,"lon":16.618901,"is_passed":false},{"stop_id":"U1412Z1","name":"Na kovárně","arrival_time":"14:11:00","departure_time":"14:11:00","lat":49.253213,"lon":16.620275,"is_passed":false},{"stop_id":"U1548Z1","name":"Rozárka","arrival_time":"14:12:00","departure_time":"14:12:00","lat":49.254486,"lon":16.622791,"is_passed":false},{"stop_id":"U1235Z3","name":"Klarisky","arrival_time":"14:14:00","departure_time":"14:21:00","lat":49.256942,"lon":16.622725,"is_passed":false}],"38109":[{"stop_id":"U1235Z4","name":"Klarisky","arrival_time":"14:21:00","departure_time":"14:21:00","lat":49.257063,"lon":16.622604,"is_passed":false},{"stop_id":"U1412Z2","name":"Na kovárně","arrival_time":"14:22:00","departure_time":"14:22:00","lat":49.254426,"lon":16.620777,"is_passed":false},{"stop_id":"U1091Z2","name":"Dohnalova","arrival_time":"14:23:00","departure_time":"14:23:00","lat":49.249657,"lon":16.617775,"is_passed":false},{"stop_id":"U1711Z2","name":"Útěchovská","arrival_time":"14:24:00","departure_time":"14:24:00","lat":49.246974,"lon":16.61581,"is_passed":false},{"stop_id":"U1407Z2","name":"Myslivecký stadion","arrival_time":"14:25:00","departure_time":"14:25:00","lat":49.241075,"lon":16.609359,"is_passed":false},{"stop_id":"U1130Z1","name":"Hamerláky","arrival_time":"14:26:00","departure_time":"14:26:00","lat":49.237082,"lon":16.603873,"is_passed":false},{"stop_id":"U1564Z2","name":"Sadová","arrival_time":"14:27:00","departure_time":"14:27:00","lat":49.233904,"lon":16.604679,"is_passed":false},{"stop_id":"U1399Z2","name":"Moskalykova","arrival_time":"14:28:00","departure_time":"14:28:00","lat":49.23163,"lon":16.608178,"is_passed":false},{"stop_id":"U1150Z2","name":"Högrova","arrival_time":"14:30:00","departure_time":"14:30:00","lat":49.229128,"lon":16.604259,"is_passed":false},{"stop_id":"U1388Z1","name":"Mojmírovo náměstí","arrival_time":"14:32:00","departure_time":"14:32:00","lat":49.226134,"lon":16.597399,"is_passed":false},{"stop_id":"U1286Z5","name":"Královo Pole, nádraží","arrival_time":"14:35:00","departure_time":"14:35:00","lat":49.229633,"lon":16.595447,"is_passed":false},{"stop_id":"U1566Z6","name":"Semilasso","arrival_time":"14:36:00","departure_time":"14:36:00","lat":49.228248,"lon":16.593466,"is_passed":false},{"stop_id":"U1171Z4","name":"Husitská","arrival_time":"14:38:00","departure_time":"14:38:00","lat":49.224063,"lon":16.593994,"is_passed":false},{"stop_id":"U1586Z3","name":"Slovanské náměstí","arrival_time":"14:39:00","departure_time":"14:39:00","lat":49.223525,"lon":16.591009,"is_passed":false},{"stop_id":"U1567Z5","name":"Skácelova","arrival_time":"14:40:00","departure_time":"14:40:00","lat":49.221353,"lon":16.584711,"is_passed":false},{"stop_id":"U1777Z1","name":"Záhřebská","arrival_time":"14:42:00","departure_time":"14:42:00","lat":49.219602,"lon":16.579157,"is_passed":false},{"stop_id":"U1528Z3","name":"Přívrat","arrival_time":"14:43:00","departure_time":"14:43:00","lat":49.218788,"lon":16.574147,"is_passed":false},{"stop_id":"U1758Z1","name":"Vrázova","arrival_time":"14:44:00","departure_time":"14:44:00","lat":49.216968,"lon":16.568321,"is_passed":false},{"stop_id":"U1651Z1","name":"Štursova","arrival_time":"14:45:00","departure_time":"14:45:00","lat":49.216462,"lon":16.563614,"is_passed":false},{"stop_id":"U1502Z1","name":"Podveská","arrival_time":"14:46:00","departure_time":"14:46:00","lat":49.217623,"lon":16.559017,"is_passed":false},{"stop_id":"U1633Z3","name":"Svratecká","arrival_time":"14:47:00","departure_time":"14:47:00","lat":49.219008,"lon":16.554451,"is_passed":false},{"stop_id":"U1345Z1","name":"Lísky","arrival_time":"14:49:00","departure_time":"14:49:00","lat":49.219825,"lon":16.548868,"is_passed":false},{"stop_id":"U1493Z3","name":"Podlesí","arrival_time":"14:50:00","departure_time":"14:50:00","lat":49.218861,"lon":16.542049,"is_passed":false},{"stop_id":"U1226Z3","name":"Kamenolom","arrival_time":"14:51:00","departure_time":"14:51:00","lat":49.222506,"lon":16.537085,"is_passed":false},{"stop_id":"U1796Z7","name":"Zoologická zahrada","arrival_time":"14:55:00","departure_time":"14:55:00","lat":49.227823,"lon":16.531364,"is_passed":false},{"stop_id":"U1417Z1","name":"Náměstí 28. dubna","arrival_time":"14:56:00","departure_time":"14:56:00","lat":49.225188,"lon":16.531132,"is_passed":false},{"stop_id":"U1752Z1","name":"Vondrákova","arrival_time":"14:57:00","departure_time":"14:57:00","lat":49.221303,"lon":16.528376,"is_passed":false},{"stop_id":"U1326Z1","name":"Laštůvkova","arrival_time":"14:58:00","departure_time":"14:58:00","lat":49.220185,"lon":16.525212,"is_passed":false},{"stop_id":"U1107Z1","name":"Filipova","arrival_time":"14:59:00","departure_time":"14:59:00","lat":49.217684,"lon":16.525123,"is_passed":false},{"stop_id":"U1062Z1","name":"Černého","arrival_time":"15:01:00","departure_time":"15:20:00","lat":49.214083,"lon":16.522812,"is_passed":false}],"38110":[{"stop_id":"U1062Z2","name":"Černého","arrival_time":"15:20:00","departure_time":"15:20:00","lat":49.213885,"lon":16.523087,"is_passed":false},{"stop_id":"U1107Z2","name":"Filipova","arrival_time":"15:21:00","departure_time":"15:21:00","lat":49.217593,"lon":16.525217,"is_passed":false},{"stop_id":"U1326Z4","name":"Laštůvkova","arrival_time":"15:22:00","departure_time":"15:22:00","lat":49.220549,"lon":16.526237,"is_passed":false},{"stop_id":"U1752Z2","name":"Vondrákova","arrival_time":"15:23:00","departure_time":"15:23:00","lat":49.221445,"lon":16.528853,"is_passed":false},{"stop_id":"U1417Z2","name":"Náměstí 28. dubna","arrival_time":"15:24:00","departure_time":"15:24:00","lat":49.226314,"lon":16.53213,"is_passed":false},{"stop_id":"U1226Z4","name":"Kamenolom","arrival_time":"15:26:00","departure_time":"15:26:00","lat":49.221655,"lon":16.536983,"is_passed":false},{"stop_id":"U1493Z4","name":"Podlesí","arrival_time":"15:27:00","departure_time":"15:27:00","lat":49.218759,"lon":16.542623,"is_passed":false},{"stop_id":"U1345Z2","name":"Lísky","arrival_time":"15:28:00","departure_time":"15:28:00","lat":49.219967,"lon":16.549281,"is_passed":false},{"stop_id":"U1633Z4","name":"Svratecká","arrival_time":"15:30:00","departure_time":"15:30:00","lat":49.218696,"lon":16.554399,"is_passed":false},{"stop_id":"U1502Z2","name":"Podveská","arrival_time":"15:32:00","departure_time":"15:32:00","lat":49.217607,"lon":16.558178,"is_passed":false},{"stop_id":"U1651Z2","name":"Štursova","arrival_time":"15:33:00","departure_time":"15:33:00","lat":49.215854,"lon":16.564522,"is_passed":false},{"stop_id":"U1758Z2","name":"Vrázova","arrival_time":"15:34:00","departure_time":"15:34:00","lat":49.216977,"lon":16.568646,"is_passed":false},{"stop_id":"U1528Z4","name":"Přívrat","arrival_time":"15:36:00","departure_time":"15:36:00","lat":49.218647,"lon":16.574085,"is_passed":false},{"stop_id":"U1777Z2","name":"Záhřebská","arrival_time":"15:37:00","departure_time":"15:37:00","lat":49.219845,"lon":16.580415,"is_passed":false},{"stop_id":"U1567Z6","name":"Skácelova","arrival_time":"15:39:00","departure_time":"15:39:00","lat":49.22163,"lon":16.585935,"is_passed":false},{"stop_id":"U1586Z4","name":"Slovanské náměstí","arrival_time":"15:40:00","departure_time":"15:40:00","lat":49.222774,"lon":16.591332,"is_passed":false},{"stop_id":"U1171Z3","name":"Husitská","arrival_time":"15:41:00","departure_time":"15:41:00","lat":49.223851,"lon":16.594116,"is_passed":false},{"stop_id":"U1566Z4","name":"Semilasso","arrival_time":"15:43:00","departure_time":"15:43:00","lat":49.228055,"lon":16.593438,"is_passed":false},{"stop_id":"U1286Z3","name":"Královo Pole, nádraží","arrival_time":"15:44:00","departure_time":"15:44:00","lat":49.229218,"lon":16.596271,"is_passed":false},{"stop_id":"U1388Z2","name":"Mojmírovo náměstí","arrival_time":"15:45:00","departure_time":"15:45:00","lat":49.226499,"lon":16.598423,"is_passed":false},{"stop_id":"U1150Z1","name":"Högrova","arrival_time":"15:47:00","departure_time":"15:47:00","lat":49.228296,"lon":16.604528,"is_passed":false},{"stop_id":"U1195Z1","name":"Jarmily Kurandové","arrival_time":"15:47:00","departure_time":"15:47:00","lat":49.230235,"lon":16.604438,"is_passed":false},{"stop_id":"U1399Z1","name":"Moskalykova","arrival_time":"15:48:00","departure_time":"15:48:00","lat":49.231252,"lon":16.607921,"is_passed":false},{"stop_id":"U1564Z1","name":"Sadová","arrival_time":"15:50:00","departure_time":"15:50:00","lat":49.234166,"lon":16.603978,"is_passed":false},{"stop_id":"U1130Z2","name":"Hamerláky","arrival_time":"15:51:00","departure_time":"15:51:00","lat":49.237225,"lon":16.60407,"is_passed":false},{"stop_id":"U1407Z1","name":"Myslivecký stadion","arrival_time":"15:52:00","departure_time":"15:52:00","lat":49.241317,"lon":16.609929,"is_passed":false},{"stop_id":"U1711Z1","name":"Útěchovská","arrival_time":"15:54:00","departure_time":"15:54:00","lat":49.2475,"lon":16.616402,"is_passed":false},{"stop_id":"U1091Z1","name":"Dohnalova","arrival_time":"15:55:00","departure_time":"15:55:00","lat":49.251124,"lon":16.618901,"is_passed":false},{"stop_id":"U1412Z1","name":"Na kovárně","arrival_time":"15:56:00","departure_time":"15:56:00","lat":49.253213,"lon":16.620275,"is_passed":false},{"stop_id":"U1548Z1","name":"Rozárka","arrival_time":"15:57:00","departure_time":"15:57:00","lat":49.254486,"lon":16.622791,"is_passed":false},{"stop_id":"U1235Z3","name":"Klarisky","arrival_time":"15:59:00","departure_time":"16:01:00","lat":49.256942,"lon":16.622725,"is_passed":false}],"38111":[{"stop_id":"U1235Z4","name":"Klarisky","arrival_time":"16:01:00","departure_time":"16:01:00","lat":49.257063,"lon":16.622604,"is_passed":false},{"stop_id":"U1412Z2","name":"Na kovárně","arrival_time":"16:02:00","departure_time":"16:02:00","lat":49.254426,"lon":16.620777,"is_passed":false},{"stop_id":"U1091Z2","name":"Dohnalova","arrival_time":"16:03:00","departure_time":"16:03:00","lat":49.249657,"lon":16.617775,"is_passed":false},{"stop_id":"U1711Z2","name":"Útěchovská","arrival_time":"16:04:00","departure_time":"16:04:00","lat":49.246974,"lon":16.61581,"is_passed":false},{"stop_id":"U1407Z2","name":"Myslivecký stadion","arrival_time":"16:05:00","departure_time":"16:05:00","lat":49.241075,"lon":16.609359,"is_passed":false},{"stop_id":"U1130Z1","name":"Hamerláky","arrival_time":"16:06:00","departure_time":"16:06:00","lat":49.237082,"lon":16.603873,"is_passed":false},{"stop_id":"U1564Z2","name":"Sadová","arrival_time":"16:07:00","departure_time":"16:07:00","lat":49.233904,"lon":16.604679,"is_passed":false},{"stop_id":"U1399Z2","name":"Moskalykova","arrival_time":"16:08:00","departure_time":"16:08:00","lat":49.23163,"lon":16.608178,"is_passed":false},{"stop_id":"U1150Z2","name":"Högrova","arrival_time":"16:10:00","departure_time":"16:10:00","lat":49.229128,"lon":16.604259,"is_passed":false},{"stop_id":"U1388Z1","name":"Mojmírovo náměstí","arrival_time":"16:12:00","departure_time":"16:12:00","lat":49.226134,"lon":16.597399,"is_passed":false},{"stop_id":"U1286Z5","name":"Královo Pole, nádraží","arrival_time":"16:15:00","departure_time":"16:15:00","lat":49.229633,"lon":16.595447,"is_passed":false},{"stop_id":"U1566Z6","name":"Semilasso","arrival_time":"16:16:00","departure_time":"16:16:00","lat":49.228248,"lon":16.593466,"is_passed":false},{"stop_id":"U1171Z4","name":"Husitská","arrival_time":"16:18:00","departure_time":"16:18:00","lat":49.224063,"lon":16.593994,"is_passed":false},{"stop_id":"U1586Z3","name":"Slovanské náměstí","arrival_time":"16:19:00","departure_time":"16:19:00","lat":49.223525,"lon":16.591009,"is_passed":false},{"stop_id":"U1567Z5","name":"Skácelova","arrival_time":"16:20:00","departure_time":"16:20:00","lat":49.221353,"lon":16.584711,"is_passed":false},{"stop_id":"U1777Z1","name":"Záhřebská","arrival_time":"16:22:00","departure_time":"16:22:00","lat":49.219602,"lon":16.579157,"is_passed":false},{"stop_id":"U1528Z3","name":"Přívrat","arrival_time":"16:23:00","departure_time":"16:23:00","lat":49.218788,"lon":16.574147,"is_passed":false},{"stop_id":"U1758Z1","name":"Vrázova","arrival_time":"16:24:00","departure_time":"16:24:00","lat":49.216968,"lon":16.568321,"is_passed":false},{"stop_id":"U1651Z1","name":"Štursova","arrival_time":"16:25:00","departure_time":"16:25:00","lat":49.216462,"lon":16.563614,"is_passed":false},{"stop_id":"U1502Z1","name":"Podveská","arrival_time":"16:26:00","departure_time":"16:26:00","lat":49.217623,"lon":16.559017,"is_passed":false},{"stop_id":"U1633Z3","name":"Svratecká","arrival_time":"16:27:00","departure_time":"16:27:00","lat":49.219008,"lon":16.554451,"is_passed":false},{"stop_id":"U1345Z1","name":"Lísky","arrival_time":"16:29:00","departure_time":"16:29:00","lat":49.219825,"lon":16.548868,"is_passed":false},{"stop_id":"U1493Z3","name":"Podlesí","arrival_time":"16:30:00","departure_time":"16:30:00","lat":49.218861,"lon":16.542049,"is_passed":false},{"stop_id":"U1226Z3","name":"Kamenolom","arrival_time":"16:31:00","departure_time":"16:31:00","lat":49.222506,"lon":16.537085,"is_passed":false},{"stop_id":"U1796Z7","name":"Zoologická zahrada","arrival_time":"16:35:00","departure_time":"16:35:00","lat":49.227823,"lon":16.531364,"is_passed":false},{"stop_id":"U1417Z1","name":"Náměstí 28. dubna","arrival_time":"16:36:00","departure_time":"16:36:00","lat":49.225188,"lon":16.531132,"is_passed":false},{"stop_id":"U1752Z1","name":"Vondrákova","arrival_time":"16:37:00","departure_time":"16:37:00","lat":49.221303,"lon":16.528376,"is_passed":false},{"stop_id":"U1326Z1","name":"Laštůvkova","arrival_time":"16:38:00","departure_time":"16:38:00","lat":49.220185,"lon":16.525212,"is_passed":false},{"stop_id":"U1107Z1","name":"Filipova","arrival_time":"16:39:00","departure_time":"16:39:00","lat":49.217684,"lon":16.525123,"is_passed":false},{"stop_id":"U1062Z1","name":"Černého","arrival_time":"16:41:00","departure_time":"17:10:00","lat":49.214083,"lon":16.522812,"is_passed":false}],"38112":[{"stop_id":"U1062Z2","name":"Černého","arrival_time":"17:10:00","departure_time":"17:10:00","lat":49.213885,"lon":16.523087,"is_passed":false},{"stop_id":"U1107Z2","name":"Filipova","arrival_time":"17:11:00","departure_time":"17:11:00","lat":49.217593,"lon":16.525217,"is_passed":false},{"stop_id":"U1326Z4","name":"Laštůvkova","arrival_time":"17:12:00","departure_time":"17:12:00","lat":49.220549,"lon":16.526237,"is_passed":false},{"stop_id":"U1752Z2","name":"Vondrákova","arrival_time":"17:13:00","departure_time":"17:13:00","lat":49.221445,"lon":16.528853,"is_passed":false},{"stop_id":"U1417Z2","name":"Náměstí 28. dubna","arrival_time":"17:14:00","departure_time":"17:14:00","lat":49.226314,"lon":16.53213,"is_passed":false},{"stop_id":"U1226Z4","name":"Kamenolom","arrival_time":"17:16:00","departure_time":"17:16:00","lat":49.221655,"lon":16.536983,"is_passed":false},{"stop_id":"U1493Z4","name":"Podlesí","arrival_time":"17:17:00","departure_time":"17:17:00","lat":49.218759,"lon":16.542623,"is_passed":false},{"stop_id":"U1345Z2","name":"Lísky","arrival_time":"17:18:00","departure_time":"17:18:00","lat":49.219967,"lon":16.549281,"is_passed":false},{"stop_id":"U1633Z4","name":"Svratecká","arrival_time":"17:20:00","departure_time":"17:20:00","lat":49.218696,"lon":16.554399,"is_passed":false},{"stop_id":"U1502Z2","name":"Podveská","arrival_time":"17:22:00","departure_time":"17:22:00","lat":49.217607,"lon":16.558178,"is_passed":false},{"stop_id":"U1651Z2","name":"Štursova","arrival_time":"17:23:00","departure_time":"17:23:00","lat":49.215854,"lon":16.564522,"is_passed":false},{"stop_id":"U1758Z2","name":"Vrázova","arrival_time":"17:24:00","departure_time":"17:24:00","lat":49.216977,"lon":16.568646,"is_passed":false},{"stop_id":"U1528Z4","name":"Přívrat","arrival_time":"17:26:00","departure_time":"17:26:00","lat":49.218647,"lon":16.574085,"is_passed":false},{"stop_id":"U1777Z2","name":"Záhřebská","arrival_time":"17:27:00","departure_time":"17:27:00","lat":49.219845,"lon":16.580415,"is_passed":false},{"stop_id":"U1567Z6","name":"Skácelova","arrival_time":"17:29:00","departure_time":"17:29:00","lat":49.22163,"lon":16.585935,"is_passed":false},{"stop_id":"U1586Z4","name":"Slovanské náměstí","arrival_time":"17:30:00","departure_time":"17:30:00","lat":49.222774,"lon":16.591332,"is_passed":false},{"stop_id":"U1171Z3","name":"Husitská","arrival_time":"17:31:00","departure_time":"17:31:00","lat":49.223851,"lon":16.594116,"is_passed":false},{"stop_id":"U1566Z4","name":"Semilasso","arrival_time":"17:33:00","departure_time":"17:33:00","lat":49.228055,"lon":16.593438,"is_passed":false},{"stop_id":"U1286Z3","name":"Královo Pole, nádraží","arrival_time":"17:34:00","departure_time":"17:34:00","lat":49.229218,"lon":16.596271,"is_passed":false},{"stop_id":"U1388Z2","name":"Mojmírovo náměstí","arrival_time":"17:35:00","departure_time":"17:35:00","lat":49.226499,"lon":16.598423,"is_passed":false},{"stop_id":"U1150Z1","name":"Högrova","arrival_time":"17:37:00","departure_time":"17:37:00","lat":49.228296,"lon":16.604528,"is_passed":false},{"stop_id":"U1195Z1","name":"Jarmily Kurandové","arrival_time":"17:37:00","departure_time":"17:37:00","lat":49.230235,"lon":16.604438,"is_passed":false},{"stop_id":"U1399Z1","name":"Moskalykova","arrival_time":"17:38:00","departure_time":"17:38:00","lat":49.231252,"lon":16.607921,"is_passed":false},{"stop_id":"U1564Z1","name":"Sadová","arrival_time":"17:40:00","departure_time":"17:40:00","lat":49.234166,"lon":16.603978,"is_passed":false},{"stop_id":"U1130Z2","name":"Hamerláky","arrival_time":"17:41:00","departure_time":"17:41:00","lat":49.237225,"lon":16.60407,"is_passed":false},{"stop_id":"U1407Z1","name":"Myslivecký stadion","arrival_time":"17:42:00","departure_time":"17:42:00","lat":49.241317,"lon":16.609929,"is_passed":false},{"stop_id":"U1711Z1","name":"Útěchovská","arrival_time":"17:44:00","departure_time":"17:44:00","lat":49.2475,"lon":16.616402,"is_passed":false},{"stop_id":"U1091Z1","name":"Dohnalova","arrival_time":"17:45:00","departure_time":"17:45:00","lat":49.251124,"lon":16.618901,"is_passed":false},{"stop_id":"U1412Z1","name":"Na kovárně","arrival_time":"17:46:00","departure_time":"17:46:00","lat":49.253213,"lon":16.620275,"is_passed":false},{"stop_id":"U1548Z1","name":"Rozárka","arrival_time":"17:47:00","departure_time":"17:47:00","lat":49.254486,"lon":16.622791,"is_passed":false},{"stop_id":"U1235Z3","name":"Klarisky","arrival_time":"17:49:00","departure_time":"17:56:00","lat":49.256942,"lon":16.622725,"is_passed":false}],"38113":[{"stop_id":"U1235Z4","name":"Klarisky","arrival_time":"17:56:00","departure_time":"17:56:00","lat":49.257063,"lon":16.622604,"is_passed":false},{"stop_id":"U1412Z2","name":"Na kovárně","arrival_time":"17:57:00","departure_time":"17:57:00","lat":49.254426,"lon":16.620777,"is_passed":false},{"stop_id":"U1091Z2","name":"Dohnalova","arrival_time":"17:58:00","departure_time":"17:58:00","lat":49.249657,"lon":16.617775,"is_passed":false},{"stop_id":"U1711Z2","name":"Útěchovská","arrival_time":"17:59:00","departure_time":"17:59:00","lat":49.246974,"lon":16.61581,"is_passed":false},{"stop_id":"U1407Z2","name":"Myslivecký stadion","arrival_time":"18:00:00","departure_time":"18:00:00","lat":49.241075,"lon":16.609359,"is_passed":false},{"stop_id":"U1130Z1","name":"Hamerláky","arrival_time":"18:01:00","departure_time":"18:01:00","lat":49.237082,"lon":16.603873,"is_passed":false},{"stop_id":"U1564Z2","name":"Sadová","arrival_time":"18:02:00","departure_time":"18:02:00","lat":49.233904,"lon":16.604679,"is_passed":false},{"stop_id":"U1399Z2","name":"Moskalykova","arrival_time":"18:03:00","departure_time":"18:03:00","lat":49.23163,"lon":16.608178,"is_passed":false},{"stop_id":"U1150Z2","name":"Högrova","arrival_time":"18:04:00","departure_time":"18:04:00","lat":49.229128,"lon":16.604259,"is_passed":false},{"stop_id":"U1388Z1","name":"Mojmírovo náměstí","arrival_time":"18:06:00","departure_time":"18:06:00","lat":49.226134,"lon":16.597399,"is_passed":false},{"stop_id":"U1286Z5","name":"Královo Pole, nádraží","arrival_time":"18:09:00","departure_time":"18:09:00","lat":49.229633,"lon":16.595447,"is_passed":false},{"stop_id":"U1566Z6","name":"Semilasso","arrival_time":"18:10:00","departure_time":"18:10:00","lat":49.228248,"lon":16.593466,"is_passed":false},{"stop_id":"U1171Z4","name":"Husitská","arrival_time":"18:12:00","departure_time":"18:12:00","lat":49.224063,"lon":16.593994,"is_passed":false},{"stop_id":"U1586Z3","name":"Slovanské náměstí","arrival_time":"18:13:00","departure_time":"18:13:00","lat":49.223525,"lon":16.591009,"is_passed":false},{"stop_id":"U1567Z5","name":"Skácelova","arrival_time":"18:14:00","departure_time":"18:14:00","lat":49.221353,"lon":16.584711,"is_passed":false},{"stop_id":"U1777Z1","name":"Záhřebská","arrival_time":"18:16:00","departure_time":"18:16:00","lat":49.219602,"lon":16.579157,"is_passed":false},{"stop_id":"U1528Z3","name":"Přívrat","arrival_time":"18:17:00","departure_time":"18:17:00","lat":49.218788,"lon":16.574147,"is_passed":false},{"stop_id":"U1758Z1","name":"Vrázova","arrival_time":"18:18:00","departure_time":"18:18:00","lat":49.216968,"lon":16.568321,"is_passed":false},{"stop_id":"U1651Z1","name":"Štursova","arrival_time":"18:19:00","departure_time":"18:19:00","lat":49.216462,"lon":16.563614,"is_passed":false},{"stop_id":"U1502Z1","name":"Podveská","arrival_time":"18:20:00","departure_time":"18:20:00","lat":49.217623,"lon":16.559017,"is_passed":false},{"stop_id":"U1633Z3","name":"Svratecká","arrival_time":"18:21:00","departure_time":"18:21:00","lat":49.219008,"lon":16.554451,"is_passed":false},{"stop_id":"U1345Z1","name":"Lísky","arrival_time":"18:22:00","departure_time":"18:22:00","lat":49.219825,"lon":16.548868,"is_passed":false},{"stop_id":"U1493Z3","name":"Podlesí","arrival_time":"18:23:00","departure_time":"18:23:00","lat":49.218861,"lon":16.542049,"is_passed":false},{"stop_id":"U1226Z3","name":"Kamenolom","arrival_time":"18:24:00","departure_time":"18:24:00","lat":49.222506,"lon":16.537085,"is_passed":false},{"stop_id":"U1796Z7","name":"Zoologická zahrada","arrival_time":"18:28:00","departure_time":"18:28:00","lat":49.227823,"lon":16.531364,"is_passed":false},{"stop_id":"U1417Z1","name":"Náměstí 28. dubna","arrival_time":"18:29:00","departure_time":"18:29:00","lat":49.225188,"lon":16.531132,"is_passed":false},{"stop_id":"U1752Z1","name":"Vondrákova","arrival_time":"18:30:00","departure_time":"18:30:00","lat":49.221303,"lon":16.528376,"is_passed":false},{"stop_id":"U1326Z1","name":"Laštůvkova","arrival_time":"18:31:00","departure_time":"18:31:00","lat":49.220185,"lon":16.525212,"is_passed":false},{"stop_id":"U1107Z1","name":"Filipova","arrival_time":"18:32:00","departure_time":"18:32:00","lat":49.217684,"lon":16.525123,"is_passed":false},{"stop_id":"U1062Z1","name":"Černého","arrival_time":"18:34:00","departure_time":"18:36:00","lat":49.214083,"lon":16.522812,"is_passed":false}],"38114":[{"stop_id":"U1062Z2","name":"Černého","arrival_time":"5:01:00","departure_time":"5:01:00","lat":49.213885,"lon":16.523087,"is_passed":false},{"stop_id":"U1107Z2","name":"Filipova","arrival_time":"5:02:00","departure_time":"5:02:00","lat":49.217593,"lon":16.525217,"is_passed":false},{"stop_id":"U1326Z4","name":"Laštůvkova","arrival_time":"5:03:00","departure_time":"5:03:00","lat":49.220549,"lon":16.526237,"is_passed":false},{"stop_id":"U1752Z2","name":"Vondrákova","arrival_time":"5:04:00","departure_time":"5:04:00","lat":49.221445,"lon":16.528853,"is_passed":false},{"stop_id":"U1417Z2","name":"Náměstí 28. dubna","arrival_time":"5:05:00","departure_time":"5:05:00","lat":49.226314,"lon":16.53213,"is_passed":false},{"stop_id":"U1226Z4","name":"Kamenolom","arrival_time":"5:07:00","departure_time":"5:07:00","lat":49.221655,"lon":16.536983,"is_passed":false},{"stop_id":"U1493Z4","name":"Podlesí","arrival_time":"5:08:00","departure_time":"5:08:00","lat":49.218759,"lon":16.542623,"is_passed":false},{"stop_id":"U1345Z2","name":"Lísky","arrival_time":"5:09:00","departure_time":"5:09:00","lat":49.219967,"lon":16.549281,"is_passed":false},{"stop_id":"U1633Z4","name":"Svratecká","arrival_time":"5:11:00","departure_time":"5:11:00","lat":49.218696,"lon":16.554399,"is_passed":false},{"stop_id":"U1502Z2","name":"Podveská","arrival_time":"5:12:00","departure_time":"5:12:00","lat":49.217607,"lon":16.558178,"is_passed":false},{"stop_id":"U1651Z2","name":"Štursova","arrival_time":"5:13:00","departure_time":"5:13:00","lat":49.215854,"lon":16.564522,"is_passed":false},{"stop_id":"U1758Z2","name":"Vrázova","arrival_time":"5:14:00","departure_time":"5:14:00","lat":49.216977,"lon":16.568646,"is_passed":false},{"stop_id":"U1528Z4","name":"Přívrat","arrival_time":"5:16:00","departure_time":"5:16:00","lat":49.218647,"lon":16.574085,"is_passed":false},{"stop_id":"U1777Z2","name":"Záhřebská","arrival_time":"5:17:00","departure_time":"5:17:00","lat":49.219845,"lon":16.580415,"is_passed":false},{"stop_id":"U1567Z6","name":"Skácelova","arrival_time":"5:19:00","departure_time":"5:19:00","lat":49.22163,"lon":16.585935,"is_passed":false},{"stop_id":"U1586Z4","name":"Slovanské náměstí","arrival_time":"5:20:00","departure_time":"5:20:00","lat":49.222774,"lon":16.591332,"is_passed":false},{"stop_id":"U1171Z3","name":"Husitská","arrival_time":"5:21:00","departure_time":"5:21:00","lat":49.223851,"lon":16.594116,"is_passed":false},{"stop_id":"U1566Z4","name":"Semilasso","arrival_time":"5:23:00","departure_time":"5:23:00","lat":49.228055,"lon":16.593438,"is_passed":false},{"stop_id":"U1286Z3","name":"Královo Pole, nádraží","arrival_time":"5:24:00","departure_time":"5:24:00","lat":49.229218,"lon":16.596271,"is_passed":false},{"stop_id":"U1388Z2","name":"Mojmírovo náměstí","arrival_time":"5:25:00","departure_time":"5:25:00","lat":49.226499,"lon":16.598423,"is_passed":false},{"stop_id":"U1150Z1","name":"Högrova","arrival_time":"5:27:00","departure_time":"5:27:00","lat":49.228296,"lon":16.604528,"is_passed":false},{"stop_id":"U1195Z1","name":"Jarmily Kurandové","arrival_time":"5:27:00","departure_time":"5:27:00","lat":49.230235,"lon":16.604438,"is_passed":false},{"stop_id":"U1399Z1","name":"Moskalykova","arrival_time":"5:28:00","departure_time":"5:28:00","lat":49.231252,"lon":16.607921,"is_passed":false},{"stop_id":"U1564Z1","name":"Sadová","arrival_time":"5:29:00","departure_time":"5:29:00","lat":49.234166,"lon":16.603978,"is_passed":false},{"stop_id":"U1130Z2","name":"Hamerláky","arrival_time":"5:30:00","departure_time":"5:30:00","lat":49.237225,"lon":16.60407,"is_passed":false},{"stop_id":"U1407Z1","name":"Myslivecký stadion","arrival_time":"5:31:00","departure_time":"5:31:00","lat":49.241317,"lon":16.609929,"is_passed":false},{"stop_id":"U1711Z1","name":"Útěchovská","arrival_time":"5:32:00","departure_time":"5:32:00","lat":49.2475,"lon":16.616402,"is_passed":false},{"stop_id":"U1091Z1","name":"Dohnalova","arrival_time":"5:33:00","departure_time":"5:33:00","lat":49.251124,"lon":16.618901,"is_passed":false},{"stop_id":"U1412Z1","name":"Na kovárně","arrival_time":"5:34:00","departure_time":"5:34:00","lat":49.253213,"lon":16.620275,"is_passed":false},{"stop_id":"U1548Z1","name":"Rozárka","arrival_time":"5:35:00","departure_time":"5:35:00","lat":49.254486,"lon":16.622791,"is_passed":false},{"stop_id":"U1235Z3","name":"Klarisky","arrival_time":"5:37:00","departure_time":"5:41:00","lat":49.256942,"lon":16.622725,"is_passed":false}],"38115":[{"stop_id":"U1235Z4","name":"Klarisky","arrival_time":"5:41:00","departure_time":"5:41:00","lat":49.257063,"lon":16.622604,"is_passed":false},{"stop_id":"U1412Z2","name":"Na kovárně","arrival_time":"5:42:00","departure_time":"5:42:00","lat":49.254426,"lon":16.620777,"is_passed":false},{"stop_id":"U1091Z2","name":"Dohnalova","arrival_time":"5:43:00","departure_time":"5:43:00","lat":49.249657,"lon":16.617775,"is_passed":false},{"stop_id":"U1711Z2","name":"Útěchovská","arrival_time":"5:44:00","departure_time":"5:44:00","lat":49.246974,"lon":16.61581,"is_passed":false},{"stop_id":"U1407Z2","name":"Myslivecký stadion","arrival_time":"5:45:00","departure_time":"5:45:00","lat":49.241075,"lon":16.609359,"is_passed":false},{"stop_id":"U1130Z1","name":"Hamerláky","arrival_time":"5:46:00","departure_time":"5:46:00","lat":49.237082,"lon":16.603873,"is_passed":false},{"stop_id":"U1564Z2","name":"Sadová","arrival_time":"5:47:00","departure_time":"5:47:00","lat":49.233904,"lon":16.604679,"is_passed":false},{"stop_id":"U1399Z2","name":"Moskalykova","arrival_time":"5:48:00","departure_time":"5:48:00","lat":49.23163,"lon":16.608178,"is_passed":false},{"stop_id":"U1150Z2","name":"Högrova","arrival_time":"5:49:00","departure_time":"5:49:00","lat":49.229128,"lon":16.604259,"is_passed":false},{"stop_id":"U1388Z1","name":"Mojmírovo náměstí","arrival_time":"5:51:00","departure_time":"5:51:00","lat":49.226134,"lon":16.597399,"is_passed":false},{"stop_id":"U1286Z5","name":"Královo Pole, nádraží","arrival_time":"5:54:00","departure_time":"5:54:00","lat":49.229633,"lon":16.595447,"is_passed":false},{"stop_id":"U1566Z6","name":"Semilasso","arrival_time":"5:55:00","departure_time":"5:55:00","lat":49.228248,"lon":16.593466,"is_passed":false},{"stop_id":"U1171Z4","name":"Husitská","arrival_time":"5:57:00","departure_time":"5:57:00","lat":49.224063,"lon":16.593994,"is_passed":false},{"stop_id":"U1586Z3","name":"Slovanské náměstí","arrival_time":"5:58:00","departure_time":"5:58:00","lat":49.223525,"lon":16.591009,"is_passed":false},{"stop_id":"U1567Z5","name":"Skácelova","arrival_time":"5:59:00","departure_time":"5:59:00","lat":49.221353,"lon":16.584711,"is_passed":false},{"stop_id":"U1777Z1","name":"Záhřebská","arrival_time":"6:01:00","departure_time":"6:01:00","lat":49.219602,"lon":16.579157,"is_passed":false},{"stop_id":"U1528Z3","name":"Přívrat","arrival_time":"6:02:00","departure_time":"6:02:00","lat":49.218788,"lon":16.574147,"is_passed":false},{"stop_id":"U1758Z1","name":"Vrázova","arrival_time":"6:03:00","departure_time":"6:03:00","lat":49.216968,"lon":16.568321,"is_passed":false},{"stop_id":"U1651Z1","name":"Štursova","arrival_time":"6:04:00","departure_time":"6:04:00","lat":49.216462,"lon":16.563614,"is_passed":false},{"stop_id":"U1502Z1","name":"Podveská","arrival_time":"6:05:00","departure_time":"6:05:00","lat":49.217623,"lon":16.559017,"is_passed":false},{"stop_id":"U1633Z3","name":"Svratecká","arrival_time":"6:06:00","departure_time":"6:06:00","lat":49.219008,"lon":16.554451,"is_passed":false},{"stop_id":"U1345Z1","name":"Lísky","arrival_time":"6:07:00","departure_time":"6:07:00","lat":49.219825,"lon":16.548868,"is_passed":false},{"stop_id":"U1493Z3","name":"Podlesí","arrival_time":"6:08:00","departure_time":"6:08:00","lat":49.218861,"lon":16.542049,"is_passed":false},{"stop_id":"U1226Z3","name":"Kamenolom","arrival_time":"6:09:00","departure_time":"6:09:00","lat":49.222506,"lon":16.537085,"is_passed":false},{"stop_id":"U1796Z7","name":"Zoologická zahrada","arrival_time":"6:13:00","departure_time":"6:13:00","lat":49.227823,"lon":16.531364,"is_passed":false},{"stop_id":"U1417Z1","name":"Náměstí 28. dubna","arrival_time":"6:14:00","departure_time":"6:14:00","lat":49.225188,"lon":16.531132,"is_passed":false},{"stop_id":"U1752Z1","name":"Vondrákova","arrival_time":"6:15:00","departure_time":"6:15:00","lat":49.221303,"lon":16.528376,"is_passed":false},{"stop_id":"U1326Z1","name":"Laštůvkova","arrival_time":"6:16:00","departure_time":"6:16:00","lat":49.220185,"lon":16.525212,"is_passed":false},{"stop_id":"U1107Z1","name":"Filipova","arrival_time":"6:17:00","departure_time":"6:17:00","lat":49.217684,"lon":16.525123,"is_passed":false},{"stop_id":"U1062Z1","name":"Černého","arrival_time":"6:19:00","departure_time":"6:40:00","lat":49.214083,"lon":16.522812,"is_passed":false}],"38116":[{"stop_id":"U1062Z2","name":"Černého","arrival_time":"6:40:00","departure_time":"6:40:00","lat":49.213885,"lon":16.523087,"is_passed":false},{"stop_id":"U1107Z2","name":"Filipova","arrival_time":"6:41:00","departure_time":"6:41:00","lat":49.217593,"lon":16.525217,"is_passed":false},{"stop_id":"U1326Z4","name":"Laštůvkova","arrival_time":"6:42:00","departure_time":"6:42:00","lat":49.220549,"lon":16.526237,"is_passed":false},{"stop_id":"U1752Z2","name":"Vondrákova","arrival_time":"6:43:00","departure_time":"6:43:00","lat":49.221445,"lon":16.528853,"is_passed":false},{"stop_id":"U1417Z2","name":"Náměstí 28. dubna","arrival_time":"6:44:00","departure_time":"6:44:00","lat":49.226314,"lon":16.53213,"is_passed":false},{"stop_id":"U1226Z4","name":"Kamenolom","arrival_time":"6:46:00","departure_time":"6:46:00","lat":49.221655,"lon":16.536983,"is_passed":false},{"stop_id":"U1493Z4","name":"Podlesí","arrival_time":"6:47:00","departure_time":"6:47:00","lat":49.218759,"lon":16.542623,"is_passed":false},{"stop_id":"U1345Z2","name":"Lísky","arrival_time":"6:48:00","departure_time":"6:48:00","lat":49.219967,"lon":16.549281,"is_passed":false},{"stop_id":"U1633Z4","name":"Svratecká","arrival_time":"6:50:00","departure_time":"6:50:00","lat":49.218696,"lon":16.554399,"is_passed":false},{"stop_id":"U1502Z2","name":"Podveská","arrival_time":"6:52:00","departure_time":"6:52:00","lat":49.217607,"lon":16.558178,"is_passed":false},{"stop_id":"U1651Z2","name":"Štursova","arrival_time":"6:53:00","departure_time":"6:53:00","lat":49.215854,"lon":16.564522,"is_passed":false},{"stop_id":"U1758Z2","name":"Vrázova","arrival_time":"6:54:00","departure_time":"6:54:00","lat":49.216977,"lon":16.568646,"is_passed":false},{"stop_id":"U1528Z4","name":"Přívrat","arrival_time":"6:56:00","departure_time":"6:56:00","lat":49.218647,"lon":16.574085,"is_passed":false},{"stop_id":"U1777Z2","name":"Záhřebská","arrival_time":"6:57:00","departure_time":"6:57:00","lat":49.219845,"lon":16.580415,"is_passed":false},{"stop_id":"U1567Z6","name":"Skácelova","arrival_time":"6:59:00","departure_time":"6:59:00","lat":49.22163,"lon":16.585935,"is_passed":false},{"stop_id":"U1586Z4","name":"Slovanské náměstí","arrival_time":"7:00:00","departure_time":"7:00:00","lat":49.222774,"lon":16.591332,"is_passed":false},{"stop_id":"U1171Z3","name":"Husitská","arrival_time":"7:01:00","departure_time":"7:01:00","lat":49.223851,"lon":16.594116,"is_passed":false},{"stop_id":"U1566Z4","name":"Semilasso","arrival_time":"7:03:00","departure_time":"7:03:00","lat":49.228055,"lon":16.593438,"is_passed":false},{"stop_id":"U1286Z3","name":"Královo Pole, nádraží","arrival_time":"7:04:00","departure_time":"7:04:00","lat":49.229218,"lon":16.596271,"is_passed":false},{"stop_id":"U1388Z2","name":"Mojmírovo náměstí","arrival_time":"7:05:00","departure_time":"7:05:00","lat":49.226499,"lon":16.598423,"is_passed":false},{"stop_id":"U1150Z1","name":"Högrova","arrival_time":"7:07:00","departure_time":"7:07:00","lat":49.228296,"lon":16.604528,"is_passed":false},{"stop_id":"U1195Z1","name":"Jarmily Kurandové","arrival_time":"7:07:00","departure_time":"7:07:00","lat":49.230235,"lon":16.604438,"is_passed":false},{"stop_id":"U1399Z1","name":"Moskalykova","arrival_time":"7:08:00","departure_time":"7:08:00","lat":49.231252,"lon":16.607921,"is_passed":false},{"stop_id":"U1564Z1","name":"Sadová","arrival_time":"7:10:00","departure_time":"7:10:00","lat":49.234166,"lon":16.603978,"is_passed":false},{"stop_id":"U1130Z2","name":"Hamerláky","arrival_time":"7:11:00","departure_time":"7:11:00","lat":49.237225,"lon":16.60407,"is_passed":false},