[{"stop_id":"U1286Z12","name":"Královo Pole, nádraží","arrival_time":"5:36:00","departure_time":"5:36:00","lat":49.23045,"lon":16.595801,"is_passed":false},{"stop_id":"U13126Z1","name":"Kuřim, Podlesí, rozc.","arrival_time":"5:46:00","departure_time":"5:46:00","lat":49.305568,"lon":16.554963,"is_passed":false},{"stop_id":"U13120Z1","name":"Kuřim, rozcestí 2.0","arrival_time":"5:48:00","departure_time":"5:48:00","lat":49.318142,"lon":16.551936,"is_passed":false},{"stop_id":"U12004Z1","name":"Lipůvka","arrival_time":"5:51:00","departure_time":"5:51:00","lat":49.339155,"lon":16.552682,"is_passed":false},{"stop_id":"U12239Z1","name":"Lažany","arrival_time":"5:53:00","departure_time":"5:53:00","lat":49.354925,"lon":16.551363,"is_passed":false},{"stop_id":"U12240Z1","name":"Lažany, rozcestí Újezd","arrival_time":"5:54:00","departure_time":"5:54:00","lat":49.359483,"lon":16.554537,"is_passed":false},{"stop_id":"U12014Z2","name":"Milonice","arrival_time":"5:56:00","departure_time":"5:56:00","lat":49.36813,"lon":16.565875,"is_passed":false},{"stop_id":"U12016Z1","name":"Závist","arrival_time":"5:58:00","departure_time":"5:58:00","lat":49.374753,"lon":16.573022,"is_passed":false},{"stop_id":"U12449Z1","name":"Černá Hora, Na kopci","arrival_time":"6:03:00","departure_time":"6:03:00","lat":49.410472,"lon":16.580877,"is_passed":false},{"stop_id":"U12450Z1","name":"Černá Hora, nám.","arrival_time":"6:04:00","departure_time":"6:04:00","lat":49.414767,"lon":16.582423,"is_passed":false},{"stop_id":"U12445Z1","name":"Bořitov, ZD","arrival_time":"6:06:00","departure_time":"6:06:00","lat":49.425028,"lon":16.582243,"is_passed":false},{"stop_id":"U12526Z1","name":"Lysice, Brněnská","arrival_time":"6:12:00","departure_time":"6:12:00","lat":49.449723,"lon":16.545254,"is_passed":false},{"stop_id":"U12524Z3","name":"Lysice, pohostinství","arrival_time":"6:14:00","departure_time":"6:14:00","lat":49.452453,"lon":16.53802,"is_passed":false},{"stop_id":"U12527Z2","name":"Lysice, škola","arrival_time":"6:15:00","departure_time":"6:15:00","lat":49.457502,"lon":16.538188,"is_passed":false},{"stop_id":"U12521Z1","name":"Drnovice, rozc.0.5","arrival_time":"6:17:00","departure_time":"6:17:00","lat":49.468315,"lon":16.533227,"is_passed":false},{"stop_id":"U12525Z1","name":"Drnovice, rozcestí Kunice","arrival_time":"6:19:00","departure_time":"6:19:00","lat":49.472581,"lon":16.532885,"is_passed":false},{"stop_id":"U12023Z1","name":"Zbraslavec","arrival_time":"6:21:00","departure_time":"6:21:00","lat":49.484668,"lon":16.528063,"is_passed":false},{"stop_id":"U12024Z1","name":"Zbraslavec, rozcestí k závodu","arrival_time":"6:23:00","departure_time":"6:23:00","lat":49.489952,"lon":16.523368,"is_passed":false},{"stop_id":"U12687Z1","name":"Kunštát, U Bílého kříže","arrival_time":"6:24:00","departure_time":"6:24:00","lat":49.503012,"lon":16.523785,"is_passed":false},{"stop_id":"U12690Z1","name":"Kunštát, nám.","arrival_time":"6:26:00","departure_time":"6:26:00","lat":49.507365,"lon":16.519672,"is_passed":false},{"stop_id":"U12697Z1","name":"Kunštát, Sychotín","arrival_time":"6:28:00","departure_time":"6:28:00","lat":49.503887,"lon":16.509938,"is_passed":false},{"stop_id":"U12021Z2","name":"Makov, hájenka","arrival_time":"6:30:00","departure_time":"6:30:00","lat":49.517438,"lon":16.477055,"is_passed":false},{"stop_id":"U12775Z2","name":"Rozseč nad Kunštátem, rozcestí","arrival_time":"6:32:00","departure_time":"6:32:00","lat":49.528047,"lon":16.46396,"is_passed":false},{"stop_id":"U12758Z2","name":"Crhov","arrival_time":"6:36:00","departure_time":"6:36:00","lat":49.54477,"lon":16.436287,"is_passed":false},{"stop_id":"U12768Z2","name":"Olešnice, u lávky","arrival_time":"6:38:00","departure_time":"6:38:00","lat":49.554382,"lon":16.422187,"is_passed":false},{"stop_id":"U12767Z3","name":"Olešnice, nám.","arrival_time":"6:39:00","departure_time":"6:46:00","lat":49.557883,"lon":16.42226,"is_passed":false},{"stop_id":"U12766Z1","name":"Olešnice, Lamberk","arrival_time":"6:49:00","departure_time":"6:49:00","lat":49.569197,"lon":16.409317,"is_passed":false},{"stop_id":"U12846Z1","name":"Velké Tresné, rozc.","arrival_time":"6:53:00","departure_time":"6:53:00","lat":49.583033,"lon":16.38468,"is_passed":false},{"stop_id":"U12845Z2","name":"Rovečné, rozcestí","arrival_time":"6:55:00","departure_time":"6:55:00","lat":49.587739,"lon":16.371724,"is_passed":false},{"stop_id":"U12844Z1","name":"Rovečné","arrival_time":"6:58:00","departure_time":"7:06:00","lat":49.577878,"lon":16.363352,"is_passed":false}]