[{"stop_id":"U1069Z2","name":"Čertova rokle","arrival_time":"15:09:00","departure_time":"15:09:00","lat":49.226406,"lon":16.622909,"is_passed":false},{"stop_id":"U1128Z2","name":"Halasovo náměstí","arrival_time":"15:10:00","departure_time":"15:10:00","lat":49.223413,"lon":16.622837,"is_passed":false},{"stop_id":"U1112Z2","name":"Fügnerova","arrival_time":"15:11:00","departure_time":"15:11:00","lat":49.219868,"lon":16.619336,"is_passed":false},{"stop_id":"U1023Z2","name":"Bieblova","arrival_time":"15:12:00","departure_time":"15:12:00","lat":49.216071,"lon":16.615488,"is_passed":false},{"stop_id":"U1336Z2","name":"Lesnická","arrival_time":"15:13:00","departure_time":"15:13:00","lat":49.212985,"lon":16.617065,"is_passed":false},{"stop_id":"U1786Z2","name":"Zemědělská","arrival_time":"15:14:00","departure_time":"15:14:00","lat":49.210627,"lon":16.618463,"is_passed":false},{"stop_id":"U1667Z2","name":"Tomanova","arrival_time":"15:15:00","departure_time":"15:15:00","lat":49.207862,"lon":16.620381,"is_passed":false},{"stop_id":"U1211Z2","name":"Jugoslávská","arrival_time":"15:16:00","departure_time":"15:16:00","lat":49.204779,"lon":16.623466,"is_passed":false},{"stop_id":"U1086Z2","name":"Dětská nemocnice","arrival_time":"15:18:00","departure_time":"15:18:00","lat":49.203029,"lon":16.619052,"is_passed":false},{"stop_id":"U1418Z2","name":"Náměstí 28. října","arrival_time":"15:19:00","departure_time":"15:19:00","lat":49.200787,"lon":16.613174,"is_passed":false},{"stop_id":"U1397Z4","name":"Moravské náměstí","arrival_time":"15:21:00","departure_time":"15:21:00","lat":49.199159,"lon":16.608704,"is_passed":false},{"stop_id":"U1073Z1","name":"Česká","arrival_time":"15:23:00","departure_time":"15:23:00","lat":49.197618,"lon":16.605584,"is_passed":false},{"stop_id":"U1637Z1","name":"Šilingrovo náměstí","arrival_time":"15:26:00","departure_time":"15:26:00","lat":49.19171,"lon":16.605355,"is_passed":false},{"stop_id":"U1436Z2","name":"Nové sady","arrival_time":"15:28:00","departure_time":"15:28:00","lat":49.190222,"lon":16.609403,"is_passed":false},{"stop_id":"U1146Z4","name":"Hlavní nádraží","arrival_time":"15:30:00","departure_time":"15:30:00","lat":49.19125,"lon":16.612674,"is_passed":false},{"stop_id":"U1746Z1","name":"Vlhká","arrival_time":"15:31:00","departure_time":"15:31:00","lat":49.191847,"lon":16.618976,"is_passed":false},{"stop_id":"U1372Z1","name":"Masná","arrival_time":"15:33:00","departure_time":"15:33:00","lat":49.191244,"lon":16.625642,"is_passed":false},{"stop_id":"U1814Z1","name":"Životského","arrival_time":"15:35:00","departure_time":"15:35:00","lat":49.191036,"lon":16.633968,"is_passed":false},{"stop_id":"U1116Z1","name":"Geislerova","arrival_time":"15:36:00","departure_time":"15:36:00","lat":49.19278,"lon":16.635345,"is_passed":false},{"stop_id":"U1048Z1","name":"Buzkova","arrival_time":"15:37:00","departure_time":"15:37:00","lat":49.194159,"lon":16.641228,"is_passed":false},{"stop_id":"U1473Z1","name":"Otakara Ševčíka","arrival_time":"15:38:00","departure_time":"15:38:00","lat":49.19523,"lon":16.645949,"is_passed":false},{"stop_id":"U1082Z1","name":"Dělnický dům","arrival_time":"15:40:00","departure_time":"15:40:00","lat":49.195559,"lon":16.650177,"is_passed":false},{"stop_id":"U1212Z1","name":"Juliánov","arrival_time":"15:42:00","departure_time":"15:52:00","lat":49.196124,"lon":16.654392,"is_passed":false}]