[{"stop_id":"U1659Z2","name":"Technologický park","arrival_time":"5:34:00","departure_time":"5:34:00","lat":49.231453,"lon":16.576939,"is_passed":false},{"stop_id":"U1664Z2","name":"Technické muzeum","arrival_time":"5:35:00","departure_time":"5:35:00","lat":49.228605,"lon":16.582096,"is_passed":false},{"stop_id":"U1072Z2","name":"Červinkova","arrival_time":"5:36:00","departure_time":"5:36:00","lat":49.224608,"lon":16.583108,"is_passed":false},{"stop_id":"U1567Z2","name":"Skácelova","arrival_time":"5:37:00","departure_time":"5:37:00","lat":49.220665,"lon":16.585771,"is_passed":false},{"stop_id":"U1088Z2","name":"Dobrovského","arrival_time":"5:38:00","departure_time":"5:38:00","lat":49.218351,"lon":16.587423,"is_passed":false},{"stop_id":"U1661Z2","name":"Tererova","arrival_time":"5:39:00","departure_time":"5:39:00","lat":49.215675,"lon":16.589238,"is_passed":false},{"stop_id":"U1242Z2","name":"Klusáčkova","arrival_time":"5:40:00","departure_time":"5:40:00","lat":49.211903,"lon":16.592875,"is_passed":false},{"stop_id":"U1431Z2","name":"Nerudova","arrival_time":"5:42:00","departure_time":"5:42:00","lat":49.205983,"lon":16.595174,"is_passed":false},{"stop_id":"U1262Z2","name":"Konečného náměstí","arrival_time":"5:44:00","departure_time":"5:44:00","lat":49.203961,"lon":16.596051,"is_passed":false}]