[{"stop_id":"U1438Z2","name":"Novolíšeňská","arrival_time":"8:00:00","departure_time":"8:00:00","lat":49.201911,"lon":16.669965,"is_passed":false},{"stop_id":"U1347Z2","name":"Líšeňská","arrival_time":"8:01:00","departure_time":"8:01:00","lat":49.197285,"lon":16.665584,"is_passed":false},{"stop_id":"U1026Z2","name":"Bílá hora","arrival_time":"8:01:00","departure_time":"8:01:00","lat":49.194271,"lon":16.667395,"is_passed":false},{"stop_id":"U1018Z2","name":"Bělohorská","arrival_time":"8:02:00","departure_time":"8:02:00","lat":49.190098,"lon":16.663444,"is_passed":false},{"stop_id":"U1291Z2","name":"Krásného","arrival_time":"8:04:00","departure_time":"8:04:00","lat":49.19067,"lon":16.649391,"is_passed":false},{"stop_id":"U1810Z2","name":"Židovský hřbitov","arrival_time":"8:05:00","departure_time":"8:05:00","lat":49.191517,"lon":16.641078,"is_passed":false},{"stop_id":"U1116Z2","name":"Geislerova","arrival_time":"8:06:00","departure_time":"8:06:00","lat":49.192754,"lon":16.634757,"is_passed":false}]