[{"stop_id":"U1766Z2","name":"Vychodilova","arrival_time":"7:20:00","departure_time":"7:20:00","lat":49.220204,"lon":16.571445,"is_passed":false},{"stop_id":"U1528Z8","name":"Přívrat","arrival_time":"7:21:00","departure_time":"7:21:00","lat":49.218899,"lon":16.573139,"is_passed":false},{"stop_id":"U1758Z1","name":"Vrázova","arrival_time":"7:23:00","departure_time":"7:23:00","lat":49.216968,"lon":16.568321,"is_passed":false},{"stop_id":"U1651Z1","name":"Štursova","arrival_time":"7:24:00","departure_time":"7:24:00","lat":49.216462,"lon":16.563614,"is_passed":false},{"stop_id":"U1502Z1","name":"Podveská","arrival_time":"7:25:00","departure_time":"7:25:00","lat":49.217623,"lon":16.559017,"is_passed":false},{"stop_id":"U1633Z3","name":"Svratecká","arrival_time":"7:26:00","departure_time":"7:26:00","lat":49.219008,"lon":16.554451,"is_passed":false},{"stop_id":"U1345Z1","name":"Lísky","arrival_time":"7:27:00","departure_time":"7:27:00","lat":49.219825,"lon":16.548868,"is_passed":false},{"stop_id":"U1493Z3","name":"Podlesí","arrival_time":"7:28:00","departure_time":"7:28:00","lat":49.218861,"lon":16.542049,"is_passed":false},{"stop_id":"U1226Z3","name":"Kamenolom","arrival_time":"7:29:00","departure_time":"7:29:00","lat":49.222506,"lon":16.537085,"is_passed":false},{"stop_id":"U1796Z7","name":"Zoologická zahrada","arrival_time":"7:32:00","departure_time":"7:32:00","lat":49.227823,"lon":16.531364,"is_passed":false},{"stop_id":"U1417Z1","name":"Náměstí 28. dubna","arrival_time":"7:33:00","departure_time":"7:33:00","lat":49.225188,"lon":16.531132,"is_passed":false},{"stop_id":"U1752Z1","name":"Vondrákova","arrival_time":"7:34:00","departure_time":"7:34:00","lat":49.221303,"lon":16.528376,"is_passed":false},{"stop_id":"U1326Z1","name":"Laštůvkova","arrival_time":"7:35:00","departure_time":"7:35:00","lat":49.220185,"lon":16.525212,"is_passed":false},{"stop_id":"U1107Z1","name":"Filipova","arrival_time":"7:36:00","departure_time":"7:36:00","lat":49.217684,"lon":16.525123,"is_passed":false},{"stop_id":"U1062Z1","name":"Černého","arrival_time":"7:38:00","departure_time":"7:38:00","lat":49.214083,"lon":16.522812,"is_passed":false}]