[{"stop_id":"U1143Z2","name":"Hlavní","arrival_time":"7:03:00","departure_time":"7:03:00","lat":49.21715,"lon":16.560506,"is_passed":false},{"stop_id":"U1502Z1","name":"Podveská","arrival_time":"7:04:00","departure_time":"7:04:00","lat":49.217623,"lon":16.559017,"is_passed":false},{"stop_id":"U1633Z3","name":"Svratecká","arrival_time":"7:05:00","departure_time":"7:05:00","lat":49.219008,"lon":16.554451,"is_passed":false},{"stop_id":"U1296Z1","name":"Kristenova","arrival_time":"7:05:00","departure_time":"7:05:00","lat":49.220962,"lon":16.554325,"is_passed":false},{"stop_id":"U1178Z1","name":"Chaloupky","arrival_time":"7:06:00","departure_time":"7:06:00","lat":49.22272,"lon":16.55648,"is_passed":false},{"stop_id":"U1453Z1","name":"Olbrachtovo náměstí","arrival_time":"7:07:00","departure_time":"7:07:00","lat":49.225106,"lon":16.558598,"is_passed":false},{"stop_id":"U1561Z1","name":"Řezáčova","arrival_time":"7:08:00","departure_time":"7:08:00","lat":49.226354,"lon":16.555458,"is_passed":false},{"stop_id":"U1258Z1","name":"Komín, sídliště","arrival_time":"7:09:00","departure_time":"7:26:00","lat":49.22699,"lon":16.553346,"is_passed":false}]