[{"stop_id":"U1262Z2","name":"Konečného náměstí","arrival_time":"5:24:00","departure_time":"5:24:00","lat":49.203961,"lon":16.596051,"is_passed":false},{"stop_id":"U1121Z2","name":"Grohova","arrival_time":"5:25:00","departure_time":"5:25:00","lat":49.201327,"lon":16.59934,"is_passed":false},{"stop_id":"U1073Z3","name":"Česká","arrival_time":"5:27:00","departure_time":"5:27:00","lat":49.197742,"lon":16.605147,"is_passed":false},{"stop_id":"U1637Z1","name":"Šilingrovo náměstí","arrival_time":"5:30:00","departure_time":"5:30:00","lat":49.19171,"lon":16.605355,"is_passed":false},{"stop_id":"U1436Z2","name":"Nové sady","arrival_time":"5:32:00","departure_time":"5:32:00","lat":49.190222,"lon":16.609403,"is_passed":false},{"stop_id":"U1146Z4","name":"Hlavní nádraží","arrival_time":"5:34:00","departure_time":"5:34:00","lat":49.19125,"lon":16.612674,"is_passed":false},{"stop_id":"U1746Z1","name":"Vlhká","arrival_time":"5:35:00","departure_time":"5:35:00","lat":49.191847,"lon":16.618976,"is_passed":false},{"stop_id":"U1372Z1","name":"Masná","arrival_time":"5:37:00","departure_time":"5:37:00","lat":49.191244,"lon":16.625642,"is_passed":false},{"stop_id":"U1814Z1","name":"Životského","arrival_time":"5:39:00","departure_time":"5:39:00","lat":49.191036,"lon":16.633968,"is_passed":false},{"stop_id":"U1116Z1","name":"Geislerova","arrival_time":"5:40:00","departure_time":"5:40:00","lat":49.19278,"lon":16.635345,"is_passed":false},{"stop_id":"U1810Z1","name":"Židovský hřbitov","arrival_time":"5:41:00","departure_time":"5:41:00","lat":49.191354,"lon":16.641711,"is_passed":false},{"stop_id":"U1291Z1","name":"Krásného","arrival_time":"5:42:00","departure_time":"5:42:00","lat":49.190434,"lon":16.650066,"is_passed":false},{"stop_id":"U1501Z1","name":"Podstránská","arrival_time":"5:44:00","departure_time":"5:44:00","lat":49.187879,"lon":16.666536,"is_passed":false},{"stop_id":"U1618Z1","name":"Stránská skála","arrival_time":"5:45:00","departure_time":"5:45:00","lat":49.192001,"lon":16.674374,"is_passed":false},{"stop_id":"U1619Z1","name":"Stránská skála - smyčka","arrival_time":"5:47:00","departure_time":"6:06:00","lat":49.192657,"lon":16.677469,"is_passed":false}]