[{"stop_id":"U13115Z4","name":"Jinačovice","arrival_time":"14:00:00","departure_time":"14:00:00","lat":49.267766,"lon":16.527544,"is_passed":false},{"stop_id":"U13114Z2","name":"Jinačovice, Chaloupky","arrival_time":"14:01:00","departure_time":"14:01:00","lat":49.264438,"lon":16.527233,"is_passed":false},{"stop_id":"U13146Z2","name":"Rozdrojovice, Na Březině","arrival_time":"14:03:00","departure_time":"14:03:00","lat":49.254414,"lon":16.515825,"is_passed":false},{"stop_id":"U13138Z2","name":"Rozdrojovice, Na dědině","arrival_time":"14:05:00","departure_time":"14:05:00","lat":49.255127,"lon":16.5107,"is_passed":false},{"stop_id":"U13139Z1","name":"Rozdrojovice, Obecnice","arrival_time":"14:06:00","departure_time":"14:06:00","lat":49.252937,"lon":16.512518,"is_passed":false},{"stop_id":"U13141Z2","name":"Rozdrojovice, rozcestí přehrada","arrival_time":"14:06:00","departure_time":"14:06:00","lat":49.250282,"lon":16.515923,"is_passed":false},{"stop_id":"U13140Z2","name":"Rozdrojovice, rekreační středisko","arrival_time":"14:07:00","departure_time":"14:07:00","lat":49.248168,"lon":16.519248,"is_passed":false},{"stop_id":"U1689Z2","name":"U Luhu","arrival_time":"14:09:00","departure_time":"14:09:00","lat":49.239053,"lon":16.530136,"is_passed":false},{"stop_id":"U1690Z2","name":"U památníku","arrival_time":"14:10:00","departure_time":"14:10:00","lat":49.235964,"lon":16.527962,"is_passed":false},{"stop_id":"U1494Z2","name":"Pod Mniší horou","arrival_time":"14:12:00","departure_time":"14:12:00","lat":49.227995,"lon":16.533868,"is_passed":false},{"stop_id":"U1796Z5","name":"Zoologická zahrada","arrival_time":"14:16:00","departure_time":"14:43:00","lat":49.227735,"lon":16.531369,"is_passed":false}]