[{"stop_id":"U1146Z8","name":"Hlavní nádraží","arrival_time":"7:29:00","departure_time":"7:29:00","lat":49.191893,"lon":16.613334,"is_passed":false},{"stop_id":"U1746Z1","name":"Vlhká","arrival_time":"7:30:00","departure_time":"7:30:00","lat":49.191847,"lon":16.618976,"is_passed":false},{"stop_id":"U1372Z5","name":"Masná","arrival_time":"7:32:00","departure_time":"7:32:00","lat":49.191189,"lon":16.626548,"is_passed":false},{"stop_id":"U1677Z1","name":"Tržní","arrival_time":"7:34:00","departure_time":"7:34:00","lat":49.189973,"lon":16.632193,"is_passed":false},{"stop_id":"U1598Z1","name":"Spáčilova","arrival_time":"7:35:00","departure_time":"7:35:00","lat":49.188674,"lon":16.640942,"is_passed":false},{"stop_id":"U1455Z1","name":"Olomoucká - u školy","arrival_time":"7:37:00","departure_time":"7:37:00","lat":49.186169,"lon":16.652958,"is_passed":false},{"stop_id":"U1613Z1","name":"Staré letiště","arrival_time":"7:38:00","departure_time":"7:38:00","lat":49.18487,"lon":16.65953,"is_passed":false},{"stop_id":"U1068Z1","name":"Černovičky","arrival_time":"7:40:00","departure_time":"7:40:00","lat":49.182244,"lon":16.66894,"is_passed":false},{"stop_id":"U1741Z1","name":"Vlárská","arrival_time":"7:41:00","departure_time":"7:41:00","lat":49.180745,"lon":16.671647,"is_passed":false},{"stop_id":"U1046Z1","name":"Brněnky","arrival_time":"7:42:00","departure_time":"7:42:00","lat":49.17891,"lon":16.674895,"is_passed":false},{"stop_id":"U1562Z1","name":"Řípská","arrival_time":"7:43:00","departure_time":"7:43:00","lat":49.173814,"lon":16.682005,"is_passed":false},{"stop_id":"U1640Z1","name":"Šmahova","arrival_time":"7:45:00","departure_time":"7:45:00","lat":49.171448,"lon":16.685105,"is_passed":false},{"stop_id":"U1334Z1","name":"Letiště - logistický areál","arrival_time":"7:47:00","departure_time":"7:47:00","lat":49.15627,"lon":16.698196,"is_passed":false},{"stop_id":"U1335Z1","name":"Letiště - služební vstup","arrival_time":"7:48:00","departure_time":"7:48:00","lat":49.155635,"lon":16.691132,"is_passed":false},{"stop_id":"U1337Z1","name":"Letiště Tuřany - terminál","arrival_time":"7:50:00","departure_time":"8:24:00","lat":49.154815,"lon":16.692296,"is_passed":false}]