[{"stop_id":"U1716Z8","name":"Úzká","arrival_time":"16:02:00","departure_time":"16:02:00","lat":49.189068,"lon":16.613933,"is_passed":false},{"stop_id":"U1011Z1","name":"Autobusové nádraží","arrival_time":"16:04:00","departure_time":"16:04:00","lat":49.185873,"lon":16.61787,"is_passed":false},{"stop_id":"U1807Z1","name":"Železniční","arrival_time":"16:05:00","departure_time":"16:05:00","lat":49.18274,"lon":16.619609,"is_passed":false},{"stop_id":"U1266Z3","name":"Konopná","arrival_time":"16:06:00","departure_time":"16:06:00","lat":49.180126,"lon":16.621339,"is_passed":false},{"stop_id":"U1256Z3","name":"Komárov","arrival_time":"16:08:00","departure_time":"16:08:00","lat":49.17444,"lon":16.622448,"is_passed":false},{"stop_id":"U1148Z1","name":"Hněvkovského","arrival_time":"16:09:00","departure_time":"16:09:00","lat":49.169807,"lon":16.625991,"is_passed":false},{"stop_id":"U1533Z1","name":"Ráječek","arrival_time":"16:11:00","departure_time":"16:11:00","lat":49.160802,"lon":16.638242,"is_passed":false},{"stop_id":"U1511Z1","name":"Popelova","arrival_time":"16:12:00","departure_time":"16:12:00","lat":49.156621,"lon":16.646516,"is_passed":false},{"stop_id":"U1191Z1","name":"Ivanovické náměstí","arrival_time":"16:14:00","departure_time":"16:14:00","lat":49.153066,"lon":16.653791,"is_passed":false},{"stop_id":"U1118Z1","name":"Glocova","arrival_time":"16:15:00","departure_time":"16:15:00","lat":49.151074,"lon":16.659518,"is_passed":false},{"stop_id":"U1538Z1","name":"Revoluční","arrival_time":"16:16:00","departure_time":"16:16:00","lat":49.149426,"lon":16.663085,"is_passed":false},{"stop_id":"U1131Z1","name":"Hanácká","arrival_time":"16:17:00","departure_time":"16:17:00","lat":49.146954,"lon":16.667509,"is_passed":false},{"stop_id":"U1186Z1","name":"Chrlická","arrival_time":"16:18:00","departure_time":"16:18:00","lat":49.144276,"lon":16.66513,"is_passed":false},{"stop_id":"U1681Z1","name":"Tuřany, smyčka","arrival_time":"16:19:00","departure_time":"16:44:00","lat":49.141774,"lon":16.666531,"is_passed":false}]