[{"stop_id":"U1146Z22","name":"Hlavní nádraží","arrival_time":"18:03:00","departure_time":"18:03:00","lat":49.193681,"lon":16.614196,"is_passed":false},{"stop_id":"U1746Z1","name":"Vlhká","arrival_time":"18:05:00","departure_time":"18:05:00","lat":49.191847,"lon":16.618976,"is_passed":false},{"stop_id":"U1372Z6","name":"Masná","arrival_time":"18:07:00","departure_time":"18:07:00","lat":49.190905,"lon":16.626023,"is_passed":false},{"stop_id":"U1677Z3","name":"Tržní","arrival_time":"18:09:00","departure_time":"18:09:00","lat":49.189342,"lon":16.630314,"is_passed":false},{"stop_id":"U1207Z1","name":"Jiránkova","arrival_time":"18:10:00","departure_time":"18:10:00","lat":49.187495,"lon":16.633494,"is_passed":false},{"stop_id":"U1563Z1","name":"Psychiatrická nemocnice","arrival_time":"18:11:00","departure_time":"18:11:00","lat":49.185089,"lon":16.636321,"is_passed":false},{"stop_id":"U1662Z1","name":"Škola Charbulova","arrival_time":"18:12:00","departure_time":"18:12:00","lat":49.182496,"lon":16.637572,"is_passed":false},{"stop_id":"U1106Z1","name":"Faměrovo náměstí","arrival_time":"18:13:00","departure_time":"18:13:00","lat":49.176788,"lon":16.64042,"is_passed":false},{"stop_id":"U1386Z2","name":"Mírová","arrival_time":"18:14:00","departure_time":"18:14:00","lat":49.176642,"lon":16.632052,"is_passed":false},{"stop_id":"U1066Z1","name":"Černovická","arrival_time":"18:15:00","departure_time":"18:15:00","lat":49.17696,"lon":16.62623,"is_passed":false},{"stop_id":"U1361Z1","name":"Mariánské náměstí","arrival_time":"18:16:00","departure_time":"18:16:00","lat":49.176433,"lon":16.622739,"is_passed":false},{"stop_id":"U1256Z5","name":"Komárov","arrival_time":"18:18:00","departure_time":"18:18:00","lat":49.174917,"lon":16.621279,"is_passed":false},{"stop_id":"U1308Z1","name":"Kšírova","arrival_time":"18:19:00","departure_time":"18:19:00","lat":49.17135,"lon":16.615769,"is_passed":false},{"stop_id":"U1156Z1","name":"Horní Heršpice","arrival_time":"18:20:00","departure_time":"18:20:00","lat":49.166342,"lon":16.616562,"is_passed":false},{"stop_id":"U1778Z1","name":"Záhumenice","arrival_time":"18:21:00","departure_time":"18:21:00","lat":49.16384,"lon":16.618237,"is_passed":false},{"stop_id":"U1136Z1","name":"Havránkova","arrival_time":"18:22:00","departure_time":"18:22:00","lat":49.157416,"lon":16.621598,"is_passed":false},{"stop_id":"U1092Z1","name":"Dolní Heršpice","arrival_time":"18:23:00","departure_time":"18:23:00","lat":49.152293,"lon":16.621527,"is_passed":false},{"stop_id":"U1354Z1","name":"Malá","arrival_time":"18:23:00","departure_time":"18:23:00","lat":49.149326,"lon":16.621809,"is_passed":false},{"stop_id":"U1531Z1","name":"Přízřenice","arrival_time":"18:24:00","departure_time":"18:24:00","lat":49.145289,"lon":16.62011,"is_passed":false},{"stop_id":"U1530Z1","name":"Přízřenice, smyčka","arrival_time":"18:25:00","departure_time":"19:18:00","lat":49.144321,"lon":16.620834,"is_passed":false}]