[{"stop_id":"U1221Z2","name":"Kamechy","arrival_time":"17:36:00","departure_time":"17:36:00","lat":49.214794,"lon":16.49742,"is_passed":false},{"stop_id":"U1185Z2","name":"Chvalovka","arrival_time":"17:37:00","departure_time":"17:37:00","lat":49.21492,"lon":16.500086,"is_passed":false},{"stop_id":"U1230Z2","name":"Kavčí","arrival_time":"17:38:00","departure_time":"17:39:00","lat":49.216872,"lon":16.500241,"is_passed":false},{"stop_id":"U1559Z2","name":"Říčanská","arrival_time":"17:40:00","departure_time":"17:40:00","lat":49.218456,"lon":16.497582,"is_passed":false},{"stop_id":"U1550Z2","name":"Ruda","arrival_time":"17:41:00","departure_time":"17:41:00","lat":49.220473,"lon":16.502554,"is_passed":false},{"stop_id":"U1102Z4","name":"Ečerova","arrival_time":"17:44:00","departure_time":"17:44:00","lat":49.218044,"lon":16.509781,"is_passed":false},{"stop_id":"U1461Z4","name":"Ondrouškova","arrival_time":"17:45:00","departure_time":"17:45:00","lat":49.217906,"lon":16.518033,"is_passed":false},{"stop_id":"U1312Z6","name":"Kubíčkova","arrival_time":"17:46:00","departure_time":"17:46:00","lat":49.22159,"lon":16.519454,"is_passed":false},{"stop_id":"U1537Z4","name":"Rakovecká","arrival_time":"17:47:00","departure_time":"17:47:00","lat":49.226308,"lon":16.518652,"is_passed":false},{"stop_id":"U1527Z4","name":"Přístaviště","arrival_time":"17:48:00","departure_time":"17:48:00","lat":49.228127,"lon":16.522637,"is_passed":false},{"stop_id":"U1796Z6","name":"Zoologická zahrada","arrival_time":"17:50:00","departure_time":"17:50:00","lat":49.227675,"lon":16.531519,"is_passed":false}]