[{"stop_id":"U1143Z2","name":"Hlavní","arrival_time":"6:23:00","departure_time":"6:23:00","lat":49.21715,"lon":16.560506,"is_passed":false},{"stop_id":"U1502Z1","name":"Podveská","arrival_time":"6:24:00","departure_time":"6:24:00","lat":49.217623,"lon":16.559017,"is_passed":false},{"stop_id":"U1633Z3","name":"Svratecká","arrival_time":"6:25:00","departure_time":"6:25:00","lat":49.219008,"lon":16.554451,"is_passed":false},{"stop_id":"U1345Z1","name":"Lísky","arrival_time":"6:27:00","departure_time":"6:27:00","lat":49.219825,"lon":16.548868,"is_passed":false},{"stop_id":"U1493Z3","name":"Podlesí","arrival_time":"6:28:00","departure_time":"6:28:00","lat":49.218861,"lon":16.542049,"is_passed":false},{"stop_id":"U1226Z3","name":"Kamenolom","arrival_time":"6:29:00","departure_time":"6:29:00","lat":49.222506,"lon":16.537085,"is_passed":false},{"stop_id":"U1796Z7","name":"Zoologická zahrada","arrival_time":"6:33:00","departure_time":"6:33:00","lat":49.227823,"lon":16.531364,"is_passed":false},{"stop_id":"U1417Z1","name":"Náměstí 28. dubna","arrival_time":"6:34:00","departure_time":"6:34:00","lat":49.225188,"lon":16.531132,"is_passed":false},{"stop_id":"U1752Z1","name":"Vondrákova","arrival_time":"6:35:00","departure_time":"6:35:00","lat":49.221303,"lon":16.528376,"is_passed":false},{"stop_id":"U1326Z1","name":"Laštůvkova","arrival_time":"6:36:00","departure_time":"6:36:00","lat":49.220185,"lon":16.525212,"is_passed":false},{"stop_id":"U1107Z1","name":"Filipova","arrival_time":"6:37:00","departure_time":"6:37:00","lat":49.217684,"lon":16.525123,"is_passed":false},{"stop_id":"U1062Z1","name":"Černého","arrival_time":"6:39:00","departure_time":"6:46:00","lat":49.214083,"lon":16.522812,"is_passed":false}]