[{"stop_id":"U1796Z7","name":"Zoologická zahrada","arrival_time":"19:16:00","departure_time":"19:16:00","lat":49.227823,"lon":16.531364,"is_passed":false},{"stop_id":"U1417Z1","name":"Náměstí 28. dubna","arrival_time":"19:17:00","departure_time":"19:17:00","lat":49.225188,"lon":16.531132,"is_passed":false},{"stop_id":"U1752Z1","name":"Vondrákova","arrival_time":"19:18:00","departure_time":"19:18:00","lat":49.221303,"lon":16.528376,"is_passed":false},{"stop_id":"U1771Z1","name":"Wollmanova","arrival_time":"19:19:00","departure_time":"19:19:00","lat":49.222275,"lon":16.522436,"is_passed":false},{"stop_id":"U1461Z3","name":"Ondrouškova","arrival_time":"19:20:00","departure_time":"19:20:00","lat":49.217721,"lon":16.517208,"is_passed":false},{"stop_id":"U1102Z3","name":"Ečerova","arrival_time":"19:22:00","departure_time":"19:22:00","lat":49.218746,"lon":16.50885,"is_passed":false},{"stop_id":"U1550Z1","name":"Ruda","arrival_time":"19:23:00","departure_time":"19:23:00","lat":49.220738,"lon":16.503998,"is_passed":false},{"stop_id":"U1559Z1","name":"Říčanská","arrival_time":"19:25:00","departure_time":"19:25:00","lat":49.218679,"lon":16.497368,"is_passed":false},{"stop_id":"U1230Z1","name":"Kavčí","arrival_time":"19:26:00","departure_time":"19:26:00","lat":49.216417,"lon":16.501128,"is_passed":false},{"stop_id":"U1185Z1","name":"Chvalovka","arrival_time":"19:27:00","departure_time":"19:27:00","lat":49.214783,"lon":16.499512,"is_passed":false},{"stop_id":"U1221Z1","name":"Kamechy","arrival_time":"19:28:00","departure_time":"19:28:00","lat":49.216243,"lon":16.493973,"is_passed":false},{"stop_id":"U1802Z1","name":"Žebětínský rybník","arrival_time":"19:29:00","departure_time":"19:29:00","lat":49.215096,"lon":16.49364,"is_passed":false},{"stop_id":"U1096Z1","name":"Drdy","arrival_time":"19:30:00","departure_time":"19:30:00","lat":49.209636,"lon":16.492567,"is_passed":false},{"stop_id":"U1302Z1","name":"Křivánkovo náměstí","arrival_time":"19:31:00","departure_time":"19:31:00","lat":49.20718,"lon":16.487513,"is_passed":false},{"stop_id":"U1540Z2","name":"Ríšova","arrival_time":"19:33:00","departure_time":"19:33:00","lat":49.206684,"lon":16.481219,"is_passed":false},{"stop_id":"U1139Z2","name":"Helenčina","arrival_time":"19:34:00","departure_time":"19:34:00","lat":49.206852,"lon":16.486036,"is_passed":false},{"stop_id":"U1800Z1","name":"Žebětín, hřbitov","arrival_time":"19:35:00","departure_time":"19:35:00","lat":49.204634,"lon":16.487304,"is_passed":false},{"stop_id":"U1015Z2","name":"Bartolomějská","arrival_time":"19:36:00","departure_time":"19:36:00","lat":49.203579,"lon":16.489347,"is_passed":false},{"stop_id":"U1302Z2","name":"Křivánkovo náměstí","arrival_time":"19:37:00","departure_time":"19:37:00","lat":49.20688,"lon":16.4876,"is_passed":false},{"stop_id":"U1803Z2","name":"Žebětín, škola","arrival_time":"19:38:00","departure_time":"19:38:00","lat":49.207347,"lon":16.49285,"is_passed":false},{"stop_id":"U1251Z2","name":"Kohoutovická","arrival_time":"19:39:00","departure_time":"19:39:00","lat":49.206969,"lon":16.498211,"is_passed":false},{"stop_id":"U1267Z2","name":"Kopce","arrival_time":"19:40:00","departure_time":"19:40:00","lat":49.20545,"lon":16.509409,"is_passed":false},{"stop_id":"U1608Z1","name":"Stará dálnice","arrival_time":"19:42:00","departure_time":"19:42:00","lat":49.198733,"lon":16.517301,"is_passed":false},{"stop_id":"U1248Z1","name":"Kohoutovice, hájenka","arrival_time":"19:45:00","departure_time":"19:45:00","lat":49.19638,"lon":16.531386,"is_passed":false},{"stop_id":"U1806Z2","name":"Žebětínská","arrival_time":"19:46:00","departure_time":"19:46:00","lat":49.195249,"lon":16.536145,"is_passed":false},{"stop_id":"U1767Z2","name":"Výletní","arrival_time":"19:47:00","departure_time":"19:47:00","lat":49.191443,"lon":16.539596,"is_passed":false},{"stop_id":"U1409Z2","name":"Myslivní","arrival_time":"19:47:00","departure_time":"19:47:00","lat":49.190415,"lon":16.543578,"is_passed":false},{"stop_id":"U1636Z2","name":"Šárka","arrival_time":"19:48:00","departure_time":"19:48:00","lat":49.19131,"lon":16.545929,"is_passed":false},{"stop_id":"U1003Z1","name":"Antonína Procházky","arrival_time":"19:50:00","departure_time":"19:50:00","lat":49.193559,"lon":16.561795,"is_passed":false},{"stop_id":"U1007Z4","name":"Anthropos","arrival_time":"19:51:00","departure_time":"19:51:00","lat":49.193356,"lon":16.56677,"is_passed":false},{"stop_id":"U1487Z6","name":"Pisárky","arrival_time":"19:52:00","departure_time":"19:52:00","lat":49.193537,"lon":16.570797,"is_passed":false},{"stop_id":"U1343Z4","name":"ARENA BRNO","arrival_time":"19:53:00","departure_time":"19:53:00","lat":49.191574,"lon":16.576353,"is_passed":false},{"stop_id":"U1768Z4","name":"Výstaviště - hlavní vstup","arrival_time":"19:55:00","departure_time":"19:55:00","lat":49.1886,"lon":16.589153,"is_passed":false},{"stop_id":"U1378Z7","name":"Mendlovo náměstí","arrival_time":"19:57:00","departure_time":"20:20:00","lat":49.189919,"lon":16.593687,"is_passed":false}]