[{"stop_id":"U1073Z6","name":"Česká","arrival_time":"17:54:00","departure_time":"17:54:00","lat":49.198291,"lon":16.605232,"is_passed":false},{"stop_id":"U1587Z1","name":"Smetanova","arrival_time":"17:56:00","departure_time":"17:56:00","lat":49.201909,"lon":16.601644,"is_passed":false},{"stop_id":"U1626Z1","name":"Sušilova","arrival_time":"17:57:00","departure_time":"17:57:00","lat":49.204346,"lon":16.598828,"is_passed":false},{"stop_id":"U1776Z1","name":"Zahradníkova","arrival_time":"17:59:00","departure_time":"17:59:00","lat":49.20774,"lon":16.599048,"is_passed":false},{"stop_id":"U1038Z1","name":"Botanická","arrival_time":"18:00:00","departure_time":"18:00:00","lat":49.210624,"lon":16.597711,"is_passed":false},{"stop_id":"U1635Z1","name":"Šelepova","arrival_time":"18:01:00","departure_time":"18:01:00","lat":49.213818,"lon":16.595803,"is_passed":false},{"stop_id":"U1181Z1","name":"Charvatská","arrival_time":"18:03:00","departure_time":"18:03:00","lat":49.219239,"lon":16.59252,"is_passed":false},{"stop_id":"U1586Z1","name":"Slovanské náměstí","arrival_time":"18:04:00","departure_time":"18:04:00","lat":49.222659,"lon":16.591882,"is_passed":false},{"stop_id":"U1172Z1","name":"Hutařova","arrival_time":"18:06:00","departure_time":"18:06:00","lat":49.226073,"lon":16.588562,"is_passed":false},{"stop_id":"U1606Z1","name":"Srbská","arrival_time":"18:08:00","departure_time":"18:22:00","lat":49.228127,"lon":16.587054,"is_passed":false}]