[{"stop_id":"U1156Z2","name":"Horní Heršpice","arrival_time":"6:06:00","departure_time":"6:06:00","lat":49.167029,"lon":16.616537,"is_passed":false},{"stop_id":"U1308Z2","name":"Kšírova","arrival_time":"6:06:00","departure_time":"6:06:00","lat":49.171726,"lon":16.615746,"is_passed":false},{"stop_id":"U1256Z6","name":"Komárov","arrival_time":"6:08:00","departure_time":"6:08:00","lat":49.174812,"lon":16.620877,"is_passed":false},{"stop_id":"U1361Z2","name":"Mariánské náměstí","arrival_time":"6:09:00","departure_time":"6:09:00","lat":49.176238,"lon":16.622949,"is_passed":false},{"stop_id":"U1066Z2","name":"Černovická","arrival_time":"6:09:00","departure_time":"6:09:00","lat":49.176797,"lon":16.628417,"is_passed":false},{"stop_id":"U1386Z1","name":"Mírová","arrival_time":"6:10:00","departure_time":"6:10:00","lat":49.176358,"lon":16.632738,"is_passed":false},{"stop_id":"U1127Z3","name":"Hájecká","arrival_time":"6:11:00","departure_time":"6:11:00","lat":49.174525,"lon":16.64123,"is_passed":false},{"stop_id":"U1106Z2","name":"Faměrovo náměstí","arrival_time":"6:12:00","departure_time":"6:12:00","lat":49.176954,"lon":16.640512,"is_passed":false},{"stop_id":"U1662Z2","name":"Škola Charbulova","arrival_time":"6:13:00","departure_time":"6:13:00","lat":49.18111,"lon":16.63826,"is_passed":false},{"stop_id":"U1563Z2","name":"Psychiatrická nemocnice","arrival_time":"6:14:00","departure_time":"6:14:00","lat":49.185039,"lon":16.636538,"is_passed":false},{"stop_id":"U1207Z2","name":"Jiránkova","arrival_time":"6:14:00","departure_time":"6:14:00","lat":49.187576,"lon":16.633483,"is_passed":false},{"stop_id":"U1677Z2","name":"Tržní","arrival_time":"6:16:00","departure_time":"6:16:00","lat":49.189407,"lon":16.629972,"is_passed":false},{"stop_id":"U1144Z2","name":"Hladíkova","arrival_time":"6:16:00","departure_time":"6:16:00","lat":49.187865,"lon":16.625741,"is_passed":false},{"stop_id":"U1798Z5","name":"Zvonařka","arrival_time":"6:17:00","departure_time":"6:17:00","lat":49.18754,"lon":16.620139,"is_passed":false},{"stop_id":"U1716Z6","name":"Úzká","arrival_time":"6:19:00","departure_time":"6:19:00","lat":49.188996,"lon":16.612968,"is_passed":false},{"stop_id":"U1146Z2","name":"Hlavní nádraží","arrival_time":"6:22:00","departure_time":"6:24:00","lat":49.191394,"lon":16.612548,"is_passed":false}]