[{"stop_id":"U1213Z2","name":"Jundrov","arrival_time":"10:27:00","departure_time":"10:27:00","lat":49.211666,"lon":16.550607,"is_passed":false},{"stop_id":"U1462Z2","name":"Optátova","arrival_time":"10:28:00","departure_time":"10:28:00","lat":49.208867,"lon":16.555614,"is_passed":false},{"stop_id":"U1214Z1","name":"Jundrovský most","arrival_time":"10:29:00","departure_time":"10:29:00","lat":49.209437,"lon":16.556755,"is_passed":false},{"stop_id":"U1217Z4","name":"Vozovna Komín","arrival_time":"10:30:00","departure_time":"10:30:00","lat":49.213659,"lon":16.559498,"is_passed":false},{"stop_id":"U1143Z2","name":"Hlavní","arrival_time":"10:31:00","departure_time":"10:31:00","lat":49.21715,"lon":16.560506,"is_passed":false},{"stop_id":"U1651Z2","name":"Štursova","arrival_time":"10:32:00","departure_time":"10:32:00","lat":49.215854,"lon":16.564522,"is_passed":false},{"stop_id":"U1544Z4","name":"Rosického náměstí","arrival_time":"10:33:00","departure_time":"10:33:00","lat":49.214881,"lon":16.568314,"is_passed":false},{"stop_id":"U1528Z4","name":"Přívrat","arrival_time":"10:35:00","departure_time":"10:35:00","lat":49.218647,"lon":16.574085,"is_passed":false},{"stop_id":"U1777Z2","name":"Záhřebská","arrival_time":"10:36:00","departure_time":"10:36:00","lat":49.219845,"lon":16.580415,"is_passed":false},{"stop_id":"U1567Z6","name":"Skácelova","arrival_time":"10:38:00","departure_time":"10:38:00","lat":49.22163,"lon":16.585935,"is_passed":false},{"stop_id":"U1586Z4","name":"Slovanské náměstí","arrival_time":"10:39:00","departure_time":"10:39:00","lat":49.222774,"lon":16.591332,"is_passed":false},{"stop_id":"U1181Z2","name":"Charvatská","arrival_time":"10:40:00","departure_time":"10:40:00","lat":49.219543,"lon":16.592241,"is_passed":false},{"stop_id":"U1643Z2","name":"Štefánikova","arrival_time":"10:42:00","departure_time":"10:42:00","lat":49.21528,"lon":16.599053,"is_passed":false},{"stop_id":"U1535Z4","name":"Reissigova","arrival_time":"10:43:00","departure_time":"10:43:00","lat":49.21637,"lon":16.60365,"is_passed":false},{"stop_id":"U1415Z2","name":"NC Královo Pole","arrival_time":"10:45:00","departure_time":"10:45:00","lat":49.217553,"lon":16.607232,"is_passed":false},{"stop_id":"U1535Z2","name":"Reissigova","arrival_time":"10:47:00","departure_time":"10:47:00","lat":49.215925,"lon":16.604659,"is_passed":false},{"stop_id":"U1602Z2","name":"Sportovní","arrival_time":"10:48:00","departure_time":"10:48:00","lat":49.212001,"lon":16.607125,"is_passed":false},{"stop_id":"U1793Z4","name":"Za Lužánkami","arrival_time":"10:49:00","departure_time":"10:49:00","lat":49.208864,"lon":16.609536,"is_passed":false},{"stop_id":"U1177Z2","name":"Schodová","arrival_time":"10:50:00","departure_time":"10:50:00","lat":49.206474,"lon":16.612255,"is_passed":false},{"stop_id":"U1418Z4","name":"Náměstí 28. října","arrival_time":"10:52:00","departure_time":"10:52:00","lat":49.202201,"lon":16.613634,"is_passed":false},{"stop_id":"U1397Z4","name":"Moravské náměstí","arrival_time":"10:54:00","departure_time":"10:54:00","lat":49.199159,"lon":16.608704,"is_passed":false},{"stop_id":"U1193Z4","name":"Janáčkovo divadlo","arrival_time":"10:54:00","departure_time":"10:54:00","lat":49.197997,"lon":16.610307,"is_passed":false},{"stop_id":"U1357Z4","name":"Malinovského náměstí","arrival_time":"10:56:00","departure_time":"10:56:00","lat":49.195612,"lon":16.613248,"is_passed":false},{"stop_id":"U1146Z5","name":"Hlavní nádraží","arrival_time":"10:58:00","departure_time":"10:58:00","lat":49.192074,"lon":16.613923,"is_passed":false},{"stop_id":"U1746Z1","name":"Vlhká","arrival_time":"10:59:00","departure_time":"10:59:00","lat":49.191847,"lon":16.618976,"is_passed":false},{"stop_id":"U1372Z6","name":"Masná","arrival_time":"11:01:00","departure_time":"11:01:00","lat":49.190905,"lon":16.626023,"is_passed":false},{"stop_id":"U1144Z3","name":"Hladíkova","arrival_time":"11:02:00","departure_time":"11:02:00","lat":49.186729,"lon":16.626124,"is_passed":false},{"stop_id":"U1639Z1","name":"Škrobárenská","arrival_time":"11:03:00","departure_time":"11:03:00","lat":49.182466,"lon":16.626261,"is_passed":false},{"stop_id":"U1266Z3","name":"Konopná","arrival_time":"11:05:00","departure_time":"11:05:00","lat":49.180126,"lon":16.621339,"is_passed":false},{"stop_id":"U1256Z3","name":"Komárov","arrival_time":"11:07:00","departure_time":"11:07:00","lat":49.17444,"lon":16.622448,"is_passed":false},{"stop_id":"U1148Z1","name":"Hněvkovského","arrival_time":"11:08:00","departure_time":"11:08:00","lat":49.169807,"lon":16.625991,"is_passed":false},{"stop_id":"U1570Z1","name":"Skandinávská","arrival_time":"11:11:00","departure_time":"11:11:00","lat":49.154716,"lon":16.629354,"is_passed":false},{"stop_id":"U7505Z1","name":"Ikea","arrival_time":"11:12:00","departure_time":"11:12:00","lat":49.156435,"lon":16.628041,"is_passed":false},{"stop_id":"U7524Z1","name":"Avion Shopping Park","arrival_time":"11:14:00","departure_time":"11:47:00","lat":49.158343,"lon":16.627978,"is_passed":false}]