[{"stop_id":"U13329Z2","name":"Tišnov, Pejškov","arrival_time":"15:40:00","departure_time":"15:40:00","lat":49.316552,"lon":16.378515,"is_passed":false},{"stop_id":"U13337Z2","name":"Vohančice","arrival_time":"15:43:00","departure_time":"15:43:00","lat":49.321643,"lon":16.394919,"is_passed":false},{"stop_id":"U13303Z1","name":"Heroltice, rozcestí","arrival_time":"15:45:00","departure_time":"15:45:00","lat":49.319203,"lon":16.416328,"is_passed":false},{"stop_id":"U13302Z2","name":"Heroltice","arrival_time":"15:48:00","departure_time":"15:48:00","lat":49.311648,"lon":16.412858,"is_passed":false},{"stop_id":"U13303Z2","name":"Heroltice, rozcestí","arrival_time":"15:50:00","departure_time":"15:50:00","lat":49.319203,"lon":16.416328,"is_passed":false},{"stop_id":"U13301Z2","name":"Březina","arrival_time":"15:52:00","departure_time":"15:52:00","lat":49.321478,"lon":16.423017,"is_passed":false},{"stop_id":"U13306Z2","name":"Hradčany, železniční stanice","arrival_time":"15:55:00","departure_time":"15:55:00","lat":49.332913,"lon":16.438387,"is_passed":false},{"stop_id":"U13332Z2","name":"Tišnov, sídliště Klucanina","arrival_time":"15:57:00","departure_time":"15:57:00","lat":49.340413,"lon":16.432969,"is_passed":false},{"stop_id":"U13351Z1","name":"Tišnov, Rybníček","arrival_time":"15:57:00","departure_time":"15:57:00","lat":49.343088,"lon":16.429751,"is_passed":false},{"stop_id":"U13327Z2","name":"Tišnov, Nádražní","arrival_time":"15:59:00","departure_time":"15:59:00","lat":49.34483,"lon":16.422519,"is_passed":false},{"stop_id":"U13334Z11","name":"Tišnov, železniční stanice","arrival_time":"16:01:00","departure_time":"16:01:00","lat":49.347123,"lon":16.419159,"is_passed":false}]