[{"stop_id":"U7524Z2","name":"Avion Shopping Park","arrival_time":"21:27:00","departure_time":"21:27:00","lat":49.158198,"lon":16.627919,"is_passed":false},{"stop_id":"U7505Z2","name":"Ikea","arrival_time":"21:27:00","departure_time":"21:27:00","lat":49.156089,"lon":16.627772,"is_passed":false},{"stop_id":"U1570Z2","name":"Skandinávská","arrival_time":"21:28:00","departure_time":"21:28:00","lat":49.154354,"lon":16.629223,"is_passed":false},{"stop_id":"U1148Z2","name":"Hněvkovského","arrival_time":"21:32:00","departure_time":"21:32:00","lat":49.169618,"lon":16.626335,"is_passed":false},{"stop_id":"U1565Z2","name":"Sazenice","arrival_time":"21:32:00","departure_time":"21:32:00","lat":49.172877,"lon":16.623824,"is_passed":false},{"stop_id":"U1361Z4","name":"Mariánské náměstí","arrival_time":"21:33:00","departure_time":"21:33:00","lat":49.177094,"lon":16.621935,"is_passed":false},{"stop_id":"U1266Z4","name":"Konopná","arrival_time":"21:34:00","departure_time":"21:34:00","lat":49.179332,"lon":16.621811,"is_passed":false},{"stop_id":"U1639Z2","name":"Škrobárenská","arrival_time":"21:35:00","departure_time":"21:35:00","lat":49.183283,"lon":16.626321,"is_passed":false},{"stop_id":"U1144Z4","name":"Hladíkova","arrival_time":"21:36:00","departure_time":"21:36:00","lat":49.18682,"lon":16.626223,"is_passed":false},{"stop_id":"U1372Z2","name":"Masná","arrival_time":"21:38:00","departure_time":"21:38:00","lat":49.191283,"lon":16.6245,"is_passed":false},{"stop_id":"U1746Z2","name":"Vlhká","arrival_time":"21:39:00","departure_time":"21:39:00","lat":49.191852,"lon":16.619157,"is_passed":false},{"stop_id":"U1146Z9","name":"Hlavní nádraží","arrival_time":"21:41:00","departure_time":"21:43:00","lat":49.19185,"lon":16.613617,"is_passed":false}]