[{"stop_id":"U1209Z2","name":"Jírovcova","arrival_time":"5:05:00","departure_time":"5:05:00","lat":49.188255,"lon":16.533803,"is_passed":false},{"stop_id":"U1481Z1","name":"Pavlovská","arrival_time":"5:05:00","departure_time":"5:05:00","lat":49.189952,"lon":16.531006,"is_passed":false},{"stop_id":"U1658Z1","name":"Talichova","arrival_time":"5:06:00","departure_time":"5:06:00","lat":49.191443,"lon":16.52996,"is_passed":false},{"stop_id":"U1017Z1","name":"Bellova","arrival_time":"5:07:00","departure_time":"5:07:00","lat":49.194186,"lon":16.531513,"is_passed":false},{"stop_id":"U1753Z1","name":"Voříškova","arrival_time":"5:08:00","departure_time":"5:08:00","lat":49.196515,"lon":16.535962,"is_passed":false},{"stop_id":"U1607Z1","name":"Stamicova","arrival_time":"5:09:00","departure_time":"5:09:00","lat":49.194694,"lon":16.539692,"is_passed":false},{"stop_id":"U1117Z1","name":"Glinkova","arrival_time":"5:10:00","departure_time":"5:10:00","lat":49.193863,"lon":16.544288,"is_passed":false},{"stop_id":"U1033Z1","name":"Borodinova","arrival_time":"5:10:00","departure_time":"5:10:00","lat":49.195947,"lon":16.545527,"is_passed":false},{"stop_id":"U1341Z1","name":"Libušina třída","arrival_time":"5:11:00","departure_time":"5:11:00","lat":49.197615,"lon":16.549164,"is_passed":false},{"stop_id":"U1342Z1","name":"Libušino údolí","arrival_time":"5:12:00","departure_time":"5:12:00","lat":49.195495,"lon":16.55543,"is_passed":false},{"stop_id":"U1003Z1","name":"Antonína Procházky","arrival_time":"5:13:00","departure_time":"5:13:00","lat":49.193559,"lon":16.561795,"is_passed":false},{"stop_id":"U1007Z4","name":"Anthropos","arrival_time":"5:14:00","departure_time":"5:14:00","lat":49.193356,"lon":16.56677,"is_passed":false},{"stop_id":"U1487Z6","name":"Pisárky","arrival_time":"5:15:00","departure_time":"5:15:00","lat":49.193537,"lon":16.570797,"is_passed":false},{"stop_id":"U1343Z4","name":"ARENA BRNO","arrival_time":"5:16:00","departure_time":"5:16:00","lat":49.191574,"lon":16.576353,"is_passed":false},{"stop_id":"U1769Z4","name":"Výstaviště - vstup G2","arrival_time":"5:16:00","departure_time":"5:16:00","lat":49.190403,"lon":16.580275,"is_passed":false},{"stop_id":"U1768Z4","name":"Výstaviště - hlavní vstup","arrival_time":"5:17:00","departure_time":"5:17:00","lat":49.1886,"lon":16.589153,"is_passed":false},{"stop_id":"U1378Z7","name":"Mendlovo náměstí","arrival_time":"5:19:00","departure_time":"5:19:00","lat":49.189919,"lon":16.593687,"is_passed":false},{"stop_id":"U1428Z1","name":"Nemocnice u sv. Anny","arrival_time":"5:20:00","departure_time":"5:20:00","lat":49.191471,"lon":16.599302,"is_passed":false},{"stop_id":"U1176Z2","name":"Hybešova","arrival_time":"5:22:00","departure_time":"5:22:00","lat":49.189209,"lon":16.603364,"is_passed":false},{"stop_id":"U1146Z4","name":"Hlavní nádraží","arrival_time":"5:25:00","departure_time":"5:30:00","lat":49.19125,"lon":16.612674,"is_passed":false},{"stop_id":"U1357Z2","name":"Malinovského náměstí","arrival_time":"5:31:00","departure_time":"5:31:00","lat":49.195034,"lon":16.614825,"is_passed":false},{"stop_id":"U1271Z1","name":"Körnerova","arrival_time":"5:32:00","departure_time":"5:32:00","lat":49.19828,"lon":16.619945,"is_passed":false},{"stop_id":"U1663Z1","name":"Tkalcovská","arrival_time":"5:33:00","departure_time":"5:33:00","lat":49.200261,"lon":16.626109,"is_passed":false},{"stop_id":"U1773Z1","name":"Vojenská nemocnice","arrival_time":"5:34:00","departure_time":"5:34:00","lat":49.202244,"lon":16.629717,"is_passed":false},{"stop_id":"U1313Z1","name":"Kuldova","arrival_time":"5:35:00","departure_time":"5:35:00","lat":49.201297,"lon":16.634306,"is_passed":false},{"stop_id":"U1611Z8","name":"Stará osada","arrival_time":"5:36:00","departure_time":"5:36:00","lat":49.202294,"lon":16.642001,"is_passed":false},{"stop_id":"U1113Z1","name":"Gajdošova","arrival_time":"5:37:00","departure_time":"5:37:00","lat":49.19868,"lon":16.645552,"is_passed":false},{"stop_id":"U1082Z1","name":"Dělnický dům","arrival_time":"5:39:00","departure_time":"5:39:00","lat":49.195559,"lon":16.650177,"is_passed":false},{"stop_id":"U1212Z3","name":"Juliánov","arrival_time":"5:40:00","departure_time":"5:40:00","lat":49.196124,"lon":16.654392,"is_passed":false},{"stop_id":"U1353Z1","name":"Malá Klajdovka","arrival_time":"5:41:00","departure_time":"5:41:00","lat":49.199045,"lon":16.662888,"is_passed":false},{"stop_id":"U1787Z1","name":"Zetor - silnice","arrival_time":"5:43:00","departure_time":"5:43:00","lat":49.200733,"lon":16.6707,"is_passed":false},{"stop_id":"U1780Z1","name":"Zaoralova","arrival_time":"5:44:00","departure_time":"5:44:00","lat":49.200223,"lon":16.679582,"is_passed":false},{"stop_id":"U1238Z1","name":"Klicperova","arrival_time":"5:45:00","departure_time":"5:45:00","lat":49.202482,"lon":16.688386,"is_passed":false},{"stop_id":"U1232Z1","name":"Karolíny Světlé","arrival_time":"5:46:00","departure_time":"5:46:00","lat":49.2026,"lon":16.693683,"is_passed":false},{"stop_id":"U1421Z1","name":"Náměstí Karla IV.","arrival_time":"5:47:00","departure_time":"5:47:00","lat":49.206363,"lon":16.694621,"is_passed":false},{"stop_id":"U1638Z1","name":"Šimáčkova","arrival_time":"5:47:00","departure_time":"5:47:00","lat":49.209403,"lon":16.696102,"is_passed":false},{"stop_id":"U1311Z1","name":"Kubelíkova","arrival_time":"5:48:00","departure_time":"5:48:00","lat":49.212191,"lon":16.69892,"is_passed":false},{"stop_id":"U1441Z1","name":"Obecká","arrival_time":"5:49:00","departure_time":"5:49:00","lat":49.21465,"lon":16.702159,"is_passed":false},{"stop_id":"U1346Z1","name":"Líšeň, hřbitov","arrival_time":"5:50:00","departure_time":"6:04:00","lat":49.217474,"lon":16.702799,"is_passed":false}]