[{"stop_id":"U1037Z2","name":"Bosonohy","arrival_time":"19:32:00","departure_time":"19:32:00","lat":49.176372,"lon":16.525514,"is_passed":false},{"stop_id":"U1161Z2","name":"Hoštická","arrival_time":"19:33:00","departure_time":"19:33:00","lat":49.173917,"lon":16.527822,"is_passed":false},{"stop_id":"U1568Z2","name":"Skalní","arrival_time":"19:35:00","departure_time":"19:35:00","lat":49.174201,"lon":16.537903,"is_passed":false},{"stop_id":"U1202Z2","name":"Jemelkova","arrival_time":"19:36:00","departure_time":"19:36:00","lat":49.173163,"lon":16.54872,"is_passed":false},{"stop_id":"U1616Z4","name":"Starý Lískovec, smyčka","arrival_time":"19:38:00","departure_time":"19:38:00","lat":49.170615,"lon":16.55427,"is_passed":false},{"stop_id":"U1687Z2","name":"U hřiště","arrival_time":"19:39:00","departure_time":"19:39:00","lat":49.165806,"lon":16.558562,"is_passed":false},{"stop_id":"U1666Z2","name":"Točná","arrival_time":"19:40:00","departure_time":"19:40:00","lat":49.164745,"lon":16.561481,"is_passed":false},{"stop_id":"U1061Z2","name":"Čermákova","arrival_time":"19:41:00","departure_time":"19:41:00","lat":49.164349,"lon":16.564689,"is_passed":false},{"stop_id":"U1627Z2","name":"Svah","arrival_time":"19:41:00","departure_time":"19:41:00","lat":49.164924,"lon":16.567717,"is_passed":false},{"stop_id":"U1273Z1","name":"Kosmonautů","arrival_time":"19:42:00","departure_time":"19:42:00","lat":49.167006,"lon":16.568017,"is_passed":false},{"stop_id":"U1472Z7","name":"Osová","arrival_time":"19:43:00","departure_time":"19:43:00","lat":49.168951,"lon":16.566714,"is_passed":false},{"stop_id":"U1492Z1","name":"Pod nemocnicí","arrival_time":"19:44:00","departure_time":"19:44:00","lat":49.172412,"lon":16.569624,"is_passed":false},{"stop_id":"U1429Z4","name":"Nemocnice Bohunice","arrival_time":"19:46:00","departure_time":"19:46:00","lat":49.176125,"lon":16.567246,"is_passed":false},{"stop_id":"U1699Z3","name":"Univerzitní kampus","arrival_time":"19:47:00","departure_time":"19:47:00","lat":49.177902,"lon":16.568335,"is_passed":false},{"stop_id":"U1222Z3","name":"Kamenice","arrival_time":"19:48:00","departure_time":"19:48:00","lat":49.177622,"lon":16.573805,"is_passed":false},{"stop_id":"U1411Z1","name":"Mýtná","arrival_time":"19:49:00","departure_time":"19:49:00","lat":49.175033,"lon":16.582359,"is_passed":false},{"stop_id":"U1714Z1","name":"Uzbecká","arrival_time":"19:50:00","departure_time":"19:50:00","lat":49.172343,"lon":16.583318,"is_passed":false},{"stop_id":"U1701Z2","name":"Ukrajinská","arrival_time":"19:51:00","departure_time":"19:51:00","lat":49.170541,"lon":16.584623,"is_passed":false},{"stop_id":"U1122Z2","name":"Gruzínská","arrival_time":"19:52:00","departure_time":"19:52:00","lat":49.166633,"lon":16.586336,"is_passed":false},{"stop_id":"U1774Z2","name":"Za hřbitovem","arrival_time":"19:52:00","departure_time":"19:52:00","lat":49.164318,"lon":16.591448,"is_passed":false},{"stop_id":"U1673Z2","name":"Traťová","arrival_time":"19:53:00","departure_time":"19:53:00","lat":49.163623,"lon":16.595954,"is_passed":false},{"stop_id":"U1031Z6","name":"Bohunická","arrival_time":"19:54:00","departure_time":"19:54:00","lat":49.162697,"lon":16.600443,"is_passed":false},{"stop_id":"U1703Z7","name":"Ústřední hřbitov","arrival_time":"19:56:00","departure_time":"19:56:00","lat":49.170741,"lon":16.597834,"is_passed":false}]