[{"stop_id":"U1703Z6","name":"Ústřední hřbitov","arrival_time":"18:12:00","departure_time":"18:12:00","lat":49.170744,"lon":16.597612,"is_passed":false},{"stop_id":"U1673Z1","name":"Traťová","arrival_time":"18:13:00","departure_time":"18:13:00","lat":49.163849,"lon":16.595255,"is_passed":false},{"stop_id":"U1122Z1","name":"Gruzínská","arrival_time":"18:15:00","departure_time":"18:15:00","lat":49.167041,"lon":16.586433,"is_passed":false},{"stop_id":"U1701Z1","name":"Ukrajinská","arrival_time":"18:16:00","departure_time":"18:16:00","lat":49.170325,"lon":16.585437,"is_passed":false},{"stop_id":"U1714Z2","name":"Uzbecká","arrival_time":"18:17:00","departure_time":"18:17:00","lat":49.172173,"lon":16.583374,"is_passed":false},{"stop_id":"U1411Z2","name":"Mýtná","arrival_time":"18:18:00","departure_time":"18:18:00","lat":49.175186,"lon":16.582128,"is_passed":false},{"stop_id":"U1222Z4","name":"Kamenice","arrival_time":"18:19:00","departure_time":"18:19:00","lat":49.177782,"lon":16.57232,"is_passed":false},{"stop_id":"U1699Z4","name":"Univerzitní kampus","arrival_time":"18:20:00","departure_time":"18:20:00","lat":49.17846,"lon":16.567533,"is_passed":false},{"stop_id":"U1624Z2","name":"Studentská","arrival_time":"18:21:00","departure_time":"18:21:00","lat":49.179291,"lon":16.570244,"is_passed":false},{"stop_id":"U1699Z2","name":"Univerzitní kampus","arrival_time":"18:23:00","departure_time":"18:23:00","lat":49.177455,"lon":16.567173,"is_passed":false},{"stop_id":"U1429Z5","name":"Nemocnice Bohunice","arrival_time":"18:24:00","departure_time":"18:24:00","lat":49.175206,"lon":16.56694,"is_passed":false},{"stop_id":"U1492Z2","name":"Pod nemocnicí","arrival_time":"18:26:00","departure_time":"18:26:00","lat":49.172338,"lon":16.569417,"is_passed":false},{"stop_id":"U1472Z8","name":"Osová","arrival_time":"18:27:00","departure_time":"18:27:00","lat":49.168617,"lon":16.566306,"is_passed":false},{"stop_id":"U1273Z2","name":"Kosmonautů","arrival_time":"18:27:00","departure_time":"18:27:00","lat":49.167124,"lon":16.56745,"is_passed":false},{"stop_id":"U1627Z1","name":"Svah","arrival_time":"18:28:00","departure_time":"18:28:00","lat":49.165199,"lon":16.567969,"is_passed":false},{"stop_id":"U1061Z1","name":"Čermákova","arrival_time":"18:28:00","departure_time":"18:28:00","lat":49.164336,"lon":16.565516,"is_passed":false},{"stop_id":"U1666Z1","name":"Točná","arrival_time":"18:29:00","departure_time":"18:29:00","lat":49.16476,"lon":16.561692,"is_passed":false},{"stop_id":"U1687Z1","name":"U hřiště","arrival_time":"18:30:00","departure_time":"18:30:00","lat":49.166214,"lon":16.558668,"is_passed":false},{"stop_id":"U1097Z5","name":"Dunajská","arrival_time":"18:31:00","departure_time":"18:31:00","lat":49.169618,"lon":16.555308,"is_passed":false},{"stop_id":"U1616Z5","name":"Starý Lískovec, smyčka","arrival_time":"18:32:00","departure_time":"18:32:00","lat":49.172309,"lon":16.553313,"is_passed":false},{"stop_id":"U1202Z1","name":"Jemelkova","arrival_time":"18:33:00","departure_time":"18:33:00","lat":49.173333,"lon":16.548692,"is_passed":false},{"stop_id":"U1568Z1","name":"Skalní","arrival_time":"18:35:00","departure_time":"18:35:00","lat":49.174248,"lon":16.538211,"is_passed":false},{"stop_id":"U1161Z1","name":"Hoštická","arrival_time":"18:36:00","departure_time":"18:36:00","lat":49.173864,"lon":16.528044,"is_passed":false},{"stop_id":"U1037Z1","name":"Bosonohy","arrival_time":"18:38:00","departure_time":"19:12:00","lat":49.17652,"lon":16.525792,"is_passed":false}]