[{"stop_id":"U1757Z4","name":"Vozovna Slatina","arrival_time":"20:21:00","departure_time":"20:21:00","lat":49.183123,"lon":16.672433,"is_passed":false},{"stop_id":"U1068Z4","name":"Černovičky","arrival_time":"20:22:00","departure_time":"20:22:00","lat":49.183907,"lon":16.668247,"is_passed":false},{"stop_id":"U1501Z3","name":"Podstránská","arrival_time":"20:22:00","departure_time":"20:22:00","lat":49.186855,"lon":16.66649,"is_passed":false},{"stop_id":"U1018Z4","name":"Bělohorská","arrival_time":"20:24:00","departure_time":"20:24:00","lat":49.189904,"lon":16.662135,"is_passed":false},{"stop_id":"U1642Z2","name":"Špačkova","arrival_time":"20:25:00","departure_time":"20:25:00","lat":49.190815,"lon":16.659552,"is_passed":false},{"stop_id":"U1496Z2","name":"Podlomní","arrival_time":"20:26:00","departure_time":"20:26:00","lat":49.192497,"lon":16.654989,"is_passed":false},{"stop_id":"U1082Z2","name":"Dělnický dům","arrival_time":"20:27:00","departure_time":"20:27:00","lat":49.195559,"lon":16.64956,"is_passed":false},{"stop_id":"U1113Z2","name":"Gajdošova","arrival_time":"20:28:00","departure_time":"20:28:00","lat":49.198286,"lon":16.645995,"is_passed":false},{"stop_id":"U1611Z8","name":"Stará osada","arrival_time":"20:30:00","departure_time":"20:30:00","lat":49.202294,"lon":16.642001,"is_passed":false},{"stop_id":"U1811Z1","name":"Židenice, kasárna","arrival_time":"20:32:00","departure_time":"20:32:00","lat":49.208445,"lon":16.642414,"is_passed":false},{"stop_id":"U1231Z1","name":"Karlova","arrival_time":"20:33:00","departure_time":"20:33:00","lat":49.213487,"lon":16.643814,"is_passed":false},{"stop_id":"U1358Z1","name":"Maloměřický most","arrival_time":"20:34:00","departure_time":"20:34:00","lat":49.21558,"lon":16.642601,"is_passed":false},{"stop_id":"U1668Z6","name":"Tomkovo náměstí","arrival_time":"20:36:00","departure_time":"20:38:00","lat":49.214259,"lon":16.63678,"is_passed":false}]