[{"stop_id":"U1378Z7","name":"Mendlovo náměstí","arrival_time":"12:30:00","departure_time":"12:30:00","lat":49.189919,"lon":16.593687,"is_passed":false},{"stop_id":"U1682Z1","name":"Tvrdého","arrival_time":"12:32:00","departure_time":"12:32:00","lat":49.196349,"lon":16.594363,"is_passed":false},{"stop_id":"U1816Z1","name":"Žlutý kopec","arrival_time":"12:35:00","departure_time":"12:35:00","lat":49.19515,"lon":16.587289,"is_passed":false},{"stop_id":"U1723Z1","name":"Vaňkovo náměstí","arrival_time":"12:36:00","departure_time":"12:36:00","lat":49.195052,"lon":16.585013,"is_passed":false},{"stop_id":"U1228Z1","name":"Kampelíkova","arrival_time":"12:37:00","departure_time":"12:37:00","lat":49.197512,"lon":16.581178,"is_passed":false},{"stop_id":"U1597Z1","name":"Soukopova","arrival_time":"12:38:00","departure_time":"12:38:00","lat":49.198956,"lon":16.579053,"is_passed":false},{"stop_id":"U1013Z1","name":"Barvičova","arrival_time":"12:40:00","departure_time":"12:48:00","lat":49.201189,"lon":16.575746,"is_passed":false}]