[{"stop_id":"U1257Z2","name":"Komenského náměstí","arrival_time":"17:12:00","departure_time":"17:12:00","lat":49.197135,"lon":16.602612,"is_passed":false},{"stop_id":"U1442Z1","name":"Obilní trh","arrival_time":"17:13:00","departure_time":"17:13:00","lat":49.198221,"lon":16.597478,"is_passed":false},{"stop_id":"U1712Z3","name":"Úvoz","arrival_time":"17:14:00","departure_time":"17:14:00","lat":49.198432,"lon":16.594582,"is_passed":false},{"stop_id":"U1816Z1","name":"Žlutý kopec","arrival_time":"17:17:00","departure_time":"17:17:00","lat":49.19515,"lon":16.587289,"is_passed":false},{"stop_id":"U1723Z3","name":"Vaňkovo náměstí","arrival_time":"17:18:00","departure_time":"17:18:00","lat":49.194723,"lon":16.585005,"is_passed":false},{"stop_id":"U1478Z1","name":"Pavlíkova","arrival_time":"17:18:00","departure_time":"17:18:00","lat":49.195012,"lon":16.581894,"is_passed":false},{"stop_id":"U1433Z1","name":"Neumannova","arrival_time":"17:19:00","departure_time":"17:19:00","lat":49.196721,"lon":16.577681,"is_passed":false},{"stop_id":"U1366Z1","name":"Marie Pujmanové","arrival_time":"17:20:00","departure_time":"17:20:00","lat":49.198265,"lon":16.573344,"is_passed":false},{"stop_id":"U1517Z1","name":"Preslova","arrival_time":"17:22:00","departure_time":"17:31:00","lat":49.199128,"lon":16.571114,"is_passed":false}]