[{"stop_id":"U1257Z2","name":"Komenského náměstí","arrival_time":"8:27:00","departure_time":"8:27:00","lat":49.197135,"lon":16.602612,"is_passed":false},{"stop_id":"U1442Z1","name":"Obilní trh","arrival_time":"8:28:00","departure_time":"8:28:00","lat":49.198221,"lon":16.597478,"is_passed":false},{"stop_id":"U1712Z3","name":"Úvoz","arrival_time":"8:29:00","departure_time":"8:29:00","lat":49.198432,"lon":16.594582,"is_passed":false},{"stop_id":"U1816Z1","name":"Žlutý kopec","arrival_time":"8:32:00","departure_time":"8:32:00","lat":49.19515,"lon":16.587289,"is_passed":false},{"stop_id":"U1723Z3","name":"Vaňkovo náměstí","arrival_time":"8:33:00","departure_time":"8:33:00","lat":49.194723,"lon":16.585005,"is_passed":false},{"stop_id":"U1478Z1","name":"Pavlíkova","arrival_time":"8:33:00","departure_time":"8:33:00","lat":49.195012,"lon":16.581894,"is_passed":false},{"stop_id":"U1433Z1","name":"Neumannova","arrival_time":"8:34:00","departure_time":"8:34:00","lat":49.196721,"lon":16.577681,"is_passed":false},{"stop_id":"U1366Z1","name":"Marie Pujmanové","arrival_time":"8:35:00","departure_time":"8:35:00","lat":49.198265,"lon":16.573344,"is_passed":false},{"stop_id":"U1517Z1","name":"Preslova","arrival_time":"8:37:00","departure_time":"8:52:00","lat":49.199128,"lon":16.571114,"is_passed":false}]