[{"stop_id":"U13185Z1","name":"Vranov, myslivna","arrival_time":"16:26:00","departure_time":"16:26:00","lat":49.308583,"lon":16.621781,"is_passed":false},{"stop_id":"U13183Z1","name":"Vranov, křižovatka","arrival_time":"16:27:00","departure_time":"16:27:00","lat":49.31025,"lon":16.612232,"is_passed":false},{"stop_id":"U13157Z2","name":"Lelekovice, u kříže","arrival_time":"16:33:00","departure_time":"16:33:00","lat":49.290209,"lon":16.587266,"is_passed":false},{"stop_id":"U13151Z2","name":"Lelekovice, náves","arrival_time":"16:35:00","departure_time":"16:35:00","lat":49.291105,"lon":16.579443,"is_passed":false},{"stop_id":"U13153Z2","name":"Lelekovice, škola","arrival_time":"16:36:00","departure_time":"16:36:00","lat":49.289922,"lon":16.575168,"is_passed":false},{"stop_id":"U13155Z2","name":"Lelekovice, u Hrazdírů","arrival_time":"16:37:00","departure_time":"16:37:00","lat":49.287312,"lon":16.572463,"is_passed":false},{"stop_id":"U13109Z2","name":"Česká, železniční stanice","arrival_time":"16:38:00","departure_time":"16:38:00","lat":49.283963,"lon":16.567584,"is_passed":false},{"stop_id":"U13103Z2","name":"Česká, křižovatka","arrival_time":"16:38:00","departure_time":"16:38:00","lat":49.282907,"lon":16.565216,"is_passed":false},{"stop_id":"U13101Z2","name":"Česká, Hlavní","arrival_time":"16:40:00","departure_time":"16:45:00","lat":49.280512,"lon":16.565392,"is_passed":false},{"stop_id":"U13105Z2","name":"Česká, Nádavky","arrival_time":"16:46:00","departure_time":"16:46:00","lat":49.274161,"lon":16.567946,"is_passed":false},{"stop_id":"U1351Z1","name":"Mácova","arrival_time":"16:48:00","departure_time":"16:48:00","lat":49.265819,"lon":16.569345,"is_passed":false},{"stop_id":"U1280Z1","name":"Kouty","arrival_time":"16:49:00","departure_time":"16:49:00","lat":49.264372,"lon":16.565032,"is_passed":false},{"stop_id":"U1526Z1","name":"Příjezdová","arrival_time":"16:49:00","departure_time":"16:49:00","lat":49.261553,"lon":16.569939,"is_passed":false},{"stop_id":"U1063Z2","name":"Černohorská","arrival_time":"16:50:00","departure_time":"16:50:00","lat":49.258654,"lon":16.57133,"is_passed":false},{"stop_id":"U1085Z2","name":"Díly","arrival_time":"16:51:00","departure_time":"16:51:00","lat":49.25425,"lon":16.574421,"is_passed":false},{"stop_id":"U1812Z2","name":"Žilkova","arrival_time":"16:52:00","departure_time":"16:52:00","lat":49.252181,"lon":16.576027,"is_passed":false},{"stop_id":"U1553Z4","name":"Řečkovice","arrival_time":"16:54:00","departure_time":"16:54:00","lat":49.246674,"lon":16.579384,"is_passed":false},{"stop_id":"U1457Z2","name":"Olšanského","arrival_time":"16:55:00","departure_time":"16:55:00","lat":49.24422,"lon":16.577351,"is_passed":false},{"stop_id":"U1376Z2","name":"Medlánky","arrival_time":"16:57:00","departure_time":"16:57:00","lat":49.240459,"lon":16.573676,"is_passed":false},{"stop_id":"U1377Z2","name":"Medlánky, škola","arrival_time":"16:58:00","departure_time":"16:58:00","lat":49.238196,"lon":16.57841,"is_passed":false},{"stop_id":"U1756Z4","name":"Vozovna Medlánky","arrival_time":"16:59:00","departure_time":"16:59:00","lat":49.235569,"lon":16.585596,"is_passed":false},{"stop_id":"U1683Z4","name":"Tylova","arrival_time":"17:00:00","departure_time":"17:00:00","lat":49.231926,"lon":16.589459,"is_passed":false},{"stop_id":"U1566Z4","name":"Semilasso","arrival_time":"17:02:00","departure_time":"17:02:00","lat":49.228055,"lon":16.593438,"is_passed":false},{"stop_id":"U1286Z8","name":"Královo Pole, nádraží","arrival_time":"17:04:00","departure_time":"17:24:00","lat":49.230335,"lon":16.595523,"is_passed":false}]