[{"stop_id":"U1037Z2","name":"Bosonohy","arrival_time":"5:31:00","departure_time":"5:31:00","lat":49.176372,"lon":16.525514,"is_passed":false},{"stop_id":"U1161Z2","name":"Hoštická","arrival_time":"5:32:00","departure_time":"5:32:00","lat":49.173917,"lon":16.527822,"is_passed":false},{"stop_id":"U1568Z2","name":"Skalní","arrival_time":"5:34:00","departure_time":"5:34:00","lat":49.174201,"lon":16.537903,"is_passed":false},{"stop_id":"U1202Z2","name":"Jemelkova","arrival_time":"5:35:00","departure_time":"5:35:00","lat":49.173163,"lon":16.54872,"is_passed":false},{"stop_id":"U1616Z4","name":"Starý Lískovec, smyčka","arrival_time":"5:36:00","departure_time":"5:36:00","lat":49.170615,"lon":16.55427,"is_passed":false},{"stop_id":"U1097Z6","name":"Dunajská","arrival_time":"5:37:00","departure_time":"5:37:00","lat":49.168824,"lon":16.55589,"is_passed":false},{"stop_id":"U1687Z2","name":"U hřiště","arrival_time":"5:38:00","departure_time":"5:38:00","lat":49.165806,"lon":16.558562,"is_passed":false},{"stop_id":"U1666Z2","name":"Točná","arrival_time":"5:39:00","departure_time":"5:39:00","lat":49.164745,"lon":16.561481,"is_passed":false},{"stop_id":"U1061Z2","name":"Čermákova","arrival_time":"5:40:00","departure_time":"5:40:00","lat":49.164349,"lon":16.564689,"is_passed":false},{"stop_id":"U1627Z2","name":"Svah","arrival_time":"5:40:00","departure_time":"5:40:00","lat":49.164924,"lon":16.567717,"is_passed":false},{"stop_id":"U1168Z2","name":"Humenná","arrival_time":"5:42:00","departure_time":"5:42:00","lat":49.167953,"lon":16.573664,"is_passed":false},{"stop_id":"U1763Z1","name":"Vyhlídalova","arrival_time":"5:43:00","departure_time":"5:43:00","lat":49.165385,"lon":16.577302,"is_passed":false},{"stop_id":"U1122Z4","name":"Gruzínská","arrival_time":"5:44:00","departure_time":"5:44:00","lat":49.166074,"lon":16.585383,"is_passed":false},{"stop_id":"U1774Z2","name":"Za hřbitovem","arrival_time":"5:44:00","departure_time":"5:44:00","lat":49.164318,"lon":16.591448,"is_passed":false},{"stop_id":"U1673Z2","name":"Traťová","arrival_time":"5:45:00","departure_time":"5:45:00","lat":49.163623,"lon":16.595954,"is_passed":false},{"stop_id":"U1466Z55","name":"Ořechovská","arrival_time":"5:47:00","departure_time":"5:47:00","lat":49.156238,"lon":16.599375,"is_passed":false},{"stop_id":"U1141Z2","name":"Heršpická","arrival_time":"5:50:00","departure_time":"5:50:00","lat":49.170473,"lon":16.599896,"is_passed":false},{"stop_id":"U1622Z1","name":"Strážní","arrival_time":"5:52:00","departure_time":"5:52:00","lat":49.178207,"lon":16.603976,"is_passed":false},{"stop_id":"U1301Z4","name":"Křídlovická","arrival_time":"5:54:00","departure_time":"5:54:00","lat":49.185748,"lon":16.603967,"is_passed":false},{"stop_id":"U1596Z4","name":"Soukenická","arrival_time":"5:55:00","departure_time":"5:55:00","lat":49.188557,"lon":16.607222,"is_passed":false},{"stop_id":"U1146Z4","name":"Hlavní nádraží","arrival_time":"5:57:00","departure_time":"6:00:00","lat":49.19125,"lon":16.612674,"is_passed":false},{"stop_id":"U1746Z1","name":"Vlhká","arrival_time":"6:01:00","departure_time":"6:01:00","lat":49.191847,"lon":16.618976,"is_passed":false},{"stop_id":"U1372Z1","name":"Masná","arrival_time":"6:02:00","departure_time":"6:02:00","lat":49.191244,"lon":16.625642,"is_passed":false},{"stop_id":"U1677Z1","name":"Tržní","arrival_time":"6:04:00","departure_time":"6:04:00","lat":49.189973,"lon":16.632193,"is_passed":false},{"stop_id":"U1598Z1","name":"Spáčilova","arrival_time":"6:05:00","departure_time":"6:05:00","lat":49.188674,"lon":16.640942,"is_passed":false},{"stop_id":"U1455Z1","name":"Olomoucká - u školy","arrival_time":"6:06:00","departure_time":"6:06:00","lat":49.186169,"lon":16.652958,"is_passed":false},{"stop_id":"U1613Z1","name":"Staré letiště","arrival_time":"6:07:00","departure_time":"6:07:00","lat":49.18487,"lon":16.65953,"is_passed":false},{"stop_id":"U1068Z3","name":"Černovičky","arrival_time":"6:08:00","departure_time":"6:08:00","lat":49.183143,"lon":16.669108,"is_passed":false},{"stop_id":"U1757Z2","name":"Vozovna Slatina","arrival_time":"6:08:00","departure_time":"6:08:00","lat":49.182866,"lon":16.673489,"is_passed":false},{"stop_id":"U1173Z2","name":"Hviezdoslavova","arrival_time":"6:09:00","departure_time":"6:09:00","lat":49.181664,"lon":16.677149,"is_passed":false},{"stop_id":"U1323Z2","name":"Langrova","arrival_time":"6:10:00","departure_time":"6:10:00","lat":49.17982,"lon":16.68105,"is_passed":false},{"stop_id":"U1382Z2","name":"Mikulčická","arrival_time":"6:10:00","departure_time":"6:10:00","lat":49.178227,"lon":16.684944,"is_passed":false},{"stop_id":"U1297Z2","name":"Kroměřížská","arrival_time":"6:11:00","departure_time":"6:11:00","lat":49.178988,"lon":16.689151,"is_passed":false},{"stop_id":"U1577Z1","name":"Slatina, sídliště","arrival_time":"6:12:00","departure_time":"6:16:00","lat":49.181827,"lon":16.690272,"is_passed":false}]