[{"stop_id":"U1809Z3","name":"Židenice, nádraží","arrival_time":"22:27:00","departure_time":"22:27:00","lat":49.203338,"lon":16.636772,"is_passed":false},{"stop_id":"U1611Z8","name":"Stará osada","arrival_time":"22:29:00","departure_time":"22:29:00","lat":49.202294,"lon":16.642001,"is_passed":false},{"stop_id":"U1113Z1","name":"Gajdošova","arrival_time":"22:30:00","departure_time":"22:30:00","lat":49.19868,"lon":16.645552,"is_passed":false},{"stop_id":"U1082Z1","name":"Dělnický dům","arrival_time":"22:32:00","departure_time":"22:32:00","lat":49.195559,"lon":16.650177,"is_passed":false},{"stop_id":"U1212Z3","name":"Juliánov","arrival_time":"22:33:00","departure_time":"22:33:00","lat":49.196124,"lon":16.654392,"is_passed":false},{"stop_id":"U1353Z1","name":"Malá Klajdovka","arrival_time":"22:34:00","departure_time":"22:34:00","lat":49.199045,"lon":16.662888,"is_passed":false},{"stop_id":"U1058Z2","name":"Čejkovická","arrival_time":"22:35:00","departure_time":"22:35:00","lat":49.200493,"lon":16.661793,"is_passed":false},{"stop_id":"U1036Z2","name":"Bořetická","arrival_time":"22:36:00","departure_time":"22:36:00","lat":49.201495,"lon":16.658055,"is_passed":false},{"stop_id":"U1403Z2","name":"Mutěnická","arrival_time":"22:37:00","departure_time":"22:37:00","lat":49.203951,"lon":16.654889,"is_passed":false},{"stop_id":"U1477Z2","name":"Pálavské náměstí","arrival_time":"22:38:00","departure_time":"22:38:00","lat":49.20538,"lon":16.658103,"is_passed":false},{"stop_id":"U1052Z2","name":"Bzenecká","arrival_time":"22:39:00","departure_time":"22:39:00","lat":49.205822,"lon":16.661645,"is_passed":false},{"stop_id":"U1383Z1","name":"Mikulovská","arrival_time":"22:40:00","departure_time":"22:40:00","lat":49.2055,"lon":16.665833,"is_passed":false},{"stop_id":"U1623Z1","name":"Strnadova","arrival_time":"22:41:00","departure_time":"22:41:00","lat":49.205754,"lon":16.66904,"is_passed":false},{"stop_id":"U1103Z1","name":"Elplova","arrival_time":"22:42:00","departure_time":"22:42:00","lat":49.210484,"lon":16.675106,"is_passed":false},{"stop_id":"U1157Z1","name":"Horníkova","arrival_time":"22:43:00","departure_time":"22:43:00","lat":49.212138,"lon":16.676622,"is_passed":false},{"stop_id":"U1489Z1","name":"Podbělová","arrival_time":"22:44:00","departure_time":"22:44:00","lat":49.213881,"lon":16.681661,"is_passed":false},{"stop_id":"U1392Z1","name":"Molákova","arrival_time":"22:45:00","departure_time":"22:45:00","lat":49.212873,"lon":16.686835,"is_passed":false},{"stop_id":"U1208Z4","name":"Jírova","arrival_time":"22:46:00","departure_time":"22:46:00","lat":49.209099,"lon":16.688056,"is_passed":false},{"stop_id":"U1421Z2","name":"Náměstí Karla IV.","arrival_time":"22:47:00","departure_time":"22:47:00","lat":49.206113,"lon":16.69444,"is_passed":false},{"stop_id":"U1232Z2","name":"Karolíny Světlé","arrival_time":"22:48:00","departure_time":"22:48:00","lat":49.203721,"lon":16.694074,"is_passed":false},{"stop_id":"U1406Z1","name":"Muzeum dopravy","arrival_time":"22:48:00","departure_time":"22:48:00","lat":49.201045,"lon":16.69455,"is_passed":false},{"stop_id":"U1339Z1","name":"Letecká","arrival_time":"22:49:00","departure_time":"22:49:00","lat":49.197603,"lon":16.695882,"is_passed":false},{"stop_id":"U1152Z1","name":"Holzova","arrival_time":"22:50:00","departure_time":"22:50:00","lat":49.194703,"lon":16.696956,"is_passed":false},{"stop_id":"U1356Z1","name":"Malečkova","arrival_time":"22:51:00","departure_time":"22:51:00","lat":49.18583,"lon":16.69265,"is_passed":false},{"stop_id":"U1576Z1","name":"Slatina, rozcestí","arrival_time":"22:53:00","departure_time":"22:53:00","lat":49.181647,"lon":16.691923,"is_passed":false},{"stop_id":"U1292Z2","name":"Krejčího","arrival_time":"22:54:00","departure_time":"22:54:00","lat":49.177496,"lon":16.690785,"is_passed":false},{"stop_id":"U1525Z2","name":"Přemyslovo náměstí","arrival_time":"22:54:00","departure_time":"22:54:00","lat":49.176456,"lon":16.687324,"is_passed":false},{"stop_id":"U1300Z2","name":"Křehlíkova","arrival_time":"22:55:00","departure_time":"22:55:00","lat":49.174794,"lon":16.685267,"is_passed":false},{"stop_id":"U1562Z4","name":"Řípská","arrival_time":"22:57:00","departure_time":"22:57:00","lat":49.172829,"lon":16.682244,"is_passed":false},{"stop_id":"U1581Z1","name":"Areál Slatina","arrival_time":"22:58:00","departure_time":"22:58:00","lat":49.168614,"lon":16.67804,"is_passed":false},{"stop_id":"U1772Z1","name":"Za křížem","arrival_time":"22:59:00","departure_time":"22:59:00","lat":49.15982,"lon":16.670772,"is_passed":false},{"stop_id":"U1131Z1","name":"Hanácká","arrival_time":"23:01:00","departure_time":"23:01:00","lat":49.146954,"lon":16.667509,"is_passed":false},{"stop_id":"U1186Z1","name":"Chrlická","arrival_time":"23:02:00","departure_time":"23:02:00","lat":49.144276,"lon":16.66513,"is_passed":false},{"stop_id":"U1693Z1","name":"U viaduktu","arrival_time":"23:03:00","departure_time":"23:03:00","lat":49.13875,"lon":16.659846,"is_passed":false},{"stop_id":"U1187Z3","name":"Chrlické náměstí","arrival_time":"23:04:00","departure_time":"23:04:00","lat":49.135906,"lon":16.65314,"is_passed":false},{"stop_id":"U1644Z1","name":"Šromova","arrival_time":"23:04:00","departure_time":"23:04:00","lat":49.13376,"lon":16.650299,"is_passed":false},{"stop_id":"U1781Z1","name":"Zámecká","arrival_time":"23:05:00","departure_time":"23:05:00","lat":49.132776,"lon":16.642479,"is_passed":false},{"stop_id":"U15130Z3","name":"Modřice, Olympia","arrival_time":"23:09:00","departure_time":"23:10:00","lat":49.139507,"lon":16.633749,"is_passed":false}]