[{"stop_id":"U1073Z1","name":"Česká","arrival_time":"20:04:00","departure_time":"20:04:00","lat":49.197618,"lon":16.605584,"is_passed":false},{"stop_id":"U1257Z1","name":"Komenského náměstí","arrival_time":"20:05:00","departure_time":"20:05:00","lat":49.197047,"lon":16.601844,"is_passed":false},{"stop_id":"U1442Z1","name":"Obilní trh","arrival_time":"20:06:00","departure_time":"20:06:00","lat":49.198221,"lon":16.597478,"is_passed":false},{"stop_id":"U1712Z1","name":"Úvoz","arrival_time":"20:07:00","departure_time":"20:07:00","lat":49.19829,"lon":16.59265,"is_passed":false},{"stop_id":"U1762Z1","name":"Všetičkova","arrival_time":"20:08:00","departure_time":"20:08:00","lat":49.198749,"lon":16.588757,"is_passed":false},{"stop_id":"U1371Z1","name":"Náměstí Míru","arrival_time":"20:11:00","departure_time":"20:30:00","lat":49.202197,"lon":16.582014,"is_passed":false}]