[{"stop_id":"U1361Z1","name":"Mariánské náměstí","arrival_time":"16:14:00","departure_time":"16:14:00","lat":49.176433,"lon":16.622739,"is_passed":false},{"stop_id":"U1256Z5","name":"Komárov","arrival_time":"16:16:00","departure_time":"16:16:00","lat":49.174917,"lon":16.621279,"is_passed":false},{"stop_id":"U1308Z1","name":"Kšírova","arrival_time":"16:17:00","departure_time":"16:17:00","lat":49.17135,"lon":16.615769,"is_passed":false},{"stop_id":"U1156Z1","name":"Horní Heršpice","arrival_time":"16:18:00","departure_time":"16:18:00","lat":49.166342,"lon":16.616562,"is_passed":false},{"stop_id":"U1778Z51","name":"Záhumenice","arrival_time":"16:20:00","departure_time":"16:20:00","lat":49.162346,"lon":16.613616,"is_passed":false},{"stop_id":"U1136Z1","name":"Havránkova","arrival_time":"16:22:00","departure_time":"16:22:00","lat":49.157416,"lon":16.621598,"is_passed":false},{"stop_id":"U1092Z1","name":"Dolní Heršpice","arrival_time":"16:23:00","departure_time":"16:23:00","lat":49.152293,"lon":16.621527,"is_passed":false},{"stop_id":"U1354Z1","name":"Malá","arrival_time":"16:24:00","departure_time":"16:24:00","lat":49.149326,"lon":16.621809,"is_passed":false},{"stop_id":"U1531Z1","name":"Přízřenice","arrival_time":"16:25:00","departure_time":"16:25:00","lat":49.145289,"lon":16.62011,"is_passed":false},{"stop_id":"U1530Z1","name":"Přízřenice, smyčka","arrival_time":"16:26:00","departure_time":"16:58:00","lat":49.144321,"lon":16.620834,"is_passed":false}]