[{"stop_id":"U1581Z2","name":"Areál Slatina","arrival_time":"5:33:00","departure_time":"5:33:00","lat":49.168677,"lon":16.678416,"is_passed":false},{"stop_id":"U1495Z2","name":"Pod Tuřankou","arrival_time":"5:34:00","departure_time":"5:34:00","lat":49.173265,"lon":16.674982,"is_passed":false},{"stop_id":"U1105Z2","name":"Ericha Roučky","arrival_time":"5:36:00","departure_time":"5:36:00","lat":49.175109,"lon":16.669439,"is_passed":false},{"stop_id":"U1741Z4","name":"Vlárská","arrival_time":"5:38:00","departure_time":"5:38:00","lat":49.181675,"lon":16.674379,"is_passed":false},{"stop_id":"U1757Z1","name":"Vozovna Slatina","arrival_time":"5:40:00","departure_time":"5:42:00","lat":49.183032,"lon":16.672807,"is_passed":false}]