[{"stop_id":"U1361Z1","name":"Mariánské náměstí","arrival_time":"19:03:00","departure_time":"19:03:00","lat":49.176433,"lon":16.622739,"is_passed":false},{"stop_id":"U1256Z5","name":"Komárov","arrival_time":"19:05:00","departure_time":"19:05:00","lat":49.174917,"lon":16.621279,"is_passed":false},{"stop_id":"U1308Z1","name":"Kšírova","arrival_time":"19:06:00","departure_time":"19:06:00","lat":49.17135,"lon":16.615769,"is_passed":false},{"stop_id":"U1156Z1","name":"Horní Heršpice","arrival_time":"19:07:00","departure_time":"19:07:00","lat":49.166342,"lon":16.616562,"is_passed":false},{"stop_id":"U1275Z1","name":"Košuličova","arrival_time":"19:08:00","departure_time":"19:08:00","lat":49.164685,"lon":16.610183,"is_passed":false},{"stop_id":"U1514Z3","name":"Pražákova","arrival_time":"19:09:00","departure_time":"19:09:00","lat":49.162888,"lon":16.602621,"is_passed":false},{"stop_id":"U1031Z5","name":"Bohunická","arrival_time":"19:10:00","departure_time":"19:10:00","lat":49.162871,"lon":16.599483,"is_passed":false},{"stop_id":"U1673Z1","name":"Traťová","arrival_time":"19:11:00","departure_time":"19:11:00","lat":49.163849,"lon":16.595255,"is_passed":false},{"stop_id":"U1122Z3","name":"Gruzínská","arrival_time":"19:12:00","departure_time":"19:12:00","lat":49.166188,"lon":16.585372,"is_passed":false},{"stop_id":"U1763Z2","name":"Vyhlídalova","arrival_time":"19:13:00","departure_time":"19:13:00","lat":49.165134,"lon":16.576558,"is_passed":false},{"stop_id":"U1168Z1","name":"Humenná","arrival_time":"19:15:00","departure_time":"19:15:00","lat":49.1676,"lon":16.572367,"is_passed":false},{"stop_id":"U1273Z1","name":"Kosmonautů","arrival_time":"19:16:00","departure_time":"19:16:00","lat":49.167006,"lon":16.568017,"is_passed":false},{"stop_id":"U1472Z7","name":"Osová","arrival_time":"19:17:00","departure_time":"19:17:00","lat":49.168951,"lon":16.566714,"is_passed":false},{"stop_id":"U1492Z1","name":"Pod nemocnicí","arrival_time":"19:18:00","departure_time":"19:18:00","lat":49.172412,"lon":16.569624,"is_passed":false},{"stop_id":"U1429Z4","name":"Nemocnice Bohunice","arrival_time":"19:20:00","departure_time":"19:20:00","lat":49.176125,"lon":16.567246,"is_passed":false},{"stop_id":"U1699Z1","name":"Univerzitní kampus","arrival_time":"19:21:00","departure_time":"19:21:00","lat":49.178062,"lon":16.566488,"is_passed":false},{"stop_id":"U1078Z2","name":"Čtvrtě","arrival_time":"19:23:00","departure_time":"19:23:00","lat":49.177932,"lon":16.561546,"is_passed":false},{"stop_id":"U1263Z1","name":"Koniklecová","arrival_time":"19:24:00","departure_time":"19:24:00","lat":49.176634,"lon":16.558219,"is_passed":false},{"stop_id":"U1443Z1","name":"Oblá","arrival_time":"19:25:00","departure_time":"19:25:00","lat":49.177573,"lon":16.552766,"is_passed":false},{"stop_id":"U1223Z1","name":"Kamenný vrch","arrival_time":"19:26:00","departure_time":"19:26:00","lat":49.179914,"lon":16.547756,"is_passed":false},{"stop_id":"U1209Z2","name":"Jírovcova","arrival_time":"19:30:00","departure_time":"19:30:00","lat":49.188255,"lon":16.533803,"is_passed":false},{"stop_id":"U1481Z1","name":"Pavlovská","arrival_time":"19:30:00","departure_time":"19:30:00","lat":49.189952,"lon":16.531006,"is_passed":false},{"stop_id":"U1658Z1","name":"Talichova","arrival_time":"19:31:00","departure_time":"19:31:00","lat":49.191443,"lon":16.52996,"is_passed":false},{"stop_id":"U1017Z1","name":"Bellova","arrival_time":"19:32:00","departure_time":"19:32:00","lat":49.194186,"lon":16.531513,"is_passed":false},{"stop_id":"U1248Z2","name":"Kohoutovice, hájenka","arrival_time":"19:34:00","departure_time":"19:34:00","lat":49.19656,"lon":16.530778,"is_passed":false},{"stop_id":"U1608Z2","name":"Stará dálnice","arrival_time":"19:36:00","departure_time":"19:36:00","lat":49.199858,"lon":16.516922,"is_passed":false},{"stop_id":"U1648Z2","name":"Štouračova","arrival_time":"19:38:00","departure_time":"19:38:00","lat":49.21488,"lon":16.521926,"is_passed":false},{"stop_id":"U1004Z2","name":"Adamcova","arrival_time":"19:39:00","departure_time":"19:39:00","lat":49.218427,"lon":16.519896,"is_passed":false},{"stop_id":"U1771Z2","name":"Wollmanova","arrival_time":"19:40:00","departure_time":"19:40:00","lat":49.222108,"lon":16.52284,"is_passed":false},{"stop_id":"U1326Z4","name":"Laštůvkova","arrival_time":"19:41:00","departure_time":"19:41:00","lat":49.220549,"lon":16.526237,"is_passed":false},{"stop_id":"U1752Z2","name":"Vondrákova","arrival_time":"19:42:00","departure_time":"19:42:00","lat":49.221445,"lon":16.528853,"is_passed":false},{"stop_id":"U1796Z6","name":"Zoologická zahrada","arrival_time":"19:44:00","departure_time":"20:13:00","lat":49.227675,"lon":16.531519,"is_passed":false}]