[{"stop_id":"U1472Z7","name":"Osová","arrival_time":"4:37:00","departure_time":"4:37:00","lat":49.168951,"lon":16.566714,"is_passed":false},{"stop_id":"U1492Z1","name":"Pod nemocnicí","arrival_time":"4:38:00","departure_time":"4:38:00","lat":49.172412,"lon":16.569624,"is_passed":false},{"stop_id":"U1429Z4","name":"Nemocnice Bohunice","arrival_time":"4:40:00","departure_time":"4:40:00","lat":49.176125,"lon":16.567246,"is_passed":false},{"stop_id":"U1699Z1","name":"Univerzitní kampus","arrival_time":"4:41:00","departure_time":"4:41:00","lat":49.178062,"lon":16.566488,"is_passed":false},{"stop_id":"U1078Z2","name":"Čtvrtě","arrival_time":"4:43:00","departure_time":"4:43:00","lat":49.177932,"lon":16.561546,"is_passed":false},{"stop_id":"U1263Z1","name":"Koniklecová","arrival_time":"4:44:00","departure_time":"4:44:00","lat":49.176634,"lon":16.558219,"is_passed":false},{"stop_id":"U1443Z1","name":"Oblá","arrival_time":"4:45:00","departure_time":"4:45:00","lat":49.177573,"lon":16.552766,"is_passed":false},{"stop_id":"U1223Z1","name":"Kamenný vrch","arrival_time":"4:46:00","departure_time":"4:46:00","lat":49.179914,"lon":16.547756,"is_passed":false},{"stop_id":"U1209Z2","name":"Jírovcova","arrival_time":"4:50:00","departure_time":"4:50:00","lat":49.188255,"lon":16.533803,"is_passed":false},{"stop_id":"U1481Z1","name":"Pavlovská","arrival_time":"4:50:00","departure_time":"4:50:00","lat":49.189952,"lon":16.531006,"is_passed":false},{"stop_id":"U1658Z1","name":"Talichova","arrival_time":"4:51:00","departure_time":"4:51:00","lat":49.191443,"lon":16.52996,"is_passed":false},{"stop_id":"U1017Z1","name":"Bellova","arrival_time":"4:52:00","departure_time":"4:52:00","lat":49.194186,"lon":16.531513,"is_passed":false},{"stop_id":"U1248Z2","name":"Kohoutovice, hájenka","arrival_time":"4:54:00","departure_time":"4:54:00","lat":49.19656,"lon":16.530778,"is_passed":false},{"stop_id":"U1608Z2","name":"Stará dálnice","arrival_time":"4:56:00","departure_time":"4:56:00","lat":49.199858,"lon":16.516922,"is_passed":false},{"stop_id":"U1648Z2","name":"Štouračova","arrival_time":"4:58:00","departure_time":"4:58:00","lat":49.21488,"lon":16.521926,"is_passed":false},{"stop_id":"U1004Z2","name":"Adamcova","arrival_time":"4:59:00","departure_time":"4:59:00","lat":49.218427,"lon":16.519896,"is_passed":false},{"stop_id":"U1771Z2","name":"Wollmanova","arrival_time":"5:00:00","departure_time":"5:00:00","lat":49.222108,"lon":16.52284,"is_passed":false},{"stop_id":"U1326Z4","name":"Laštůvkova","arrival_time":"5:01:00","departure_time":"5:01:00","lat":49.220549,"lon":16.526237,"is_passed":false},{"stop_id":"U1752Z2","name":"Vondrákova","arrival_time":"5:02:00","departure_time":"5:02:00","lat":49.221445,"lon":16.528853,"is_passed":false},{"stop_id":"U1796Z6","name":"Zoologická zahrada","arrival_time":"5:04:00","departure_time":"5:05:00","lat":49.227675,"lon":16.531519,"is_passed":false}]