[{"stop_id":"U1384Z2","name":"Mifkova","arrival_time":"22:02:00","departure_time":"22:02:00","lat":49.207315,"lon":16.692496,"is_passed":false},{"stop_id":"U1208Z2","name":"Jírova","arrival_time":"22:03:00","departure_time":"22:03:00","lat":49.209141,"lon":16.686376,"is_passed":false},{"stop_id":"U1277Z2","name":"Kotlanova","arrival_time":"22:04:00","departure_time":"22:04:00","lat":49.209763,"lon":16.681048,"is_passed":false},{"stop_id":"U1368Z2","name":"Masarova","arrival_time":"22:05:00","departure_time":"22:05:00","lat":49.206997,"lon":16.677557,"is_passed":false},{"stop_id":"U1438Z2","name":"Novolíšeňská","arrival_time":"22:07:00","departure_time":"22:11:00","lat":49.201911,"lon":16.669965,"is_passed":false}]