[{"stop_id":"U1438Z1","name":"Novolíšeňská","arrival_time":"22:11:00","departure_time":"22:11:00","lat":49.202014,"lon":16.670642,"is_passed":false},{"stop_id":"U1368Z1","name":"Masarova","arrival_time":"22:13:00","departure_time":"22:13:00","lat":49.206997,"lon":16.677557,"is_passed":false},{"stop_id":"U1277Z1","name":"Kotlanova","arrival_time":"22:14:00","departure_time":"22:14:00","lat":49.209949,"lon":16.681681,"is_passed":false},{"stop_id":"U1208Z1","name":"Jírova","arrival_time":"22:15:00","departure_time":"22:15:00","lat":49.208552,"lon":16.686687,"is_passed":false},{"stop_id":"U1384Z1","name":"Mifkova","arrival_time":"22:16:00","departure_time":"22:23:00","lat":49.207315,"lon":16.692496,"is_passed":false}]