[{"stop_id":"U1248Z1","name":"Kohoutovice, hájenka","arrival_time":"6:54:00","departure_time":"6:54:00","lat":49.19638,"lon":16.531386,"is_passed":false},{"stop_id":"U1806Z2","name":"Žebětínská","arrival_time":"6:55:00","departure_time":"6:55:00","lat":49.195249,"lon":16.536145,"is_passed":false},{"stop_id":"U1767Z2","name":"Výletní","arrival_time":"6:56:00","departure_time":"6:56:00","lat":49.191443,"lon":16.539596,"is_passed":false},{"stop_id":"U1409Z2","name":"Myslivní","arrival_time":"6:56:00","departure_time":"6:56:00","lat":49.190415,"lon":16.543578,"is_passed":false},{"stop_id":"U1636Z2","name":"Šárka","arrival_time":"6:57:00","departure_time":"6:57:00","lat":49.19131,"lon":16.545929,"is_passed":false},{"stop_id":"U1003Z1","name":"Antonína Procházky","arrival_time":"6:59:00","departure_time":"6:59:00","lat":49.193559,"lon":16.561795,"is_passed":false},{"stop_id":"U1007Z4","name":"Anthropos","arrival_time":"7:00:00","departure_time":"7:00:00","lat":49.193356,"lon":16.56677,"is_passed":false},{"stop_id":"U1487Z6","name":"Pisárky","arrival_time":"7:01:00","departure_time":"7:01:00","lat":49.193537,"lon":16.570797,"is_passed":false},{"stop_id":"U1343Z4","name":"ARENA BRNO","arrival_time":"7:02:00","departure_time":"7:02:00","lat":49.191574,"lon":16.576353,"is_passed":false},{"stop_id":"U1768Z4","name":"Výstaviště - hlavní vstup","arrival_time":"7:04:00","departure_time":"7:04:00","lat":49.1886,"lon":16.589153,"is_passed":false},{"stop_id":"U1378Z7","name":"Mendlovo náměstí","arrival_time":"7:07:00","departure_time":"7:09:00","lat":49.189919,"lon":16.593687,"is_passed":false}]