[{"stop_id":"U1438Z1","name":"Novolíšeňská","arrival_time":"22:26:00","departure_time":"22:26:00","lat":49.202014,"lon":16.670642,"is_passed":false},{"stop_id":"U1368Z1","name":"Masarova","arrival_time":"22:28:00","departure_time":"22:28:00","lat":49.206997,"lon":16.677557,"is_passed":false},{"stop_id":"U1277Z1","name":"Kotlanova","arrival_time":"22:29:00","departure_time":"22:29:00","lat":49.209949,"lon":16.681681,"is_passed":false},{"stop_id":"U1208Z1","name":"Jírova","arrival_time":"22:30:00","departure_time":"22:30:00","lat":49.208552,"lon":16.686687,"is_passed":false},{"stop_id":"U1384Z1","name":"Mifkova","arrival_time":"22:31:00","departure_time":"22:38:00","lat":49.207315,"lon":16.692496,"is_passed":false}]