{"425":[{"stop_id":"U12736Z51","name":"Letovice, železniční stanice","arrival_time":"7:30:00","departure_time":"7:30:00","lat":49.555973,"lon":16.570906,"is_passed":false},{"stop_id":"U12676Z51","name":"Skalice nad Svitavou, žel.st.","arrival_time":"7:37:00","departure_time":"7:38:00","lat":49.480123,"lon":16.609726,"is_passed":false},{"stop_id":"U22302Z2","name":"Blansko město","arrival_time":"7:47:00","departure_time":"7:47:00","lat":49.360996,"lon":16.639464,"is_passed":false},{"stop_id":"U12342Z29","name":"Blansko, aut. st.","arrival_time":"7:49:00","departure_time":"7:50:00","lat":49.352753,"lon":16.646848,"is_passed":false},{"stop_id":"U1809Z11","name":"Židenice, nádraží","arrival_time":"8:05:00","departure_time":"8:05:00","lat":49.204282,"lon":16.636042,"is_passed":false},{"stop_id":"U1146Z98","name":"Hlavní nádraží","arrival_time":"8:10:00","departure_time":"13:49:00","lat":49.19035,"lon":16.612342,"is_passed":false}],"4250":[{"stop_id":"U14221Z2","name":"Veverské Knínice, horní konec","arrival_time":"5:37:00","departure_time":"5:37:00","lat":49.237818,"lon":16.396128,"is_passed":false},{"stop_id":"U14220Z2","name":"Veverské Knínice","arrival_time":"5:39:00","departure_time":"5:39:00","lat":49.236615,"lon":16.403696,"is_passed":false},{"stop_id":"U14223Z2","name":"Veverské Knínice, ZOD Veveří","arrival_time":"5:40:00","departure_time":"5:40:00","lat":49.231893,"lon":16.409067,"is_passed":false},{"stop_id":"U14222Z2","name":"Veverské Knínice, rozcestí Pohádka Máje","arrival_time":"5:41:00","departure_time":"5:41:00","lat":49.227173,"lon":16.418305,"is_passed":false},{"stop_id":"U14216Z2","name":"Ostrovačice, Veveří","arrival_time":"5:44:00","departure_time":"5:44:00","lat":49.213744,"lon":16.408162,"is_passed":false},{"stop_id":"U14217Z2","name":"Říčany","arrival_time":"5:47:00","departure_time":"5:48:00","lat":49.214683,"lon":16.395327,"is_passed":false},{"stop_id":"U14244Z2","name":"Ostrovačice, Říčanská","arrival_time":"5:49:00","departure_time":"5:49:00","lat":49.212743,"lon":16.406495,"is_passed":false},{"stop_id":"U14215Z2","name":"Ostrovačice, náměstí Viléma Mrštíka","arrival_time":"5:50:00","departure_time":"5:50:00","lat":49.210782,"lon":16.409187,"is_passed":false},{"stop_id":"U14131Z2","name":"Ostrovačice, hájenka Na Šípu","arrival_time":"5:54:00","departure_time":"5:54:00","lat":49.206445,"lon":16.438208,"is_passed":false},{"stop_id":"U14123Z2","name":"Ostrovačice, Automotodrom","arrival_time":"5:55:00","departure_time":"5:55:00","lat":49.201175,"lon":16.44516,"is_passed":false},{"stop_id":"U14112Z2","name":"Omice, Kývalka, spojovací","arrival_time":"5:57:00","departure_time":"5:57:00","lat":49.190299,"lon":16.456016,"is_passed":false},{"stop_id":"U14133Z2","name":"Popůvky, Vintrovna","arrival_time":"6:00:00","departure_time":"6:00:00","lat":49.181645,"lon":16.49075,"is_passed":false},{"stop_id":"U14160Z2","name":"Troubsko, Veselka","arrival_time":"6:02:00","departure_time":"6:02:00","lat":49.176834,"lon":16.503674,"is_passed":false},{"stop_id":"U14107Z2","name":"Troubsko, Kovopodnik","arrival_time":"6:03:00","departure_time":"6:03:00","lat":49.175782,"lon":16.511673,"is_passed":false},{"stop_id":"U1672Z2","name":"Tranzitní plynovod","arrival_time":"6:04:00","departure_time":"6:04:00","lat":49.174004,"lon":16.523133,"is_passed":false},{"stop_id":"U1516Z1","name":"Pražská","arrival_time":"6:05:00","departure_time":"6:05:00","lat":49.173478,"lon":16.531543,"is_passed":false},{"stop_id":"U1568Z2","name":"Skalní","arrival_time":"6:06:00","departure_time":"6:06:00","lat":49.174201,"lon":16.537903,"is_passed":false},{"stop_id":"U1202Z2","name":"Jemelkova","arrival_time":"6:07:00","departure_time":"6:07:00","lat":49.173163,"lon":16.54872,"is_passed":false},{"stop_id":"U1632Z2","name":"Svážná","arrival_time":"6:07:00","departure_time":"6:07:00","lat":49.173409,"lon":16.553508,"is_passed":false},{"stop_id":"U1429Z6","name":"Nemocnice Bohunice","arrival_time":"6:10:00","departure_time":"6:20:00","lat":49.175872,"lon":16.566969,"is_passed":false}],"4251":[{"stop_id":"U1429Z6","name":"Nemocnice Bohunice","arrival_time":"6:20:00","departure_time":"6:20:00","lat":49.175872,"lon":16.566969,"is_passed":false},{"stop_id":"U1632Z1","name":"Svážná","arrival_time":"6:22:00","departure_time":"6:22:00","lat":49.173544,"lon":16.553381,"is_passed":false},{"stop_id":"U1202Z1","name":"Jemelkova","arrival_time":"6:22:00","departure_time":"6:22:00","lat":49.173333,"lon":16.548692,"is_passed":false},{"stop_id":"U1568Z1","name":"Skalní","arrival_time":"6:23:00","departure_time":"6:23:00","lat":49.174278,"lon":16.534362,"is_passed":false},{"stop_id":"U1161Z3","name":"Hoštická","arrival_time":"6:24:00","departure_time":"6:24:00","lat":49.173743,"lon":16.529523,"is_passed":false},{"stop_id":"U1672Z1","name":"Tranzitní plynovod","arrival_time":"6:25:00","departure_time":"6:25:00","lat":49.174213,"lon":16.522313,"is_passed":false},{"stop_id":"U14107Z1","name":"Troubsko, Kovopodnik","arrival_time":"6:26:00","departure_time":"6:26:00","lat":49.175866,"lon":16.511544,"is_passed":false},{"stop_id":"U14160Z1","name":"Troubsko, Veselka","arrival_time":"6:27:00","departure_time":"6:27:00","lat":49.176905,"lon":16.503284,"is_passed":false},{"stop_id":"U14133Z1","name":"Popůvky, Vintrovna","arrival_time":"6:28:00","departure_time":"6:28:00","lat":49.181813,"lon":16.490518,"is_passed":false},{"stop_id":"U14111Z1","name":"Omice, Kývalka","arrival_time":"6:31:00","departure_time":"6:31:00","lat":49.190139,"lon":16.451061,"is_passed":false},{"stop_id":"U14215Z1","name":"Ostrovačice, náměstí Viléma Mrštíka","arrival_time":"6:35:00","departure_time":"6:35:00","lat":49.210578,"lon":16.40984,"is_passed":false},{"stop_id":"U14217Z51","name":"Říčany","arrival_time":"6:37:00","departure_time":"6:37:00","lat":49.21488,"lon":16.394307,"is_passed":false}],"4252":[{"stop_id":"U14217Z2","name":"Říčany","arrival_time":"6:38:00","departure_time":"6:38:00","lat":49.214683,"lon":16.395327,"is_passed":false},{"stop_id":"U14244Z2","name":"Ostrovačice, Říčanská","arrival_time":"6:39:00","departure_time":"6:39:00","lat":49.212743,"lon":16.406495,"is_passed":false},{"stop_id":"U14215Z2","name":"Ostrovačice, náměstí Viléma Mrštíka","arrival_time":"6:40:00","departure_time":"6:40:00","lat":49.210782,"lon":16.409187,"is_passed":false},{"stop_id":"U1429Z6","name":"Nemocnice Bohunice","arrival_time":"6:53:00","departure_time":"7:42:00","lat":49.175872,"lon":16.566969,"is_passed":false}],"4253":[{"stop_id":"U1429Z6","name":"Nemocnice Bohunice","arrival_time":"7:42:00","departure_time":"7:42:00","lat":49.175872,"lon":16.566969,"is_passed":false},{"stop_id":"U14215Z1","name":"Ostrovačice, náměstí Viléma Mrštíka","arrival_time":"7:55:00","departure_time":"7:55:00","lat":49.210578,"lon":16.40984,"is_passed":false},{"stop_id":"U14217Z1","name":"Říčany","arrival_time":"7:58:00","departure_time":"7:58:00","lat":49.21488,"lon":16.394307,"is_passed":false},{"stop_id":"U14219Z1","name":"Říčky","arrival_time":"8:02:00","departure_time":"8:02:00","lat":49.23318,"lon":16.356038,"is_passed":false},{"stop_id":"U14303Z1","name":"Domašov, Nový konec","arrival_time":"8:04:00","departure_time":"8:04:00","lat":49.24051,"lon":16.347567,"is_passed":false},{"stop_id":"U14301Z1","name":"Domašov","arrival_time":"8:06:00","departure_time":"8:06:00","lat":49.245377,"lon":16.343687,"is_passed":false},{"stop_id":"U14302Z1","name":"Domašov, cestmistrovství","arrival_time":"8:08:00","departure_time":"8:08:00","lat":49.25722,"lon":16.312128,"is_passed":false},{"stop_id":"U14311Z1","name":"Zálesná Zhoř, rozcestí","arrival_time":"8:09:00","departure_time":"8:09:00","lat":49.262033,"lon":16.301082,"is_passed":false},{"stop_id":"U14307Z1","name":"Lesní Hluboké, motel 9 křížů","arrival_time":"8:10:00","departure_time":"8:10:00","lat":49.267502,"lon":16.296427,"is_passed":false},{"stop_id":"U14404Z1","name":"Přibyslavice, motorest 9 křížů","arrival_time":"8:11:00","departure_time":"8:11:00","lat":49.271665,"lon":16.280943,"is_passed":false},{"stop_id":"U14403Z1","name":"Přibyslavice","arrival_time":"8:13:00","departure_time":"8:13:00","lat":49.27874,"lon":16.259757,"is_passed":false},{"stop_id":"U14410Z1","name":"Velká Bíteš, cihelna","arrival_time":"8:14:00","departure_time":"8:14:00","lat":49.28448,"lon":16.241968,"is_passed":false},{"stop_id":"U14412Z10","name":"Velká Bíteš, náměstí","arrival_time":"8:17:00","departure_time":"9:34:00","lat":49.288278,"lon":16.227354,"is_passed":false}],"4254":[{"stop_id":"U14412Z2","name":"Velká Bíteš, náměstí","arrival_time":"9:34:00","departure_time":"9:34:00","lat":49.288453,"lon":16.227188,"is_passed":false},{"stop_id":"U14410Z2","name":"Velká Bíteš, cihelna","arrival_time":"9:36:00","departure_time":"9:36:00","lat":49.284448,"lon":16.241852,"is_passed":false},{"stop_id":"U14403Z2","name":"Přibyslavice","arrival_time":"9:38:00","departure_time":"9:38:00","lat":49.278468,"lon":16.260348,"is_passed":false},{"stop_id":"U14404Z2","name":"Přibyslavice, motorest 9 křížů","arrival_time":"9:40:00","departure_time":"9:40:00","lat":49.271475,"lon":16.281373,"is_passed":false},{"stop_id":"U14306Z51","name":"Lesní Hluboké","arrival_time":"9:43:00","departure_time":"9:43:00","lat":49.268358,"lon":16.310195,"is_passed":false},{"stop_id":"U14307Z2","name":"Lesní Hluboké, motel 9 křížů","arrival_time":"9:45:00","departure_time":"9:45:00","lat":49.265802,"lon":16.296657,"is_passed":false},{"stop_id":"U14311Z2","name":"Zálesná Zhoř, rozcestí","arrival_time":"9:46:00","departure_time":"9:46:00","lat":49.261788,"lon":16.301592,"is_passed":false},{"stop_id":"U14302Z2","name":"Domašov, cestmistrovství","arrival_time":"9:47:00","departure_time":"9:47:00","lat":49.257245,"lon":16.311853,"is_passed":false},{"stop_id":"U14301Z2","name":"Domašov","arrival_time":"9:50:00","departure_time":"9:50:00","lat":49.245362,"lon":16.343588,"is_passed":false},{"stop_id":"U14303Z2","name":"Domašov, Nový konec","arrival_time":"9:51:00","departure_time":"9:51:00","lat":49.240153,"lon":16.347798,"is_passed":false},{"stop_id":"U14219Z2","name":"Říčky","arrival_time":"9:53:00","departure_time":"9:53:00","lat":49.231828,"lon":16.357412,"is_passed":false},{"stop_id":"U14217Z2","name":"Říčany","arrival_time":"9:58:00","departure_time":"9:58:00","lat":49.214683,"lon":16.395327,"is_passed":false},{"stop_id":"U14244Z2","name":"Ostrovačice, Říčanská","arrival_time":"9:59:00","departure_time":"9:59:00","lat":49.212743,"lon":16.406495,"is_passed":false},{"stop_id":"U14215Z2","name":"Ostrovačice, náměstí Viléma Mrštíka","arrival_time":"10:00:00","departure_time":"10:00:00","lat":49.210782,"lon":16.409187,"is_passed":false},{"stop_id":"U1429Z6","name":"Nemocnice Bohunice","arrival_time":"10:13:00","departure_time":"10:13:00","lat":49.175872,"lon":16.566969,"is_passed":false}],"4255":[{"stop_id":"U1429Z6","name":"Nemocnice Bohunice","arrival_time":"11:37:00","departure_time":"11:37:00","lat":49.175872,"lon":16.566969,"is_passed":false},{"stop_id":"U1632Z1","name":"Svážná","arrival_time":"11:39:00","departure_time":"11:39:00","lat":49.173544,"lon":16.553381,"is_passed":false},{"stop_id":"U1202Z1","name":"Jemelkova","arrival_time":"11:39:00","departure_time":"11:39:00","lat":49.173333,"lon":16.548692,"is_passed":false},{"stop_id":"U1568Z1","name":"Skalní","arrival_time":"11:41:00","departure_time":"11:41:00","lat":49.174278,"lon":16.534362,"is_passed":false},{"stop_id":"U1161Z3","name":"Hoštická","arrival_time":"11:42:00","departure_time":"11:42:00","lat":49.173743,"lon":16.529523,"is_passed":false},{"stop_id":"U1672Z1","name":"Tranzitní plynovod","arrival_time":"11:43:00","departure_time":"11:43:00","lat":49.174213,"lon":16.522313,"is_passed":false},{"stop_id":"U14107Z1","name":"Troubsko, Kovopodnik","arrival_time":"11:44:00","departure_time":"11:44:00","lat":49.175866,"lon":16.511544,"is_passed":false},{"stop_id":"U14160Z1","name":"Troubsko, Veselka","arrival_time":"11:45:00","departure_time":"11:45:00","lat":49.176905,"lon":16.503284,"is_passed":false},{"stop_id":"U14133Z1","name":"Popůvky, Vintrovna","arrival_time":"11:47:00","departure_time":"11:47:00","lat":49.181813,"lon":16.490518,"is_passed":false},{"stop_id":"U14112Z1","name":"Omice, Kývalka, spojovací","arrival_time":"11:50:00","departure_time":"11:50:00","lat":49.19051,"lon":16.456047,"is_passed":false},{"stop_id":"U14123Z1","name":"Ostrovačice, Automotodrom","arrival_time":"11:52:00","departure_time":"11:52:00","lat":49.201003,"lon":16.445768,"is_passed":false},{"stop_id":"U14131Z1","name":"Ostrovačice, hájenka Na Šípu","arrival_time":"11:53:00","departure_time":"11:53:00","lat":49.20637,"lon":16.438248,"is_passed":false},{"stop_id":"U14215Z1","name":"Ostrovačice, náměstí Viléma Mrštíka","arrival_time":"11:57:00","departure_time":"11:57:00","lat":49.210578,"lon":16.40984,"is_passed":false},{"stop_id":"U14217Z52","name":"Říčany","arrival_time":"12:00:00","departure_time":"12:00:00","lat":49.214683,"lon":16.395327,"is_passed":false},{"stop_id":"U14244Z2","name":"Ostrovačice, Říčanská","arrival_time":"12:01:00","departure_time":"12:01:00","lat":49.212743,"lon":16.406495,"is_passed":false},{"stop_id":"U14222Z1","name":"Veverské Knínice, rozcestí Pohádka Máje","arrival_time":"12:03:00","departure_time":"12:03:00","lat":49.227638,"lon":16.418075,"is_passed":false},{"stop_id":"U14223Z1","name":"Veverské Knínice, ZOD Veveří","arrival_time":"12:04:00","departure_time":"12:04:00","lat":49.232023,"lon":16.408948,"is_passed":false},{"stop_id":"U14220Z1","name":"Veverské Knínice","arrival_time":"12:06:00","departure_time":"12:06:00","lat":49.236644,"lon":16.40382,"is_passed":false},{"stop_id":"U14221Z1","name":"Veverské Knínice, horní konec","arrival_time":"12:08:00","departure_time":"13:17:00","lat":49.237818,"lon":16.396128,"is_passed":false}],"4256":[{"stop_id":"U14221Z2","name":"Veverské Knínice, horní konec","arrival_time":"13:17:00","departure_time":"13:17:00","lat":49.237818,"lon":16.396128,"is_passed":false},{"stop_id":"U14220Z2","name":"Veverské Knínice","arrival_time":"13:19:00","departure_time":"13:19:00","lat":49.236615,"lon":16.403696,"is_passed":false},{"stop_id":"U14223Z2","name":"Veverské Knínice, ZOD Veveří","arrival_time":"13:20:00","departure_time":"13:20:00","lat":49.231893,"lon":16.409067,"is_passed":false},{"stop_id":"U14222Z2","name":"Veverské Knínice, rozcestí Pohádka Máje","arrival_time":"13:21:00","departure_time":"13:21:00","lat":49.227173,"lon":16.418305,"is_passed":false},{"stop_id":"U14216Z2","name":"Ostrovačice, Veveří","arrival_time":"13:24:00","departure_time":"13:24:00","lat":49.213744,"lon":16.408162,"is_passed":false},{"stop_id":"U14217Z2","name":"Říčany","arrival_time":"13:27:00","departure_time":"13:28:00","lat":49.214683,"lon":16.395327,"is_passed":false},{"stop_id":"U14244Z2","name":"Ostrovačice, Říčanská","arrival_time":"13:29:00","departure_time":"13:29:00","lat":49.212743,"lon":16.406495,"is_passed":false},{"stop_id":"U14215Z2","name":"Ostrovačice, náměstí Viléma Mrštíka","arrival_time":"13:30:00","departure_time":"13:30:00","lat":49.210782,"lon":16.409187,"is_passed":false},{"stop_id":"U14131Z2","name":"Ostrovačice, hájenka Na Šípu","arrival_time":"13:34:00","departure_time":"13:34:00","lat":49.206445,"lon":16.438208,"is_passed":false},{"stop_id":"U14123Z2","name":"Ostrovačice, Automotodrom","arrival_time":"13:35:00","departure_time":"13:35:00","lat":49.201175,"lon":16.44516,"is_passed":false},{"stop_id":"U14112Z2","name":"Omice, Kývalka, spojovací","arrival_time":"13:37:00","departure_time":"13:37:00","lat":49.190299,"lon":16.456016,"is_passed":false},{"stop_id":"U14133Z2","name":"Popůvky, Vintrovna","arrival_time":"13:41:00","departure_time":"13:41:00","lat":49.181645,"lon":16.49075,"is_passed":false},{"stop_id":"U14160Z2","name":"Troubsko, Veselka","arrival_time":"13:43:00","departure_time":"13:43:00","lat":49.176834,"lon":16.503674,"is_passed":false},{"stop_id":"U14107Z2","name":"Troubsko, Kovopodnik","arrival_time":"13:44:00","departure_time":"13:44:00","lat":49.175782,"lon":16.511673,"is_passed":false},{"stop_id":"U1672Z2","name":"Tranzitní plynovod","arrival_time":"13:45:00","departure_time":"13:45:00","lat":49.174004,"lon":16.523133,"is_passed":false},{"stop_id":"U1516Z1","name":"Pražská","arrival_time":"13:46:00","departure_time":"13:46:00","lat":49.173478,"lon":16.531543,"is_passed":false},{"stop_id":"U1568Z2","name":"Skalní","arrival_time":"13:47:00","departure_time":"13:47:00","lat":49.174201,"lon":16.537903,"is_passed":false},{"stop_id":"U1202Z2","name":"Jemelkova","arrival_time":"13:48:00","departure_time":"13:48:00","lat":49.173163,"lon":16.54872,"is_passed":false},{"stop_id":"U1632Z2","name":"Svážná","arrival_time":"13:49:00","departure_time":"13:49:00","lat":49.173409,"lon":16.553508,"is_passed":false},{"stop_id":"U1429Z6","name":"Nemocnice Bohunice","arrival_time":"13:52:00","departure_time":"14:32:00","lat":49.175872,"lon":16.566969,"is_passed":false}],"4257":[{"stop_id":"U1429Z6","name":"Nemocnice Bohunice","arrival_time":"14:32:00","departure_time":"14:32:00","lat":49.175872,"lon":16.566969,"is_passed":false},{"stop_id":"U1632Z1","name":"Svážná","arrival_time":"14:34:00","departure_time":"14:34:00","lat":49.173544,"lon":16.553381,"is_passed":false},{"stop_id":"U1202Z1","name":"Jemelkova","arrival_time":"14:34:00","departure_time":"14:34:00","lat":49.173333,"lon":16.548692,"is_passed":false},{"stop_id":"U1568Z1","name":"Skalní","arrival_time":"14:36:00","departure_time":"14:36:00","lat":49.174278,"lon":16.534362,"is_passed":false},{"stop_id":"U1161Z3","name":"Hoštická","arrival_time":"14:37:00","departure_time":"14:37:00","lat":49.173743,"lon":16.529523,"is_passed":false},{"stop_id":"U1672Z1","name":"Tranzitní plynovod","arrival_time":"14:38:00","departure_time":"14:38:00","lat":49.174213,"lon":16.522313,"is_passed":false},{"stop_id":"U14107Z1","name":"Troubsko, Kovopodnik","arrival_time":"14:39:00","departure_time":"14:39:00","lat":49.175866,"lon":16.511544,"is_passed":false},{"stop_id":"U14160Z1","name":"Troubsko, Veselka","arrival_time":"14:40:00","departure_time":"14:40:00","lat":49.176905,"lon":16.503284,"is_passed":false},{"stop_id":"U14133Z1","name":"Popůvky, Vintrovna","arrival_time":"14:42:00","departure_time":"14:42:00","lat":49.181813,"lon":16.490518,"is_passed":false},{"stop_id":"U14112Z1","name":"Omice, Kývalka, spojovací","arrival_time":"14:45:00","departure_time":"14:45:00","lat":49.19051,"lon":16.456047,"is_passed":false},{"stop_id":"U14123Z1","name":"Ostrovačice, Automotodrom","arrival_time":"14:47:00","departure_time":"14:47:00","lat":49.201003,"lon":16.445768,"is_passed":false},{"stop_id":"U14131Z1","name":"Ostrovačice, hájenka Na Šípu","arrival_time":"14:48:00","departure_time":"14:48:00","lat":49.20637,"lon":16.438248,"is_passed":false},{"stop_id":"U14215Z1","name":"Ostrovačice, náměstí Viléma Mrštíka","arrival_time":"14:52:00","departure_time":"14:52:00","lat":49.210578,"lon":16.40984,"is_passed":false},{"stop_id":"U14217Z51","name":"Říčany","arrival_time":"14:55:00","departure_time":"14:58:00","lat":49.21488,"lon":16.394307,"is_passed":false}],"4258":[{"stop_id":"U14217Z2","name":"Říčany","arrival_time":"14:58:00","departure_time":"14:58:00","lat":49.214683,"lon":16.395327,"is_passed":false},{"stop_id":"U14244Z2","name":"Ostrovačice, Říčanská","arrival_time":"14:59:00","departure_time":"14:59:00","lat":49.212743,"lon":16.406495,"is_passed":false},{"stop_id":"U14215Z2","name":"Ostrovačice, náměstí Viléma Mrštíka","arrival_time":"15:00:00","departure_time":"15:00:00","lat":49.210782,"lon":16.409187,"is_passed":false},{"stop_id":"U14111Z2","name":"Omice, Kývalka","arrival_time":"15:05:00","departure_time":"15:05:00","lat":49.189889,"lon":16.452549,"is_passed":false},{"stop_id":"U14133Z2","name":"Popůvky, Vintrovna","arrival_time":"15:08:00","departure_time":"15:08:00","lat":49.181645,"lon":16.49075,"is_passed":false},{"stop_id":"U14160Z2","name":"Troubsko, Veselka","arrival_time":"15:10:00","departure_time":"15:10:00","lat":49.176834,"lon":16.503674,"is_passed":false},{"stop_id":"U14107Z2","name":"Troubsko, Kovopodnik","arrival_time":"15:11:00","departure_time":"15:11:00","lat":49.175782,"lon":16.511673,"is_passed":false},{"stop_id":"U1672Z2","name":"Tranzitní plynovod","arrival_time":"15:12:00","departure_time":"15:12:00","lat":49.174004,"lon":16.523133,"is_passed":false},{"stop_id":"U1516Z1","name":"Pražská","arrival_time":"15:13:00","departure_time":"15:13:00","lat":49.173478,"lon":16.531543,"is_passed":false},{"stop_id":"U1568Z2","name":"Skalní","arrival_time":"15:14:00","departure_time":"15:14:00","lat":49.174201,"lon":16.537903,"is_passed":false},{"stop_id":"U1202Z2","name":"Jemelkova","arrival_time":"15:15:00","departure_time":"15:15:00","lat":49.173163,"lon":16.54872,"is_passed":false},{"stop_id":"U1632Z2","name":"Svážná","arrival_time":"15:16:00","departure_time":"15:16:00","lat":49.173409,"lon":16.553508,"is_passed":false},{"stop_id":"U1429Z6","name":"Nemocnice Bohunice","arrival_time":"15:19:00","departure_time":"15:19:00","lat":49.175872,"lon":16.566969,"is_passed":false}],"4259":[{"stop_id":"U1429Z6","name":"Nemocnice Bohunice","arrival_time":"15:42:00","departure_time":"15:42:00","lat":49.175872,"lon":16.566969,"is_passed":false},{"stop_id":"U14215Z1","name":"Ostrovačice, náměstí Viléma Mrštíka","arrival_time":"15:55:00","departure_time":"15:55:00","lat":49.210578,"lon":16.40984,"is_passed":false},{"stop_id":"U14217Z1","name":"Říčany","arrival_time":"15:58:00","departure_time":"15:58:00","lat":49.21488,"lon":16.394307,"is_passed":false},{"stop_id":"U14219Z1","name":"Říčky","arrival_time":"16:02:00","departure_time":"16:02:00","lat":49.23318,"lon":16.356038,"is_passed":false},{"stop_id":"U14303Z1","name":"Domašov, Nový konec","arrival_time":"16:04:00","departure_time":"16:04:00","lat":49.24051,"lon":16.347567,"is_passed":false},{"stop_id":"U14301Z1","name":"Domašov","arrival_time":"16:06:00","departure_time":"16:06:00","lat":49.245377,"lon":16.343687,"is_passed":false},{"stop_id":"U14302Z1","name":"Domašov, cestmistrovství","arrival_time":"16:08:00","departure_time":"16:08:00","lat":49.25722,"lon":16.312128,"is_passed":false},{"stop_id":"U14311Z1","name":"Zálesná Zhoř, rozcestí","arrival_time":"16:09:00","departure_time":"16:09:00","lat":49.262033,"lon":16.301082,"is_passed":false},{"stop_id":"U14306Z1","name":"Lesní Hluboké","arrival_time":"16:12:00","departure_time":"16:12:00","lat":49.268358,"lon":16.310195,"is_passed":false},{"stop_id":"U14307Z1","name":"Lesní Hluboké, motel 9 křížů","arrival_time":"16:14:00","departure_time":"16:14:00","lat":49.267502,"lon":16.296427,"is_passed":false},{"stop_id":"U14404Z1","name":"Přibyslavice, motorest 9 křížů","arrival_time":"16:15:00","departure_time":"16:15:00","lat":49.271665,"lon":16.280943,"is_passed":false},{"stop_id":"U14403Z1","name":"Přibyslavice","arrival_time":"16:17:00","departure_time":"16:17:00","lat":49.27874,"lon":16.259757,"is_passed":false},{"stop_id":"U14410Z1","name":"Velká Bíteš, cihelna","arrival_time":"16:18:00","departure_time":"16:18:00","lat":49.28448,"lon":16.241968,"is_passed":false},{"stop_id":"U14412Z10","name":"Velká Bíteš, náměstí","arrival_time":"16:21:00","departure_time":"16:34:00","lat":49.288278,"lon":16.227354,"is_passed":false}],"42500":[{"stop_id":"U1071Z2","name":"Červený písek","arrival_time":"21:10:00","departure_time":"21:10:00","lat":49.220452,"lon":16.657444,"is_passed":false},{"stop_id":"U1503Z3","name":"Podzimní","arrival_time":"21:10:00","departure_time":"21:10:00","lat":49.22165,"lon":16.652917,"is_passed":false},{"stop_id":"U1197Z3","name":"Jarní ČD","arrival_time":"21:11:00","departure_time":"21:11:00","lat":49.22026,"lon":16.652902,"is_passed":false},{"stop_id":"U1808Z2","name":"Železniční stavitelství","arrival_time":"21:12:00","departure_time":"21:12:00","lat":49.216798,"lon":16.654101,"is_passed":false},{"stop_id":"U1791Z1","name":"Zimní I","arrival_time":"21:13:00","departure_time":"21:13:00","lat":49.213186,"lon":16.658794,"is_passed":false},{"stop_id":"U1792Z1","name":"Zimní II","arrival_time":"21:14:00","departure_time":"21:14:00","lat":49.213409,"lon":16.655937,"is_passed":false},{"stop_id":"U1083Z2","name":"Depo ČD","arrival_time":"21:15:00","departure_time":"21:15:00","lat":49.214319,"lon":16.652131,"is_passed":false},{"stop_id":"U1316Z2","name":"Kulkova","arrival_time":"21:15:00","departure_time":"21:15:00","lat":49.211681,"lon":16.648344,"is_passed":false},{"stop_id":"U1498Z2","name":"Podsednická","arrival_time":"21:16:00","departure_time":"21:16:00","lat":49.209601,"lon":16.645873,"is_passed":false},{"stop_id":"U1698Z2","name":"Údolíček","arrival_time":"21:16:00","departure_time":"21:16:00","lat":49.206553,"lon":16.643865,"is_passed":false},{"stop_id":"U1631Z1","name":"Svatoplukova","arrival_time":"21:17:00","departure_time":"21:17:00","lat":49.2051,"lon":16.641425,"is_passed":false},{"stop_id":"U1611Z9","name":"Stará osada","arrival_time":"21:19:00","departure_time":"21:22:00","lat":49.202037,"lon":16.641659,"is_passed":false},{"stop_id":"U1313Z2","name":"Kuldova","arrival_time":"21:23:00","departure_time":"21:23:00","lat":49.201319,"lon":16.634551,"is_passed":false},{"stop_id":"U1669Z1","name":"Tomáškova","arrival_time":"21:24:00","departure_time":"21:24:00","lat":49.198844,"lon":16.631798,"is_passed":false},{"stop_id":"U1713Z1","name":"Uzavřená","arrival_time":"21:25:00","departure_time":"21:25:00","lat":49.196566,"lon":16.633434,"is_passed":false},{"stop_id":"U1203Z1","name":"Jílkova","arrival_time":"21:26:00","departure_time":"21:26:00","lat":49.195907,"lon":16.637881,"is_passed":false},{"stop_id":"U1116Z2","name":"Geislerova","arrival_time":"21:27:00","departure_time":"21:27:00","lat":49.192754,"lon":16.634757,"is_passed":false},{"stop_id":"U1814Z6","name":"Životského","arrival_time":"21:28:00","departure_time":"21:28:00","lat":49.190736,"lon":16.63382,"is_passed":false},{"stop_id":"U1372Z6","name":"Masná","arrival_time":"21:30:00","departure_time":"21:30:00","lat":49.190905,"lon":16.626023,"is_passed":false},{"stop_id":"U1144Z3","name":"Hladíkova","arrival_time":"21:31:00","departure_time":"21:31:00","lat":49.186729,"lon":16.626124,"is_passed":false},{"stop_id":"U1639Z1","name":"Škrobárenská","arrival_time":"21:32:00","departure_time":"21:32:00","lat":49.182466,"lon":16.626261,"is_passed":false},{"stop_id":"U1266Z3","name":"Konopná","arrival_time":"21:34:00","departure_time":"21:36:00","lat":49.180126,"lon":16.621339,"is_passed":false},{"stop_id":"U1256Z3","name":"Komárov","arrival_time":"21:38:00","departure_time":"21:38:00","lat":49.17444,"lon":16.622448,"is_passed":false},{"stop_id":"U1148Z1","name":"Hněvkovského","arrival_time":"21:39:00","departure_time":"21:39:00","lat":49.169807,"lon":16.625991,"is_passed":false},{"stop_id":"U1533Z1","name":"Ráječek","arrival_time":"21:41:00","departure_time":"21:41:00","lat":49.160802,"lon":16.638242,"is_passed":false},{"stop_id":"U1511Z1","name":"Popelova","arrival_time":"21:42:00","departure_time":"21:42:00","lat":49.156621,"lon":16.646516,"is_passed":false},{"stop_id":"U1518Z1","name":"Prodloužená","arrival_time":"21:43:00","departure_time":"21:43:00","lat":49.151349,"lon":16.647722,"is_passed":false},{"stop_id":"U1717Z1","name":"V aleji","arrival_time":"21:43:00","departure_time":"21:43:00","lat":49.147687,"lon":16.648637,"is_passed":false},{"stop_id":"U1151Z1","name":"Holásky","arrival_time":"21:44:00","departure_time":"21:44:00","lat":49.143624,"lon":16.650395,"is_passed":false},{"stop_id":"U1718Z1","name":"V rejích","arrival_time":"21:45:00","departure_time":"21:45:00","lat":49.139511,"lon":16.654735,"is_passed":false},{"stop_id":"U1187Z1","name":"Chrlické náměstí","arrival_time":"21:47:00","departure_time":"21:47:00","lat":49.135283,"lon":16.653902,"is_passed":false},{"stop_id":"U1183Z1","name":"Chrlice, nádraží","arrival_time":"21:48:00","departure_time":"21:48:00","lat":49.131712,"lon":16.656596,"is_passed":false},{"stop_id":"U1182Z1","name":"Chrlice, smyčka","arrival_time":"21:50:00","departure_time":"22:12:00","lat":49.126642,"lon":16.654642,"is_passed":false}],"42501":[{"stop_id":"U1182Z2","name":"Chrlice, smyčka","arrival_time":"22:12:00","departure_time":"22:12:00","lat":49.126338,"lon":16.654668,"is_passed":false},{"stop_id":"U1183Z2","name":"Chrlice, nádraží","arrival_time":"22:13:00","departure_time":"22:13:00","lat":49.132136,"lon":16.656638,"is_passed":false},{"stop_id":"U1187Z2","name":"Chrlické náměstí","arrival_time":"22:14:00","departure_time":"22:14:00","lat":49.13548,"lon":16.653876,"is_passed":false},{"stop_id":"U1718Z2","name":"V rejích","arrival_time":"22:15:00","departure_time":"22:15:00","lat":49.138975,"lon":16.65507,"is_passed":false},{"stop_id":"U1151Z2","name":"Holásky","arrival_time":"22:16:00","departure_time":"22:16:00","lat":49.142863,"lon":16.651287,"is_passed":false},{"stop_id":"U1717Z2","name":"V aleji","arrival_time":"22:17:00","departure_time":"22:17:00","lat":49.148,"lon":16.648573,"is_passed":false},{"stop_id":"U1518Z2","name":"Prodloužená","arrival_time":"22:18:00","departure_time":"22:18:00","lat":49.152176,"lon":16.647669,"is_passed":false},{"stop_id":"U1511Z2","name":"Popelova","arrival_time":"22:19:00","departure_time":"22:19:00","lat":49.156919,"lon":16.646204,"is_passed":false},{"stop_id":"U1533Z2","name":"Ráječek","arrival_time":"22:20:00","departure_time":"22:20:00","lat":49.161397,"lon":16.637387,"is_passed":false},{"stop_id":"U1148Z2","name":"Hněvkovského","arrival_time":"22:22:00","departure_time":"22:22:00","lat":49.169618,"lon":16.626335,"is_passed":false},{"stop_id":"U1565Z2","name":"Sazenice","arrival_time":"22:22:00","departure_time":"22:22:00","lat":49.172877,"lon":16.623824,"is_passed":false},{"stop_id":"U1361Z4","name":"Mariánské náměstí","arrival_time":"22:23:00","departure_time":"22:23:00","lat":49.177094,"lon":16.621935,"is_passed":false},{"stop_id":"U1266Z4","name":"Konopná","arrival_time":"22:24:00","departure_time":"22:26:00","lat":49.179332,"lon":16.621811,"is_passed":false},{"stop_id":"U1639Z2","name":"Škrobárenská","arrival_time":"22:27:00","departure_time":"22:27:00","lat":49.183283,"lon":16.626321,"is_passed":false},{"stop_id":"U1144Z4","name":"Hladíkova","arrival_time":"22:28:00","departure_time":"22:28:00","lat":49.18682,"lon":16.626223,"is_passed":false},{"stop_id":"U1372Z5","name":"Masná","arrival_time":"22:30:00","departure_time":"22:30:00","lat":49.191189,"lon":16.626548,"is_passed":false},{"stop_id":"U1814Z3","name":"Životského","arrival_time":"22:32:00","departure_time":"22:32:00","lat":49.190892,"lon":16.634126,"is_passed":false},{"stop_id":"U1116Z1","name":"Geislerova","arrival_time":"22:33:00","departure_time":"22:33:00","lat":49.19278,"lon":16.635345,"is_passed":false},{"stop_id":"U1048Z1","name":"Buzkova","arrival_time":"22:34:00","departure_time":"22:34:00","lat":49.194159,"lon":16.641228,"is_passed":false},{"stop_id":"U1401Z1","name":"Mošnova","arrival_time":"22:35:00","departure_time":"22:35:00","lat":49.196198,"lon":16.640931,"is_passed":false},{"stop_id":"U1203Z2","name":"Jílkova","arrival_time":"22:36:00","departure_time":"22:36:00","lat":49.196095,"lon":16.635913,"is_passed":false},{"stop_id":"U1713Z2","name":"Uzavřená","arrival_time":"22:37:00","departure_time":"22:37:00","lat":49.196975,"lon":16.633346,"is_passed":false},{"stop_id":"U1669Z2","name":"Tomáškova","arrival_time":"22:37:00","departure_time":"22:37:00","lat":49.199647,"lon":16.631598,"is_passed":false},{"stop_id":"U1313Z1","name":"Kuldova","arrival_time":"22:39:00","departure_time":"22:39:00","lat":49.201297,"lon":16.634306,"is_passed":false},{"stop_id":"U1611Z8","name":"Stará osada","arrival_time":"22:41:00","departure_time":"22:44:00","lat":49.202294,"lon":16.642001,"is_passed":false},{"stop_id":"U1698Z1","name":"Údolíček","arrival_time":"22:45:00","departure_time":"22:45:00","lat":49.206732,"lon":16.644592,"is_passed":false},{"stop_id":"U1498Z1","name":"Podsednická","arrival_time":"22:46:00","departure_time":"22:46:00","lat":49.209376,"lon":16.645876,"is_passed":false},{"stop_id":"U1316Z1","name":"Kulkova","arrival_time":"22:46:00","departure_time":"22:46:00","lat":49.211717,"lon":16.64853,"is_passed":false},{"stop_id":"U1791Z51","name":"Zimní I","arrival_time":"22:47:00","departure_time":"22:47:00","lat":49.213186,"lon":16.658794,"is_passed":false},{"stop_id":"U1792Z51","name":"Zimní II","arrival_time":"22:48:00","departure_time":"22:48:00","lat":49.213409,"lon":16.655937,"is_passed":false},{"stop_id":"U1083Z1","name":"Depo ČD","arrival_time":"22:49:00","departure_time":"22:49:00","lat":49.215406,"lon":16.653524,"is_passed":false},{"stop_id":"U1808Z1","name":"Železniční stavitelství","arrival_time":"22:49:00","departure_time":"22:49:00","lat":49.217133,"lon":16.654292,"is_passed":false},{"stop_id":"U1197Z4","name":"Jarní ČD","arrival_time":"22:50:00","departure_time":"22:50:00","lat":49.220905,"lon":16.652747,"is_passed":false},{"stop_id":"U1503Z2","name":"Podzimní","arrival_time":"22:50:00","departure_time":"22:50:00","lat":49.221561,"lon":16.653136,"is_passed":false},{"stop_id":"U1071Z1","name":"Červený písek","arrival_time":"22:52:00","departure_time":"23:00:00","lat":49.220493,"lon":16.657264,"is_passed":false}],"42502":[{"stop_id":"U1071Z2","name":"Červený písek","arrival_time":"23:00:00","departure_time":"23:00:00","lat":49.220452,"lon":16.657444,"is_passed":false},{"stop_id":"U1503Z3","name":"Podzimní","arrival_time":"23:00:00","departure_time":"23:00:00","lat":49.22165,"lon":16.652917,"is_passed":false},{"stop_id":"U1197Z3","name":"Jarní ČD","arrival_time":"23:01:00","departure_time":"23:01:00","lat":49.22026,"lon":16.652902,"is_passed":false},{"stop_id":"U1808Z2","name":"Železniční stavitelství","arrival_time":"23:02:00","departure_time":"23:02:00","lat":49.216798,"lon":16.654101,"is_passed":false},{"stop_id":"U1791Z1","name":"Zimní I","arrival_time":"23:03:00","departure_time":"23:03:00","lat":49.213186,"lon":16.658794,"is_passed":false},{"stop_id":"U1792Z1","name":"Zimní II","arrival_time":"23:04:00","departure_time":"23:04:00","lat":49.213409,"lon":16.655937,"is_passed":false},{"stop_id":"U1083Z2","name":"Depo ČD","arrival_time":"23:05:00","departure_time":"23:05:00","lat":49.214319,"lon":16.652131,"is_passed":false},{"stop_id":"U1316Z2","name":"Kulkova","arrival_time":"23:05:00","departure_time":"23:05:00","lat":49.211681,"lon":16.648344,"is_passed":false},{"stop_id":"U1498Z2","name":"Podsednická","arrival_time":"23:06:00","departure_time":"23:06:00","lat":49.209601,"lon":16.645873,"is_passed":false},{"stop_id":"U1698Z2","name":"Údolíček","arrival_time":"23:06:00","departure_time":"23:06:00","lat":49.206553,"lon":16.643865,"is_passed":false},{"stop_id":"U1631Z1","name":"Svatoplukova","arrival_time":"23:07:00","departure_time":"23:07:00","lat":49.2051,"lon":16.641425,"is_passed":false},{"stop_id":"U1611Z6","name":"Stará osada","arrival_time":"23:09:00","departure_time":"23:14:00","lat":49.201731,"lon":16.642184,"is_passed":false}],"42503":[{"stop_id":"U1611Z8","name":"Stará osada","arrival_time":"23:14:00","departure_time":"23:14:00","lat":49.202294,"lon":16.642001,"is_passed":false},{"stop_id":"U1698Z1","name":"Údolíček","arrival_time":"23:15:00","departure_time":"23:15:00","lat":49.206732,"lon":16.644592,"is_passed":false},{"stop_id":"U1498Z1","name":"Podsednická","arrival_time":"23:16:00","departure_time":"23:16:00","lat":49.209376,"lon":16.645876,"is_passed":false},{"stop_id":"U1316Z1","name":"Kulkova","arrival_time":"23:16:00","departure_time":"23:16:00","lat":49.211717,"lon":16.64853,"is_passed":false},{"stop_id":"U1791Z51","name":"Zimní I","arrival_time":"23:17:00","departure_time":"23:17:00","lat":49.213186,"lon":16.658794,"is_passed":false},{"stop_id":"U1792Z51","name":"Zimní II","arrival_time":"23:18:00","departure_time":"23:18:00","lat":49.213409,"lon":16.655937,"is_passed":false},{"stop_id":"U1083Z1","name":"Depo ČD","arrival_time":"23:19:00","departure_time":"23:19:00","lat":49.215406,"lon":16.653524,"is_passed":false},{"stop_id":"U1808Z1","name":"Železniční stavitelství","arrival_time":"23:19:00","departure_time":"23:19:00","lat":49.217133,"lon":16.654292,"is_passed":false},{"stop_id":"U1197Z4","name":"Jarní ČD","arrival_time":"23:20:00","departure_time":"23:20:00","lat":49.220905,"lon":16.652747,"is_passed":false},{"stop_id":"U1503Z2","name":"Podzimní","arrival_time":"23:20:00","departure_time":"23:20:00","lat":49.221561,"lon":16.653136,"is_passed":false},{"stop_id":"U1071Z1","name":"Červený písek","arrival_time":"23:22:00","departure_time":"23:30:00","lat":49.220493,"lon":16.657264,"is_passed":false}],"42504":[{"stop_id":"U1071Z2","name":"Červený písek","arrival_time":"23:30:00","departure_time":"23:30:00","lat":49.220452,"lon":16.657444,"is_passed":false},{"stop_id":"U1503Z3","name":"Podzimní","arrival_time":"23:30:00","departure_time":"23:30:00","lat":49.22165,"lon":16.652917,"is_passed":false},{"stop_id":"U1197Z3","name":"Jarní ČD","arrival_time":"23:31:00","departure_time":"23:31:00","lat":49.22026,"lon":16.652902,"is_passed":false},{"stop_id":"U1808Z2","name":"Železniční stavitelství","arrival_time":"23:32:00","departure_time":"23:32:00","lat":49.216798,"lon":16.654101,"is_passed":false},{"stop_id":"U1791Z1","name":"Zimní I","arrival_time":"23:33:00","departure_time":"23:33:00","lat":49.213186,"lon":16.658794,"is_passed":false},{"stop_id":"U1792Z1","name":"Zimní II","arrival_time":"23:34:00","departure_time":"23:34:00","lat":49.213409,"lon":16.655937,"is_passed":false},{"stop_id":"U1083Z2","name":"Depo ČD","arrival_time":"23:35:00","departure_time":"23:35:00","lat":49.214319,"lon":16.652131,"is_passed":false},{"stop_id":"U1316Z2","name":"Kulkova","arrival_time":"23:35:00","departure_time":"23:35:00","lat":49.211681,"lon":16.648344,"is_passed":false},{"stop_id":"U1498Z2","name":"Podsednická","arrival_time":"23:36:00","departure_time":"23:36:00","lat":49.209601,"lon":16.645873,"is_passed":false},{"stop_id":"U1698Z2","name":"Údolíček","arrival_time":"23:36:00","departure_time":"23:36:00","lat":49.206553,"lon":16.643865,"is_passed":false},{"stop_id":"U1631Z1","name":"Svatoplukova","arrival_time":"23:37:00","departure_time":"23:37:00","lat":49.2051,"lon":16.641425,"is_passed":false},{"stop_id":"U1611Z6","name":"Stará osada","arrival_time":"23:39:00","departure_time":"23:44:00","lat":49.201731,"lon":16.642184,"is_passed":false}],"42505":[{"stop_id":"U1611Z8","name":"Stará osada","arrival_time":"23:44:00","departure_time":"23:44:00","lat":49.202294,"lon":16.642001,"is_passed":false},{"stop_id":"U1698Z1","name":"Údolíček","arrival_time":"23:45:00","departure_time":"23:45:00","lat":49.206732,"lon":16.644592,"is_passed":false},{"stop_id":"U1498Z1","name":"Podsednická","arrival_time":"23:46:00","departure_time":"23:46:00","lat":49.209376,"lon":16.645876,"is_passed":false},{"stop_id":"U1316Z1","name":"Kulkova","arrival_time":"23:46:00","departure_time":"23:46:00","lat":49.211717,"lon":16.64853,"is_passed":false},{"stop_id":"U1791Z51","name":"Zimní I","arrival_time":"23:47:00","departure_time":"23:47:00","lat":49.213186,"lon":16.658794,"is_passed":false},{"stop_id":"U1792Z51","name":"Zimní II","arrival_time":"23:48:00","departure_time":"23:48:00","lat":49.213409,"lon":16.655937,"is_passed":false},{"stop_id":"U1083Z1","name":"Depo ČD","arrival_time":"23:49:00","departure_time":"23:49:00","lat":49.215406,"lon":16.653524,"is_passed":false},{"stop_id":"U1808Z1","name":"Železniční stavitelství","arrival_time":"23:49:00","departure_time":"23:49:00","lat":49.217133,"lon":16.654292,"is_passed":false},{"stop_id":"U1197Z4","name":"Jarní ČD","arrival_time":"23:50:00","departure_time":"23:50:00","lat":49.220905,"lon":16.652747,"is_passed":false},{"stop_id":"U1503Z2","name":"Podzimní","arrival_time":"23:50:00","departure_time":"23:50:00","lat":49.221561,"lon":16.653136,"is_passed":false},{"stop_id":"U1071Z1","name":"Červený písek","arrival_time":"23:52:00","departure_time":"23:54:00","lat":49.220493,"lon":16.657264,"is_passed":false}],"42506":[{"stop_id":"U1573Z4","name":"Slatina, nádraží","arrival_time":"5:12:00","departure_time":"5:12:00","lat":49.169756,"lon":16.682633,"is_passed":false},{"stop_id":"U1640Z2","name":"Šmahova","arrival_time":"5:13:00","departure_time":"5:13:00","lat":49.172157,"lon":16.684373,"is_passed":false},{"stop_id":"U1562Z4","name":"Řípská","arrival_time":"5:15:00","departure_time":"5:15:00","lat":49.172829,"lon":16.682244,"is_passed":false},{"stop_id":"U1581Z1","name":"Areál Slatina","arrival_time":"5:16:00","departure_time":"5:16:00","lat":49.168614,"lon":16.67804,"is_passed":false},{"stop_id":"U1495Z2","name":"Pod Tuřankou","arrival_time":"5:17:00","departure_time":"5:17:00","lat":49.173265,"lon":16.674982,"is_passed":false},{"stop_id":"U1105Z2","name":"Ericha Roučky","arrival_time":"5:19:00","departure_time":"5:19:00","lat":49.175109,"lon":16.669439,"is_passed":false},{"stop_id":"U1741Z4","name":"Vlárská","arrival_time":"5:21:00","departure_time":"5:21:00","lat":49.181675,"lon":16.674379,"is_passed":false},{"stop_id":"U1757Z1","name":"Vozovna Slatina","arrival_time":"5:23:00","departure_time":"5:23:00","lat":49.183032,"lon":16.672807,"is_passed":false},{"stop_id":"U1068Z4","name":"Černovičky","arrival_time":"5:24:00","departure_time":"5:24:00","lat":49.183907,"lon":16.668247,"is_passed":false},{"stop_id":"U1501Z3","name":"Podstránská","arrival_time":"5:24:00","departure_time":"5:24:00","lat":49.186855,"lon":16.66649,"is_passed":false},{"stop_id":"U1018Z4","name":"Bělohorská","arrival_time":"5:26:00","departure_time":"5:26:00","lat":49.189904,"lon":16.662135,"is_passed":false},{"stop_id":"U1642Z2","name":"Špačkova","arrival_time":"5:27:00","departure_time":"5:27:00","lat":49.190815,"lon":16.659552,"is_passed":false},{"stop_id":"U1496Z2","name":"Podlomní","arrival_time":"5:28:00","departure_time":"5:28:00","lat":49.192497,"lon":16.654989,"is_passed":false},{"stop_id":"U1082Z2","name":"Dělnický dům","arrival_time":"5:29:00","departure_time":"5:29:00","lat":49.195559,"lon":16.64956,"is_passed":false},{"stop_id":"U1113Z2","name":"Gajdošova","arrival_time":"5:30:00","departure_time":"5:30:00","lat":49.198286,"lon":16.645995,"is_passed":false},{"stop_id":"U1611Z8","name":"Stará osada","arrival_time":"5:32:00","departure_time":"5:33:00","lat":49.202294,"lon":16.642001,"is_passed":false},{"stop_id":"U1811Z1","name":"Židenice, kasárna","arrival_time":"5:35:00","departure_time":"5:35:00","lat":49.208445,"lon":16.642414,"is_passed":false},{"stop_id":"U1231Z1","name":"Karlova","arrival_time":"5:36:00","departure_time":"5:36:00","lat":49.213487,"lon":16.643814,"is_passed":false},{"stop_id":"U1358Z1","name":"Maloměřický most","arrival_time":"5:37:00","departure_time":"5:37:00","lat":49.21558,"lon":16.642601,"is_passed":false},{"stop_id":"U1668Z6","name":"Tomkovo náměstí","arrival_time":"5:39:00","departure_time":"5:40:00","lat":49.214259,"lon":16.63678,"is_passed":false}],"42507":[{"stop_id":"U1611Z8","name":"Stará osada","arrival_time":"5:56:00","departure_time":"5:56:00","lat":49.202294,"lon":16.642001,"is_passed":false},{"stop_id":"U1698Z1","name":"Údolíček","arrival_time":"5:57:00","departure_time":"5:57:00","lat":49.206732,"lon":16.644592,"is_passed":false},{"stop_id":"U1498Z1","name":"Podsednická","arrival_time":"5:58:00","departure_time":"5:58:00","lat":49.209376,"lon":16.645876,"is_passed":false},{"stop_id":"U1316Z1","name":"Kulkova","arrival_time":"5:58:00","departure_time":"5:58:00","lat":49.211717,"lon":16.64853,"is_passed":false},{"stop_id":"U1791Z51","name":"Zimní I","arrival_time":"6:00:00","departure_time":"6:00:00","lat":49.213186,"lon":16.658794,"is_passed":false},{"stop_id":"U1792Z51","name":"Zimní II","arrival_time":"6:01:00","departure_time":"6:01:00","lat":49.213409,"lon":16.655937,"is_passed":false},{"stop_id":"U1083Z1","name":"Depo ČD","arrival_time":"6:02:00","departure_time":"6:02:00","lat":49.215406,"lon":16.653524,"is_passed":false},{"stop_id":"U1808Z1","name":"Železniční stavitelství","arrival_time":"6:02:00","departure_time":"6:02:00","lat":49.217133,"lon":16.654292,"is_passed":false},{"stop_id":"U1197Z4","name":"Jarní ČD","arrival_time":"6:03:00","departure_time":"6:03:00","lat":49.220905,"lon":16.652747,"is_passed":false},{"stop_id":"U1503Z2","name":"Podzimní","arrival_time":"6:03:00","departure_time":"6:03:00","lat":49.221561,"lon":16.653136,"is_passed":false},{"stop_id":"U1071Z1","name":"Červený písek","arrival_time":"6:05:00","departure_time":"6:13:00","lat":49.220493,"lon":16.657264,"is_passed":false}],"42508":[{"stop_id":"U1071Z2","name":"Červený písek","arrival_time":"6:13:00","departure_time":"6:13:00","lat":49.220452,"lon":16.657444,"is_passed":false},{"stop_id":"U1503Z3","name":"Podzimní","arrival_time":"6:13:00","departure_time":"6:13:00","lat":49.22165,"lon":16.652917,"is_passed":false},{"stop_id":"U1197Z3","name":"Jarní ČD","arrival_time":"6:14:00","departure_time":"6:14:00","lat":49.22026,"lon":16.652902,"is_passed":false},{"stop_id":"U1808Z2","name":"Železniční stavitelství","arrival_time":"6:15:00","departure_time":"6:15:00","lat":49.216798,"lon":16.654101,"is_passed":false},{"stop_id":"U1791Z1","name":"Zimní I","arrival_time":"6:16:00","departure_time":"6:16:00","lat":49.213186,"lon":16.658794,"is_passed":false},{"stop_id":"U1792Z1","name":"Zimní II","arrival_time":"6:17:00","departure_time":"6:17:00","lat":49.213409,"lon":16.655937,"is_passed":false},{"stop_id":"U1083Z2","name":"Depo ČD","arrival_time":"6:18:00","departure_time":"6:18:00","lat":49.214319,"lon":16.652131,"is_passed":false},{"stop_id":"U1316Z2","name":"Kulkova","arrival_time":"6:18:00","departure_time":"6:18:00","lat":49.211681,"lon":16.648344,"is_passed":false},{"stop_id":"U1498Z2","name":"Podsednická","arrival_time":"6:19:00","departure_time":"6:19:00","lat":49.209601,"lon":16.645873,"is_passed":false},{"stop_id":"U1698Z2","name":"Údolíček","arrival_time":"6:20:00","departure_time":"6:20:00","lat":49.206553,"lon":16.643865,"is_passed":false},{"stop_id":"U1631Z1","name":"Svatoplukova","arrival_time":"6:21:00","departure_time":"6:21:00","lat":49.2051,"lon":16.641425,"is_passed":false},{"stop_id":"U1611Z9","name":"Stará osada","arrival_time":"6:23:00","departure_time":"6:23:00","lat":49.202037,"lon":16.641659,"is_passed":false},{"stop_id":"U1313Z2","name":"Kuldova","arrival_time":"6:24:00","departure_time":"6:24:00","lat":49.201319,"lon":16.634551,"is_passed":false},{"stop_id":"U1669Z1","name":"Tomáškova","arrival_time":"6:25:00","departure_time":"6:25:00","lat":49.198844,"lon":16.631798,"is_passed":false},{"stop_id":"U1713Z1","name":"Uzavřená","arrival_time":"6:26:00","departure_time":"6:26:00","lat":49.196566,"lon":16.633434,"is_passed":false},{"stop_id":"U1203Z1","name":"Jílkova","arrival_time":"6:27:00","departure_time":"6:27:00","lat":49.195907,"lon":16.637881,"is_passed":false},{"stop_id":"U1116Z2","name":"Geislerova","arrival_time":"6:29:00","departure_time":"6:29:00","lat":49.192754,"lon":16.634757,"is_passed":false},{"stop_id":"U1814Z6","name":"Životského","arrival_time":"6:30:00","departure_time":"6:30:00","lat":49.190736,"lon":16.63382,"is_passed":false},{"stop_id":"U1372Z6","name":"Masná","arrival_time":"6:32:00","departure_time":"6:32:00","lat":49.190905,"lon":16.626023,"is_passed":false},{"stop_id":"U1144Z3","name":"Hladíkova","arrival_time":"6:33:00","departure_time":"6:33:00","lat":49.186729,"lon":16.626124,"is_passed":false},{"stop_id":"U1639Z1","name":"Škrobárenská","arrival_time":"6:34:00","departure_time":"6:34:00","lat":49.182466,"lon":16.626261,"is_passed":false},{"stop_id":"U1266Z3","name":"Konopná","arrival_time":"6:36:00","departure_time":"6:36:00","lat":49.180126,"lon":16.621339,"is_passed":false},{"stop_id":"U1256Z3","name":"Komárov","arrival_time":"6:38:00","departure_time":"6:38:00","lat":49.17444,"lon":16.622448,"is_passed":false},{"stop_id":"U1148Z1","name":"Hněvkovského","arrival_time":"6:39:00","departure_time":"6:39:00","lat":49.169807,"lon":16.625991,"is_passed":false},{"stop_id":"U1533Z1","name":"Ráječek","arrival_time":"6:41:00","departure_time":"6:41:00","lat":49.160802,"lon":16.638242,"is_passed":false},{"stop_id":"U1511Z1","name":"Popelova","arrival_time":"6:42:00","departure_time":"6:42:00","lat":49.156621,"lon":16.646516,"is_passed":false},{"stop_id":"U1518Z1","name":"Prodloužená","arrival_time":"6:43:00","departure_time":"6:43:00","lat":49.151349,"lon":16.647722,"is_passed":false},{"stop_id":"U1717Z1","name":"V aleji","arrival_time":"6:44:00","departure_time":"6:44:00","lat":49.147687,"lon":16.648637,"is_passed":false},{"stop_id":"U1151Z1","name":"Holásky","arrival_time":"6:45:00","departure_time":"6:45:00","lat":49.143624,"lon":16.650395,"is_passed":false},{"stop_id":"U1718Z1","name":"V rejích","arrival_time":"6:46:00","departure_time":"6:46:00","lat":49.139511,"lon":16.654735,"is_passed":false},{"stop_id":"U1187Z1","name":"Chrlické náměstí","arrival_time":"6:48:00","departure_time":"6:48:00","lat":49.135283,"lon":16.653902,"is_passed":false},{"stop_id":"U1183Z1","name":"Chrlice, nádraží","arrival_time":"6:49:00","departure_time":"6:49:00","lat":49.131712,"lon":16.656596,"is_passed":false},{"stop_id":"U1182Z1","name":"Chrlice, smyčka","arrival_time":"6:51:00","departure_time":"7:33:00","lat":49.126642,"lon":16.654642,"is_passed":false}],"42509":[{"stop_id":"U1182Z2","name":"Chrlice, smyčka","arrival_time":"7:33:00","departure_time":"7:33:00","lat":49.126338,"lon":16.654668,"is_passed":false},{"stop_id":"U1183Z2","name":"Chrlice, nádraží","arrival_time":"7:34:00","departure_time":"7:34:00","lat":49.132136,"lon":16.656638,"is_passed":false},{"stop_id":"U1187Z2","name":"Chrlické náměstí","arrival_time":"7:35:00","departure_time":"7:35:00","lat":49.13548,"lon":16.653876,"is_passed":false},{"stop_id":"U1718Z2","name":"V rejích","arrival_time":"7:36:00","departure_time":"7:36:00","lat":49.138975,"lon":16.65507,"is_passed":false},{"stop_id":"U1151Z2","name":"Holásky","arrival_time":"7:37:00","departure_time":"7:37:00","lat":49.142863,"lon":16.651287,"is_passed":false},{"stop_id":"U1717Z2","name":"V aleji","arrival_time":"7:38:00","departure_time":"7:38:00","lat":49.148,"lon":16.648573,"is_passed":false},{"stop_id":"U1518Z2","name":"Prodloužená","arrival_time":"7:39:00","departure_time":"7:39:00","lat":49.152176,"lon":16.647669,"is_passed":false},{"stop_id":"U1511Z2","name":"Popelova","arrival_time":"7:41:00","departure_time":"7:41:00","lat":49.156919,"lon":16.646204,"is_passed":false},{"stop_id":"U1533Z2","name":"Ráječek","arrival_time":"7:42:00","departure_time":"7:42:00","lat":49.161397,"lon":16.637387,"is_passed":false},{"stop_id":"U1148Z2","name":"Hněvkovského","arrival_time":"7:44:00","departure_time":"7:44:00","lat":49.169618,"lon":16.626335,"is_passed":false},{"stop_id":"U1565Z2","name":"Sazenice","arrival_time":"7:45:00","departure_time":"7:45:00","lat":49.172877,"lon":16.623824,"is_passed":false},{"stop_id":"U1361Z4","name":"Mariánské náměstí","arrival_time":"7:47:00","departure_time":"7:47:00","lat":49.177094,"lon":16.621935,"is_passed":false},{"stop_id":"U1266Z4","name":"Konopná","arrival_time":"7:48:00","departure_time":"7:48:00","lat":49.179332,"lon":16.621811,"is_passed":false},{"stop_id":"U1639Z2","name":"Škrobárenská","arrival_time":"7:50:00","departure_time":"7:50:00","lat":49.183283,"lon":16.626321,"is_passed":false},{"stop_id":"U1144Z4","name":"Hladíkova","arrival_time":"7:51:00","departure_time":"7:51:00","lat":49.18682,"lon":16.626223,"is_passed":false},{"stop_id":"U1372Z5","name":"Masná","arrival_time":"7:53:00","departure_time":"7:53:00","lat":49.191189,"lon":16.626548,"is_passed":false},{"stop_id":"U1814Z3","name":"Životského","arrival_time":"7:55:00","departure_time":"7:55:00","lat":49.190892,"lon":16.634126,"is_passed":false},{"stop_id":"U1116Z1","name":"Geislerova","arrival_time":"7:56:00","departure_time":"7:56:00","lat":49.19278,"lon":16.635345,"is_passed":false},{"stop_id":"U1048Z1","name":"Buzkova","arrival_time":"7:57:00","departure_time":"7:57:00","lat":49.194159,"lon":16.641228,"is_passed":false},{"stop_id":"U1401Z1","name":"Mošnova","arrival_time":"7:59:00","departure_time":"7:59:00","lat":49.196198,"lon":16.640931,"is_passed":false},{"stop_id":"U1203Z2","name":"Jílkova","arrival_time":"8:00:00","departure_time":"8:00:00","lat":49.196095,"lon":16.635913,"is_passed":false},{"stop_id":"U1713Z2","name":"Uzavřená","arrival_time":"8:01:00","departure_time":"8:01:00","lat":49.196975,"lon":16.633346,"is_passed":false},{"stop_id":"U1669Z2","name":"Tomáškova","arrival_time":"8:01:00","departure_time":"8:01:00","lat":49.199647,"lon":16.631598,"is_passed":false},{"stop_id":"U1313Z1","name":"Kuldova","arrival_time":"8:03:00","departure_time":"8:03:00","lat":49.201297,"lon":16.634306,"is_passed":false},{"stop_id":"U1611Z8","name":"Stará osada","arrival_time":"8:06:00","departure_time":"8:06:00","lat":49.202294,"lon":16.642001,"is_passed":false},{"stop_id":"U1698Z1","name":"Údolíček","arrival_time":"8:08:00","departure_time":"8:08:00","lat":49.206732,"lon":16.644592,"is_passed":false},{"stop_id":"U1498Z1","name":"Podsednická","arrival_time":"8:09:00","departure_time":"8:09:00","lat":49.209376,"lon":16.645876,"is_passed":false},{"stop_id":"U1316Z1","name":"Kulkova","arrival_time":"8:09:00","departure_time":"8:09:00","lat":49.211717,"lon":16.64853,"is_passed":false},{"stop_id":"U1791Z51","name":"Zimní I","arrival_time":"8:11:00","departure_time":"8:11:00","lat":49.213186,"lon":16.658794,"is_passed":false},{"stop_id":"U1792Z51","name":"Zimní II","arrival_time":"8:12:00","departure_time":"8:12:00","lat":49.213409,"lon":16.655937,"is_passed":false},{"stop_id":"U1083Z1","name":"Depo ČD","arrival_time":"8:13:00","departure_time":"8:13:00","lat":49.215406,"lon":16.653524,"is_passed":false},{"stop_id":"U1808Z1","name":"Železniční stavitelství","arrival_time":"8:13:00","departure_time":"8:13:00","lat":49.217133,"lon":16.654292,"is_passed":false},{"stop_id":"U1197Z4","name":"Jarní ČD","arrival_time":"8:14:00","departure_time":"8:14:00","lat":49.220905,"lon":16.652747,"is_passed":false},{"stop_id":"U1503Z2","name":"Podzimní","arrival_time":"8:14:00","departure_time":"8:14:00","lat":49.221561,"lon":16.653136,"is_passed":false},{"stop_id":"U1071Z1","name":"Červený písek","arrival_time":"8:16:00","departure_time":"8:36:00","lat":49.220493,"lon":16.657264,"is_passed":false}],"42510":[{"stop_id":"U1071Z2","name":"Červený písek","arrival_time":"8:36:00","departure_time":"8:36:00","lat":49.220452,"lon":16.657444,"is_passed":false},{"stop_id":"U1503Z3","name":"Podzimní","arrival_time":"8:36:00","departure_time":"8:36:00","lat":49.22165,"lon":16.652917,"is_passed":false},{"stop_id":"U1197Z3","name":"Jarní ČD","arrival_time":"8:37:00","departure_time":"8:37:00","lat":49.22026,"lon":16.652902,"is_passed":false},{"stop_id":"U1808Z2","name":"Železniční stavitelství","arrival_time":"8:38:00","departure_time":"8:38:00","lat":49.216798,"lon":16.654101,"is_passed":false},{"stop_id":"U1791Z1","name":"Zimní I","arrival_time":"8:39:00","departure_time":"8:39:00","lat":49.213186,"lon":16.658794,"is_passed":false},{"stop_id":"U1792Z1","name":"Zimní II","arrival_time":"8:40:00","departure_time":"8:40:00","lat":49.213409,"lon":16.655937,"is_passed":false},{"stop_id":"U1083Z2","name":"Depo ČD","arrival_time":"8:41:00","departure_time":"8:41:00","lat":49.214319,"lon":16.652131,"is_passed":false},{"stop_id":"U1316Z2","name":"Kulkova","arrival_time":"8:41:00","departure_time":"8:41:00","lat":49.211681,"lon":16.648344,"is_passed":false},{"stop_id":"U1498Z2","name":"Podsednická","arrival_time":"8:42:00","departure_time":"8:42:00","lat":49.209601,"lon":16.645873,"is_passed":false},{"stop_id":"U1698Z2","name":"Údolíček","arrival_time":"8:43:00","departure_time":"8:43:00","lat":49.206553,"lon":16.643865,"is_passed":false},{"stop_id":"U1631Z1","name":"Svatoplukova","arrival_time":"8:45:00","departure_time":"8:45:00","lat":49.2051,"lon":16.641425,"is_passed":false},{"stop_id":"U1611Z9","name":"Stará osada","arrival_time":"8:47:00","departure_time":"8:47:00","lat":49.202037,"lon":16.641659,"is_passed":false},{"stop_id":"U1313Z2","name":"Kuldova","arrival_time":"8:49:00","departure_time":"8:49:00","lat":49.201319,"lon":16.634551,"is_passed":false},{"stop_id":"U1669Z1","name":"Tomáškova","arrival_time":"8:50:00","departure_time":"8:50:00","lat":49.198844,"lon":16.631798,"is_passed":false},{"stop_id":"U1713Z1","name":"Uzavřená","arrival_time":"8:51:00","departure_time":"8:51:00","lat":49.196566,"lon":16.633434,"is_passed":false},{"stop_id":"U1203Z1","name":"Jílkova","arrival_time":"8:52:00","departure_time":"8:52:00","lat":49.195907,"lon":16.637881,"is_passed":false},{"stop_id":"U1116Z2","name":"Geislerova","arrival_time":"8:54:00","departure_time":"8:54:00","lat":49.192754,"lon":16.634757,"is_passed":false},{"stop_id":"U1814Z6","name":"Životského","arrival_time":"8:55:00","departure_time":"8:55:00","lat":49.190736,"lon":16.63382,"is_passed":false},{"stop_id":"U1372Z6","name":"Masná","arrival_time":"8:58:00","departure_time":"8:58:00","lat":49.190905,"lon":16.626023,"is_passed":false},{"stop_id":"U1144Z3","name":"Hladíkova","arrival_time":"8:59:00","departure_time":"8:59:00","lat":49.186729,"lon":16.626124,"is_passed":false},{"stop_id":"U1639Z1","name":"Škrobárenská","arrival_time":"9:00:00","departure_time":"9:00:00","lat":49.182466,"lon":16.626261,"is_passed":false},{"stop_id":"U1266Z3","name":"Konopná","arrival_time":"9:02:00","departure_time":"9:02:00","lat":49.180126,"lon":16.621339,"is_passed":false},{"stop_id":"U1256Z3","name":"Komárov","arrival_time":"9:04:00","departure_time":"9:04:00","lat":49.17444,"lon":16.622448,"is_passed":false},{"stop_id":"U1148Z1","name":"Hněvkovského","arrival_time":"9:05:00","departure_time":"9:05:00","lat":49.169807,"lon":16.625991,"is_passed":false},{"stop_id":"U1533Z1","name":"Ráječek","arrival_time":"9:08:00","departure_time":"9:08:00","lat":49.160802,"lon":16.638242,"is_passed":false},{"stop_id":"U1511Z1","name":"Popelova","arrival_time":"9:09:00","departure_time":"9:09:00","lat":49.156621,"lon":16.646516,"is_passed":false},{"stop_id":"U1518Z1","name":"Prodloužená","arrival_time":"9:10:00","departure_time":"9:10:00","lat":49.151349,"lon":16.647722,"is_passed":false},{"stop_id":"U1717Z1","name":"V aleji","arrival_time":"9:11:00","departure_time":"9:11:00","lat":49.147687,"lon":16.648637,"is_passed":false},{"stop_id":"U1151Z1","name":"Holásky","arrival_time":"9:13:00","departure_time":"9:13:00","lat":49.143624,"lon":16.650395,"is_passed":false},{"stop_id":"U1718Z1","name":"V rejích","arrival_time":"9:14:00","departure_time":"9:14:00","lat":49.139511,"lon":16.654735,"is_passed":false},{"stop_id":"U1187Z1","name":"Chrlické náměstí","arrival_time":"9:16:00","departure_time":"9:16:00","lat":49.135283,"lon":16.653902,"is_passed":false},{"stop_id":"U1183Z1","name":"Chrlice, nádraží","arrival_time":"9:17:00","departure_time":"9:17:00","lat":49.131712,"lon":16.656596,"is_passed":false},{"stop_id":"U1182Z1","name":"Chrlice, smyčka","arrival_time":"9:19:00","departure_time":"9:53:00","lat":49.126642,"lon":16.654642,"is_passed":false}],"42511":[{"stop_id":"U1182Z2","name":"Chrlice, smyčka","arrival_time":"9:53:00","departure_time":"9:53:00","lat":49.126338,"lon":16.654668,"is_passed":false},{"stop_id":"U1183Z2","name":"Chrlice, nádraží","arrival_time":"9:54:00","departure_time":"9:54:00","lat":49.132136,"lon":16.656638,"is_passed":false},{"stop_id":"U1187Z2","name":"Chrlické náměstí","arrival_time":"9:55:00","departure_time":"9:55:00","lat":49.13548,"lon":16.653876,"is_passed":false},{"stop_id":"U1718Z2","name":"V rejích","arrival_time":"9:56:00","departure_time":"9:56:00","lat":49.138975,"lon":16.65507,"is_passed":false},{"stop_id":"U1151Z2","name":"Holásky","arrival_time":"9:57:00","departure_time":"9:57:00","lat":49.142863,"lon":16.651287,"is_passed":false},{"stop_id":"U1717Z2","name":"V aleji","arrival_time":"9:58:00","departure_time":"9:58:00","lat":49.148,"lon":16.648573,"is_passed":false},{"stop_id":"U1518Z2","name":"Prodloužená","arrival_time":"9:59:00","departure_time":"9:59:00","lat":49.152176,"lon":16.647669,"is_passed":false},{"stop_id":"U1511Z2","name":"Popelova","arrival_time":"10:01:00","departure_time":"10:01:00","lat":49.156919,"lon":16.646204,"is_passed":false},{"stop_id":"U1533Z2","name":"Ráječek","arrival_time":"10:02:00","departure_time":"10:02:00","lat":49.161397,"lon":16.637387,"is_passed":false},{"stop_id":"U1148Z2","name":"Hněvkovského","arrival_time":"10:04:00","departure_time":"10:04:00","lat":49.169618,"lon":16.626335,"is_passed":false},{"stop_id":"U1565Z2","name":"Sazenice","arrival_time":"10:05:00","departure_time":"10:05:00","lat":49.172877,"lon":16.623824,"is_passed":false},{"stop_id":"U1361Z4","name":"Mariánské náměstí","arrival_time":"10:07:00","departure_time":"10:07:00","lat":49.177094,"lon":16.621935,"is_passed":false},{"stop_id":"U1266Z4","name":"Konopná","arrival_time":"10:08:00","departure_time":"10:08:00","lat":49.179332,"lon":16.621811,"is_passed":false},{"stop_id":"U1639Z2","name":"Škrobárenská","arrival_time":"10:10:00","departure_time":"10:10:00","lat":49.183283,"lon":16.626321,"is_passed":false},{"stop_id":"U1144Z4","name":"Hladíkova","arrival_time":"10:11:00","departure_time":"10:11:00","lat":49.18682,"lon":16.626223,"is_passed":false},{"stop_id":"U1372Z5","name":"Masná","arrival_time":"10:13:00","departure_time":"10:13:00","lat":49.191189,"lon":16.626548,"is_passed":false},{"stop_id":"U1814Z3","name":"Životského","arrival_time":"10:15:00","departure_time":"10:15:00","lat":49.190892,"lon":16.634126,"is_passed":false},{"stop_id":"U1116Z1","name":"Geislerova","arrival_time":"10:16:00","departure_time":"10:16:00","lat":49.19278,"lon":16.635345,"is_passed":false},{"stop_id":"U1048Z1","name":"Buzkova","arrival_time":"10:17:00","departure_time":"10:17:00","lat":49.194159,"lon":16.641228,"is_passed":false},{"stop_id":"U1401Z1","name":"Mošnova","arrival_time":"10:19:00","departure_time":"10:19:00","lat":49.196198,"lon":16.640931,"is_passed":false},{"stop_id":"U1203Z2","name":"Jílkova","arrival_time":"10:20:00","departure_time":"10:20:00","lat":49.196095,"lon":16.635913,"is_passed":false},{"stop_id":"U1713Z2","name":"Uzavřená","arrival_time":"10:21:00","departure_time":"10:21:00","lat":49.196975,"lon":16.633346,"is_passed":false},{"stop_id":"U1669Z2","name":"Tomáškova","arrival_time":"10:21:00","departure_time":"10:21:00","lat":49.199647,"lon":16.631598,"is_passed":false},{"stop_id":"U1313Z1","name":"Kuldova","arrival_time":"10:23:00","departure_time":"10:23:00","lat":49.201297,"lon":16.634306,"is_passed":false},{"stop_id":"U1611Z8","name":"Stará osada","arrival_time":"10:26:00","departure_time":"10:26:00","lat":49.202294,"lon":16.642001,"is_passed":false},{"stop_id":"U1698Z1","name":"Údolíček","arrival_time":"10:28:00","departure_time":"10:28:00","lat":49.206732,"lon":16.644592,"is_passed":false},{"stop_id":"U1498Z1","name":"Podsednická","arrival_time":"10:29:00","departure_time":"10:29:00","lat":49.209376,"lon":16.645876,"is_passed":false},{"stop_id":"U1316Z1","name":"Kulkova","arrival_time":"10:29:00","departure_time":"10:29:00","lat":49.211717,"lon":16.64853,"is_passed":false},{"stop_id":"U1791Z51","name":"Zimní I","arrival_time":"10:31:00","departure_time":"10:31:00","lat":49.213186,"lon":16.658794,"is_passed":false},{"stop_id":"U1792Z51","name":"Zimní II","arrival_time":"10:32:00","departure_time":"10:32:00","lat":49.213409,"lon":16.655937,"is_passed":false},{"stop_id":"U1083Z1","name":"Depo ČD","arrival_time":"10:33:00","departure_time":"10:33:00","lat":49.215406,"lon":16.653524,"is_passed":false},{"stop_id":"U1808Z1","name":"Železniční stavitelství","arrival_time":"10:33:00","departure_time":"10:33:00","lat":49.217133,"lon":16.654292,"is_passed":false},{"stop_id":"U1197Z4","name":"Jarní ČD","arrival_time":"10:34:00","departure_time":"10:34:00","lat":49.220905,"lon":16.652747,"is_passed":false},{"stop_id":"U1503Z2","name":"Podzimní","arrival_time":"10:34:00","departure_time":"10:34:00","lat":49.221561,"lon":16.653136,"is_passed":false},{"stop_id":"U1071Z1","name":"Červený písek","arrival_time":"10:36:00","departure_time":"10:56:00","lat":49.220493,"lon":16.657264,"is_passed":false}],"42512":[{"stop_id":"U1071Z2","name":"Červený písek","arrival_time":"10:56:00","departure_time":"10:56:00","lat":49.220452,"lon":16.657444,"is_passed":false},{"stop_id":"U1503Z3","name":"Podzimní","arrival_time":"10:56:00","departure_time":"10:56:00","lat":49.22165,"lon":16.652917,"is_passed":false},{"stop_id":"U1197Z3","name":"Jarní ČD","arrival_time":"10:57:00","departure_time":"10:57:00","lat":49.22026,"lon":16.652902,"is_passed":false},{"stop_id":"U1808Z2","name":"Železniční stavitelství","arrival_time":"10:58:00","departure_time":"10:58:00","lat":49.216798,"lon":16.654101,"is_passed":false},{"stop_id":"U1791Z1","name":"Zimní I","arrival_time":"10:59:00","departure_time":"10:59:00","lat":49.213186,"lon":16.658794,"is_passed":false},{"stop_id":"U1792Z1","name":"Zimní II","arrival_time":"11:00:00","departure_time":"11:00:00","lat":49.213409,"lon":16.655937,"is_passed":false},{"stop_id":"U1083Z2","name":"Depo ČD","arrival_time":"11:01:00","departure_time":"11:01:00","lat":49.214319,"lon":16.652131,"is_passed":false},{"stop_id":"U1316Z2","name":"Kulkova","arrival_time":"11:01:00","departure_time":"11:01:00","lat":49.211681,"lon":16.648344,"is_passed":false},{"stop_id":"U1498Z2","name":"Podsednická","arrival_time":"11:02:00","departure_time":"11:02:00","lat":49.209601,"lon":16.645873,"is_passed":false},{"stop_id":"U1698Z2","name":"Údolíček","arrival_time":"11:03:00","departure_time":"11:03:00","lat":49.206553,"lon":16.643865,"is_passed":false},{"stop_id":"U1631Z1","name":"Svatoplukova","arrival_time":"11:05:00","departure_time":"11:05:00","lat":49.2051,"lon":16.641425,"is_passed":false},{"stop_id":"U1611Z9","name":"Stará osada","arrival_time":"11:07:00","departure_time":"11:07:00","lat":49.202037,"lon":16.641659,"is_passed":false},{"stop_id":"U1313Z2","name":"Kuldova","arrival_time":"11:09:00","departure_time":"11:09:00","lat":49.201319,"lon":16.634551,"is_passed":false},{"stop_id":"U1669Z1","name":"Tomáškova","arrival_time":"11:10:00","departure_time":"11:10:00","lat":49.198844,"lon":16.631798,"is_passed":false},{"stop_id":"U1713Z1","name":"Uzavřená","arrival_time":"11:11:00","departure_time":"11:11:00","lat":49.196566,"lon":16.633434,"is_passed":false},{"stop_id":"U1203Z1","name":"Jílkova","arrival_time":"11:12:00","departure_time":"11:12:00","lat":49.195907,"lon":16.637881,"is_passed":false},{"stop_id":"U1116Z2","name":"Geislerova","arrival_time":"11:14:00","departure_time":"11:14:00","lat":49.192754,"lon":16.634757,"is_passed":false},{"stop_id":"U1814Z6","name":"Životského","arrival_time":"11:15:00","departure_time":"11:15:00","lat":49.190736,"lon":16.63382,"is_passed":false},{"stop_id":"U1372Z6","name":"Masná","arrival_time":"11:18:00","departure_time":"11:18:00","lat":49.190905,"lon":16.626023,"is_passed":false},{"stop_id":"U1144Z3","name":"Hladíkova","arrival_time":"11:19:00","departure_time":"11:19:00","lat":49.186729,"lon":16.626124,"is_passed":false},{"stop_id":"U1639Z1","name":"Škrobárenská","arrival_time":"11:20:00","departure_time":"11:20:00","lat":49.182466,"lon":16.626261,"is_passed":false},{"stop_id":"U1266Z3","name":"Konopná","arrival_time":"11:22:00","departure_time":"11:22:00","lat":49.180126,"lon":16.621339,"is_passed":false},{"stop_id":"U1256Z3","name":"Komárov","arrival_time":"11:24:00","departure_time":"11:24:00","lat":49.17444,"lon":16.622448,"is_passed":false},{"stop_id":"U1148Z1","name":"Hněvkovského","arrival_time":"11:25:00","departure_time":"11:25:00","lat":49.169807,"lon":16.625991,"is_passed":false},{"stop_id":"U1533Z1","name":"Ráječek","arrival_time":"11:28:00","departure_time":"11:28:00","lat":49.160802,"lon":16.638242,"is_passed":false},{"stop_id":"U1511Z1","name":"Popelova","arrival_time":"11:29:00","departure_time":"11:29:00","lat":49.156621,"lon":16.646516,"is_passed":false},{"stop_id":"U1518Z1","name":"Prodloužená","arrival_time":"11:30:00","departure_time":"11:30:00","lat":49.151349,"lon":16.647722,"is_passed":false},{"stop_id":"U1717Z1","name":"V aleji","arrival_time":"11:31:00","departure_time":"11:31:00","lat":49.147687,"lon":16.648637,"is_passed":false},{"stop_id":"U1151Z1","name":"Holásky","arrival_time":"11:33:00","departure_time":"11:33:00","lat":49.143624,"lon":16.650395,"is_passed":false},{"stop_id":"U1718Z1","name":"V rejích","arrival_time":"11:34:00","departure_time":"11:34:00","lat":49.139511,"lon":16.654735,"is_passed":false},{"stop_id":"U1187Z1","name":"Chrlické náměstí","arrival_time":"11:36:00","departure_time":"11:36:00","lat":49.135283,"lon":16.653902,"is_passed":false},{"stop_id":"U1183Z1","name":"Chrlice, nádraží","arrival_time":"11:37:00","departure_time":"11:37:00","lat":49.131712,"lon":16.656596,"is_passed":false},{"stop_id":"U1182Z1","name":"Chrlice, smyčka","arrival_time":"11:39:00","departure_time":"12:13:00","lat":49.126642,"lon":16.654642,"is_passed":false}],"42513":[{"stop_id":"U1182Z2","name":"Chrlice, smyčka","arrival_time":"12:13:00","departure_time":"12:13:00","lat":49.126338,"lon":16.654668,"is_passed":false},{"stop_id":"U1183Z2","name":"Chrlice, nádraží","arrival_time":"12:14:00","departure_time":"12:14:00","lat":49.132136,"lon":16.656638,"is_passed":false},{"stop_id":"U1187Z2","name":"Chrlické náměstí","arrival_time":"12:15:00","departure_time":"12:15:00","lat":49.13548,"lon":16.653876,"is_passed":false},{"stop_id":"U1718Z2","name":"V rejích","arrival_time":"12:16:00","departure_time":"12:16:00","lat":49.138975,"lon":16.65507,"is_passed":false},{"stop_id":"U1151Z2","name":"Holásky","arrival_time":"12:17:00","departure_time":"12:17:00","lat":49.142863,"lon":16.651287,"is_passed":false},{"stop_id":"U1717Z2","name":"V aleji","arrival_time":"12:18:00","departure_time":"12:18:00","lat":49.148,"lon":16.648573,"is_passed":false},{"stop_id":"U1518Z2","name":"Prodloužená","arrival_time":"12:19:00","departure_time":"12:19:00","lat":49.152176,"lon":16.647669,"is_passed":false},{"stop_id":"U1511Z2","name":"Popelova","arrival_time":"12:21:00","departure_time":"12:21:00","lat":49.156919,"lon":16.646204,"is_passed":false},{"stop_id":"U1533Z2","name":"Ráječek","arrival_time":"12:22:00","departure_time":"12:22:00","lat":49.161397,"lon":16.637387,"is_passed":false},{"stop_id":"U1148Z2","name":"Hněvkovského","arrival_time":"12:24:00","departure_time":"12:24:00","lat":49.169618,"lon":16.626335,"is_passed":false},{"stop_id":"U1565Z2","name":"Sazenice","arrival_time":"12:25:00","departure_time":"12:25:00","lat":49.172877,"lon":16.623824,"is_passed":false},{"stop_id":"U1361Z4","name":"Mariánské náměstí","arrival_time":"12:27:00","departure_time":"12:27:00","lat":49.177094,"lon":16.621935,"is_passed":false},{"stop_id":"U1266Z4","name":"Konopná","arrival_time":"12:28:00","departure_time":"12:28:00","lat":49.179332,"lon":16.621811,"is_passed":false},{"stop_id":"U1639Z2","name":"Škrobárenská","arrival_time":"12:30:00","departure_time":"12:30:00","lat":49.183283,"lon":16.626321,"is_passed":false},{"stop_id":"U1144Z4","name":"Hladíkova","arrival_time":"12:31:00","departure_time":"12:31:00","lat":49.18682,"lon":16.626223,"is_passed":false},{"stop_id":"U1372Z5","name":"Masná","arrival_time":"12:33:00","departure_time":"12:33:00","lat":49.191189,"lon":16.626548,"is_passed":false},{"stop_id":"U1814Z3","name":"Životského","arrival_time":"12:35:00","departure_time":"12:35:00","lat":49.190892,"lon":16.634126,"is_passed":false},{"stop_id":"U1116Z1","name":"Geislerova","arrival_time":"12:36:00","departure_time":"12:36:00","lat":49.19278,"lon":16.635345,"is_passed":false},{"stop_id":"U1048Z1","name":"Buzkova","arrival_time":"12:37:00","departure_time":"12:37:00","lat":49.194159,"lon":16.641228,"is_passed":false},{"stop_id":"U1401Z1","name":"Mošnova","arrival_time":"12:39:00","departure_time":"12:39:00","lat":49.196198,"lon":16.640931,"is_passed":false},{"stop_id":"U1203Z2","name":"Jílkova","arrival_time":"12:40:00","departure_time":"12:40:00","lat":49.196095,"lon":16.635913,"is_passed":false},{"stop_id":"U1713Z2","name":"Uzavřená","arrival_time":"12:41:00","departure_time":"12:41:00","lat":49.196975,"lon":16.633346,"is_passed":false},{"stop_id":"U1669Z2","name":"Tomáškova","arrival_time":"12:41:00","departure_time":"12:41:00","lat":49.199647,"lon":16.631598,"is_passed":false},{"stop_id":"U1313Z1","name":"Kuldova","arrival_time":"12:43:00","departure_time":"12:43:00","lat":49.201297,"lon":16.634306,"is_passed":false},{"stop_id":"U1611Z8","name":"Stará osada","arrival_time":"12:46:00","departure_time":"12:46:00","lat":49.202294,"lon":16.642001,"is_passed":false},{"stop_id":"U1698Z1","name":"Údolíček","arrival_time":"12:48:00","departure_time":"12:48:00","lat":49.206732,"lon":16.644592,"is_passed":false},{"stop_id":"U1498Z1","name":"Podsednická","arrival_time":"12:49:00","departure_time":"12:49:00","lat":49.209376,"lon":16.645876,"is_passed":false},{"stop_id":"U1316Z1","name":"Kulkova","arrival_time":"12:49:00","departure_time":"12:49:00","lat":49.211717,"lon":16.64853,"is_passed":false},{"stop_id":"U1791Z51","name":"Zimní I","arrival_time":"12:51:00","departure_time":"12:51:00","lat":49.213186,"lon":16.658794,"is_passed":false},{"stop_id":"U1792Z51","name":"Zimní II","arrival_time":"12:52:00","departure_time":"12:52:00","lat":49.213409,"lon":16.655937,"is_passed":false},{"stop_id":"U1083Z1","name":"Depo ČD","arrival_time":"12:53:00","departure_time":"12:53:00","lat":49.215406,"lon":16.653524,"is_passed":false},{"stop_id":"U1808Z1","name":"Železniční stavitelství","arrival_time":"12:53:00","departure_time":"12:53:00","lat":49.217133,"lon":16.654292,"is_passed":false},{"stop_id":"U1197Z4","name":"Jarní ČD","arrival_time":"12:54:00","departure_time":"12:54:00","lat":49.220905,"lon":16.652747,"is_passed":false},{"stop_id":"U1503Z2","name":"Podzimní","arrival_time":"12:54:00","departure_time":"12:54:00","lat":49.221561,"lon":16.653136,"is_passed":false},{"stop_id":"U1071Z1","name":"Červený písek","arrival_time":"12:56:00","departure_time":"13:16:00","lat":49.220493,"lon":16.657264,"is_passed":false}],"42514":[{"stop_id":"U1071Z2","name":"Červený písek","arrival_time":"13:16:00","departure_time":"13:16:00","lat":49.220452,"lon":16.657444,"is_passed":false},{"stop_id":"U1503Z3","name":"Podzimní","arrival_time":"13:16:00","departure_time":"13:16:00","lat":49.22165,"lon":16.652917,"is_passed":false},{"stop_id":"U1197Z3","name":"Jarní ČD","arrival_time":"13:17:00","departure_time":"13:17:00","lat":49.22026,"lon":16.652902,"is_passed":false},{"stop_id":"U1808Z2","name":"Železniční stavitelství","arrival_time":"13:18:00","departure_time":"13:18:00","lat":49.216798,"lon":16.654101,"is_passed":false},{"stop_id":"U1791Z1","name":"Zimní I","arrival_time":"13:19:00","departure_time":"13:19:00","lat":49.213186,"lon":16.658794,"is_passed":false},{"stop_id":"U1792Z1","name":"Zimní II","arrival_time":"13:20:00","departure_time":"13:20:00","lat":49.213409,"lon":16.655937,"is_passed":false},{"stop_id":"U1083Z2","name":"Depo ČD","arrival_time":"13:21:00","departure_time":"13:21:00","lat":49.214319,"lon":16.652131,"is_passed":false},{"stop_id":"U1316Z2","name":"Kulkova","arrival_time":"13:21:00","departure_time":"13:21:00","lat":49.211681,"lon":16.648344,"is_passed":false},{"stop_id":"U1498Z2","name":"Podsednická","arrival_time":"13:22:00","departure_time":"13:22:00","lat":49.209601,"lon":16.645873,"is_passed":false},{"stop_id":"U1698Z2","name":"Údolíček","arrival_time":"13:23:00","departure_time":"13:23:00","lat":49.206553,"lon":16.643865,"is_passed":false},{"stop_id":"U1631Z1","name":"Svatoplukova","arrival_time":"13:25:00","departure_time":"13:25:00","lat":49.2051,"lon":16.641425,"is_passed":false},{"stop_id":"U1611Z9","name":"Stará osada","arrival_time":"13:27:00","departure_time":"13:27:00","lat":49.202037,"lon":16.641659,"is_passed":false},{"stop_id":"U1313Z2","name":"Kuldova","arrival_time":"13:29:00","departure_time":"13:29:00","lat":49.201319,"lon":16.634551,"is_passed":false},{"stop_id":"U1669Z1","name":"Tomáškova","arrival_time":"13:30:00","departure_time":"13:30:00","lat":49.198844,"lon":16.631798,"is_passed":false},{"stop_id":"U1713Z1","name":"Uzavřená","arrival_time":"13:31:00","departure_time":"13:31:00","lat":49.196566,"lon":16.633434,"is_passed":false},{"stop_id":"U1203Z1","name":"Jílkova","arrival_time":"13:32:00","departure_time":"13:32:00","lat":49.195907,"lon":16.637881,"is_passed":false},{"stop_id":"U1116Z2","name":"Geislerova","arrival_time":"13:34:00","departure_time":"13:34:00","lat":49.192754,"lon":16.634757,"is_passed":false},{"stop_id":"U1814Z6","name":"Životského","arrival_time":"13:35:00","departure_time":"13:35:00","lat":49.190736,"lon":16.63382,"is_passed":false},{"stop_id":"U1372Z6","name":"Masná","arrival_time":"13:38:00","departure_time":"13:38:00","lat":49.190905,"lon":16.626023,"is_passed":false},{"stop_id":"U1144Z3","name":"Hladíkova","arrival_time":"13:39:00","departure_time":"13:39:00","lat":49.186729,"lon":16.626124,"is_passed":false},{"stop_id":"U1639Z1","name":"Škrobárenská","arrival_time":"13:40:00","departure_time":"13:40:00","lat":49.182466,"lon":16.626261,"is_passed":false},{"stop_id":"U1266Z3","name":"Konopná","arrival_time":"13:42:00","departure_time":"13:42:00","lat":49.180126,"lon":16.621339,"is_passed":false},{"stop_id":"U1256Z3","name":"Komárov","arrival_time":"13:44:00","departure_time":"13:44:00","lat":49.17444,"lon":16.622448,"is_passed":false},{"stop_id":"U1148Z1","name":"Hněvkovského","arrival_time":"13:45:00","departure_time":"13:45:00","lat":49.169807,"lon":16.625991,"is_passed":false},{"stop_id":"U1533Z1","name":"Ráječek","arrival_time":"13:48:00","departure_time":"13:48:00","lat":49.160802,"lon":16.638242,"is_passed":false},{"stop_id":"U1511Z1","name":"Popelova","arrival_time":"13:49:00","departure_time":"13:49:00","lat":49.156621,"lon":16.646516,"is_passed":false},{"stop_id":"U1518Z1","name":"Prodloužená","arrival_time":"13:50:00","departure_time":"13:50:00","lat":49.151349,"lon":16.647722,"is_passed":false},{"stop_id":"U1717Z1","name":"V aleji","arrival_time":"13:51:00","departure_time":"13:51:00","lat":49.147687,"lon":16.648637,"is_passed":false},{"stop_id":"U1151Z1","name":"Holásky","arrival_time":"13:53:00","departure_time":"13:53:00","lat":49.143624,"lon":16.650395,"is_passed":false},{"stop_id":"U1718Z1","name":"V rejích","arrival_time":"13:54:00","departure_time":"13:54:00","lat":49.139511,"lon":16.654735,"is_passed":false},{"stop_id":"U1187Z1","name":"Chrlické náměstí","arrival_time":"13:56:00","departure_time":"13:56:00","lat":49.135283,"lon":16.653902,"is_passed":false},{"stop_id":"U1183Z1","name":"Chrlice, nádraží","arrival_time":"13:57:00","departure_time":"13:57:00","lat":49.131712,"lon":16.656596,"is_passed":false},{"stop_id":"U1182Z1","name":"Chrlice, smyčka","arrival_time":"13:59:00","departure_time":"14:13:00","lat":49.126642,"lon":16.654642,"is_passed":false}],"42515":[{"stop_id":"U1182Z2","name":"Chrlice, smyčka","arrival_time":"14:13:00","departure_time":"14:13:00","lat":49.126338,"lon":16.654668,"is_passed":false},{"stop_id":"U1183Z2","name":"Chrlice, nádraží","arrival_time":"14:14:00","departure_time":"14:14:00","lat":49.132136,"lon":16.656638,"is_passed":false},{"stop_id":"U1187Z2","name":"Chrlické náměstí","arrival_time":"14:15:00","departure_time":"14:15:00","lat":49.13548,"lon":16.653876,"is_passed":false},{"stop_id":"U1718Z2","name":"V rejích","arrival_time":"14:16:00","departure_time":"14:16:00","lat":49.138975,"lon":16.65507,"is_passed":false},{"stop_id":"U1151Z2","name":"Holásky","arrival_time":"14:17:00","departure_time":"14:17:00","lat":49.142863,"lon":16.651287,"is_passed":false},{"stop_id":"U1717Z2","name":"V aleji","arrival_time":"14:18:00","departure_time":"14:18:00","lat":49.148,"lon":16.648573,"is_passed":false},{"stop_id":"U1518Z2","name":"Prodloužená","arrival_time":"14:19:00","departure_time":"14:19:00","lat":49.152176,"lon":16.647669,"is_passed":false},{"stop_id":"U1511Z2","name":"Popelova","arrival_time":"14:21:00","departure_time":"14:21:00","lat":49.156919,"lon":16.646204,"is_passed":false},{"stop_id":"U1533Z2","name":"Ráječek","arrival_time":"14:22:00","departure_time":"14:22:00","lat":49.161397,"lon":16.637387,"is_passed":false},{"stop_id":"U1148Z2","name":"Hněvkovského","arrival_time":"14:24:00","departure_time":"14:24:00","lat":49.169618,"lon":16.626335,"is_passed":false},{"stop_id":"U1565Z2","name":"Sazenice","arrival_time":"14:25:00","departure_time":"14:25:00","lat":49.172877,"lon":16.623824,"is_passed":false},{"stop_id":"U1361Z4","name":"Mariánské náměstí","arrival_time":"14:27:00","departure_time":"14:27:00","lat":49.177094,"lon":16.621935,"is_passed":false},{"stop_id":"U1266Z4","name":"Konopná","arrival_time":"14:28:00","departure_time":"14:28:00","lat":49.179332,"lon":16.621811,"is_passed":false},{"stop_id":"U1639Z2","name":"Škrobárenská","arrival_time":"14:30:00","departure_time":"14:30:00","lat":49.183283,"lon":16.626321,"is_passed":false},{"stop_id":"U1144Z4","name":"Hladíkova","arrival_time":"14:31:00","departure_time":"14:31:00","lat":49.18682,"lon":16.626223,"is_passed":false},{"stop_id":"U1372Z5","name":"Masná","arrival_time":"14:33:00","departure_time":"14:33:00","lat":49.191189,"lon":16.626548,"is_passed":false},{"stop_id":"U1814Z3","name":"Životského","arrival_time":"14:35:00","departure_time":"14:35:00","lat":49.190892,"lon":16.634126,"is_passed":false},{"stop_id":"U1116Z1","name":"Geislerova","arrival_time":"14:36:00","departure_time":"14:36:00","lat":49.19278,"lon":16.635345,"is_passed":false},{"stop_id":"U1048Z1","name":"Buzkova","arrival_time":"14:37:00","departure_time":"14:37:00","lat":49.194159,"lon":16.641228,"is_passed":false},{"stop_id":"U1401Z1","name":"Mošnova","arrival_time":"14:39:00","departure_time":"14:39:00","lat":49.196198,"lon":16.640931,"is_passed":false},{"stop_id":"U1203Z2","name":"Jílkova","arrival_time":"14:40:00","departure_time":"14:40:00","lat":49.196095,"lon":16.635913,"is_passed":false},{"stop_id":"U1713Z2","name":"Uzavřená","arrival_time":"14:41:00","departure_time":"14:41:00","lat":49.196975,"lon":16.633346,"is_passed":false},{"stop_id":"U1669Z2","name":"Tomáškova","arrival_time":"14:41:00","departure_time":"14:41:00","lat":49.199647,"lon":16.631598,"is_passed":false},{"stop_id":"U1313Z1","name":"Kuldova","arrival_time":"14:43:00","departure_time":"14:43:00","lat":49.201297,"lon":16.634306,"is_passed":false},{"stop_id":"U1611Z8","name":"Stará osada","arrival_time":"14:46:00","departure_time":"14:46:00","lat":49.202294,"lon":16.642001,"is_passed":false},{"stop_id":"U1698Z1","name":"Údolíček","arrival_time":"14:48:00","departure_time":"14:48:00","lat":49.206732,"lon":16.644592,"is_passed":false},{"stop_id":"U1498Z1","name":"Podsednická","arrival_time":"14:49:00","departure_time":"14:49:00","lat":49.209376,"lon":16.645876,"is_passed":false},{"stop_id":"U1316Z1","name":"Kulkova","arrival_time":"14:49:00","departure_time":"14:49:00","lat":49.211717,"lon":16.64853,"is_passed":false},{"stop_id":"U1791Z51","name":"Zimní I","arrival_time":"14:51:00","departure_time":"14:51:00","lat":49.213186,"lon":16.658794,"is_passed":false},{"stop_id":"U1792Z51","name":"Zimní II","arrival_time":"14:52:00","departure_time":"14:52:00","lat":49.213409,"lon":16.655937,"is_passed":false},{"stop_id":"U1083Z1","name":"Depo ČD","arrival_time":"14:53:00","departure_time":"14:53:00","lat":49.215406,"lon":16.653524,"is_passed":false},{"stop_id":"U1808Z1","name":"Železniční stavitelství","arrival_time":"14:53:00","departure_time":"14:53:00","lat":49.217133,"lon":16.654292,"is_passed":false},{"stop_id":"U1197Z4","name":"Jarní ČD","arrival_time":"14:54:00","departure_time":"14:54:00","lat":49.220905,"lon":16.652747,"is_passed":false},{"stop_id":"U1503Z2","name":"Podzimní","arrival_time":"14:54:00","departure_time":"14:54:00","lat":49.221561,"lon":16.653136,"is_passed":false},{"stop_id":"U1071Z1","name":"Červený písek","arrival_time":"14:56:00","departure_time":"15:16:00","lat":49.220493,"lon":16.657264,"is_passed":false}],"42516":[{"stop_id":"U1071Z2","name":"Červený písek","arrival_time":"15:16:00","departure_time":"15:16:00","lat":49.220452,"lon":16.657444,"is_passed":false},{"stop_id":"U1503Z3","name":"Podzimní","arrival_time":"15:16:00","departure_time":"15:16:00","lat":49.22165,"lon":16.652917,"is_passed":false},{"stop_id":"U1197Z3","name":"Jarní ČD","arrival_time":"15:17:00","departure_time":"15:17:00","lat":49.22026,"lon":16.652902,"is_passed":false},{"stop_id":"U1808Z2","name":"Železniční stavitelství","arrival_time":"15:18:00","departure_time":"15:18:00","lat":49.216798,"lon":16.654101,"is_passed":false},{"stop_id":"U1791Z1","name":"Zimní I","arrival_time":"15:19:00","departure_time":"15:19:00","lat":49.213186,"lon":16.658794,"is_passed":false},{"stop_id":"U1792Z1","name":"Zimní II","arrival_time":"15:20:00","departure_time":"15:20:00","lat":49.213409,"lon":16.655937,"is_passed":false},{"stop_id":"U1083Z2","name":"Depo ČD","arrival_time":"15:21:00","departure_time":"15:21:00","lat":49.214319,"lon":16.652131,"is_passed":false},{"stop_id":"U1316Z2","name":"Kulkova","arrival_time":"15:21:00","departure_time":"15:21:00","lat":49.211681,"lon":16.648344,"is_passed":false},{"stop_id":"U1498Z2","name":"Podsednická","arrival_time":"15:22:00","departure_time":"15:22:00","lat":49.209601,"lon":16.645873,"is_passed":false},{"stop_id":"U1698Z2","name":"Údolíček","arrival_time":"15:23:00","departure_time":"15:23:00","lat":49.206553,"lon":16.643865,"is_passed":false},{"stop_id":"U1631Z1","name":"Svatoplukova","arrival_time":"15:25:00","departure_time":"15:25:00","lat":49.2051,"lon":16.641425,"is_passed":false},{"stop_id":"U1611Z9","name":"Stará osada","arrival_time":"15:27:00","departure_time":"15:27:00","lat":49.202037,"lon":16.641659,"is_passed":false},{"stop_id":"U1313Z2","name":"Kuldova","arrival_time":"15:29:00","departure_time":"15:29:00","lat":49.201319,"lon":16.634551,"is_passed":false},{"stop_id":"U1669Z1","name":"Tomáškova","arrival_time":"15:30:00","departure_time":"15:30:00","lat":49.198844,"lon":16.631798,"is_passed":false},{"stop_id":"U1713Z1","name":"Uzavřená","arrival_time":"15:31:00","departure_time":"15:31:00","lat":49.196566,"lon":16.633434,"is_passed":false},{"stop_id":"U1203Z1","name":"Jílkova","arrival_time":"15:32:00","departure_time":"15:32:00","lat":49.195907,"lon":16.637881,"is_passed":false},{"stop_id":"U1116Z2","name":"Geislerova","arrival_time":"15:34:00","departure_time":"15:34:00","lat":49.192754,"lon":16.634757,"is_passed":false},{"stop_id":"U1814Z6","name":"Životského","arrival_time":"15:35:00","departure_time":"15:35:00","lat":49.190736,"lon":16.63382,"is_passed":false},{"stop_id":"U1372Z6","name":"Masná","arrival_time":"15:38:00","departure_time":"15:38:00","lat":49.190905,"lon":16.626023,"is_passed":false},{"stop_id":"U1144Z3","name":"Hladíkova","arrival_time":"15:39:00","departure_time":"15:39:00","lat":49.186729,"lon":16.626124,"is_passed":false},{"stop_id":"U1639Z1","name":"Škrobárenská","arrival_time":"15:40:00","departure_time":"15:40:00","lat":49.182466,"lon":16.626261,"is_passed":false},{"stop_id":"U1266Z3","name":"Konopná","arrival_time":"15:42:00","departure_time":"15:42:00","lat":49.180126,"lon":16.621339,"is_passed":false},{"stop_id":"U1256Z3","name":"Komárov","arrival_time":"15:44:00","departure_time":"15:44:00","lat":49.17444,"lon":16.622448,"is_passed":false},{"stop_id":"U1148Z1","name":"Hněvkovského","arrival_time":"15:45:00","departure_time":"15:45:00","lat":49.169807,"lon":16.625991,"is_passed":false},{"stop_id":"U1533Z1","name":"Ráječek","arrival_time":"15:48:00","departure_time":"15:48:00","lat":49.160802,"lon":16.638242,"is_passed":false},{"stop_id":"U1511Z1","name":"Popelova","arrival_time":"15:49:00","departure_time":"15:49:00","lat":49.156621,"lon":16.646516,"is_passed":false},{"stop_id":"U1518Z1","name":"Prodloužená","arrival_time":"15:50:00","departure_time":"15:50:00","lat":49.151349,"lon":16.647722,"is_passed":false},{"stop_id":"U1717Z1","name":"V aleji","arrival_time":"15:51:00","departure_time":"15:51:00","lat":49.147687,"lon":16.648637,"is_passed":false},{"stop_id":"U1151Z1","name":"Holásky","arrival_time":"15:53:00","departure_time":"15:53:00","lat":49.143624,"lon":16.650395,"is_passed":false},{"stop_id":"U1718Z1","name":"V rejích","arrival_time":"15:54:00","departure_time":"15:54:00","lat":49.139511,"lon":16.654735,"is_passed":false},{"stop_id":"U1187Z1","name":"Chrlické náměstí","arrival_time":"15:56:00","departure_time":"15:56:00","lat":49.135283,"lon":16.653902,"is_passed":false},{"stop_id":"U1183Z1","name":"Chrlice, nádraží","arrival_time":"15:57:00","departure_time":"15:57:00","lat":49.131712,"lon":16.656596,"is_passed":false},{"stop_id":"U1182Z1","name":"Chrlice, smyčka","arrival_time":"15:59:00","departure_time":"16:33:00","lat":49.126642,"lon":16.654642,"is_passed":false}],"42517":[{"stop_id":"U1182Z2","name":"Chrlice, smyčka","arrival_time":"16:33:00","departure_time":"16:33:00","lat":49.126338,"lon":16.654668,"is_passed":false},{"stop_id":"U1183Z2","name":"Chrlice, nádraží","arrival_time":"16:34:00","departure_time":"16:34:00","lat":49.132136,"lon":16.656638,"is_passed":false},{"stop_id":"U1187Z2","name":"Chrlické náměstí","arrival_time":"16:35:00","departure_time":"16:35:00","lat":49.13548,"lon":16.653876,"is_passed":false},{"stop_id":"U1718Z2","name":"V rejích","arrival_time":"16:36:00","departure_time":"16:36:00","lat":49.138975,"lon":16.65507,"is_passed":false},{"stop_id":"U1151Z2","name":"Holásky","arrival_time":"16:37:00","departure_time":"16:37:00","lat":49.142863,"lon":16.651287,"is_passed":false},{"stop_id":"U1717Z2","name":"V aleji","arrival_time":"16:38:00","departure_time":"16:38:00","lat":49.148,"lon":16.648573,"is_passed":false},{"stop_id":"U1518Z2","name":"Prodloužená","arrival_time":"16:39:00","departure_time":"16:39:00","lat":49.152176,"lon":16.647669,"is_passed":false},{"stop_id":"U1511Z2","name":"Popelova","arrival_time":"16:41:00","departure_time":"16:41:00","lat":49.156919,"lon":16.646204,"is_passed":false},{"stop_id":"U1533Z2","name":"Ráječek","arrival_time":"16:42:00","departure_time":"16:42:00","lat":49.161397,"lon":16.637387,"is_passed":false},{"stop_id":"U1148Z2","name":"Hněvkovského","arrival_time":"16:44:00","departure_time":"16:44:00","lat":49.169618,"lon":16.626335,"is_passed":false},{"stop_id":"U1565Z2","name":"Sazenice","arrival_time":"16:45:00","departure_time":"16:45:00","lat":49.172877,"lon":16.623824,"is_passed":false},{"stop_id":"U1361Z4","name":"Mariánské náměstí","arrival_time":"16:47:00","departure_time":"16:47:00","lat":49.177094,"lon":16.621935,"is_passed":false},{"stop_id":"U1266Z4","name":"Konopná","arrival_time":"16:48:00","departure_time":"16:48:00","lat":49.179332,"lon":16.621811,"is_passed":false},{"stop_id":"U1639Z2","name":"Škrobárenská","arrival_time":"16:50:00","departure_time":"16:50:00","lat":49.183283,"lon":16.626321,"is_passed":false},{"stop_id":"U1144Z4","name":"Hladíkova","arrival_time":"16:51:00","departure_time":"16:51:00","lat":49.18682,"lon":16.626223,"is_passed":false},{"stop_id":"U1372Z5","name":"Masná","arrival_time":"16:53:00","departure_time":"16:53:00","lat":49.191189,"lon":16.626548,"is_passed":false},{"stop_id":"U1814Z3","name":"Životského","arrival_time":"16:55:00","departure_time":"16:55:00","lat":49.190892,"lon":16.634126,"is_passed":false},{"stop_id":"U1116Z1","name":"Geislerova","arrival_time":"16:56:00","departure_time":"16:56:00","lat":49.19278,"lon":16.635345,"is_passed":false},{"stop_id":"U1048Z1","name":"Buzkova","arrival_time":"16:57:00","departure_time":"16:57:00","lat":49.194159,"lon":16.641228,"is_passed":false},{"stop_id":"U1401Z1","name":"Mošnova","arrival_time":"16:59:00","departure_time":"16:59:00","lat":49.196198,"lon":16.640931,"is_passed":false},{"stop_id":"U1203Z2","name":"Jílkova","arrival_time":"17:00:00","departure_time":"17:00:00","lat":49.196095,"lon":16.635913,"is_passed":false},{"stop_id":"U1713Z2","name":"Uzavřená","arrival_time":"17:01:00","departure_time":"17:01:00","lat":49.196975,"lon":16.633346,"is_passed":false},{"stop_id":"U1669Z2","name":"Tomáškova","arrival_time":"17:01:00","departure_time":"17:01:00","lat":49.199647,"lon":16.631598,"is_passed":false},{"stop_id":"U1313Z1","name":"Kuldova","arrival_time":"17:03:00","departure_time":"17:03:00","lat":49.201297,"lon":16.634306,"is_passed":false},{"stop_id":"U1611Z8","name":"Stará osada","arrival_time":"17:06:00","departure_time":"17:06:00","lat":49.202294,"lon":16.642001,"is_passed":false},{"stop_id":"U1698Z1","name":"Údolíček","arrival_time":"17:08:00","departure_time":"17:08:00","lat":49.206732,"lon":16.644592,"is_passed":false},{"stop_id":"U1498Z1","name":"Podsednická","arrival_time":"17:09:00","departure_time":"17:09:00","lat":49.209376,"lon":16.645876,"is_passed":false},{"stop_id":"U1316Z1","name":"Kulkova","arrival_time":"17:09:00","departure_time":"17:09:00","lat":49.211717,"lon":16.64853,"is_passed":false},{"stop_id":"U1791Z51","name":"Zimní I","arrival_time":"17:11:00","departure_time":"17:11:00","lat":49.213186,"lon":16.658794,"is_passed":false},{"stop_id":"U1792Z51","name":"Zimní II","arrival_time":"17:12:00","departure_time":"17:12:00","lat":49.213409,"lon":16.655937,"is_passed":false},{"stop_id":"U1083Z1","name":"Depo ČD","arrival_time":"17:13:00","departure_time":"17:13:00","lat":49.215406,"lon":16.653524,"is_passed":false},{"stop_id":"U1808Z1","name":"Železniční stavitelství","arrival_time":"17:13:00","departure_time":"17:13:00","lat":49.217133,"lon":16.654292,"is_passed":false},{"stop_id":"U1197Z4","name":"Jarní ČD","arrival_time":"17:14:00","departure_time":"17:14:00","lat":49.220905,"lon":16.652747,"is_passed":false},{"stop_id":"U1503Z2","name":"Podzimní","arrival_time":"17:14:00","departure_time":"17:14:00","lat":49.221561,"lon":16.653136,"is_passed":false},{"stop_id":"U1071Z1","name":"Červený písek","arrival_time":"17:16:00","departure_time":"17:36:00","lat":49.220493,"lon":16.657264,"is_passed":false}],"42518":[{"stop_id":"U1071Z2","name":"Červený písek","arrival_time":"17:36:00","departure_time":"17:36:00","lat":49.220452,"lon":16.657444,"is_passed":false},{"stop_id":"U1503Z3","name":"Podzimní","arrival_time":"17:36:00","departure_time":"17:36:00","lat":49.22165,"lon":16.652917,"is_passed":false},{"stop_id":"U1197Z3","name":"Jarní ČD","arrival_time":"17:37:00","departure_time":"17:37:00","lat":49.22026,"lon":16.652902,"is_passed":false},{"stop_id":"U1808Z2","name":"Železniční stavitelství","arrival_time":"17:38:00","departure_time":"17:38:00","lat":49.216798,"lon":16.654101,"is_passed":false},{"stop_id":"U1791Z1","name":"Zimní I","arrival_time":"17:39:00","departure_time":"17:39:00","lat":49.213186,"lon":16.658794,"is_passed":false},{"stop_id":"U1792Z1","name":"Zimní II","arrival_time":"17:40:00","departure_time":"17:40:00","lat":49.213409,"lon":16.655937,"is_passed":false},{"stop_id":"U1083Z2","name":"Depo ČD","arrival_time":"17:41:00","departure_time":"17:41:00","lat":49.214319,"lon":16.652131,"is_passed":false},{"stop_id":"U1316Z2","name":"Kulkova","arrival_time":"17:41:00","departure_time":"17:41:00","lat":49.211681,"lon":16.648344,"is_passed":false},{"stop_id":"U1498Z2","name":"Podsednická","arrival_time":"17:42:00","departure_time":"17:42:00","lat":49.209601,"lon":16.645873,"is_passed":false},{"stop_id":"U1698Z2","name":"Údolíček","arrival_time":"17:43:00","departure_time":"17:43:00","lat":49.206553,"lon":16.643865,"is_passed":false},{"stop_id":"U1631Z1","name":"Svatoplukova","arrival_time":"17:45:00","departure_time":"17:45:00","lat":49.2051,"lon":16.641425,"is_passed":false},{"stop_id":"U1611Z9","name":"Stará osada","arrival_time":"17:47:00","departure_time":"17:47:00","lat":49.202037,"lon":16.641659,"is_passed":false},{"stop_id":"U1313Z2","name":"Kuldova","arrival_time":"17:49:00","departure_time":"17:49:00","lat":49.201319,"lon":16.634551,"is_passed":false},{"stop_id":"U1669Z1","name":"Tomáškova","arrival_time":"17:50:00","departure_time":"17:50:00","lat":49.198844,"lon":16.631798,"is_passed":false},{"stop_id":"U1713Z1","name":"Uzavřená","arrival_time":"17:51:00","departure_time":"17:51:00","lat":49.196566,"lon":16.633434,"is_passed":false},{"stop_id":"U1203Z1","name":"Jílkova","arrival_time":"17:52:00","departure_time":"17:52:00","lat":49.195907,"lon":16.637881,"is_passed":false},{"stop_id":"U1116Z2","name":"Geislerova","arrival_time":"17:54:00","departure_time":"17:54:00","lat":49.192754,"lon":16.634757,"is_passed":false},{"stop_id":"U1814Z6","name":"Životského","arrival_time":"17:55:00","departure_time":"17:55:00","lat":49.190736,"lon":16.63382,"is_passed":false},{"stop_id":"U1372Z6","name":"Masná","arrival_time":"17:58:00","departure_time":"17:58:00","lat":49.190905,"lon":16.626023,"is_passed":false},{"stop_id":"U1144Z3","name":"Hladíkova","arrival_time":"17:59:00","departure_time":"17:59:00","lat":49.186729,"lon":16.626124,"is_passed":false},{"stop_id":"U1639Z1","name":"Škrobárenská","arrival_time":"18:00:00","departure_time":"18:00:00","lat":49.182466,"lon":16.626261,"is_passed":false},{"stop_id":"U1266Z3","name":"Konopná","arrival_time":"18:02:00","departure_time":"18:02:00","lat":49.180126,"lon":16.621339,"is_passed":false},{"stop_id":"U1256Z3","name":"Komárov","arrival_time":"18:04:00","departure_time":"18:04:00","lat":49.17444,"lon":16.622448,"is_passed":false},{"stop_id":"U1148Z1","name":"Hněvkovského","arrival_time":"18:05:00","departure_time":"18:05:00","lat":49.169807,"lon":16.625991,"is_passed":false},{"stop_id":"U1533Z1","name":"Ráječek","arrival_time":"18:08:00","departure_time":"18:08:00","lat":49.160802,"lon":16.638242,"is_passed":false},{"stop_id":"U1511Z1","name":"Popelova","arrival_time":"18:09:00","departure_time":"18:09:00","lat":49.156621,"lon":16.646516,"is_passed":false},{"stop_id":"U1518Z1","name":"Prodloužená","arrival_time":"18:10:00","departure_time":"18:10:00","lat":49.151349,"lon":16.647722,"is_passed":false},{"stop_id":"U1717Z1","name":"V aleji","arrival_time":"18:11:00","departure_time":"18:11:00","lat":49.147687,"lon":16.648637,"is_passed":false},{"stop_id":"U1151Z1","name":"Holásky","arrival_time":"18:13:00","departure_time":"18:13:00","lat":49.143624,"lon":16.650395,"is_passed":false},{"stop_id":"U1718Z1","name":"V rejích","arrival_time":"18:14:00","departure_time":"18:14:00","lat":49.139511,"lon":16.654735,"is_passed":false},{"stop_id":"U1187Z1","name":"Chrlické náměstí","arrival_time":"18:16:00","departure_time":"18:16:00","lat":49.135283,"lon":16.653902,"is_passed":false},{"stop_id":"U1183Z1","name":"Chrlice, nádraží","arrival_time":"18:17:00","departure_time":"18:17:00","lat":49.131712,"lon":16.656596,"is_passed":false},{"stop_id":"U1182Z1","name":"Chrlice, smyčka","arrival_time":"18:19:00","departure_time":"18:52:00","lat":49.126642,"lon":16.654642,"is_passed":false}],"42519":[{"stop_id":"U1182Z2","name":"Chrlice, smyčka","arrival_time":"18:52:00","departure_time":"18:52:00","lat":49.126338,"lon":16.654668,"is_passed":false},{"stop_id":"U1183Z2","name":"Chrlice, nádraží","arrival_time":"18:53:00","departure_time":"18:53:00","lat":49.132136,"lon":16.656638,"is_passed":false},{"stop_id":"U1187Z2","name":"Chrlické náměstí","arrival_time":"18:54:00","departure_time":"18:54:00","lat":49.13548,"lon":16.653876,"is_passed":false},{"stop_id":"U1718Z2","name":"V rejích","arrival_time":"18:55:00","departure_time":"18:55:00","lat":49.138975,"lon":16.65507,"is_passed":false},{"stop_id":"U1151Z2","name":"Holásky","arrival_time":"18:56:00","departure_time":"18:56:00","lat":49.142863,"lon":16.651287,"is_passed":false},{"stop_id":"U1717Z2","name":"V aleji","arrival_time":"18:57:00","departure_time":"18:57:00","lat":49.148,"lon":16.648573,"is_passed":false},{"stop_id":"U1518Z2","name":"Prodloužená","arrival_time":"18:58:00","departure_time":"18:58:00","lat":49.152176,"lon":16.647669,"is_passed":false},{"stop_id":"U1511Z2","name":"Popelova","arrival_time":"19:00:00","departure_time":"19:00:00","lat":49.156919,"lon":16.646204,"is_passed":false},{"stop_id":"U1533Z2","name":"Ráječek","arrival_time":"19:01:00","departure_time":"19:01:00","lat":49.161397,"lon":16.637387,"is_passed":false},