[{"stop_id":"U1302Z1","name":"Křivánkovo náměstí","arrival_time":"12:43:00","departure_time":"12:43:00","lat":49.20718,"lon":16.487513,"is_passed":false},{"stop_id":"U1800Z1","name":"Žebětín, hřbitov","arrival_time":"12:44:00","departure_time":"12:44:00","lat":49.204634,"lon":16.487304,"is_passed":false},{"stop_id":"U1015Z2","name":"Bartolomějská","arrival_time":"12:45:00","departure_time":"12:46:00","lat":49.203579,"lon":16.489347,"is_passed":false},{"stop_id":"U1540Z2","name":"Ríšova","arrival_time":"12:49:00","departure_time":"12:49:00","lat":49.206684,"lon":16.481219,"is_passed":false},{"stop_id":"U1139Z2","name":"Helenčina","arrival_time":"12:50:00","departure_time":"12:50:00","lat":49.206852,"lon":16.486036,"is_passed":false},{"stop_id":"U1096Z2","name":"Drdy","arrival_time":"12:51:00","departure_time":"12:51:00","lat":49.209191,"lon":16.492285,"is_passed":false},{"stop_id":"U1802Z2","name":"Žebětínský rybník","arrival_time":"12:52:00","departure_time":"12:52:00","lat":49.215544,"lon":16.493531,"is_passed":false},{"stop_id":"U1221Z2","name":"Kamechy","arrival_time":"12:53:00","departure_time":"12:53:00","lat":49.214794,"lon":16.49742,"is_passed":false}]