{"426":[{"stop_id":"U1696Z12","name":"ÚAN Zvonařka","arrival_time":"5:29:00","departure_time":"5:29:00","lat":49.185364,"lon":16.616151,"is_passed":false},{"stop_id":"U1266Z3","name":"Konopná","arrival_time":"5:31:00","departure_time":"5:31:00","lat":49.180126,"lon":16.621339,"is_passed":false},{"stop_id":"U1256Z3","name":"Komárov","arrival_time":"5:34:00","departure_time":"5:34:00","lat":49.17444,"lon":16.622448,"is_passed":false},{"stop_id":"U1533Z1","name":"Ráječek","arrival_time":"5:38:00","departure_time":"5:38:00","lat":49.160802,"lon":16.638242,"is_passed":false},{"stop_id":"U1191Z1","name":"Ivanovické náměstí","arrival_time":"5:40:00","departure_time":"5:40:00","lat":49.153066,"lon":16.653791,"is_passed":false},{"stop_id":"U1131Z7","name":"Hanácká","arrival_time":"5:44:00","departure_time":"5:44:00","lat":49.146163,"lon":16.665975,"is_passed":false},{"stop_id":"U1681Z3","name":"Tuřany, smyčka","arrival_time":"5:46:00","departure_time":"5:46:00","lat":49.141407,"lon":16.667828,"is_passed":false},{"stop_id":"U16147Z1","name":"Sokolnice, rozvodna","arrival_time":"5:50:00","departure_time":"5:50:00","lat":49.115062,"lon":16.704663,"is_passed":false},{"stop_id":"U16138Z3","name":"Telnice","arrival_time":"5:52:00","departure_time":"5:52:00","lat":49.101602,"lon":16.717823,"is_passed":false},{"stop_id":"U15167Z2","name":"Měnín, rozcestí","arrival_time":"5:54:00","departure_time":"5:54:00","lat":49.087125,"lon":16.716473,"is_passed":false},{"stop_id":"U15232Z1","name":"Moutnice, Rozařín","arrival_time":"5:58:00","departure_time":"5:58:00","lat":49.05247,"lon":16.737351,"is_passed":false},{"stop_id":"U15223Z1","name":"Moutnice, střed","arrival_time":"6:00:00","departure_time":"6:00:00","lat":49.048967,"lon":16.736746,"is_passed":false},{"stop_id":"U15227Z1","name":"Těšany, u váhy","arrival_time":"6:02:00","departure_time":"6:02:00","lat":49.041022,"lon":16.764925,"is_passed":false},{"stop_id":"U15226Z1","name":"Těšany","arrival_time":"6:04:00","departure_time":"6:04:00","lat":49.039299,"lon":16.771319,"is_passed":false},{"stop_id":"U16344Z1","name":"Klobouky u Brna, Martinice, rozcestí","arrival_time":"6:10:00","departure_time":"6:10:00","lat":49.013442,"lon":16.828372,"is_passed":false},{"stop_id":"U16347Z1","name":"Klobouky u Brna, rozcestí","arrival_time":"6:13:00","departure_time":"6:13:00","lat":49.000525,"lon":16.862658,"is_passed":false},{"stop_id":"U16356Z1","name":"Klobouky u Brna, hřbitov","arrival_time":"6:14:00","departure_time":"6:14:00","lat":48.998318,"lon":16.862927,"is_passed":false},{"stop_id":"U16345Z1","name":"Klobouky u Brna, náměstí","arrival_time":"6:15:00","departure_time":"6:43:00","lat":48.99538,"lon":16.85736,"is_passed":false}],"4260":[{"stop_id":"U13206Z1","name":"Čebín, železniční stanice","arrival_time":"12:30:00","departure_time":"12:30:00","lat":49.31947,"lon":16.466517,"is_passed":false},{"stop_id":"U13204Z1","name":"Čebín, sídliště","arrival_time":"12:31:00","departure_time":"12:31:00","lat":49.316601,"lon":16.473806,"is_passed":false},{"stop_id":"U13201Z2","name":"Čebín, náměstí","arrival_time":"12:32:00","departure_time":"12:32:00","lat":49.312885,"lon":16.47745,"is_passed":false},{"stop_id":"U13229Z1","name":"Čebín, Drásovská","arrival_time":"12:34:00","departure_time":"12:34:00","lat":49.316992,"lon":16.474595,"is_passed":false},{"stop_id":"U13207Z1","name":"Drásov, závod","arrival_time":"12:36:00","departure_time":"12:36:00","lat":49.327164,"lon":16.476914,"is_passed":false},{"stop_id":"U13209Z1","name":"Drásov, náměstí","arrival_time":"12:38:00","departure_time":"12:38:00","lat":49.331664,"lon":16.478565,"is_passed":false},{"stop_id":"U13212Z3","name":"Malhostovice, rozcestí","arrival_time":"12:41:00","departure_time":"12:41:00","lat":49.33209,"lon":16.499072,"is_passed":false},{"stop_id":"U13210Z1","name":"Malhostovice, náměstí","arrival_time":"12:42:00","departure_time":"12:42:00","lat":49.333355,"lon":16.501977,"is_passed":false},{"stop_id":"U13211Z51","name":"Malhostovice, Nuzířov","arrival_time":"12:45:00","departure_time":"13:12:00","lat":49.343612,"lon":16.522028,"is_passed":false}],"4261":[{"stop_id":"U13211Z1","name":"Malhostovice, Nuzířov","arrival_time":"13:12:00","departure_time":"13:12:00","lat":49.343612,"lon":16.522028,"is_passed":false},{"stop_id":"U13210Z2","name":"Malhostovice, náměstí","arrival_time":"13:15:00","departure_time":"13:15:00","lat":49.333415,"lon":16.502001,"is_passed":false},{"stop_id":"U13212Z4","name":"Malhostovice, rozcestí","arrival_time":"13:16:00","departure_time":"13:16:00","lat":49.331956,"lon":16.498573,"is_passed":false},{"stop_id":"U13209Z2","name":"Drásov, náměstí","arrival_time":"13:19:00","departure_time":"13:19:00","lat":49.331749,"lon":16.478489,"is_passed":false},{"stop_id":"U13207Z2","name":"Drásov, závod","arrival_time":"13:20:00","departure_time":"13:20:00","lat":49.327417,"lon":16.476862,"is_passed":false},{"stop_id":"U13229Z2","name":"Čebín, Drásovská","arrival_time":"13:22:00","departure_time":"13:22:00","lat":49.316863,"lon":16.474535,"is_passed":false},{"stop_id":"U13201Z2","name":"Čebín, náměstí","arrival_time":"13:24:00","departure_time":"13:24:00","lat":49.312885,"lon":16.47745,"is_passed":false},{"stop_id":"U13204Z2","name":"Čebín, sídliště","arrival_time":"13:26:00","departure_time":"13:26:00","lat":49.316929,"lon":16.473444,"is_passed":false},{"stop_id":"U13206Z2","name":"Čebín, železniční stanice","arrival_time":"13:28:00","departure_time":"13:30:00","lat":49.31947,"lon":16.466517,"is_passed":false}],"4262":[{"stop_id":"U13206Z1","name":"Čebín, železniční stanice","arrival_time":"13:30:00","departure_time":"13:30:00","lat":49.31947,"lon":16.466517,"is_passed":false},{"stop_id":"U13204Z1","name":"Čebín, sídliště","arrival_time":"13:31:00","departure_time":"13:31:00","lat":49.316601,"lon":16.473806,"is_passed":false},{"stop_id":"U13201Z2","name":"Čebín, náměstí","arrival_time":"13:32:00","departure_time":"13:32:00","lat":49.312885,"lon":16.47745,"is_passed":false},{"stop_id":"U13229Z1","name":"Čebín, Drásovská","arrival_time":"13:34:00","departure_time":"13:34:00","lat":49.316992,"lon":16.474595,"is_passed":false},{"stop_id":"U13207Z1","name":"Drásov, závod","arrival_time":"13:36:00","departure_time":"13:36:00","lat":49.327164,"lon":16.476914,"is_passed":false},{"stop_id":"U13209Z1","name":"Drásov, náměstí","arrival_time":"13:38:00","departure_time":"13:38:00","lat":49.331664,"lon":16.478565,"is_passed":false},{"stop_id":"U13212Z3","name":"Malhostovice, rozcestí","arrival_time":"13:41:00","departure_time":"13:41:00","lat":49.33209,"lon":16.499072,"is_passed":false},{"stop_id":"U13210Z1","name":"Malhostovice, náměstí","arrival_time":"13:42:00","departure_time":"13:42:00","lat":49.333355,"lon":16.501977,"is_passed":false},{"stop_id":"U13211Z1","name":"Malhostovice, Nuzířov","arrival_time":"13:45:00","departure_time":"13:45:00","lat":49.343612,"lon":16.522028,"is_passed":false},{"stop_id":"U12004Z1","name":"Lipůvka","arrival_time":"13:51:00","departure_time":"14:06:00","lat":49.339155,"lon":16.552682,"is_passed":false}],"4263":[{"stop_id":"U12004Z4","name":"Lipůvka","arrival_time":"14:06:00","departure_time":"14:06:00","lat":49.339217,"lon":16.553087,"is_passed":false},{"stop_id":"U13211Z2","name":"Malhostovice, Nuzířov","arrival_time":"14:12:00","departure_time":"14:12:00","lat":49.343832,"lon":16.521562,"is_passed":false},{"stop_id":"U13210Z2","name":"Malhostovice, náměstí","arrival_time":"14:15:00","departure_time":"14:15:00","lat":49.333415,"lon":16.502001,"is_passed":false},{"stop_id":"U13212Z4","name":"Malhostovice, rozcestí","arrival_time":"14:16:00","departure_time":"14:16:00","lat":49.331956,"lon":16.498573,"is_passed":false},{"stop_id":"U13209Z2","name":"Drásov, náměstí","arrival_time":"14:19:00","departure_time":"14:19:00","lat":49.331749,"lon":16.478489,"is_passed":false},{"stop_id":"U13207Z2","name":"Drásov, závod","arrival_time":"14:20:00","departure_time":"14:20:00","lat":49.327417,"lon":16.476862,"is_passed":false},{"stop_id":"U13229Z2","name":"Čebín, Drásovská","arrival_time":"14:22:00","departure_time":"14:22:00","lat":49.316863,"lon":16.474535,"is_passed":false},{"stop_id":"U13201Z2","name":"Čebín, náměstí","arrival_time":"14:24:00","departure_time":"14:24:00","lat":49.312885,"lon":16.47745,"is_passed":false},{"stop_id":"U13204Z2","name":"Čebín, sídliště","arrival_time":"14:26:00","departure_time":"14:26:00","lat":49.316929,"lon":16.473444,"is_passed":false},{"stop_id":"U13206Z2","name":"Čebín, železniční stanice","arrival_time":"14:28:00","departure_time":"14:28:00","lat":49.31947,"lon":16.466517,"is_passed":false}],"4264":[{"stop_id":"U13206Z1","name":"Čebín, železniční stanice","arrival_time":"15:00:00","departure_time":"15:00:00","lat":49.31947,"lon":16.466517,"is_passed":false},{"stop_id":"U13204Z1","name":"Čebín, sídliště","arrival_time":"15:01:00","departure_time":"15:01:00","lat":49.316601,"lon":16.473806,"is_passed":false},{"stop_id":"U13201Z2","name":"Čebín, náměstí","arrival_time":"15:02:00","departure_time":"15:02:00","lat":49.312885,"lon":16.47745,"is_passed":false},{"stop_id":"U13229Z1","name":"Čebín, Drásovská","arrival_time":"15:04:00","departure_time":"15:04:00","lat":49.316992,"lon":16.474595,"is_passed":false},{"stop_id":"U13207Z1","name":"Drásov, závod","arrival_time":"15:06:00","departure_time":"15:06:00","lat":49.327164,"lon":16.476914,"is_passed":false},{"stop_id":"U13228Z1","name":"Drásov, kostel","arrival_time":"15:08:00","departure_time":"15:08:00","lat":49.332418,"lon":16.477968,"is_passed":false},{"stop_id":"U13208Z1","name":"Drásov, most","arrival_time":"15:09:00","departure_time":"15:09:00","lat":49.337658,"lon":16.480095,"is_passed":false},{"stop_id":"U13340Z1","name":"Všechovice, rozcestí","arrival_time":"15:12:00","departure_time":"15:12:00","lat":49.353733,"lon":16.496842,"is_passed":false},{"stop_id":"U13339Z1","name":"Všechovice","arrival_time":"15:14:00","departure_time":"15:14:00","lat":49.357503,"lon":16.494357,"is_passed":false},{"stop_id":"U13317Z1","name":"Skalička, hostinec","arrival_time":"15:18:00","departure_time":"15:18:00","lat":49.358295,"lon":16.514417,"is_passed":false},{"stop_id":"U13318Z1","name":"Skalička, chaloupky","arrival_time":"15:21:00","departure_time":"15:37:00","lat":49.357522,"lon":16.521667,"is_passed":false}],"4265":[{"stop_id":"U13318Z2","name":"Skalička, chaloupky","arrival_time":"15:37:00","departure_time":"15:37:00","lat":49.35744,"lon":16.52149,"is_passed":false},{"stop_id":"U13317Z2","name":"Skalička, hostinec","arrival_time":"15:39:00","departure_time":"15:39:00","lat":49.358295,"lon":16.514417,"is_passed":false},{"stop_id":"U13340Z2","name":"Všechovice, rozcestí","arrival_time":"15:42:00","departure_time":"15:42:00","lat":49.353647,"lon":16.496813,"is_passed":false},{"stop_id":"U13208Z2","name":"Drásov, most","arrival_time":"15:45:00","departure_time":"15:45:00","lat":49.337692,"lon":16.479953,"is_passed":false},{"stop_id":"U13228Z2","name":"Drásov, kostel","arrival_time":"15:47:00","departure_time":"15:49:00","lat":49.332279,"lon":16.477824,"is_passed":false},{"stop_id":"U13207Z2","name":"Drásov, závod","arrival_time":"15:50:00","departure_time":"15:50:00","lat":49.327417,"lon":16.476862,"is_passed":false},{"stop_id":"U13229Z2","name":"Čebín, Drásovská","arrival_time":"15:52:00","departure_time":"15:52:00","lat":49.316863,"lon":16.474535,"is_passed":false},{"stop_id":"U13201Z2","name":"Čebín, náměstí","arrival_time":"15:54:00","departure_time":"15:54:00","lat":49.312885,"lon":16.47745,"is_passed":false},{"stop_id":"U13204Z2","name":"Čebín, sídliště","arrival_time":"15:56:00","departure_time":"15:56:00","lat":49.316929,"lon":16.473444,"is_passed":false},{"stop_id":"U13206Z2","name":"Čebín, železniční stanice","arrival_time":"15:58:00","departure_time":"15:58:00","lat":49.31947,"lon":16.466517,"is_passed":false},{"stop_id":"U13316Z1","name":"Sentice, rozcestí","arrival_time":"16:00:00","departure_time":"16:00:00","lat":49.32304,"lon":16.45677,"is_passed":false},{"stop_id":"U13314Z1","name":"Sentice","arrival_time":"16:02:00","departure_time":"16:02:00","lat":49.314107,"lon":16.4529,"is_passed":false},{"stop_id":"U13315Z1","name":"Sentice, obecní úřad","arrival_time":"16:04:00","departure_time":"16:04:00","lat":49.311867,"lon":16.44775,"is_passed":false}],"4266":[{"stop_id":"U13315Z2","name":"Sentice, obecní úřad","arrival_time":"16:24:00","departure_time":"16:24:00","lat":49.311867,"lon":16.44775,"is_passed":false},{"stop_id":"U13314Z2","name":"Sentice","arrival_time":"16:25:00","departure_time":"16:25:00","lat":49.314187,"lon":16.45304,"is_passed":false},{"stop_id":"U13316Z2","name":"Sentice, rozcestí","arrival_time":"16:27:00","departure_time":"16:27:00","lat":49.323121,"lon":16.456928,"is_passed":false},{"stop_id":"U13206Z1","name":"Čebín, železniční stanice","arrival_time":"16:29:00","departure_time":"16:30:00","lat":49.31947,"lon":16.466517,"is_passed":false},{"stop_id":"U13204Z1","name":"Čebín, sídliště","arrival_time":"16:31:00","departure_time":"16:31:00","lat":49.316601,"lon":16.473806,"is_passed":false},{"stop_id":"U13201Z2","name":"Čebín, náměstí","arrival_time":"16:32:00","departure_time":"16:32:00","lat":49.312885,"lon":16.47745,"is_passed":false},{"stop_id":"U13229Z1","name":"Čebín, Drásovská","arrival_time":"16:34:00","departure_time":"16:34:00","lat":49.316992,"lon":16.474595,"is_passed":false},{"stop_id":"U13207Z1","name":"Drásov, závod","arrival_time":"16:36:00","departure_time":"16:36:00","lat":49.327164,"lon":16.476914,"is_passed":false},{"stop_id":"U13228Z1","name":"Drásov, kostel","arrival_time":"16:38:00","departure_time":"17:19:00","lat":49.332418,"lon":16.477968,"is_passed":false}],"4267":[{"stop_id":"U13228Z2","name":"Drásov, kostel","arrival_time":"17:19:00","departure_time":"17:19:00","lat":49.332279,"lon":16.477824,"is_passed":false},{"stop_id":"U13207Z2","name":"Drásov, závod","arrival_time":"17:20:00","departure_time":"17:20:00","lat":49.327417,"lon":16.476862,"is_passed":false},{"stop_id":"U13229Z2","name":"Čebín, Drásovská","arrival_time":"17:22:00","departure_time":"17:22:00","lat":49.316863,"lon":16.474535,"is_passed":false},{"stop_id":"U13201Z2","name":"Čebín, náměstí","arrival_time":"17:24:00","departure_time":"17:24:00","lat":49.312885,"lon":16.47745,"is_passed":false},{"stop_id":"U13204Z2","name":"Čebín, sídliště","arrival_time":"17:26:00","departure_time":"17:26:00","lat":49.316929,"lon":16.473444,"is_passed":false},{"stop_id":"U13206Z2","name":"Čebín, železniční stanice","arrival_time":"17:28:00","departure_time":"17:28:00","lat":49.31947,"lon":16.466517,"is_passed":false}],"4268":[{"stop_id":"U13206Z1","name":"Čebín, železniční stanice","arrival_time":"18:00:00","departure_time":"18:00:00","lat":49.31947,"lon":16.466517,"is_passed":false},{"stop_id":"U13204Z1","name":"Čebín, sídliště","arrival_time":"18:01:00","departure_time":"18:01:00","lat":49.316601,"lon":16.473806,"is_passed":false},{"stop_id":"U13201Z2","name":"Čebín, náměstí","arrival_time":"18:02:00","departure_time":"18:02:00","lat":49.312885,"lon":16.47745,"is_passed":false},{"stop_id":"U13229Z1","name":"Čebín, Drásovská","arrival_time":"18:04:00","departure_time":"18:04:00","lat":49.316992,"lon":16.474595,"is_passed":false},{"stop_id":"U13207Z1","name":"Drásov, závod","arrival_time":"18:06:00","departure_time":"18:06:00","lat":49.327164,"lon":16.476914,"is_passed":false},{"stop_id":"U13228Z1","name":"Drásov, kostel","arrival_time":"18:08:00","departure_time":"18:08:00","lat":49.332418,"lon":16.477968,"is_passed":false},{"stop_id":"U13208Z1","name":"Drásov, most","arrival_time":"18:09:00","departure_time":"18:09:00","lat":49.337658,"lon":16.480095,"is_passed":false},{"stop_id":"U13340Z1","name":"Všechovice, rozcestí","arrival_time":"18:12:00","departure_time":"18:12:00","lat":49.353733,"lon":16.496842,"is_passed":false},{"stop_id":"U13339Z1","name":"Všechovice","arrival_time":"18:14:00","departure_time":"18:14:00","lat":49.357503,"lon":16.494357,"is_passed":false},{"stop_id":"U13317Z1","name":"Skalička, hostinec","arrival_time":"18:18:00","departure_time":"18:18:00","lat":49.358295,"lon":16.514417,"is_passed":false},{"stop_id":"U13318Z1","name":"Skalička, chaloupky","arrival_time":"18:21:00","departure_time":"18:37:00","lat":49.357522,"lon":16.521667,"is_passed":false}],"4269":[{"stop_id":"U13318Z2","name":"Skalička, chaloupky","arrival_time":"18:37:00","departure_time":"18:37:00","lat":49.35744,"lon":16.52149,"is_passed":false},{"stop_id":"U13317Z2","name":"Skalička, hostinec","arrival_time":"18:39:00","departure_time":"18:39:00","lat":49.358295,"lon":16.514417,"is_passed":false},{"stop_id":"U13340Z2","name":"Všechovice, rozcestí","arrival_time":"18:42:00","departure_time":"18:42:00","lat":49.353647,"lon":16.496813,"is_passed":false},{"stop_id":"U13208Z2","name":"Drásov, most","arrival_time":"18:45:00","departure_time":"18:45:00","lat":49.337692,"lon":16.479953,"is_passed":false},{"stop_id":"U13228Z2","name":"Drásov, kostel","arrival_time":"18:47:00","departure_time":"18:49:00","lat":49.332279,"lon":16.477824,"is_passed":false},{"stop_id":"U13207Z2","name":"Drásov, závod","arrival_time":"18:50:00","departure_time":"18:50:00","lat":49.327417,"lon":16.476862,"is_passed":false},{"stop_id":"U13229Z2","name":"Čebín, Drásovská","arrival_time":"18:52:00","departure_time":"18:52:00","lat":49.316863,"lon":16.474535,"is_passed":false},{"stop_id":"U13201Z2","name":"Čebín, náměstí","arrival_time":"18:54:00","departure_time":"18:54:00","lat":49.312885,"lon":16.47745,"is_passed":false},{"stop_id":"U13204Z2","name":"Čebín, sídliště","arrival_time":"18:56:00","departure_time":"18:56:00","lat":49.316929,"lon":16.473444,"is_passed":false},{"stop_id":"U13206Z2","name":"Čebín, železniční stanice","arrival_time":"18:58:00","departure_time":"18:58:00","lat":49.31947,"lon":16.466517,"is_passed":false}],"42600":[{"stop_id":"U1128Z4","name":"Halasovo náměstí","arrival_time":"7:34:00","departure_time":"7:34:00","lat":49.22314,"lon":16.622438,"is_passed":false},{"stop_id":"U1506Z2","name":"Poliklinika Lesná","arrival_time":"7:35:00","departure_time":"7:35:00","lat":49.222411,"lon":16.625672,"is_passed":false},{"stop_id":"U1331Z1","name":"Lesná, nádraží","arrival_time":"7:37:00","departure_time":"7:37:00","lat":49.220041,"lon":16.629534,"is_passed":false},{"stop_id":"U1138Z1","name":"Heleny Malířové","arrival_time":"7:38:00","departure_time":"7:38:00","lat":49.223481,"lon":16.629567,"is_passed":false},{"stop_id":"U1008Z1","name":"Arbesova","arrival_time":"7:39:00","departure_time":"7:39:00","lat":49.226286,"lon":16.630842,"is_passed":false},{"stop_id":"U1028Z1","name":"Blažkova","arrival_time":"7:40:00","departure_time":"7:40:00","lat":49.230568,"lon":16.631,"is_passed":false},{"stop_id":"U1043Z1","name":"Brechtova","arrival_time":"7:41:00","departure_time":"7:41:00","lat":49.234039,"lon":16.629206,"is_passed":false},{"stop_id":"U1132Z2","name":"Haškova","arrival_time":"7:42:00","departure_time":"7:42:00","lat":49.233801,"lon":16.624796,"is_passed":false}],"42601":[{"stop_id":"U1132Z3","name":"Haškova","arrival_time":"7:47:00","departure_time":"7:47:00","lat":49.233588,"lon":16.623836,"is_passed":false},{"stop_id":"U1348Z2","name":"Loosova","arrival_time":"7:48:00","departure_time":"7:48:00","lat":49.231571,"lon":16.618938,"is_passed":false},{"stop_id":"U1111Z2","name":"Fillova","arrival_time":"7:49:00","departure_time":"7:49:00","lat":49.229347,"lon":16.616979,"is_passed":false},{"stop_id":"U1582Z2","name":"Slavíčkova","arrival_time":"7:50:00","departure_time":"7:50:00","lat":49.225821,"lon":16.617957,"is_passed":false},{"stop_id":"U1128Z4","name":"Halasovo náměstí","arrival_time":"7:51:00","departure_time":"7:51:00","lat":49.22314,"lon":16.622438,"is_passed":false}],"42602":[{"stop_id":"U1128Z4","name":"Halasovo náměstí","arrival_time":"7:51:00","departure_time":"7:51:00","lat":49.22314,"lon":16.622438,"is_passed":false},{"stop_id":"U1506Z2","name":"Poliklinika Lesná","arrival_time":"7:52:00","departure_time":"7:52:00","lat":49.222411,"lon":16.625672,"is_passed":false},{"stop_id":"U1331Z1","name":"Lesná, nádraží","arrival_time":"7:54:00","departure_time":"7:54:00","lat":49.220041,"lon":16.629534,"is_passed":false},{"stop_id":"U1138Z1","name":"Heleny Malířové","arrival_time":"7:55:00","departure_time":"7:55:00","lat":49.223481,"lon":16.629567,"is_passed":false},{"stop_id":"U1008Z1","name":"Arbesova","arrival_time":"7:56:00","departure_time":"7:56:00","lat":49.226286,"lon":16.630842,"is_passed":false},{"stop_id":"U1028Z1","name":"Blažkova","arrival_time":"7:57:00","departure_time":"7:57:00","lat":49.230568,"lon":16.631,"is_passed":false},{"stop_id":"U1043Z1","name":"Brechtova","arrival_time":"7:58:00","departure_time":"7:58:00","lat":49.234039,"lon":16.629206,"is_passed":false},{"stop_id":"U1132Z2","name":"Haškova","arrival_time":"7:59:00","departure_time":"8:01:00","lat":49.233801,"lon":16.624796,"is_passed":false}],"42603":[{"stop_id":"U1132Z3","name":"Haškova","arrival_time":"8:01:00","departure_time":"8:01:00","lat":49.233588,"lon":16.623836,"is_passed":false},{"stop_id":"U1043Z2","name":"Brechtova","arrival_time":"8:02:00","departure_time":"8:02:00","lat":49.233462,"lon":16.629437,"is_passed":false},{"stop_id":"U1028Z2","name":"Blažkova","arrival_time":"8:03:00","departure_time":"8:03:00","lat":49.229597,"lon":16.631063,"is_passed":false},{"stop_id":"U1008Z2","name":"Arbesova","arrival_time":"8:04:00","departure_time":"8:04:00","lat":49.225668,"lon":16.630461,"is_passed":false},{"stop_id":"U1138Z2","name":"Heleny Malířové","arrival_time":"8:05:00","departure_time":"8:05:00","lat":49.223075,"lon":16.629159,"is_passed":false},{"stop_id":"U1331Z1","name":"Lesná, nádraží","arrival_time":"8:07:00","departure_time":"8:07:00","lat":49.220041,"lon":16.629534,"is_passed":false}],"42604":[{"stop_id":"U1331Z1","name":"Lesná, nádraží","arrival_time":"8:07:00","departure_time":"8:07:00","lat":49.220041,"lon":16.629534,"is_passed":false},{"stop_id":"U1506Z1","name":"Poliklinika Lesná","arrival_time":"8:08:00","departure_time":"8:08:00","lat":49.222513,"lon":16.625643,"is_passed":false},{"stop_id":"U1128Z3","name":"Halasovo náměstí","arrival_time":"8:09:00","departure_time":"8:09:00","lat":49.223406,"lon":16.622237,"is_passed":false},{"stop_id":"U1582Z1","name":"Slavíčkova","arrival_time":"8:10:00","departure_time":"8:10:00","lat":49.226088,"lon":16.617914,"is_passed":false},{"stop_id":"U1111Z1","name":"Fillova","arrival_time":"8:11:00","departure_time":"8:11:00","lat":49.229105,"lon":16.616814,"is_passed":false},{"stop_id":"U1348Z1","name":"Loosova","arrival_time":"8:12:00","departure_time":"8:12:00","lat":49.232374,"lon":16.619952,"is_passed":false},{"stop_id":"U1132Z2","name":"Haškova","arrival_time":"8:13:00","departure_time":"8:17:00","lat":49.233801,"lon":16.624796,"is_passed":false}],"42605":[{"stop_id":"U1132Z3","name":"Haškova","arrival_time":"8:17:00","departure_time":"8:17:00","lat":49.233588,"lon":16.623836,"is_passed":false},{"stop_id":"U1348Z2","name":"Loosova","arrival_time":"8:18:00","departure_time":"8:18:00","lat":49.231571,"lon":16.618938,"is_passed":false},{"stop_id":"U1111Z2","name":"Fillova","arrival_time":"8:19:00","departure_time":"8:19:00","lat":49.229347,"lon":16.616979,"is_passed":false},{"stop_id":"U1582Z2","name":"Slavíčkova","arrival_time":"8:20:00","departure_time":"8:20:00","lat":49.225821,"lon":16.617957,"is_passed":false},{"stop_id":"U1128Z4","name":"Halasovo náměstí","arrival_time":"8:21:00","departure_time":"8:23:00","lat":49.22314,"lon":16.622438,"is_passed":false}],"42606":[{"stop_id":"U1573Z4","name":"Slatina, nádraží","arrival_time":"14:09:00","departure_time":"14:09:00","lat":49.169756,"lon":16.682633,"is_passed":false},{"stop_id":"U1640Z2","name":"Šmahova","arrival_time":"14:10:00","departure_time":"14:10:00","lat":49.172157,"lon":16.684373,"is_passed":false},{"stop_id":"U1562Z4","name":"Řípská","arrival_time":"14:12:00","departure_time":"14:12:00","lat":49.172829,"lon":16.682244,"is_passed":false},{"stop_id":"U1581Z1","name":"Areál Slatina","arrival_time":"14:13:00","departure_time":"14:13:00","lat":49.168614,"lon":16.67804,"is_passed":false},{"stop_id":"U1495Z2","name":"Pod Tuřankou","arrival_time":"14:14:00","departure_time":"14:14:00","lat":49.173265,"lon":16.674982,"is_passed":false},{"stop_id":"U1105Z2","name":"Ericha Roučky","arrival_time":"14:16:00","departure_time":"14:16:00","lat":49.175109,"lon":16.669439,"is_passed":false},{"stop_id":"U1741Z4","name":"Vlárská","arrival_time":"14:18:00","departure_time":"14:18:00","lat":49.181675,"lon":16.674379,"is_passed":false},{"stop_id":"U1757Z1","name":"Vozovna Slatina","arrival_time":"14:20:00","departure_time":"14:20:00","lat":49.183032,"lon":16.672807,"is_passed":false},{"stop_id":"U1068Z4","name":"Černovičky","arrival_time":"14:21:00","departure_time":"14:21:00","lat":49.183907,"lon":16.668247,"is_passed":false},{"stop_id":"U1501Z3","name":"Podstránská","arrival_time":"14:21:00","departure_time":"14:21:00","lat":49.186855,"lon":16.66649,"is_passed":false},{"stop_id":"U1018Z4","name":"Bělohorská","arrival_time":"14:23:00","departure_time":"14:23:00","lat":49.189904,"lon":16.662135,"is_passed":false},{"stop_id":"U1642Z2","name":"Špačkova","arrival_time":"14:24:00","departure_time":"14:24:00","lat":49.190815,"lon":16.659552,"is_passed":false},{"stop_id":"U1496Z2","name":"Podlomní","arrival_time":"14:25:00","departure_time":"14:25:00","lat":49.192497,"lon":16.654989,"is_passed":false},{"stop_id":"U1082Z2","name":"Dělnický dům","arrival_time":"14:26:00","departure_time":"14:26:00","lat":49.195559,"lon":16.64956,"is_passed":false},{"stop_id":"U1113Z2","name":"Gajdošova","arrival_time":"14:28:00","departure_time":"14:28:00","lat":49.198286,"lon":16.645995,"is_passed":false},{"stop_id":"U1611Z8","name":"Stará osada","arrival_time":"14:31:00","departure_time":"14:31:00","lat":49.202294,"lon":16.642001,"is_passed":false},{"stop_id":"U1811Z1","name":"Židenice, kasárna","arrival_time":"14:33:00","departure_time":"14:33:00","lat":49.208445,"lon":16.642414,"is_passed":false},{"stop_id":"U1231Z1","name":"Karlova","arrival_time":"14:34:00","departure_time":"14:34:00","lat":49.213487,"lon":16.643814,"is_passed":false},{"stop_id":"U1358Z1","name":"Maloměřický most","arrival_time":"14:35:00","departure_time":"14:35:00","lat":49.21558,"lon":16.642601,"is_passed":false},{"stop_id":"U1668Z6","name":"Tomkovo náměstí","arrival_time":"14:37:00","departure_time":"14:37:00","lat":49.214259,"lon":16.63678,"is_passed":false}],"42607":[{"stop_id":"U1132Z3","name":"Haškova","arrival_time":"15:07:00","departure_time":"15:07:00","lat":49.233588,"lon":16.623836,"is_passed":false},{"stop_id":"U1348Z2","name":"Loosova","arrival_time":"15:08:00","departure_time":"15:08:00","lat":49.231571,"lon":16.618938,"is_passed":false},{"stop_id":"U1111Z2","name":"Fillova","arrival_time":"15:09:00","departure_time":"15:09:00","lat":49.229347,"lon":16.616979,"is_passed":false},{"stop_id":"U1582Z2","name":"Slavíčkova","arrival_time":"15:10:00","departure_time":"15:10:00","lat":49.225821,"lon":16.617957,"is_passed":false},{"stop_id":"U1128Z4","name":"Halasovo náměstí","arrival_time":"15:11:00","departure_time":"15:11:00","lat":49.22314,"lon":16.622438,"is_passed":false}],"42608":[{"stop_id":"U1128Z4","name":"Halasovo náměstí","arrival_time":"15:11:00","departure_time":"15:11:00","lat":49.22314,"lon":16.622438,"is_passed":false},{"stop_id":"U1506Z2","name":"Poliklinika Lesná","arrival_time":"15:12:00","departure_time":"15:12:00","lat":49.222411,"lon":16.625672,"is_passed":false},{"stop_id":"U1331Z1","name":"Lesná, nádraží","arrival_time":"15:14:00","departure_time":"15:14:00","lat":49.220041,"lon":16.629534,"is_passed":false},{"stop_id":"U1138Z1","name":"Heleny Malířové","arrival_time":"15:15:00","departure_time":"15:15:00","lat":49.223481,"lon":16.629567,"is_passed":false},{"stop_id":"U1008Z1","name":"Arbesova","arrival_time":"15:16:00","departure_time":"15:16:00","lat":49.226286,"lon":16.630842,"is_passed":false},{"stop_id":"U1028Z1","name":"Blažkova","arrival_time":"15:17:00","departure_time":"15:17:00","lat":49.230568,"lon":16.631,"is_passed":false},{"stop_id":"U1043Z1","name":"Brechtova","arrival_time":"15:18:00","departure_time":"15:18:00","lat":49.234039,"lon":16.629206,"is_passed":false},{"stop_id":"U1132Z2","name":"Haškova","arrival_time":"15:19:00","departure_time":"15:21:00","lat":49.233801,"lon":16.624796,"is_passed":false}],"42609":[{"stop_id":"U1132Z3","name":"Haškova","arrival_time":"15:21:00","departure_time":"15:21:00","lat":49.233588,"lon":16.623836,"is_passed":false},{"stop_id":"U1043Z2","name":"Brechtova","arrival_time":"15:22:00","departure_time":"15:22:00","lat":49.233462,"lon":16.629437,"is_passed":false},{"stop_id":"U1028Z2","name":"Blažkova","arrival_time":"15:23:00","departure_time":"15:23:00","lat":49.229597,"lon":16.631063,"is_passed":false},{"stop_id":"U1008Z2","name":"Arbesova","arrival_time":"15:24:00","departure_time":"15:24:00","lat":49.225668,"lon":16.630461,"is_passed":false},{"stop_id":"U1138Z2","name":"Heleny Malířové","arrival_time":"15:25:00","departure_time":"15:25:00","lat":49.223075,"lon":16.629159,"is_passed":false},{"stop_id":"U1331Z1","name":"Lesná, nádraží","arrival_time":"15:27:00","departure_time":"15:27:00","lat":49.220041,"lon":16.629534,"is_passed":false}],"42610":[{"stop_id":"U1331Z1","name":"Lesná, nádraží","arrival_time":"15:27:00","departure_time":"15:27:00","lat":49.220041,"lon":16.629534,"is_passed":false},{"stop_id":"U1506Z1","name":"Poliklinika Lesná","arrival_time":"15:28:00","departure_time":"15:28:00","lat":49.222513,"lon":16.625643,"is_passed":false},{"stop_id":"U1128Z3","name":"Halasovo náměstí","arrival_time":"15:29:00","departure_time":"15:29:00","lat":49.223406,"lon":16.622237,"is_passed":false},{"stop_id":"U1582Z1","name":"Slavíčkova","arrival_time":"15:30:00","departure_time":"15:30:00","lat":49.226088,"lon":16.617914,"is_passed":false},{"stop_id":"U1111Z1","name":"Fillova","arrival_time":"15:31:00","departure_time":"15:31:00","lat":49.229105,"lon":16.616814,"is_passed":false},{"stop_id":"U1348Z1","name":"Loosova","arrival_time":"15:32:00","departure_time":"15:32:00","lat":49.232374,"lon":16.619952,"is_passed":false},{"stop_id":"U1132Z2","name":"Haškova","arrival_time":"15:33:00","departure_time":"15:33:00","lat":49.233801,"lon":16.624796,"is_passed":false}],"42611":[{"stop_id":"U1132Z3","name":"Haškova","arrival_time":"15:58:00","departure_time":"15:58:00","lat":49.233588,"lon":16.623836,"is_passed":false},{"stop_id":"U1043Z2","name":"Brechtova","arrival_time":"15:59:00","departure_time":"15:59:00","lat":49.233462,"lon":16.629437,"is_passed":false},{"stop_id":"U1028Z2","name":"Blažkova","arrival_time":"16:00:00","departure_time":"16:00:00","lat":49.229597,"lon":16.631063,"is_passed":false},{"stop_id":"U1008Z2","name":"Arbesova","arrival_time":"16:01:00","departure_time":"16:01:00","lat":49.225668,"lon":16.630461,"is_passed":false},{"stop_id":"U1138Z2","name":"Heleny Malířové","arrival_time":"16:02:00","departure_time":"16:02:00","lat":49.223075,"lon":16.629159,"is_passed":false},{"stop_id":"U1331Z2","name":"Lesná, nádraží","arrival_time":"16:03:00","departure_time":"16:03:00","lat":49.220094,"lon":16.62942,"is_passed":false},{"stop_id":"U1646Z4","name":"Štefánikova čtvrť","arrival_time":"16:04:00","departure_time":"16:04:00","lat":49.217288,"lon":16.627693,"is_passed":false},{"stop_id":"U1522Z1","name":"Provazníkova","arrival_time":"16:05:00","departure_time":"16:05:00","lat":49.214516,"lon":16.623874,"is_passed":false},{"stop_id":"U1336Z4","name":"Lesnická","arrival_time":"16:07:00","departure_time":"16:07:00","lat":49.212882,"lon":16.617847,"is_passed":false},{"stop_id":"U1786Z2","name":"Zemědělská","arrival_time":"16:08:00","departure_time":"16:08:00","lat":49.210627,"lon":16.618463,"is_passed":false},{"stop_id":"U1100Z1","name":"Erbenova","arrival_time":"16:09:00","departure_time":"16:10:00","lat":49.209592,"lon":16.615921,"is_passed":false}],"42612":[{"stop_id":"U1100Z2","name":"Erbenova","arrival_time":"16:10:00","departure_time":"16:10:00","lat":49.209438,"lon":16.615481,"is_passed":false},{"stop_id":"U1786Z3","name":"Zemědělská","arrival_time":"16:12:00","departure_time":"16:12:00","lat":49.210812,"lon":16.618421,"is_passed":false},{"stop_id":"U1336Z3","name":"Lesnická","arrival_time":"16:13:00","departure_time":"16:13:00","lat":49.213089,"lon":16.619037,"is_passed":false},{"stop_id":"U1522Z2","name":"Provazníkova","arrival_time":"16:14:00","departure_time":"16:14:00","lat":49.214473,"lon":16.624002,"is_passed":false},{"stop_id":"U1646Z3","name":"Štefánikova čtvrť","arrival_time":"16:16:00","departure_time":"16:16:00","lat":49.216958,"lon":16.627543,"is_passed":false},{"stop_id":"U1331Z1","name":"Lesná, nádraží","arrival_time":"16:17:00","departure_time":"16:17:00","lat":49.220041,"lon":16.629534,"is_passed":false},{"stop_id":"U1138Z1","name":"Heleny Malířové","arrival_time":"16:18:00","departure_time":"16:18:00","lat":49.223481,"lon":16.629567,"is_passed":false},{"stop_id":"U1008Z1","name":"Arbesova","arrival_time":"16:19:00","departure_time":"16:19:00","lat":49.226286,"lon":16.630842,"is_passed":false},{"stop_id":"U1028Z1","name":"Blažkova","arrival_time":"16:20:00","departure_time":"16:20:00","lat":49.230568,"lon":16.631,"is_passed":false},{"stop_id":"U1043Z1","name":"Brechtova","arrival_time":"16:21:00","departure_time":"16:21:00","lat":49.234039,"lon":16.629206,"is_passed":false},{"stop_id":"U1132Z2","name":"Haškova","arrival_time":"16:22:00","departure_time":"16:22:00","lat":49.233801,"lon":16.624796,"is_passed":false}],"42613":[{"stop_id":"U1132Z3","name":"Haškova","arrival_time":"16:27:00","departure_time":"16:27:00","lat":49.233588,"lon":16.623836,"is_passed":false},{"stop_id":"U1348Z2","name":"Loosova","arrival_time":"16:28:00","departure_time":"16:28:00","lat":49.231571,"lon":16.618938,"is_passed":false},{"stop_id":"U1111Z2","name":"Fillova","arrival_time":"16:29:00","departure_time":"16:29:00","lat":49.229347,"lon":16.616979,"is_passed":false},{"stop_id":"U1582Z2","name":"Slavíčkova","arrival_time":"16:30:00","departure_time":"16:30:00","lat":49.225821,"lon":16.617957,"is_passed":false},{"stop_id":"U1128Z4","name":"Halasovo náměstí","arrival_time":"16:31:00","departure_time":"16:31:00","lat":49.22314,"lon":16.622438,"is_passed":false}],"42614":[{"stop_id":"U1128Z4","name":"Halasovo náměstí","arrival_time":"16:31:00","departure_time":"16:31:00","lat":49.22314,"lon":16.622438,"is_passed":false},{"stop_id":"U1506Z2","name":"Poliklinika Lesná","arrival_time":"16:32:00","departure_time":"16:32:00","lat":49.222411,"lon":16.625672,"is_passed":false},{"stop_id":"U1331Z1","name":"Lesná, nádraží","arrival_time":"16:34:00","departure_time":"16:34:00","lat":49.220041,"lon":16.629534,"is_passed":false},{"stop_id":"U1138Z1","name":"Heleny Malířové","arrival_time":"16:35:00","departure_time":"16:35:00","lat":49.223481,"lon":16.629567,"is_passed":false},{"stop_id":"U1008Z1","name":"Arbesova","arrival_time":"16:36:00","departure_time":"16:36:00","lat":49.226286,"lon":16.630842,"is_passed":false},{"stop_id":"U1028Z1","name":"Blažkova","arrival_time":"16:37:00","departure_time":"16:37:00","lat":49.230568,"lon":16.631,"is_passed":false},{"stop_id":"U1043Z1","name":"Brechtova","arrival_time":"16:38:00","departure_time":"16:38:00","lat":49.234039,"lon":16.629206,"is_passed":false},{"stop_id":"U1132Z2","name":"Haškova","arrival_time":"16:39:00","departure_time":"16:41:00","lat":49.233801,"lon":16.624796,"is_passed":false}],"42615":[{"stop_id":"U1132Z3","name":"Haškova","arrival_time":"16:41:00","departure_time":"16:41:00","lat":49.233588,"lon":16.623836,"is_passed":false},{"stop_id":"U1043Z2","name":"Brechtova","arrival_time":"16:42:00","departure_time":"16:42:00","lat":49.233462,"lon":16.629437,"is_passed":false},{"stop_id":"U1028Z2","name":"Blažkova","arrival_time":"16:43:00","departure_time":"16:43:00","lat":49.229597,"lon":16.631063,"is_passed":false},{"stop_id":"U1008Z2","name":"Arbesova","arrival_time":"16:44:00","departure_time":"16:44:00","lat":49.225668,"lon":16.630461,"is_passed":false},{"stop_id":"U1138Z2","name":"Heleny Malířové","arrival_time":"16:45:00","departure_time":"16:45:00","lat":49.223075,"lon":16.629159,"is_passed":false},{"stop_id":"U1331Z1","name":"Lesná, nádraží","arrival_time":"16:47:00","departure_time":"16:47:00","lat":49.220041,"lon":16.629534,"is_passed":false}],"42616":[{"stop_id":"U1331Z1","name":"Lesná, nádraží","arrival_time":"16:47:00","departure_time":"16:47:00","lat":49.220041,"lon":16.629534,"is_passed":false},{"stop_id":"U1506Z1","name":"Poliklinika Lesná","arrival_time":"16:48:00","departure_time":"16:48:00","lat":49.222513,"lon":16.625643,"is_passed":false},{"stop_id":"U1128Z3","name":"Halasovo náměstí","arrival_time":"16:49:00","departure_time":"16:49:00","lat":49.223406,"lon":16.622237,"is_passed":false},{"stop_id":"U1582Z1","name":"Slavíčkova","arrival_time":"16:50:00","departure_time":"16:50:00","lat":49.226088,"lon":16.617914,"is_passed":false},{"stop_id":"U1111Z1","name":"Fillova","arrival_time":"16:51:00","departure_time":"16:51:00","lat":49.229105,"lon":16.616814,"is_passed":false},{"stop_id":"U1348Z1","name":"Loosova","arrival_time":"16:52:00","departure_time":"16:52:00","lat":49.232374,"lon":16.619952,"is_passed":false},{"stop_id":"U1132Z2","name":"Haškova","arrival_time":"16:53:00","departure_time":"16:53:00","lat":49.233801,"lon":16.624796,"is_passed":false}],"42617":[{"stop_id":"U1132Z3","name":"Haškova","arrival_time":"17:18:00","departure_time":"17:18:00","lat":49.233588,"lon":16.623836,"is_passed":false},{"stop_id":"U1043Z2","name":"Brechtova","arrival_time":"17:19:00","departure_time":"17:19:00","lat":49.233462,"lon":16.629437,"is_passed":false},{"stop_id":"U1028Z2","name":"Blažkova","arrival_time":"17:20:00","departure_time":"17:20:00","lat":49.229597,"lon":16.631063,"is_passed":false},{"stop_id":"U1008Z2","name":"Arbesova","arrival_time":"17:21:00","departure_time":"17:21:00","lat":49.225668,"lon":16.630461,"is_passed":false},{"stop_id":"U1138Z2","name":"Heleny Malířové","arrival_time":"17:22:00","departure_time":"17:22:00","lat":49.223075,"lon":16.629159,"is_passed":false},{"stop_id":"U1331Z2","name":"Lesná, nádraží","arrival_time":"17:23:00","departure_time":"17:23:00","lat":49.220094,"lon":16.62942,"is_passed":false},{"stop_id":"U1646Z4","name":"Štefánikova čtvrť","arrival_time":"17:24:00","departure_time":"17:24:00","lat":49.217288,"lon":16.627693,"is_passed":false},{"stop_id":"U1522Z1","name":"Provazníkova","arrival_time":"17:25:00","departure_time":"17:25:00","lat":49.214516,"lon":16.623874,"is_passed":false},{"stop_id":"U1336Z4","name":"Lesnická","arrival_time":"17:27:00","departure_time":"17:27:00","lat":49.212882,"lon":16.617847,"is_passed":false},{"stop_id":"U1786Z2","name":"Zemědělská","arrival_time":"17:28:00","departure_time":"17:28:00","lat":49.210627,"lon":16.618463,"is_passed":false},{"stop_id":"U1100Z1","name":"Erbenova","arrival_time":"17:29:00","departure_time":"17:30:00","lat":49.209592,"lon":16.615921,"is_passed":false}],"42618":[{"stop_id":"U1100Z2","name":"Erbenova","arrival_time":"17:30:00","departure_time":"17:30:00","lat":49.209438,"lon":16.615481,"is_passed":false},{"stop_id":"U1786Z3","name":"Zemědělská","arrival_time":"17:32:00","departure_time":"17:32:00","lat":49.210812,"lon":16.618421,"is_passed":false},{"stop_id":"U1336Z3","name":"Lesnická","arrival_time":"17:33:00","departure_time":"17:33:00","lat":49.213089,"lon":16.619037,"is_passed":false},{"stop_id":"U1522Z2","name":"Provazníkova","arrival_time":"17:34:00","departure_time":"17:34:00","lat":49.214473,"lon":16.624002,"is_passed":false},{"stop_id":"U1646Z3","name":"Štefánikova čtvrť","arrival_time":"17:36:00","departure_time":"17:36:00","lat":49.216958,"lon":16.627543,"is_passed":false},{"stop_id":"U1331Z1","name":"Lesná, nádraží","arrival_time":"17:37:00","departure_time":"17:37:00","lat":49.220041,"lon":16.629534,"is_passed":false},{"stop_id":"U1138Z1","name":"Heleny Malířové","arrival_time":"17:38:00","departure_time":"17:38:00","lat":49.223481,"lon":16.629567,"is_passed":false},{"stop_id":"U1008Z1","name":"Arbesova","arrival_time":"17:39:00","departure_time":"17:39:00","lat":49.226286,"lon":16.630842,"is_passed":false},{"stop_id":"U1028Z1","name":"Blažkova","arrival_time":"17:40:00","departure_time":"17:40:00","lat":49.230568,"lon":16.631,"is_passed":false},{"stop_id":"U1043Z1","name":"Brechtova","arrival_time":"17:41:00","departure_time":"17:41:00","lat":49.234039,"lon":16.629206,"is_passed":false},{"stop_id":"U1132Z2","name":"Haškova","arrival_time":"17:42:00","departure_time":"17:42:00","lat":49.233801,"lon":16.624796,"is_passed":false}],"42619":[{"stop_id":"U1132Z3","name":"Haškova","arrival_time":"17:47:00","departure_time":"17:47:00","lat":49.233588,"lon":16.623836,"is_passed":false},{"stop_id":"U1348Z2","name":"Loosova","arrival_time":"17:48:00","departure_time":"17:48:00","lat":49.231571,"lon":16.618938,"is_passed":false},{"stop_id":"U1111Z2","name":"Fillova","arrival_time":"17:49:00","departure_time":"17:49:00","lat":49.229347,"lon":16.616979,"is_passed":false},{"stop_id":"U1582Z2","name":"Slavíčkova","arrival_time":"17:50:00","departure_time":"17:50:00","lat":49.225821,"lon":16.617957,"is_passed":false},{"stop_id":"U1128Z4","name":"Halasovo náměstí","arrival_time":"17:51:00","departure_time":"17:51:00","lat":49.22314,"lon":16.622438,"is_passed":false}],"42620":[{"stop_id":"U1128Z4","name":"Halasovo náměstí","arrival_time":"17:51:00","departure_time":"17:51:00","lat":49.22314,"lon":16.622438,"is_passed":false},{"stop_id":"U1506Z2","name":"Poliklinika Lesná","arrival_time":"17:52:00","departure_time":"17:52:00","lat":49.222411,"lon":16.625672,"is_passed":false},{"stop_id":"U1331Z1","name":"Lesná, nádraží","arrival_time":"17:54:00","departure_time":"17:54:00","lat":49.220041,"lon":16.629534,"is_passed":false},{"stop_id":"U1138Z1","name":"Heleny Malířové","arrival_time":"17:55:00","departure_time":"17:55:00","lat":49.223481,"lon":16.629567,"is_passed":false},{"stop_id":"U1008Z1","name":"Arbesova","arrival_time":"17:56:00","departure_time":"17:56:00","lat":49.226286,"lon":16.630842,"is_passed":false},{"stop_id":"U1028Z1","name":"Blažkova","arrival_time":"17:57:00","departure_time":"17:57:00","lat":49.230568,"lon":16.631,"is_passed":false},{"stop_id":"U1043Z1","name":"Brechtova","arrival_time":"17:58:00","departure_time":"17:58:00","lat":49.234039,"lon":16.629206,"is_passed":false},{"stop_id":"U1132Z2","name":"Haškova","arrival_time":"17:59:00","departure_time":"18:01:00","lat":49.233801,"lon":16.624796,"is_passed":false}],"42621":[{"stop_id":"U1132Z3","name":"Haškova","arrival_time":"18:01:00","departure_time":"18:01:00","lat":49.233588,"lon":16.623836,"is_passed":false},{"stop_id":"U1043Z2","name":"Brechtova","arrival_time":"18:02:00","departure_time":"18:02:00","lat":49.233462,"lon":16.629437,"is_passed":false},{"stop_id":"U1028Z2","name":"Blažkova","arrival_time":"18:03:00","departure_time":"18:03:00","lat":49.229597,"lon":16.631063,"is_passed":false},{"stop_id":"U1008Z2","name":"Arbesova","arrival_time":"18:04:00","departure_time":"18:04:00","lat":49.225668,"lon":16.630461,"is_passed":false},{"stop_id":"U1138Z2","name":"Heleny Malířové","arrival_time":"18:05:00","departure_time":"18:05:00","lat":49.223075,"lon":16.629159,"is_passed":false},{"stop_id":"U1331Z1","name":"Lesná, nádraží","arrival_time":"18:07:00","departure_time":"18:07:00","lat":49.220041,"lon":16.629534,"is_passed":false}],"42622":[{"stop_id":"U1331Z1","name":"Lesná, nádraží","arrival_time":"18:07:00","departure_time":"18:07:00","lat":49.220041,"lon":16.629534,"is_passed":false},{"stop_id":"U1506Z1","name":"Poliklinika Lesná","arrival_time":"18:08:00","departure_time":"18:08:00","lat":49.222513,"lon":16.625643,"is_passed":false},{"stop_id":"U1128Z3","name":"Halasovo náměstí","arrival_time":"18:09:00","departure_time":"18:09:00","lat":49.223406,"lon":16.622237,"is_passed":false},{"stop_id":"U1582Z1","name":"Slavíčkova","arrival_time":"18:10:00","departure_time":"18:10:00","lat":49.226088,"lon":16.617914,"is_passed":false},{"stop_id":"U1111Z1","name":"Fillova","arrival_time":"18:11:00","departure_time":"18:11:00","lat":49.229105,"lon":16.616814,"is_passed":false},{"stop_id":"U1348Z1","name":"Loosova","arrival_time":"18:12:00","departure_time":"18:12:00","lat":49.232374,"lon":16.619952,"is_passed":false},{"stop_id":"U1132Z2","name":"Haškova","arrival_time":"18:13:00","departure_time":"18:13:00","lat":49.233801,"lon":16.624796,"is_passed":false}],"42623":[{"stop_id":"U1132Z3","name":"Haškova","arrival_time":"18:21:00","departure_time":"18:21:00","lat":49.233588,"lon":16.623836,"is_passed":false},{"stop_id":"U1043Z2","name":"Brechtova","arrival_time":"18:22:00","departure_time":"18:22:00","lat":49.233462,"lon":16.629437,"is_passed":false},{"stop_id":"U1028Z2","name":"Blažkova","arrival_time":"18:23:00","departure_time":"18:23:00","lat":49.229597,"lon":16.631063,"is_passed":false},{"stop_id":"U1008Z2","name":"Arbesova","arrival_time":"18:24:00","departure_time":"18:24:00","lat":49.225668,"lon":16.630461,"is_passed":false},{"stop_id":"U1138Z2","name":"Heleny Malířové","arrival_time":"18:25:00","departure_time":"18:25:00","lat":49.223075,"lon":16.629159,"is_passed":false},{"stop_id":"U1331Z2","name":"Lesná, nádraží","arrival_time":"18:26:00","departure_time":"18:26:00","lat":49.220094,"lon":16.62942,"is_passed":false},{"stop_id":"U1646Z4","name":"Štefánikova čtvrť","arrival_time":"18:27:00","departure_time":"18:27:00","lat":49.217288,"lon":16.627693,"is_passed":false},{"stop_id":"U1522Z1","name":"Provazníkova","arrival_time":"18:28:00","departure_time":"18:28:00","lat":49.214516,"lon":16.623874,"is_passed":false},{"stop_id":"U1336Z4","name":"Lesnická","arrival_time":"18:30:00","departure_time":"18:30:00","lat":49.212882,"lon":16.617847,"is_passed":false},{"stop_id":"U1786Z2","name":"Zemědělská","arrival_time":"18:31:00","departure_time":"18:31:00","lat":49.210627,"lon":16.618463,"is_passed":false},{"stop_id":"U1100Z1","name":"Erbenova","arrival_time":"18:32:00","departure_time":"18:33:00","lat":49.209592,"lon":16.615921,"is_passed":false}],"42624":[{"stop_id":"U1100Z2","name":"Erbenova","arrival_time":"18:33:00","departure_time":"18:33:00","lat":49.209438,"lon":16.615481,"is_passed":false},{"stop_id":"U1786Z3","name":"Zemědělská","arrival_time":"18:34:00","departure_time":"18:34:00","lat":49.210812,"lon":16.618421,"is_passed":false},{"stop_id":"U1336Z3","name":"Lesnická","arrival_time":"18:35:00","departure_time":"18:35:00","lat":49.213089,"lon":16.619037,"is_passed":false},{"stop_id":"U1522Z2","name":"Provazníkova","arrival_time":"18:36:00","departure_time":"18:36:00","lat":49.214473,"lon":16.624002,"is_passed":false},{"stop_id":"U1646Z3","name":"Štefánikova čtvrť","arrival_time":"18:38:00","departure_time":"18:38:00","lat":49.216958,"lon":16.627543,"is_passed":false},{"stop_id":"U1331Z1","name":"Lesná, nádraží","arrival_time":"18:39:00","departure_time":"18:39:00","lat":49.220041,"lon":16.629534,"is_passed":false},{"stop_id":"U1138Z1","name":"Heleny Malířové","arrival_time":"18:40:00","departure_time":"18:40:00","lat":49.223481,"lon":16.629567,"is_passed":false},{"stop_id":"U1008Z1","name":"Arbesova","arrival_time":"18:41:00","departure_time":"18:41:00","lat":49.226286,"lon":16.630842,"is_passed":false},{"stop_id":"U1028Z1","name":"Blažkova","arrival_time":"18:42:00","departure_time":"18:42:00","lat":49.230568,"lon":16.631,"is_passed":false},{"stop_id":"U1043Z1","name":"Brechtova","arrival_time":"18:43:00","departure_time":"18:43:00","lat":49.234039,"lon":16.629206,"is_passed":false},{"stop_id":"U1132Z2","name":"Haškova","arrival_time":"18:44:00","departure_time":"18:46:00","lat":49.233801,"lon":16.624796,"is_passed":false}],"42625":[{"stop_id":"U1668Z4","name":"Tomkovo náměstí","arrival_time":"5:13:00","departure_time":"5:13:00","lat":49.214128,"lon":16.634545,"is_passed":false},{"stop_id":"U1381Z2","name":"Merhautova","arrival_time":"5:14:00","departure_time":"5:14:00","lat":49.215,"lon":16.627633,"is_passed":false},{"stop_id":"U1646Z3","name":"Štefánikova čtvrť","arrival_time":"5:15:00","departure_time":"5:15:00","lat":49.216958,"lon":16.627543,"is_passed":false},{"stop_id":"U1331Z1","name":"Lesná, nádraží","arrival_time":"5:16:00","departure_time":"5:16:00","lat":49.220041,"lon":16.629534,"is_passed":false},{"stop_id":"U1506Z1","name":"Poliklinika Lesná","arrival_time":"5:17:00","departure_time":"5:17:00","lat":49.222513,"lon":16.625643,"is_passed":false},{"stop_id":"U1128Z3","name":"Halasovo náměstí","arrival_time":"5:18:00","departure_time":"5:19:00","lat":49.223406,"lon":16.622237,"is_passed":false},{"stop_id":"U1582Z1","name":"Slavíčkova","arrival_time":"5:20:00","departure_time":"5:20:00","lat":49.226088,"lon":16.617914,"is_passed":false},{"stop_id":"U1111Z1","name":"Fillova","arrival_time":"5:21:00","departure_time":"5:21:00","lat":49.229105,"lon":16.616814,"is_passed":false},{"stop_id":"U1348Z1","name":"Loosova","arrival_time":"5:22:00","departure_time":"5:22:00","lat":49.232374,"lon":16.619952,"is_passed":false},{"stop_id":"U1132Z1","name":"Haškova","arrival_time":"5:23:00","departure_time":"5:23:00","lat":49.233582,"lon":16.624766,"is_passed":false},{"stop_id":"U1317Z1","name":"Kupkova","arrival_time":"5:24:00","departure_time":"5:24:00","lat":49.236519,"lon":16.627603,"is_passed":false},{"stop_id":"U1691Z1","name":"U rozvodny","arrival_time":"5:25:00","departure_time":"5:25:00","lat":49.240973,"lon":16.62736,"is_passed":false},{"stop_id":"U1479Z1","name":"Panská lícha","arrival_time":"5:26:00","departure_time":"5:26:00","lat":49.24527,"lon":16.624807,"is_passed":false},{"stop_id":"U1647Z1","name":"Štěpánkova","arrival_time":"5:27:00","departure_time":"5:27:00","lat":49.251649,"lon":16.62312,"is_passed":false},{"stop_id":"U1548Z1","name":"Rozárka","arrival_time":"5:28:00","departure_time":"5:28:00","lat":49.254486,"lon":16.622791,"is_passed":false},{"stop_id":"U1235Z3","name":"Klarisky","arrival_time":"5:30:00","departure_time":"5:43:00","lat":49.256942,"lon":16.622725,"is_passed":false}],"42626":[{"stop_id":"U1235Z4","name":"Klarisky","arrival_time":"5:43:00","departure_time":"5:43:00","lat":49.257063,"lon":16.622604,"is_passed":false},{"stop_id":"U1548Z2","name":"Rozárka","arrival_time":"5:43:00","departure_time":"5:43:00","lat":49.254088,"lon":16.622556,"is_passed":false},{"stop_id":"U1647Z2","name":"Štěpánkova","arrival_time":"5:44:00","departure_time":"5:44:00","lat":49.251234,"lon":16.623308,"is_passed":false},{"stop_id":"U1479Z2","name":"Panská lícha","arrival_time":"5:45:00","departure_time":"5:45:00","lat":49.245102,"lon":16.624834,"is_passed":false},{"stop_id":"U1691Z2","name":"U rozvodny","arrival_time":"5:46:00","departure_time":"5:46:00","lat":49.24075,"lon":16.627342,"is_passed":false},{"stop_id":"U1317Z2","name":"Kupkova","arrival_time":"5:47:00","departure_time":"5:47:00","lat":49.236128,"lon":16.627756,"is_passed":false},{"stop_id":"U1132Z3","name":"Haškova","arrival_time":"5:49:00","departure_time":"5:49:00","lat":49.233588,"lon":16.623836,"is_passed":false},{"stop_id":"U1348Z2","name":"Loosova","arrival_time":"5:50:00","departure_time":"5:50:00","lat":49.231571,"lon":16.618938,"is_passed":false},{"stop_id":"U1111Z2","name":"Fillova","arrival_time":"5:51:00","departure_time":"5:51:00","lat":49.229347,"lon":16.616979,"is_passed":false},{"stop_id":"U1582Z2","name":"Slavíčkova","arrival_time":"5:52:00","departure_time":"5:52:00","lat":49.225821,"lon":16.617957,"is_passed":false},{"stop_id":"U1128Z4","name":"Halasovo náměstí","arrival_time":"5:53:00","departure_time":"5:53:00","lat":49.22314,"lon":16.622438,"is_passed":false},{"stop_id":"U1506Z2","name":"Poliklinika Lesná","arrival_time":"5:54:00","departure_time":"5:54:00","lat":49.222411,"lon":16.625672,"is_passed":false},{"stop_id":"U1331Z2","name":"Lesná, nádraží","arrival_time":"5:55:00","departure_time":"5:55:00","lat":49.220094,"lon":16.62942,"is_passed":false},{"stop_id":"U1646Z4","name":"Štefánikova čtvrť","arrival_time":"5:56:00","departure_time":"5:56:00","lat":49.217288,"lon":16.627693,"is_passed":false},{"stop_id":"U1381Z1","name":"Merhautova","arrival_time":"5:57:00","departure_time":"5:57:00","lat":49.21485,"lon":16.627477,"is_passed":false},{"stop_id":"U1668Z1","name":"Tomkovo náměstí","arrival_time":"5:59:00","departure_time":"5:59:00","lat":49.214035,"lon":16.636587,"is_passed":false},{"stop_id":"U1358Z5","name":"Maloměřický most","arrival_time":"6:00:00","departure_time":"6:00:00","lat":49.2152,"lon":16.643926,"is_passed":false}],"42627":[{"stop_id":"U1358Z5","name":"Maloměřický most","arrival_time":"6:00:00","departure_time":"6:00:00","lat":49.2152,"lon":16.643926,"is_passed":false},{"stop_id":"U1231Z2","name":"Karlova","arrival_time":"6:01:00","departure_time":"6:01:00","lat":49.212343,"lon":16.643285,"is_passed":false},{"stop_id":"U1668Z4","name":"Tomkovo náměstí","arrival_time":"6:03:00","departure_time":"6:03:00","lat":49.214128,"lon":16.634545,"is_passed":false},{"stop_id":"U1381Z2","name":"Merhautova","arrival_time":"6:04:00","departure_time":"6:04:00","lat":49.215,"lon":16.627633,"is_passed":false},{"stop_id":"U1646Z3","name":"Štefánikova čtvrť","arrival_time":"6:05:00","departure_time":"6:05:00","lat":49.216958,"lon":16.627543,"is_passed":false},{"stop_id":"U1331Z1","name":"Lesná, nádraží","arrival_time":"6:06:00","departure_time":"6:06:00","lat":49.220041,"lon":16.629534,"is_passed":false},{"stop_id":"U1506Z1","name":"Poliklinika Lesná","arrival_time":"6:07:00","departure_time":"6:07:00","lat":49.222513,"lon":16.625643,"is_passed":false},{"stop_id":"U1128Z3","name":"Halasovo náměstí","arrival_time":"6:08:00","departure_time":"6:09:00","lat":49.223406,"lon":16.622237,"is_passed":false},{"stop_id":"U1582Z1","name":"Slavíčkova","arrival_time":"6:10:00","departure_time":"6:10:00","lat":49.226088,"lon":16.617914,"is_passed":false},{"stop_id":"U1111Z1","name":"Fillova","arrival_time":"6:11:00","departure_time":"6:11:00","lat":49.229105,"lon":16.616814,"is_passed":false},{"stop_id":"U1348Z1","name":"Loosova","arrival_time":"6:12:00","departure_time":"6:12:00","lat":49.232374,"lon":16.619952,"is_passed":false},{"stop_id":"U1132Z2","name":"Haškova","arrival_time":"6:13:00","departure_time":"6:27:00","lat":49.233801,"lon":16.624796,"is_passed":false}],"42628":[{"stop_id":"U1132Z3","name":"Haškova","arrival_time":"6:27:00","departure_time":"6:27:00","lat":49.233588,"lon":16.623836,"is_passed":false},{"stop_id":"U1348Z2","name":"Loosova","arrival_time":"6:28:00","departure_time":"6:28:00","lat":49.231571,"lon":16.618938,"is_passed":false},{"stop_id":"U1111Z2","name":"Fillova","arrival_time":"6:29:00","departure_time":"6:29:00","lat":49.229347,"lon":16.616979,"is_passed":false},{"stop_id":"U1582Z2","name":"Slavíčkova","arrival_time":"6:30:00","departure_time":"6:30:00","lat":49.225821,"lon":16.617957,"is_passed":false},{"stop_id":"U1128Z4","name":"Halasovo náměstí","arrival_time":"6:31:00","departure_time":"6:31:00","lat":49.22314,"lon":16.622438,"is_passed":false}],"42629":[{"stop_id":"U1128Z4","name":"Halasovo náměstí","arrival_time":"6:31:00","departure_time":"6:31:00","lat":49.22314,"lon":16.622438,"is_passed":false},{"stop_id":"U1506Z2","name":"Poliklinika Lesná","arrival_time":"6:32:00","departure_time":"6:32:00","lat":49.222411,"lon":16.625672,"is_passed":false},{"stop_id":"U1331Z1","name":"Lesná, nádraží","arrival_time":"6:34:00","departure_time":"6:34:00","lat":49.220041,"lon":16.629534,"is_passed":false},{"stop_id":"U1138Z1","name":"Heleny Malířové","arrival_time":"6:35:00","departure_time":"6:35:00","lat":49.223481,"lon":16.629567,"is_passed":false},{"stop_id":"U1008Z1","name":"Arbesova","arrival_time":"6:36:00","departure_time":"6:36:00","lat":49.226286,"lon":16.630842,"is_passed":false},{"stop_id":"U1028Z1","name":"Blažkova","arrival_time":"6:37:00","departure_time":"6:37:00","lat":49.230568,"lon":16.631,"is_passed":false},{"stop_id":"U1043Z1","name":"Brechtova","arrival_time":"6:38:00","departure_time":"6:38:00","lat":49.234039,"lon":16.629206,"is_passed":false},{"stop_id":"U1132Z2","name":"Haškova","arrival_time":"6:39:00","departure_time":"6:41:00","lat":49.233801,"lon":16.624796,"is_passed":false}],"42630":[{"stop_id":"U1132Z3","name":"Haškova","arrival_time":"6:41:00","departure_time":"6:41:00","lat":49.233588,"lon":16.623836,"is_passed":false},{"stop_id":"U1043Z2","name":"Brechtova","arrival_time":"6:42:00","departure_time":"6:42:00","lat":49.233462,"lon":16.629437,"is_passed":false},{"stop_id":"U1028Z2","name":"Blažkova","arrival_time":"6:43:00","departure_time":"6:43:00","lat":49.229597,"lon":16.631063,"is_passed":false},{"stop_id":"U1008Z2","name":"Arbesova","arrival_time":"6:44:00","departure_time":"6:44:00","lat":49.225668,"lon":16.630461,"is_passed":false},{"stop_id":"U1138Z2","name":"Heleny Malířové","arrival_time":"6:45:00","departure_time":"6:45:00","lat":49.223075,"lon":16.629159,"is_passed":false},{"stop_id":"U1331Z1","name":"Lesná, nádraží","arrival_time":"6:47:00","departure_time":"6:47:00","lat":49.220041,"lon":16.629534,"is_passed":false}],"42631":[{"stop_id":"U1331Z1","name":"Lesná, nádraží","arrival_time":"6:47:00","departure_time":"6:47:00","lat":49.220041,"lon":16.629534,"is_passed":false},{"stop_id":"U1506Z1","name":"Poliklinika Lesná","arrival_time":"6:48:00","departure_time":"6:48:00","lat":49.222513,"lon":16.625643,"is_passed":false},{"stop_id":"U1128Z3","name":"Halasovo náměstí","arrival_time":"6:49:00","departure_time":"6:49:00","lat":49.223406,"lon":16.622237,"is_passed":false},{"stop_id":"U1582Z1","name":"Slavíčkova","arrival_time":"6:50:00","departure_time":"6:50:00","lat":49.226088,"lon":16.617914,"is_passed":false},{"stop_id":"U1111Z1","name":"Fillova","arrival_time":"6:51:00","departure_time":"6:51:00","lat":49.229105,"lon":16.616814,"is_passed":false},{"stop_id":"U1348Z1","name":"Loosova","arrival_time":"6:52:00","departure_time":"6:52:00","lat":49.232374,"lon":16.619952,"is_passed":false},{"stop_id":"U1132Z2","name":"Haškova","arrival_time":"6:53:00","departure_time":"6:53:00","lat":49.233801,"lon":16.624796,"is_passed":false}],"42632":[{"stop_id":"U1132Z3","name":"Haškova","arrival_time":"6:58:00","departure_time":"6:58:00","lat":49.233588,"lon":16.623836,"is_passed":false},{"stop_id":"U1043Z2","name":"Brechtova","arrival_time":"6:59:00","departure_time":"6:59:00","lat":49.233462,"lon":16.629437,"is_passed":false},{"stop_id":"U1028Z2","name":"Blažkova","arrival_time":"7:00:00","departure_time":"7:00:00","lat":49.229597,"lon":16.631063,"is_passed":false},{"stop_id":"U1008Z2","name":"Arbesova","arrival_time":"7:01:00","departure_time":"7:01:00","lat":49.225668,"lon":16.630461,"is_passed":false},{"stop_id":"U1138Z2","name":"Heleny Malířové","arrival_time":"7:02:00","departure_time":"7:02:00","lat":49.223075,"lon":16.629159,"is_passed":false},{"stop_id":"U1331Z2","name":"Lesná, nádraží","arrival_time":"7:03:00","departure_time":"7:03:00","lat":49.220094,"lon":16.62942,"is_passed":false},{"stop_id":"U1646Z4","name":"Štefánikova čtvrť","arrival_time":"7:04:00","departure_time":"7:04:00","lat":49.217288,"lon":16.627693,"is_passed":false},{"stop_id":"U1522Z1","name":"Provazníkova","arrival_time":"7:05:00","departure_time":"7:05:00","lat":49.214516,"lon":16.623874,"is_passed":false},{"stop_id":"U1336Z4","name":"Lesnická","arrival_time":"7:07:00","departure_time":"7:07:00","lat":49.212882,"lon":16.617847,"is_passed":false},{"stop_id":"U1786Z2","name":"Zemědělská","arrival_time":"7:08:00","departure_time":"7:08:00","lat":49.210627,"lon":16.618463,"is_passed":false},{"stop_id":"U1100Z1","name":"Erbenova","arrival_time":"7:09:00","departure_time":"7:10:00","lat":49.209592,"lon":16.615921,"is_passed":false}],"42633":[{"stop_id":"U1100Z2","name":"Erbenova","arrival_time":"7:10:00","departure_time":"7:10:00","lat":49.209438,"lon":16.615481,"is_passed":false},{"stop_id":"U1786Z3","name":"Zemědělská","arrival_time":"7:12:00","departure_time":"7:12:00","lat":49.210812,"lon":16.618421,"is_passed":false},{"stop_id":"U1336Z3","name":"Lesnická","arrival_time":"7:13:00","departure_time":"7:13:00","lat":49.213089,"lon":16.619037,"is_passed":false},{"stop_id":"U1522Z2","name":"Provazníkova","arrival_time":"7:14:00","departure_time":"7:14:00","lat":49.214473,"lon":16.624002,"is_passed":false},{"stop_id":"U1646Z3","name":"Štefánikova čtvrť","arrival_time":"7:16:00","departure_time":"7:16:00","lat":49.216958,"lon":16.627543,"is_passed":false},{"stop_id":"U1331Z1","name":"Lesná, nádraží","arrival_time":"7:17:00","departure_time":"7:17:00","lat":49.220041,"lon":16.629534,"is_passed":false},{"stop_id":"U1138Z1","name":"Heleny Malířové","arrival_time":"7:18:00","departure_time":"7:18:00","lat":49.223481,"lon":16.629567,"is_passed":false},{"stop_id":"U1008Z1","name":"Arbesova","arrival_time":"7:19:00","departure_time":"7:19:00","lat":49.226286,"lon":16.630842,"is_passed":false},{"stop_id":"U1028Z1","name":"Blažkova","arrival_time":"7:20:00","departure_time":"7:20:00","lat":49.230568,"lon":16.631,"is_passed":false},{"stop_id":"U1043Z1","name":"Brechtova","arrival_time":"7:21:00","departure_time":"7:21:00","lat":49.234039,"lon":16.629206,"is_passed":false},{"stop_id":"U1132Z2","name":"Haškova","arrival_time":"7:22:00","departure_time":"7:28:00","lat":49.233801,"lon":16.624796,"is_passed":false}],"42634":[{"stop_id":"U1132Z3","name":"Haškova","arrival_time":"7:28:00","departure_time":"7:28:00","lat":49.233588,"lon":16.623836,"is_passed":false},{"stop_id":"U1043Z2","name":"Brechtova","arrival_time":"7:29:00","departure_time":"7:29:00","lat":49.233462,"lon":16.629437,"is_passed":false},{"stop_id":"U1028Z2","name":"Blažkova","arrival_time":"7:30:00","departure_time":"7:30:00","lat":49.229597,"lon":16.631063,"is_passed":false},{"stop_id":"U1008Z2","name":"Arbesova","arrival_time":"7:31:00","departure_time":"7:31:00","lat":49.225668,"lon":16.630461,"is_passed":false},{"stop_id":"U1138Z2","name":"Heleny Malířové","arrival_time":"7:32:00","departure_time":"7:32:00","lat":49.223075,"lon":16.629159,"is_passed":false},{"stop_id":"U1331Z2","name":"Lesná, nádraží","arrival_time":"7:33:00","departure_time":"7:33:00","lat":49.220094,"lon":16.62942,"is_passed":false},{"stop_id":"U1646Z4","name":"Štefánikova čtvrť","arrival_time":"7:34:00","departure_time":"7:34:00","lat":49.217288,"lon":16.627693,"is_passed":false},{"stop_id":"U1522Z1","name":"Provazníkova","arrival_time":"7:35:00","departure_time":"7:35:00","lat":49.214516,"lon":16.623874,"is_passed":false},{"stop_id":"U1336Z4","name":"Lesnická","arrival_time":"7:37:00","departure_time":"7:37:00","lat":49.212882,"lon":16.617847,"is_passed":false},{"stop_id":"U1786Z2","name":"Zemědělská","arrival_time":"7:38:00","departure_time":"7:38:00","lat":49.210627,"lon":16.618463,"is_passed":false},{"stop_id":"U1100Z1","name":"Erbenova","arrival_time":"7:39:00","departure_time":"7:40:00","lat":49.209592,"lon":16.615921,"is_passed":false}],"42635":[{"stop_id":"U1100Z2","name":"Erbenova","arrival_time":"7:40:00","departure_time":"7:40:00","lat":49.209438,"lon":16.615481,"is_passed":false},{"stop_id":"U1786Z3","name":"Zemědělská","arrival_time":"7:42:00","departure_time":"7:42:00","lat":49.210812,"lon":16.618421,"is_passed":false},{"stop_id":"U1336Z3","name":"Lesnická","arrival_time":"7:43:00","departure_time":"7:43:00","lat":49.213089,"lon":16.619037,"is_passed":false},{"stop_id":"U1522Z2","name":"Provazníkova","arrival_time":"7:44:00","departure_time":"7:44:00","lat":49.214473,"lon":16.624002,"is_passed":false},{"stop_id":"U1646Z3","name":"Štefánikova čtvrť","arrival_time":"7:46:00","departure_time":"7:46:00","lat":49.216958,"lon":16.627543,"is_passed":false},{"stop_id":"U1331Z1","name":"Lesná, nádraží","arrival_time":"7:47:00","departure_time":"7:47:00","lat":49.220041,"lon":16.629534,"is_passed":false},{"stop_id":"U1138Z1","name":"Heleny Malířové","arrival_time":"7:48:00","departure_time":"7:48:00","lat":49.223481,"lon":16.629567,"is_passed":false},{"stop_id":"U1008Z1","name":"Arbesova","arrival_time":"7:49:00","departure_time":"7:49:00","lat":49.226286,"lon":16.630842,"is_passed":false},{"stop_id":"U1028Z1","name":"Blažkova","arrival_time":"7:50:00","departure_time":"7:50:00","lat":49.230568,"lon":16.631,"is_passed":false},{"stop_id":"U1043Z1","name":"Brechtova","arrival_time":"7:51:00","departure_time":"7:51:00","lat":49.234039,"lon":16.629206,"is_passed":false},{"stop_id":"U1132Z2","name":"Haškova","arrival_time":"7:52:00","departure_time":"7:52:00","lat":49.233801,"lon":16.624796,"is_passed":false}],"42636":[{"stop_id":"U1132Z3","name":"Haškova","arrival_time":"7:57:00","departure_time":"7:57:00","lat":49.233588,"lon":16.623836,"is_passed":false},{"stop_id":"U1348Z2","name":"Loosova","arrival_time":"7:58:00","departure_time":"7:58:00","lat":49.231571,"lon":16.618938,"is_passed":false},{"stop_id":"U1111Z2","name":"Fillova","arrival_time":"7:59:00","departure_time":"7:59:00","lat":49.229347,"lon":16.616979,"is_passed":false},{"stop_id":"U1582Z2","name":"Slavíčkova","arrival_time":"8:00:00","departure_time":"8:00:00","lat":49.225821,"lon":16.617957,"is_passed":false},{"stop_id":"U1128Z4","name":"Halasovo náměstí","arrival_time":"8:01:00","departure_time":"8:01:00","lat":49.22314,"lon":16.622438,"is_passed":false}],"42637":[{"stop_id":"U1128Z4","name":"Halasovo náměstí","arrival_time":"8:01:00","departure_time":"8:01:00","lat":49.22314,"lon":16.622438,"is_passed":false},{"stop_id":"U1506Z2","name":"Poliklinika Lesná","arrival_time":"8:02:00","departure_time":"8:02:00","lat":49.222411,"lon":16.625672,"is_passed":false},{"stop_id":"U1331Z1","name":"Lesná, nádraží","arrival_time":"8:04:00","departure_time":"8:04:00","lat":49.220041,"lon":16.629534,"is_passed":false},{"stop_id":"U1138Z1","name":"Heleny Malířové","arrival_time":"8:05:00","departure_time":"8:05:00","lat":49.223481,"lon":16.629567,"is_passed":false},{"stop_id":"U1008Z1","name":"Arbesova","arrival_time":"8:06:00","departure_time":"8:06:00","lat":49.226286,"lon":16.630842,"is_passed":false},{"stop_id":"U1028Z1","name":"Blažkova","arrival_time":"8:07:00","departure_time":"8:07:00","lat":49.230568,"lon":16.631,"is_passed":false},{"stop_id":"U1043Z1","name":"Brechtova","arrival_time":"8:08:00","departure_time":"8:08:00","lat":49.234039,"lon":16.629206,"is_passed":false},{"stop_id":"U1132Z2","name":"Haškova","arrival_time":"8:09:00","departure_time":"8:11:00","lat":49.233801,"lon":16.624796,"is_passed":false}],"42638":[{"stop_id":"U1132Z3","name":"Haškova","arrival_time":"8:11:00","departure_time":"8:11:00","lat":49.233588,"lon":16.623836,"is_passed":false},{"stop_id":"U1043Z2","name":"Brechtova","arrival_time":"8:12:00","departure_time":"8:12:00","lat":49.233462,"lon":16.629437,"is_passed":false},{"stop_id":"U1028Z2","name":"Blažkova","arrival_time":"8:13:00","departure_time":"8:13:00","lat":49.229597,"lon":16.631063,"is_passed":false},{"stop_id":"U1008Z2","name":"Arbesova","arrival_time":"8:14:00","departure_time":"8:14:00","lat":49.225668,"lon":16.630461,"is_passed":false},{"stop_id":"U1138Z2","name":"Heleny Malířové","arrival_time":"8:15:00","departure_time":"8:15:00","lat":49.223075,"lon":16.629159,"is_passed":false},{"stop_id":"U1331Z1","name":"Lesná, nádraží","arrival_time":"8:17:00","departure_time":"8:17:00","lat":49.220041,"lon":16.629534,"is_passed":false}],"42639":[{"stop_id":"U1331Z1","name":"Lesná, nádraží","arrival_time":"8:17:00","departure_time":"8:17:00","lat":49.220041,"lon":16.629534,"is_passed":false},{"stop_id":"U1506Z1","name":"Poliklinika Lesná","arrival_time":"8:18:00","departure_time":"8:18:00","lat":49.222513,"lon":16.625643,"is_passed":false},{"stop_id":"U1128Z3","name":"Halasovo náměstí","arrival_time":"8:19:00","departure_time":"8:19:00","lat":49.223406,"lon":16.622237,"is_passed":false},{"stop_id":"U1582Z1","name":"Slavíčkova","arrival_time":"8:20:00","departure_time":"8:20:00","lat":49.226088,"lon":16.617914,"is_passed":false},{"stop_id":"U1111Z1","name":"Fillova","arrival_time":"8:21:00","departure_time":"8:21:00","lat":49.229105,"lon":16.616814,"is_passed":false},{"stop_id":"U1348Z1","name":"Loosova","arrival_time":"8:22:00","departure_time":"8:22:00","lat":49.232374,"lon":16.619952,"is_passed":false},{"stop_id":"U1132Z2","name":"Haškova","arrival_time":"8:23:00","departure_time":"8:27:00","lat":49.233801,"lon":16.624796,"is_passed":false}],"42640":[{"stop_id":"U1132Z3","name":"Haškova","arrival_time":"8:27:00","departure_time":"8:27:00","lat":49.233588,"lon":16.623836,"is_passed":false},{"stop_id":"U1348Z2","name":"Loosova","arrival_time":"8:28:00","departure_time":"8:28:00","lat":49.231571,"lon":16.618938,"is_passed":false},{"stop_id":"U1111Z2","name":"Fillova","arrival_time":"8:29:00","departure_time":"8:29:00","lat":49.229347,"lon":16.616979,"is_passed":false},{"stop_id":"U1582Z2","name":"Slavíčkova","arrival_time":"8:30:00","departure_time":"8:30:00","lat":49.225821,"lon":16.617957,"is_passed":false},{"stop_id":"U1128Z4","name":"Halasovo náměstí","arrival_time":"8:31:00","departure_time":"8:33:00","lat":49.22314,"lon":16.622438,"is_passed":false}],"42641":[{"stop_id":"U1581Z1","name":"Areál Slatina","arrival_time":"14:03:00","departure_time":"14:03:00","lat":49.168614,"lon":16.67804,"is_passed":false},{"stop_id":"U1065Z2","name":"Černovická terasa II","arrival_time":"14:03:00","departure_time":"14:03:00","lat":49.168348,"lon":16.675307,"is_passed":false},{"stop_id":"U1064Z2","name":"Černovická terasa I","arrival_time":"14:04:00","departure_time":"14:04:00","lat":49.171843,"lon":16.673091,"is_passed":false},{"stop_id":"U1105Z4","name":"Ericha Roučky","arrival_time":"14:06:00","departure_time":"14:06:00","lat":49.175789,"lon":16.668403,"is_passed":false},{"stop_id":"U1739Z2","name":"Vlastimila Pecha","arrival_time":"14:07:00","departure_time":"14:07:00","lat":49.179751,"lon":16.662407,"is_passed":false},{"stop_id":"U1665Z2","name":"Těžební","arrival_time":"14:08:00","departure_time":"14:08:00","lat":49.182639,"lon":16.656437,"is_passed":false},{"stop_id":"U1641Z1","name":"Škroupova","arrival_time":"14:13:00","departure_time":"14:13:00","lat":49.192022,"lon":16.648112,"is_passed":false},{"stop_id":"U1473Z4","name":"Otakara Ševčíka","arrival_time":"14:14:00","departure_time":"14:14:00","lat":49.194988,"lon":16.646643,"is_passed":false},{"stop_id":"U1611Z6","name":"Stará osada","arrival_time":"14:17:00","departure_time":"14:17:00","lat":49.201731,"lon":16.642184,"is_passed":false},{"stop_id":"U1809Z1","name":"Židenice, nádraží","arrival_time":"14:20:00","departure_time":"14:21:00","lat":49.20162,"lon":16.635716,"is_passed":false}],"42642":[{"stop_id":"U1132Z3","name":"Haškova","arrival_time":"14:48:00","departure_time":"14:48:00","lat":49.233588,"lon":16.623836,"is_passed":false},{"stop_id":"U1043Z2","name":"Brechtova","arrival_time":"14:49:00","departure_time":"14:49:00","lat":49.233462,"lon":16.629437,"is_passed":false},{"stop_id":"U1028Z2","name":"Blažkova","arrival_time":"14:50:00","departure_time":"14:50:00","lat":49.229597,"lon":16.631063,"is_passed":false},{"stop_id":"U1008Z2","name":"Arbesova","arrival_time":"14:51:00","departure_time":"14:51:00","lat":49.225668,"lon":16.630461,"is_passed":false},{"stop_id":"U1138Z2","name":"Heleny Malířové","arrival_time":"14:52:00","departure_time":"14:52:00","lat":49.223075,"lon":16.629159,"is_passed":false},{"stop_id":"U1331Z2","name":"Lesná, nádraží","arrival_time":"14:53:00","departure_time":"14:53:00","lat":49.220094,"lon":16.62942,"is_passed":false},{"stop_id":"U1646Z4","name":"Štefánikova čtvrť","arrival_time":"14:54:00","departure_time":"14:54:00","lat":49.217288,"lon":16.627693,"is_passed":false},{"stop_id":"U1522Z1","name":"Provazníkova","arrival_time":"14:55:00","departure_time":"14:55:00","lat":49.214516,"lon":16.623874,"is_passed":false},{"stop_id":"U1336Z4","name":"Lesnická","arrival_time":"14:57:00","departure_time":"14:57:00","lat":49.212882,"lon":16.617847,"is_passed":false},{"stop_id":"U1786Z2","name":"Zemědělská","arrival_time":"14:58:00","departure_time":"14:58:00","lat":49.210627,"lon":16.618463,"is_passed":false},{"stop_id":"U1100Z1","name":"Erbenova","arrival_time":"14:59:00","departure_time":"15:00:00","lat":49.209592,"lon":16.615921,"is_passed":false}],"42643":[{"stop_id":"U1100Z2","name":"Erbenova","arrival_time":"15:00:00","departure_time":"15:00:00","lat":49.209438,"lon":16.615481,"is_passed":false},{"stop_id":"U1786Z3","name":"Zemědělská","arrival_time":"15:02:00","departure_time":"15:02:00","lat":49.210812,"lon":16.618421,"is_passed":false},{"stop_id":"U1336Z3","name":"Lesnická","arrival_time":"15:03:00","departure_time":"15:03:00","lat":49.213089,"lon":16.619037,"is_passed":false},{"stop_id":"U1522Z2","name":"Provazníkova","arrival_time":"15:04:00","departure_time":"15:04:00","lat":49.214473,"lon":16.624002,"is_passed":false},{"stop_id":"U1646Z3","name":"Štefánikova čtvrť","arrival_time":"15:06:00","departure_time":"15:06:00","lat":49.216958,"lon":16.627543,"is_passed":false},{"stop_id":"U1331Z1","name":"Lesná, nádraží","arrival_time":"15:07:00","departure_time":"15:07:00","lat":49.220041,"lon":16.629534,"is_passed":false},{"stop_id":"U1138Z1","name":"Heleny Malířové","arrival_time":"15:08:00","departure_time":"15:08:00","lat":49.223481,"lon":16.629567,"is_passed":false},{"stop_id":"U1008Z1","name":"Arbesova","arrival_time":"15:09:00","departure_time":"15:09:00","lat":49.226286,"lon":16.630842,"is_passed":false},{"stop_id":"U1028Z1","name":"Blažkova","arrival_time":"15:10:00","departure_time":"15:10:00","lat":49.230568,"lon":16.631,"is_passed":false},{"stop_id":"U1043Z1","name":"Brechtova","arrival_time":"15:11:00","departure_time":"15:11:00","lat":49.234039,"lon":16.629206,"is_passed":false},{"stop_id":"U1132Z2","name":"Haškova","arrival_time":"15:12:00","departure_time":"15:12:00","lat":49.233801,"lon":16.624796,"is_passed":false}],"42644":[{"stop_id":"U1132Z3","name":"Haškova","arrival_time":"15:17:00","departure_time":"15:17:00","lat":49.233588,"lon":16.623836,"is_passed":false},{"stop_id":"U1348Z2","name":"Loosova","arrival_time":"15:18:00","departure_time":"15:18:00","lat":49.231571,"lon":16.618938,"is_passed":false},{"stop_id":"U1111Z2","name":"Fillova","arrival_time":"15:19:00","departure_time":"15:19:00","lat":49.229347,"lon":16.616979,"is_passed":false},{"stop_id":"U1582Z2","name":"Slavíčkova","arrival_time":"15:20:00","departure_time":"15:20:00","lat":49.225821,"lon":16.617957,"is_passed":false},{"stop_id":"U1128Z4","name":"Halasovo náměstí","arrival_time":"15:21:00","departure_time":"15:21:00","lat":49.22314,"lon":16.622438,"is_passed":false}],"42645":[{"stop_id":"U1128Z4","name":"Halasovo náměstí","arrival_time":"15:21:00","departure_time":"15:21:00","lat":49.22314,"lon":16.622438,"is_passed":false},{"stop_id":"U1506Z2","name":"Poliklinika Lesná","arrival_time":"15:22:00","departure_time":"15:22:00","lat":49.222411,"lon":16.625672,"is_passed":false},{"stop_id":"U1331Z1","name":"Lesná, nádraží","arrival_time":"15:24:00","departure_time":"15:24:00","lat":49.220041,"lon":16.629534,"is_passed":false},{"stop_id":"U1138Z1","name":"Heleny Malířové","arrival_time":"15:25:00","departure_time":"15:25:00","lat":49.223481,"lon":16.629567,"is_passed":false},{"stop_id":"U1008Z1","name":"Arbesova","arrival_time":"15:26:00","departure_time":"15:26:00","lat":49.226286,"lon":16.630842,"is_passed":false},{"stop_id":"U1028Z1","name":"Blažkova","arrival_time":"15:27:00","departure_time":"15:27:00","lat":49.230568,"lon":16.631,"is_passed":false},{"stop_id":"U1043Z1","name":"Brechtova","arrival_time":"15:28:00","departure_time":"15:28:00","lat":49.234039,"lon":16.629206,"is_passed":false},{"stop_id":"U1132Z2","name":"Haškova","arrival_time":"15:29:00","departure_time":"15:31:00","lat":49.233801,"lon":16.624796,"is_passed":false}],"42646":[{"stop_id":"U1132Z3","name":"Haškova","arrival_time":"15:31:00","departure_time":"15:31:00","lat":49.233588,"lon":16.623836,"is_passed":false},{"stop_id":"U1043Z2","name":"Brechtova","arrival_time":"15:32:00","departure_time":"15:32:00","lat":49.233462,"lon":16.629437,"is_passed":false},{"stop_id":"U1028Z2","name":"Blažkova","arrival_time":"15:33:00","departure_time":"15:33:00","lat":49.229597,"lon":16.631063,"is_passed":false},{"stop_id":"U1008Z2","name":"Arbesova","arrival_time":"15:34:00","departure_time":"15:34:00","lat":49.225668,"lon":16.630461,"is_passed":false},{"stop_id":"U1138Z2","name":"Heleny Malířové","arrival_time":"15:35:00","departure_time":"15:35:00","lat":49.223075,"lon":16.629159,"is_passed":false},{"stop_id":"U1331Z1","name":"Lesná, nádraží","arrival_time":"15:37:00","departure_time":"15:37:00","lat":49.220041,"lon":16.629534,"is_passed":false}],"42647":[{"stop_id":"U1331Z1","name":"Lesná, nádraží","arrival_time":"15:37:00","departure_time":"15:37:00","lat":49.220041,"lon":16.629534,"is_passed":false},{"stop_id":"U1506Z1","name":"Poliklinika Lesná","arrival_time":"15:38:00","departure_time":"15:38:00","lat":49.222513,"lon":16.625643,"is_passed":false},{"stop_id":"U1128Z3","name":"Halasovo náměstí","arrival_time":"15:39:00","departure_time":"15:39:00","lat":49.223406,"lon":16.622237,"is_passed":false},{"stop_id":"U1582Z1","name":"Slavíčkova","arrival_time":"15:40:00","departure_time":"15:40:00","lat":49.226088,"lon":16.617914,"is_passed":false},{"stop_id":"U1111Z1","name":"Fillova","arrival_time":"15:41:00","departure_time":"15:41:00","lat":49.229105,"lon":16.616814,"is_passed":false},{"stop_id":"U1348Z1","name":"Loosova","arrival_time":"15:42:00","departure_time":"15:42:00","lat":49.232374,"lon":16.619952,"is_passed":false},{"stop_id":"U1132Z2","name":"Haškova","arrival_time":"15:43:00","departure_time":"15:43:00","lat":49.233801,"lon":16.624796,"is_passed":false}],"42648":[{"stop_id":"U1132Z3","name":"Haškova","arrival_time":"16:08:00","departure_time":"16:08:00","lat":49.233588,"lon":16.623836,"is_passed":false},{"stop_id":"U1043Z2","name":"Brechtova","arrival_time":"16:09:00","departure_time":"16:09:00","lat":49.233462,"lon":16.629437,"is_passed":false},{"stop_id":"U1028Z2","name":"Blažkova","arrival_time":"16:10:00","departure_time":"16:10:00","lat":49.229597,"lon":16.631063,"is_passed":false},{"stop_id":"U1008Z2","name":"Arbesova","arrival_time":"16:11:00","departure_time":"16:11:00","lat":49.225668,"lon":16.630461,"is_passed":false},{"stop_id":"U1138Z2","name":"Heleny Malířové","arrival_time":"16:12:00","departure_time":"16:12:00","lat":49.223075,"lon":16.629159,"is_passed":false},{"stop_id":"U1331Z2","name":"Lesná, nádraží","arrival_time":"16:13:00","departure_time":"16:13:00","lat":49.220094,"lon":16.62942,"is_passed":false},{"stop_id":"U1646Z4","name":"Štefánikova čtvrť","arrival_time":"16:14:00","departure_time":"16:14:00","lat":49.217288,"lon":16.627693,"is_passed":false},{"stop_id":"U1522Z1","name":"Provazníkova","arrival_time":"16:15:00","departure_time":"16:15:00","lat":49.214516,"lon":16.623874,"is_passed":false},{"stop_id":"U1336Z4","name":"Lesnická","arrival_time":"16:17:00","departure_time":"16:17:00","lat":49.212882,"lon":16.617847,"is_passed":false},{"stop_id":"U1786Z2","name":"Zemědělská","arrival_time":"16:18:00","departure_time":"16:18:00","lat":49.210627,"lon":16.618463,"is_passed":false},{"stop_id":"U1100Z1","name":"Erbenova","arrival_time":"16:19:00","departure_time":"16:20:00","lat":49.209592,"lon":16.615921,"is_passed":false}],"42649":[{"stop_id":"U1100Z2","name":"Erbenova","arrival_time":"16:20:00","departure_time":"16:20:00","lat":49.209438,"lon":16.615481,"is_passed":false},{"stop_id":"U1786Z3","name":"Zemědělská","arrival_time":"16:22:00","departure_time":"16:22:00","lat":49.210812,"lon":16.618421,"is_passed":false},{"stop_id":"U1336Z3","name":"Lesnická","arrival_time":"16:23:00","departure_time":"16:23:00","lat":49.213089,"lon":16.619037,"is_passed":false},{"stop_id":"U1522Z2","name":"Provazníkova","arrival_time":"16:24:00","departure_time":"16:24:00","lat":49.214473,"lon":16.624002,"is_passed":false},{"stop_id":"U1646Z3","name":"Štefánikova čtvrť","arrival_time":"16:26:00","departure_time":"16:26:00","lat":49.216958,"lon":16.627543,"is_passed":false},{"stop_id":"U1331Z1","name":"Lesná, nádraží","arrival_time":"16:27:00","departure_time":"16:27:00","lat":49.220041,"lon":16.629534,"is_passed":false},{"stop_id":"U1138Z1","name":"Heleny Malířové","arrival_time":"16:28:00","departure_time":"16:28:00","lat":49.223481,"lon":16.629567,"is_passed":false},{"stop_id":"U1008Z1","name":"Arbesova","arrival_time":"16:29:00","departure_time":"16:29:00","lat":49.226286,"lon":16.630842,"is_passed":false},{"stop_id":"U1028Z1","name":"Blažkova","arrival_time":"16:30:00","departure_time":"16:30:00","lat":49.230568,"lon":16.631,"is_passed":false},{"stop_id":"U1043Z1","name":"Brechtova","arrival_time":"16:31:00","departure_time":"16:31:00","lat":49.234039,"lon":16.629206,"is_passed":false},{"stop_id":"U1132Z2","name":"Haškova","arrival_time":"16:32:00","departure_time":"16:32:00","lat":49.233801,"lon":16.624796,"is_passed":false}],"42650":[{"stop_id":"U1132Z3","name":"Haškova","arrival_time":"16:37:00","departure_time":"16:37:00","lat":49.233588,"lon":16.623836,"is_passed":false},{"stop_id":"U1348Z2","name":"Loosova","arrival_time":"16:38:00","departure_time":"16:38:00","lat":49.231571,"lon":16.618938,"is_passed":false},{"stop_id":"U1111Z2","name":"Fillova","arrival_time":"16:39:00","departure_time":"16:39:00","lat":49.229347,"lon":16.616979,"is_passed":false},{"stop_id":"U1582Z2","name":"Slavíčkova","arrival_time":"16:40:00","departure_time":"16:40:00","lat":49.225821,"lon":16.617957,"is_passed":false},{"stop_id":"U1128Z4","name":"Halasovo náměstí","arrival_time":"16:41:00","departure_time":"16:41:00","lat":49.22314,"lon":16.622438,"is_passed":false}],"42651":[{"stop_id":"U1128Z4","name":"Halasovo náměstí","arrival_time":"16:41:00","departure_time":"16:41:00","lat":49.22314,"lon":16.622438,"is_passed":false},{"stop_id":"U1506Z2","name":"Poliklinika Lesná","arrival_time":"16:42:00","departure_time":"16:42:00","lat":49.222411,"lon":16.625672,"is_passed":false},{"stop_id":"U1331Z1","name":"Lesná, nádraží","arrival_time":"16:44:00","departure_time":"16:44:00","lat":49.220041,"lon":16.629534,"is_passed":false},{"stop_id":"U1138Z1","name":"Heleny Malířové","arrival_time":"16:45:00","departure_time":"16:45:00","lat":49.223481,"lon":16.629567,"is_passed":false},{"stop_id":"U1008Z1","name":"Arbesova","arrival_time":"16:46:00","departure_time":"16:46:00","lat":49.226286,"lon":16.630842,"is_passed":false},{"stop_id":"U1028Z1","name":"Blažkova","arrival_time":"16:47:00","departure_time":"16:47:00","lat":49.230568,"lon":16.631,"is_passed":false},{"stop_id":"U1043Z1","name":"Brechtova","arrival_time":"16:48:00","departure_time":"16:48:00","lat":49.234039,"lon":16.629206,"is_passed":false},{"stop_id":"U1132Z2","name":"Haškova","arrival_time":"16:49:00","departure_time":"16:51:00","lat":49.233801,"lon":16.624796,"is_passed":false}],"42652":[{"stop_id":"U1132Z3","name":"Haškova","arrival_time":"16:51:00","departure_time":"16:51:00","lat":49.233588,"lon":16.623836,"is_passed":false},{"stop_id":"U1043Z2","name":"Brechtova","arrival_time":"16:52:00","departure_time":"16:52:00","lat":49.233462,"lon":16.629437,"is_passed":false},{"stop_id":"U1028Z2","name":"Blažkova","arrival_time":"16:53:00","departure_time":"16:53:00","lat":49.229597,"lon":16.631063,"is_passed":false},{"stop_id":"U1008Z2","name":"Arbesova","arrival_time":"16:54:00","departure_time":"16:54:00","lat":49.225668,"lon":16.630461,"is_passed":false},{"stop_id":"U1138Z2","name":"Heleny Malířové","arrival_time":"16:55:00","departure_time":"16:55:00","lat":49.223075,"lon":16.629159,"is_passed":false},{"stop_id":"U1331Z1","name":"Lesná, nádraží","arrival_time":"16:57:00","departure_time":"16:57:00","lat":49.220041,"lon":16.629534,"is_passed":false}],"42653":[{"stop_id":"U1331Z1","name":"Lesná, nádraží","arrival_time":"16:57:00","departure_time":"16:57:00","lat":49.220041,"lon":16.629534,"is_passed":false},{"stop_id":"U1506Z1","name":"Poliklinika Lesná","arrival_time":"16:58:00","departure_time":"16:58:00","lat":49.222513,"lon":16.625643,"is_passed":false},{"stop_id":"U1128Z3","name":"Halasovo náměstí","arrival_time":"16:59:00","departure_time":"16:59:00","lat":49.223406,"lon":16.622237,"is_passed":false},{"stop_id":"U1582Z1","name":"Slavíčkova","arrival_time":"17:00:00","departure_time":"17:00:00","lat":49.226088,"lon":16.617914,"is_passed":false},{"stop_id":"U1111Z1","name":"Fillova","arrival_time":"17:01:00","departure_time":"17:01:00","lat":49.229105,"lon":16.616814,"is_passed":false},{"stop_id":"U1348Z1","name":"Loosova","arrival_time":"17:02:00","departure_time":"17:02:00","lat":49.232374,"lon":16.619952,"is_passed":false},{"stop_id":"U1132Z2","name":"Haškova","arrival_time":"17:03:00","departure_time":"17:03:00","lat":49.233801,"lon":16.624796,"is_passed":false}],"42654":[{"stop_id":"U1132Z3","name":"Haškova","arrival_time":"17:28:00","departure_time":"17:28:00","lat":49.233588,"lon":16.623836,"is_passed":false},{"stop_id":"U1043Z2","name":"Brechtova","arrival_time":"17:29:00","departure_time":"17:29:00","lat":49.233462,"lon":16.629437,"is_passed":false},{"stop_id":"U1028Z2","name":"Blažkova","arrival_time":"17:30:00","departure_time":"17:30:00","lat":49.229597,"lon":16.631063,"is_passed":false},{"stop_id":"U1008Z2","name":"Arbesova","arrival_time":"17:31:00","departure_time":"17:31:00","lat":49.225668,"lon":16.630461,"is_passed":false},{"stop_id":"U1138Z2","name":"Heleny Malířové","arrival_time":"17:32:00","departure_time":"17:32:00","lat":49.223075,"lon":16.629159,"is_passed":false},{"stop_id":"U1331Z2","name":"Lesná, nádraží","arrival_time":"17:33:00","departure_time":"17:33:00","lat":49.220094,"lon":16.62942,"is_passed":false},{"stop_id":"U1646Z4","name":"Štefánikova čtvrť","arrival_time":"17:34:00","departure_time":"17:34:00","lat":49.217288,"lon":16.627693,"is_passed":false},{"stop_id":"U1522Z1","name":"Provazníkova","arrival_time":"17:35:00","departure_time":"17:35:00","lat":49.214516,"lon":16.623874,"is_passed":false},{"stop_id":"U1336Z4","name":"Lesnická","arrival_time":"17:37:00","departure_time":"17:37:00","lat":49.212882,"lon":16.617847,"is_passed":false},{"stop_id":"U1786Z2","name":"Zemědělská","arrival_time":"17:38:00","departure_time":"17:38:00","lat":49.210627,"lon":16.618463,"is_passed":false},{"stop_id":"U1100Z1","name":"Erbenova","arrival_time":"17:39:00","departure_time":"17:40:00","lat":49.209592,"lon":16.615921,"is_passed":false}],"42655":[{"stop_id":"U1100Z2","name":"Erbenova","arrival_time":"17:40:00","departure_time":"17:40:00","lat":49.209438,"lon":16.615481,"is_passed":false},{"stop_id":"U1786Z3","name":"Zemědělská","arrival_time":"17:42:00","departure_time":"17:42:00","lat":49.210812,"lon":16.618421,"is_passed":false},{"stop_id":"U1336Z3","name":"Lesnická","arrival_time":"17:43:00","departure_time":"17:43:00","lat":49.213089,"lon":16.619037,"is_passed":false},{"stop_id":"U1522Z2","name":"Provazníkova","arrival_time":"17:44:00","departure_time":"17:44:00","lat":49.214473,"lon":16.624002,"is_passed":false},{"stop_id":"U1646Z3","name":"Štefánikova čtvrť","arrival_time":"17:46:00","departure_time":"17:46:00","lat":49.216958,"lon":16.627543,"is_passed":false},{"stop_id":"U1331Z1","name":"Lesná, nádraží","arrival_time":"17:47:00","departure_time":"17:47:00","lat":49.220041,"lon":16.629534,"is_passed":false},{"stop_id":"U1138Z1","name":"Heleny Malířové","arrival_time":"17:48:00","departure_time":"17:48:00","lat":49.223481,"lon":16.629567,"is_passed":false},{"stop_id":"U1008Z1","name":"Arbesova","arrival_time":"17:49:00","departure_time":"17:49:00","lat":49.226286,"lon":16.630842,"is_passed":false},{"stop_id":"U1028Z1","name":"Blažkova","arrival_time":"17:50:00","departure_time":"17:50:00","lat":49.230568,"lon":16.631,"is_passed":false},{"stop_id":"U1043Z1","name":"Brechtova","arrival_time":"17:51:00","departure_time":"17:51:00","lat":49.234039,"lon":16.629206,"is_passed":false},{"stop_id":"U1132Z2","name":"Haškova","arrival_time":"17:52:00","departure_time":"17:52:00","lat":49.233801,"lon":16.624796,"is_passed":false}],"42656":[{"stop_id":"U1132Z3","name":"Haškova","arrival_time":"17:57:00","departure_time":"17:57:00","lat":49.233588,"lon":16.623836,"is_passed":false},{"stop_id":"U1348Z2","name":"Loosova","arrival_time":"17:58:00","departure_time":"17:58:00","lat":49.231571,"lon":16.618938,"is_passed":false},{"stop_id":"U1111Z2","name":"Fillova","arrival_time":"17:59:00","departure_time":"17:59:00","lat":49.229347,"lon":16.616979,"is_passed":false},{"stop_id":"U1582Z2","name":"Slavíčkova","arrival_time":"18:00:00","departure_time":"18:00:00","lat":49.225821,"lon":16.617957,"is_passed":false},{"stop_id":"U1128Z4","name":"Halasovo náměstí","arrival_time":"18:01:00","departure_time":"18:01:00","lat":49.22314,"lon":16.622438,"is_passed":false}],"42657":[{"stop_id":"U1128Z4","name":"Halasovo náměstí","arrival_time":"18:01:00","departure_time":"18:01:00","lat":49.22314,"lon":16.622438,"is_passed":false},{"stop_id":"U1506Z2","name":"Poliklinika Lesná","arrival_time":"18:02:00","departure_time":"18:02:00","lat":49.222411,"lon":16.625672,"is_passed":false},{"stop_id":"U1331Z1","name":"Lesná, nádraží","arrival_time":"18:04:00","departure_time":"18:04:00","lat":49.220041,"lon":16.629534,"is_passed":false},{"stop_id":"U1138Z1","name":"Heleny Malířové","arrival_time":"18:05:00","departure_time":"18:05:00","lat":49.223481,"lon":16.629567,"is_passed":false},{"stop_id":"U1008Z1","name":"Arbesova","arrival_time":"18:06:00","departure_time":"18:06:00","lat":49.226286,"lon":16.630842,"is_passed":false},{"stop_id":"U1028Z1","name":"Blažkova","arrival_time":"18:07:00","departure_time":"18:07:00","lat":49.230568,"lon":16.631,"is_passed":false},{"stop_id":"U1043Z1","name":"Brechtova","arrival_time":"18:08:00","departure_time":"18:08:00","lat":49.234039,"lon":16.629206,"is_passed":false},{"stop_id":"U1132Z2","name":"Haškova","arrival_time":"18:09:00","departure_time":"18:11:00","lat":49.233801,"lon":16.624796,"is_passed":false}],"42658":[{"stop_id":"U1132Z3","name":"Haškova","arrival_time":"18:11:00","departure_time":"18:11:00","lat":49.233588,"lon":16.623836,"is_passed":false},{"stop_id":"U1043Z2","name":"Brechtova","arrival_time":"18:12:00","departure_time":"18:12:00","lat":49.233462,"lon":16.629437,"is_passed":false},{"stop_id":"U1028Z2","name":"Blažkova","arrival_time":"18:13:00","departure_time":"18:13:00","lat":49.229597,"lon":16.631063,"is_passed":false},{"stop_id":"U1008Z2","name":"Arbesova","arrival_time":"18:14:00","departure_time":"18:14:00","lat":49.225668,"lon":16.630461,"is_passed":false},{"stop_id":"U1138Z2","name":"Heleny Malířové","arrival_time":"18:15:00","departure_time":"18:15:00","lat":49.223075,"lon":16.629159,"is_passed":false},{"stop_id":"U1331Z1","name":"Lesná, nádraží","arrival_time":"18:17:00","departure_time":"18:17:00","lat":49.220041,"lon":16.629534,"is_passed":false}],"42659":[{"stop_id":"U1331Z1","name":"Lesná, nádraží","arrival_time":"18:17:00","departure_time":"18:17:00","lat":49.220041,"lon":16.629534,"is_passed":false},{"stop_id":"U1506Z1","name":"Poliklinika Lesná","arrival_time":"18:18:00","departure_time":"18:18:00","lat":49.222513,"lon":16.625643,"is_passed":false},{"stop_id":"U1128Z3","name":"Halasovo náměstí","arrival_time":"18:19:00","departure_time":"18:19:00","lat":49.223406,"lon":16.622237,"is_passed":false},{"stop_id":"U1582Z1","name":"Slavíčkova","arrival_time":"18:20:00","departure_time":"18:20:00","lat":49.226088,"lon":16.617914,"is_passed":false},{"stop_id":"U1111Z1","name":"Fillova","arrival_time":"18:21:00","departure_time":"18:21:00","lat":49.229105,"lon":16.616814,"is_passed":false},{"stop_id":"U1348Z1","name":"Loosova","arrival_time":"18:22:00","departure_time":"18:22:00","lat":49.232374,"lon":16.619952,"is_passed":false},{"stop_id":"U1132Z2","name":"Haškova","arrival_time":"18:23:00","departure_time":"18:25:00","lat":49.233801,"lon":16.624796,"is_passed":false}],"42660":[{"stop_id":"U1128Z4","name":"Halasovo náměstí","arrival_time":"14:11:00","departure_time":"14:11:00","lat":49.22314,"lon":16.622438,"is_passed":false},{"stop_id":"U1506Z2","name":"Poliklinika Lesná","arrival_time":"14:12:00","departure_time":"14:12:00","lat":49.222411,"lon":16.625672,"is_passed":false},{"stop_id":"U1331Z1","name":"Lesná, nádraží","arrival_time":"14:14:00","departure_time":"14:14:00","lat":49.220041,"lon":16.629534,"is_passed":false},{"stop_id":"U1138Z1","name":"Heleny Malířové","arrival_time":"14:15:00","departure_time":"14:15:00","lat":49.223481,"lon":16.629567,"is_passed":false},{"stop_id":"U1008Z1","name":"Arbesova","arrival_time":"14:16:00","departure_time":"14:16:00","lat":49.226286,"lon":16.630842,"is_passed":false},{"stop_id":"U1028Z1","name":"Blažkova","arrival_time":"14:17:00","departure_time":"14:17:00","lat":49.230568,"lon":16.631,"is_passed":false},{"stop_id":"U1043Z1","name":"Brechtova","arrival_time":"14:18:00","departure_time":"14:18:00","lat":49.234039,"lon":16.629206,"is_passed":false},{"stop_id":"U1132Z2","name":"Haškova","arrival_time":"14:19:00","departure_time":"14:21:00","lat":49.233801,"lon":16.624796,"is_passed":false}],"42661":[{"stop_id":"U1132Z3","name":"Haškova","arrival_time":"14:21:00","departure_time":"14:21:00","lat":49.233588,"lon":16.623836,"is_passed":false},{"stop_id":"U1043Z2","name":"Brechtova","arrival_time":"14:22:00","departure_time":"14:22:00","lat":49.233462,"lon":16.629437,"is_passed":false},{"stop_id":"U1028Z2","name":"Blažkova","arrival_time":"14:23:00","departure_time":"14:23:00","lat":49.229597,"lon":16.631063,"is_passed":false},{"stop_id":"U1008Z2","name":"Arbesova","arrival_time":"14:24:00","departure_time":"14:24:00","lat":49.225668,"lon":16.630461,"is_passed":false},{"stop_id":"U1138Z2","name":"Heleny Malířové","arrival_time":"14:25:00","departure_time":"14:25:00","lat":49.223075,"lon":16.629159,"is_passed":false},{"stop_id":"U1331Z1","name":"Lesná, nádraží","arrival_time":"14:27:00","departure_time":"14:27:00","lat":49.220041,"lon":16.629534,"is_passed":false}],"42662":[{"stop_id":"U1331Z1","name":"Lesná, nádraží","arrival_time":"14:27:00","departure_time":"14:27:00","lat":49.220041,"lon":16.629534,"is_passed":false},{"stop_id":"U1506Z1","name":"Poliklinika Lesná","arrival_time":"14:28:00","departure_time":"14:28:00","lat":49.222513,"lon":16.625643,"is_passed":false},{"stop_id":"U1128Z3","name":"Halasovo náměstí","arrival_time":"14:29:00","departure_time":"14:29:00","lat":49.223406,"lon":16.622237,"is_passed":false},{"stop_id":"U1582Z1","name":"Slavíčkova","arrival_time":"14:30:00","departure_time":"14:30:00","lat":49.226088,"lon":16.617914,"is_passed":false},{"stop_id":"U1111Z1","name":"Fillova","arrival_time":"14:31:00","departure_time":"14:31:00","lat":49.229105,"lon":16.616814,"is_passed":false},{"stop_id":"U1348Z1","name":"Loosova","arrival_time":"14:32:00","departure_time":"14:32:00","lat":49.232374,"lon":16.619952,"is_passed":false},{"stop_id":"U1132Z2","name":"Haškova","arrival_time":"14:33:00","departure_time":"14:33:00","lat":49.233801,"lon":16.624796,"is_passed":false}],"42663":[{"stop_id":"U1132Z3","name":"Haškova","arrival_time":"14:38:00","departure_time":"14:38:00","lat":49.233588,"lon":16.623836,"is_passed":false},{"stop_id":"U1043Z2","name":"Brechtova","arrival_time":"14:39:00","departure_time":"14:39:00","lat":49.233462,"lon":16.629437,"is_passed":false},{"stop_id":"U1028Z2","name":"Blažkova","arrival_time":"14:40:00","departure_time":"14:40:00","lat":49.229597,"lon":16.631063,"is_passed":false},{"stop_id":"U1008Z2","name":"Arbesova","arrival_time":"14:41:00","departure_time":"14:41:00","lat":49.225668,"lon":16.630461,"is_passed":false},{"stop_id":"U1138Z2","name":"Heleny Malířové","arrival_time":"14:42:00","departure_time":"14:42:00","lat":49.223075,"lon":16.629159,"is_passed":false},{"stop_id":"U1331Z2","name":"Lesná, nádraží","arrival_time":"14:43:00","departure_time":"14:43:00","lat":49.220094,"lon":16.62942,"is_passed":false},{"stop_id":"U1646Z4","name":"Štefánikova čtvrť","arrival_time":"14:44:00","departure_time":"14:44:00","lat":49.217288,"lon":16.627693,"is_passed":false},{"stop_id":"U1522Z1","name":"Provazníkova","arrival_time":"14:45:00","departure_time":"14:45:00","lat":49.214516,"lon":16.623874,"is_passed":false},{"stop_id":"U1336Z4","name":"Lesnická","arrival_time":"14:47:00","departure_time":"14:47:00","lat":49.212882,"lon":16.617847,"is_passed":false},{"stop_id":"U1786Z2","name":"Zemědělská","arrival_time":"14:48:00","departure_time":"14:48:00","lat":49.210627,"lon":16.618463,"is_passed":false},{"stop_id":"U1100Z1","name":"Erbenova","arrival_time":"14:49:00","departure_time":"14:50:00","lat":49.209592,"lon":16.615921,"is_passed":false}],"42664":[{"stop_id":"U1100Z2","name":"Erbenova","arrival_time":"14:50:00","departure_time":"14:50:00","lat":49.209438,"lon":16.615481,"is_passed":false},{"stop_id":"U1786Z3","name":"Zemědělská","arrival_time":"14:52:00","departure_time":"14:52:00","lat":49.210812,"lon":16.618421,"is_passed":false},{"stop_id":"U1336Z3","name":"Lesnická","arrival_time":"14:53:00","departure_time":"14:53:00","lat":49.213089,"lon":16.619037,"is_passed":false},{"stop_id":"U1522Z2","name":"Provazníkova","arrival_time":"14:54:00","departure_time":"14:54:00","lat":49.214473,"lon":16.624002,"is_passed":false},{"stop_id":"U1646Z3","name":"Štefánikova čtvrť","arrival_time":"14:56:00","departure_time":"14:56:00","lat":49.216958,"lon":16.627543,"is_passed":false},{"stop_id":"U1331Z1","name":"Lesná, nádraží","arrival_time":"14:57:00","departure_time":"14:57:00","lat":49.220041,"lon":16.629534,"is_passed":false},{"stop_id":"U1138Z1","name":"Heleny Malířové","arrival_time":"14:58:00","departure_time":"14:58:00","lat":49.223481,"lon":16.629567,"is_passed":false},{"stop_id":"U1008Z1","name":"Arbesova","arrival_time":"14:59:00","departure_time":"14:59:00","lat":49.226286,"lon":16.630842,"is_passed":false},{"stop_id":"U1028Z1","name":"Blažkova","arrival_time":"15:00:00","departure_time":"15:00:00","lat":49.230568,"lon":16.631,"is_passed":false},{"stop_id":"U1043Z1","name":"Brechtova","arrival_time":"15:01:00","departure_time":"15:01:00","lat":49.234039,"lon":16.629206,"is_passed":false},{"stop_id":"U1132Z2","name":"Haškova","arrival_time":"15:02:00","departure_time":"15:18:00","lat":49.233801,"lon":16.624796,"is_passed":false}],"42665":[{"stop_id":"U1132Z3","name":"Haškova","arrival_time":"15:18:00","departure_time":"15:18:00","lat":49.233588,"lon":16.623836,"is_passed":false},{"stop_id":"U1043Z2","name":"Brechtova","arrival_time":"15:19:00","departure_time":"15:19:00","lat":49.233462,"lon":16.629437,"is_passed":false},{"stop_id":"U1028Z2","name":"Blažkova","arrival_time":"15:20:00","departure_time":"15:20:00","lat":49.229597,"lon":16.631063,"is_passed":false},{"stop_id":"U1008Z2","name":"Arbesova","arrival_time":"15:21:00","departure_time":"15:21:00","lat":49.225668,"lon":16.630461,"is_passed":false},{"stop_id":"U1138Z2","name":"Heleny Malířové","arrival_time":"15:22:00","departure_time":"15:22:00","lat":49.223075,"lon":16.629159,"is_passed":false},{"stop_id":"U1331Z2","name":"Lesná, nádraží","arrival_time":"15:23:00","departure_time":"15:23:00","lat":49.220094,"lon":16.62942,"is_passed":false},{"stop_id":"U1646Z4","name":"Štefánikova čtvrť","arrival_time":"15:24:00","departure_time":"15:24:00","lat":49.217288,"lon":16.627693,"is_passed":false},{"stop_id":"U1522Z1","name":"Provazníkova","arrival_time":"15:25:00","departure_time":"15:25:00","lat":49.214516,"lon":16.623874,"is_passed":false},{"stop_id":"U1336Z4","name":"Lesnická","arrival_time":"15:27:00","departure_time":"15:27:00","lat":49.212882,"lon":16.617847,"is_passed":false},{"stop_id":"U1786Z2","name":"Zemědělská","arrival_time":"15:28:00","departure_time":"15:28:00","lat":49.210627,"lon":16.618463,"is_passed":false},{"stop_id":"U1100Z1","name":"Erbenova","arrival_time":"15:29:00","departure_time":"15:30:00","lat":49.209592,"lon":16.615921,"is_passed":false}],"42666":[{"stop_id":"U1100Z2","name":"Erbenova","arrival_time":"15:30:00","departure_time":"15:30:00","lat":49.209438,"lon":16.615481,"is_passed":false},