[{"stop_id":"U1361Z1","name":"Mariánské náměstí","arrival_time":"7:14:00","departure_time":"7:14:00","lat":49.176433,"lon":16.622739,"is_passed":false},{"stop_id":"U1256Z5","name":"Komárov","arrival_time":"7:16:00","departure_time":"7:16:00","lat":49.174917,"lon":16.621279,"is_passed":false},{"stop_id":"U1308Z1","name":"Kšírova","arrival_time":"7:17:00","departure_time":"7:17:00","lat":49.17135,"lon":16.615769,"is_passed":false},{"stop_id":"U1156Z1","name":"Horní Heršpice","arrival_time":"7:18:00","departure_time":"7:18:00","lat":49.166342,"lon":16.616562,"is_passed":false},{"stop_id":"U1778Z51","name":"Záhumenice","arrival_time":"7:20:00","departure_time":"7:20:00","lat":49.162346,"lon":16.613616,"is_passed":false},{"stop_id":"U1016Z92","name":"Bednářova","arrival_time":"7:20:00","departure_time":"7:20:00","lat":49.161902,"lon":16.61357,"is_passed":false},{"stop_id":"U1319Z1","name":"K terminálu","arrival_time":"7:21:00","departure_time":"7:21:00","lat":49.161508,"lon":16.612183,"is_passed":false},{"stop_id":"U1136Z1","name":"Havránkova","arrival_time":"7:23:00","departure_time":"7:23:00","lat":49.157416,"lon":16.621598,"is_passed":false},{"stop_id":"U1092Z1","name":"Dolní Heršpice","arrival_time":"7:24:00","departure_time":"7:24:00","lat":49.152293,"lon":16.621527,"is_passed":false},{"stop_id":"U1354Z1","name":"Malá","arrival_time":"7:25:00","departure_time":"7:25:00","lat":49.149326,"lon":16.621809,"is_passed":false},{"stop_id":"U1531Z1","name":"Přízřenice","arrival_time":"7:26:00","departure_time":"7:26:00","lat":49.145289,"lon":16.62011,"is_passed":false},{"stop_id":"U1530Z1","name":"Přízřenice, smyčka","arrival_time":"7:27:00","departure_time":"7:33:00","lat":49.144321,"lon":16.620834,"is_passed":false}]