{"428":[{"stop_id":"U16228Z12","name":"Holubice, žel.st.","arrival_time":"16:53:00","departure_time":"16:53:00","lat":49.179869,"lon":16.824654,"is_passed":false},{"stop_id":"U16212Z10","name":"Křenovice, hor. žel. st.","arrival_time":"16:57:00","departure_time":"16:58:00","lat":49.143553,"lon":16.824564,"is_passed":false},{"stop_id":"U26201Z1","name":"Zbýšov","arrival_time":"17:00:00","departure_time":"17:01:00","lat":49.132691,"lon":16.806859,"is_passed":false},{"stop_id":"U26102Z1","name":"Hostěrádky-Rešov","arrival_time":"17:03:00","departure_time":"17:04:00","lat":49.119822,"lon":16.782755,"is_passed":false},{"stop_id":"U26101Z1","name":"Újezd u Brna","arrival_time":"17:07:00","departure_time":"17:07:00","lat":49.107297,"lon":16.745564,"is_passed":false},{"stop_id":"U16149Z10","name":"Sokolnice, železniční stanice","arrival_time":"17:09:00","departure_time":"17:10:00","lat":49.108029,"lon":16.733459,"is_passed":false},{"stop_id":"U1183Z10","name":"Chrlice, nádraží","arrival_time":"17:15:00","departure_time":"17:16:00","lat":49.132031,"lon":16.657232,"is_passed":false},{"stop_id":"U1146Z99","name":"Hlavní nádraží","arrival_time":"17:27:00","departure_time":"17:30:00","lat":49.19035,"lon":16.612342,"is_passed":false},{"stop_id":"U1809Z10","name":"Židenice, nádraží","arrival_time":"17:34:00","departure_time":"17:34:00","lat":49.204282,"lon":16.636042,"is_passed":false},{"stop_id":"U12158Z10","name":"Bílovice nad Svitavou, žel. stanice","arrival_time":"17:39:00","departure_time":"17:40:00","lat":49.242715,"lon":16.673677,"is_passed":false},{"stop_id":"U22101Z1","name":"Babice nad Svitavou","arrival_time":"17:44:00","departure_time":"17:44:00","lat":49.276645,"lon":16.673012,"is_passed":false},{"stop_id":"U12230Z10","name":"Adamov, železniční stanice","arrival_time":"17:47:00","departure_time":"17:48:00","lat":49.295341,"lon":16.663538,"is_passed":false},{"stop_id":"U12231Z10","name":"Adamov, železniční zastávka","arrival_time":"17:50:00","departure_time":"17:50:00","lat":49.300671,"lon":16.650653,"is_passed":false},{"stop_id":"U12342Z30","name":"Blansko, aut. st.","arrival_time":"17:56:00","departure_time":"17:57:00","lat":49.352753,"lon":16.646848,"is_passed":false},{"stop_id":"U22302Z1","name":"Blansko město","arrival_time":"17:59:00","departure_time":"18:00:00","lat":49.360996,"lon":16.639464,"is_passed":false},{"stop_id":"U22301Z1","name":"Dolní Lhota","arrival_time":"18:02:00","departure_time":"18:03:00","lat":49.386917,"lon":16.633978,"is_passed":false},{"stop_id":"U12439Z50","name":"Rájec-Jestřebí, železniční stanice","arrival_time":"18:06:00","departure_time":"18:10:00","lat":49.408206,"lon":16.627711,"is_passed":false},{"stop_id":"U12511Z50","name":"Doubravice, žel.st.","arrival_time":"18:13:00","departure_time":"18:13:00","lat":49.438707,"lon":16.621809,"is_passed":false},{"stop_id":"U12676Z50","name":"Skalice nad Svitavou, žel.st.","arrival_time":"18:19:00","departure_time":"18:36:00","lat":49.480123,"lon":16.609726,"is_passed":false}],"4280":[{"stop_id":"U14113Z2","name":"Omice, samoobsluha","arrival_time":"18:14:00","departure_time":"18:14:00","lat":49.16998,"lon":16.451412,"is_passed":false},{"stop_id":"U14124Z2","name":"Střelice, Vršovice","arrival_time":"18:22:00","departure_time":"18:22:00","lat":49.153397,"lon":16.480075,"is_passed":false},{"stop_id":"U14120Z2","name":"Střelice, nákupní středisko","arrival_time":"18:24:00","departure_time":"18:24:00","lat":49.152702,"lon":16.494152,"is_passed":false},{"stop_id":"U14121Z2","name":"Střelice, obecní úřad","arrival_time":"18:26:00","departure_time":"18:26:00","lat":49.152613,"lon":16.502885,"is_passed":false},{"stop_id":"U14119Z2","name":"Střelice, dolní železniční stanice","arrival_time":"18:27:00","departure_time":"18:27:00","lat":49.156018,"lon":16.50473,"is_passed":false},{"stop_id":"U14109Z3","name":"Troubsko, obecní úřad","arrival_time":"18:30:00","departure_time":"18:30:00","lat":49.170364,"lon":16.505743,"is_passed":false}],"4281":[{"stop_id":"U14109Z3","name":"Troubsko, obecní úřad","arrival_time":"18:30:00","departure_time":"18:30:00","lat":49.170364,"lon":16.505743,"is_passed":false},{"stop_id":"U14106Z2","name":"Troubsko, kaplička","arrival_time":"18:31:00","departure_time":"18:31:00","lat":49.168923,"lon":16.511588,"is_passed":false},{"stop_id":"U14126Z2","name":"Troubsko, Nová","arrival_time":"18:32:00","departure_time":"18:32:00","lat":49.166465,"lon":16.519273,"is_passed":false},{"stop_id":"U14110Z2","name":"Troubsko, U dráhy","arrival_time":"18:33:00","departure_time":"18:33:00","lat":49.163317,"lon":16.526862,"is_passed":false},{"stop_id":"U14105Z2","name":"Ostopovice, smyčka","arrival_time":"18:36:00","departure_time":"18:36:00","lat":49.164301,"lon":16.540971,"is_passed":false},{"stop_id":"U14104Z2","name":"Ostopovice, rozcestí","arrival_time":"18:36:00","departure_time":"18:36:00","lat":49.163133,"lon":16.542749,"is_passed":false},{"stop_id":"U14103Z2","name":"Ostopovice, U Kaple","arrival_time":"18:37:00","departure_time":"18:37:00","lat":49.161088,"lon":16.545566,"is_passed":false},{"stop_id":"U14101Z2","name":"Ostopovice, Branky","arrival_time":"18:38:00","departure_time":"18:38:00","lat":49.159942,"lon":16.548414,"is_passed":false},{"stop_id":"U1488Z2","name":"Pod dálnicí","arrival_time":"18:39:00","departure_time":"18:39:00","lat":49.163539,"lon":16.55541,"is_passed":false},{"stop_id":"U1666Z2","name":"Točná","arrival_time":"18:40:00","departure_time":"18:40:00","lat":49.164745,"lon":16.561481,"is_passed":false},{"stop_id":"U1061Z2","name":"Čermákova","arrival_time":"18:41:00","departure_time":"18:41:00","lat":49.164349,"lon":16.564689,"is_passed":false},{"stop_id":"U1627Z2","name":"Svah","arrival_time":"18:41:00","departure_time":"18:41:00","lat":49.164924,"lon":16.567717,"is_passed":false},{"stop_id":"U1273Z1","name":"Kosmonautů","arrival_time":"18:42:00","departure_time":"18:42:00","lat":49.167006,"lon":16.568017,"is_passed":false},{"stop_id":"U1472Z7","name":"Osová","arrival_time":"18:43:00","departure_time":"18:43:00","lat":49.168951,"lon":16.566714,"is_passed":false},{"stop_id":"U7050Z1","name":"ZŠ Vedlejší","arrival_time":"18:43:00","departure_time":"18:43:00","lat":49.171054,"lon":16.569191,"is_passed":false},{"stop_id":"U1748Z2","name":"Vltavská","arrival_time":"18:44:00","departure_time":"18:44:00","lat":49.172487,"lon":16.564821,"is_passed":false},{"stop_id":"U1322Z1","name":"Labská","arrival_time":"18:47:00","departure_time":"19:42:00","lat":49.17151,"lon":16.559604,"is_passed":false}],"4282":[{"stop_id":"U1322Z3","name":"Labská","arrival_time":"19:42:00","departure_time":"19:42:00","lat":49.171353,"lon":16.559418,"is_passed":false},{"stop_id":"U1748Z1","name":"Vltavská","arrival_time":"19:43:00","departure_time":"19:43:00","lat":49.172655,"lon":16.563983,"is_passed":false},{"stop_id":"U1492Z4","name":"Pod nemocnicí","arrival_time":"19:44:00","departure_time":"19:44:00","lat":49.171965,"lon":16.56858,"is_passed":false},{"stop_id":"U1472Z8","name":"Osová","arrival_time":"19:47:00","departure_time":"19:47:00","lat":49.168617,"lon":16.566306,"is_passed":false},{"stop_id":"U1273Z2","name":"Kosmonautů","arrival_time":"19:47:00","departure_time":"19:47:00","lat":49.167124,"lon":16.56745,"is_passed":false},{"stop_id":"U1627Z1","name":"Svah","arrival_time":"19:48:00","departure_time":"19:48:00","lat":49.165199,"lon":16.567969,"is_passed":false},{"stop_id":"U1061Z1","name":"Čermákova","arrival_time":"19:48:00","departure_time":"19:48:00","lat":49.164336,"lon":16.565516,"is_passed":false},{"stop_id":"U1666Z1","name":"Točná","arrival_time":"19:49:00","departure_time":"19:49:00","lat":49.16476,"lon":16.561692,"is_passed":false},{"stop_id":"U1488Z1","name":"Pod dálnicí","arrival_time":"19:50:00","departure_time":"19:50:00","lat":49.163512,"lon":16.555152,"is_passed":false},{"stop_id":"U14101Z1","name":"Ostopovice, Branky","arrival_time":"19:51:00","departure_time":"19:51:00","lat":49.159937,"lon":16.548801,"is_passed":false},{"stop_id":"U14103Z1","name":"Ostopovice, U Kaple","arrival_time":"19:52:00","departure_time":"19:52:00","lat":49.161083,"lon":16.545743,"is_passed":false},{"stop_id":"U14104Z1","name":"Ostopovice, rozcestí","arrival_time":"19:52:00","departure_time":"19:52:00","lat":49.163046,"lon":16.542924,"is_passed":false},{"stop_id":"U14105Z3","name":"Ostopovice, smyčka","arrival_time":"19:53:00","departure_time":"19:53:00","lat":49.164457,"lon":16.540725,"is_passed":false},{"stop_id":"U14102Z1","name":"Ostopovice, Lipová","arrival_time":"19:54:00","departure_time":"19:54:00","lat":49.163052,"lon":16.536032,"is_passed":false},{"stop_id":"U14110Z1","name":"Troubsko, U dráhy","arrival_time":"19:55:00","departure_time":"19:55:00","lat":49.163195,"lon":16.527182,"is_passed":false},{"stop_id":"U14126Z1","name":"Troubsko, Nová","arrival_time":"19:57:00","departure_time":"19:57:00","lat":49.166982,"lon":16.518167,"is_passed":false},{"stop_id":"U14106Z1","name":"Troubsko, kaplička","arrival_time":"19:58:00","departure_time":"19:58:00","lat":49.169013,"lon":16.511465,"is_passed":false},{"stop_id":"U14109Z1","name":"Troubsko, obecní úřad","arrival_time":"19:59:00","departure_time":"19:59:00","lat":49.171013,"lon":16.506845,"is_passed":false}],"4283":[{"stop_id":"U14109Z1","name":"Troubsko, obecní úřad","arrival_time":"19:59:00","departure_time":"19:59:00","lat":49.171013,"lon":16.506845,"is_passed":false},{"stop_id":"U14119Z1","name":"Střelice, dolní železniční stanice","arrival_time":"20:01:00","departure_time":"20:01:00","lat":49.155987,"lon":16.50456,"is_passed":false},{"stop_id":"U14121Z1","name":"Střelice, obecní úřad","arrival_time":"20:02:00","departure_time":"20:02:00","lat":49.152682,"lon":16.50322,"is_passed":false},{"stop_id":"U14120Z1","name":"Střelice, nákupní středisko","arrival_time":"20:04:00","departure_time":"20:04:00","lat":49.152835,"lon":16.493768,"is_passed":false},{"stop_id":"U14124Z1","name":"Střelice, Vršovice","arrival_time":"20:06:00","departure_time":"20:06:00","lat":49.15349,"lon":16.480352,"is_passed":false},{"stop_id":"U14113Z1","name":"Omice, samoobsluha","arrival_time":"20:14:00","departure_time":"20:14:00","lat":49.16998,"lon":16.451412,"is_passed":false}],"4284":[{"stop_id":"U14113Z2","name":"Omice, samoobsluha","arrival_time":"20:14:00","departure_time":"20:14:00","lat":49.16998,"lon":16.451412,"is_passed":false},{"stop_id":"U14124Z2","name":"Střelice, Vršovice","arrival_time":"20:22:00","departure_time":"20:22:00","lat":49.153397,"lon":16.480075,"is_passed":false},{"stop_id":"U14120Z2","name":"Střelice, nákupní středisko","arrival_time":"20:24:00","departure_time":"20:24:00","lat":49.152702,"lon":16.494152,"is_passed":false},{"stop_id":"U14121Z2","name":"Střelice, obecní úřad","arrival_time":"20:26:00","departure_time":"20:26:00","lat":49.152613,"lon":16.502885,"is_passed":false},{"stop_id":"U14119Z2","name":"Střelice, dolní železniční stanice","arrival_time":"20:27:00","departure_time":"20:27:00","lat":49.156018,"lon":16.50473,"is_passed":false},{"stop_id":"U14109Z3","name":"Troubsko, obecní úřad","arrival_time":"20:30:00","departure_time":"20:30:00","lat":49.170364,"lon":16.505743,"is_passed":false}],"4285":[{"stop_id":"U14109Z3","name":"Troubsko, obecní úřad","arrival_time":"20:30:00","departure_time":"20:30:00","lat":49.170364,"lon":16.505743,"is_passed":false},{"stop_id":"U14106Z2","name":"Troubsko, kaplička","arrival_time":"20:31:00","departure_time":"20:31:00","lat":49.168923,"lon":16.511588,"is_passed":false},{"stop_id":"U14126Z2","name":"Troubsko, Nová","arrival_time":"20:32:00","departure_time":"20:32:00","lat":49.166465,"lon":16.519273,"is_passed":false},{"stop_id":"U14110Z2","name":"Troubsko, U dráhy","arrival_time":"20:33:00","departure_time":"20:33:00","lat":49.163317,"lon":16.526862,"is_passed":false},{"stop_id":"U14105Z2","name":"Ostopovice, smyčka","arrival_time":"20:36:00","departure_time":"20:36:00","lat":49.164301,"lon":16.540971,"is_passed":false},{"stop_id":"U14104Z2","name":"Ostopovice, rozcestí","arrival_time":"20:36:00","departure_time":"20:36:00","lat":49.163133,"lon":16.542749,"is_passed":false},{"stop_id":"U14103Z2","name":"Ostopovice, U Kaple","arrival_time":"20:37:00","departure_time":"20:37:00","lat":49.161088,"lon":16.545566,"is_passed":false},{"stop_id":"U14101Z2","name":"Ostopovice, Branky","arrival_time":"20:38:00","departure_time":"20:38:00","lat":49.159942,"lon":16.548414,"is_passed":false},{"stop_id":"U1488Z2","name":"Pod dálnicí","arrival_time":"20:39:00","departure_time":"20:39:00","lat":49.163539,"lon":16.55541,"is_passed":false},{"stop_id":"U1666Z2","name":"Točná","arrival_time":"20:40:00","departure_time":"20:40:00","lat":49.164745,"lon":16.561481,"is_passed":false},{"stop_id":"U1061Z2","name":"Čermákova","arrival_time":"20:41:00","departure_time":"20:41:00","lat":49.164349,"lon":16.564689,"is_passed":false},{"stop_id":"U1627Z2","name":"Svah","arrival_time":"20:41:00","departure_time":"20:41:00","lat":49.164924,"lon":16.567717,"is_passed":false},{"stop_id":"U1273Z1","name":"Kosmonautů","arrival_time":"20:42:00","departure_time":"20:42:00","lat":49.167006,"lon":16.568017,"is_passed":false},{"stop_id":"U1472Z7","name":"Osová","arrival_time":"20:43:00","departure_time":"20:43:00","lat":49.168951,"lon":16.566714,"is_passed":false},{"stop_id":"U7050Z1","name":"ZŠ Vedlejší","arrival_time":"20:43:00","departure_time":"20:43:00","lat":49.171054,"lon":16.569191,"is_passed":false},{"stop_id":"U1748Z2","name":"Vltavská","arrival_time":"20:44:00","departure_time":"20:44:00","lat":49.172487,"lon":16.564821,"is_passed":false},{"stop_id":"U1322Z1","name":"Labská","arrival_time":"20:47:00","departure_time":"20:55:00","lat":49.17151,"lon":16.559604,"is_passed":false}],"4286":[{"stop_id":"U1322Z3","name":"Labská","arrival_time":"20:55:00","departure_time":"20:55:00","lat":49.171353,"lon":16.559418,"is_passed":false},{"stop_id":"U1748Z1","name":"Vltavská","arrival_time":"20:56:00","departure_time":"20:56:00","lat":49.172655,"lon":16.563983,"is_passed":false},{"stop_id":"U1492Z4","name":"Pod nemocnicí","arrival_time":"20:57:00","departure_time":"20:57:00","lat":49.171965,"lon":16.56858,"is_passed":false},{"stop_id":"U1472Z8","name":"Osová","arrival_time":"21:00:00","departure_time":"21:00:00","lat":49.168617,"lon":16.566306,"is_passed":false},{"stop_id":"U1273Z2","name":"Kosmonautů","arrival_time":"21:00:00","departure_time":"21:00:00","lat":49.167124,"lon":16.56745,"is_passed":false},{"stop_id":"U1627Z1","name":"Svah","arrival_time":"21:01:00","departure_time":"21:01:00","lat":49.165199,"lon":16.567969,"is_passed":false},{"stop_id":"U1061Z1","name":"Čermákova","arrival_time":"21:01:00","departure_time":"21:01:00","lat":49.164336,"lon":16.565516,"is_passed":false},{"stop_id":"U1666Z1","name":"Točná","arrival_time":"21:02:00","departure_time":"21:02:00","lat":49.16476,"lon":16.561692,"is_passed":false},{"stop_id":"U1488Z1","name":"Pod dálnicí","arrival_time":"21:03:00","departure_time":"21:03:00","lat":49.163512,"lon":16.555152,"is_passed":false},{"stop_id":"U14101Z1","name":"Ostopovice, Branky","arrival_time":"21:04:00","departure_time":"21:04:00","lat":49.159937,"lon":16.548801,"is_passed":false},{"stop_id":"U14103Z1","name":"Ostopovice, U Kaple","arrival_time":"21:05:00","departure_time":"21:05:00","lat":49.161083,"lon":16.545743,"is_passed":false},{"stop_id":"U14104Z1","name":"Ostopovice, rozcestí","arrival_time":"21:05:00","departure_time":"21:05:00","lat":49.163046,"lon":16.542924,"is_passed":false},{"stop_id":"U14105Z3","name":"Ostopovice, smyčka","arrival_time":"21:06:00","departure_time":"21:06:00","lat":49.164457,"lon":16.540725,"is_passed":false},{"stop_id":"U14102Z1","name":"Ostopovice, Lipová","arrival_time":"21:07:00","departure_time":"21:07:00","lat":49.163052,"lon":16.536032,"is_passed":false},{"stop_id":"U14110Z1","name":"Troubsko, U dráhy","arrival_time":"21:08:00","departure_time":"21:08:00","lat":49.163195,"lon":16.527182,"is_passed":false},{"stop_id":"U14126Z1","name":"Troubsko, Nová","arrival_time":"21:09:00","departure_time":"21:09:00","lat":49.166982,"lon":16.518167,"is_passed":false},{"stop_id":"U14106Z1","name":"Troubsko, kaplička","arrival_time":"21:10:00","departure_time":"21:10:00","lat":49.169013,"lon":16.511465,"is_passed":false},{"stop_id":"U14109Z1","name":"Troubsko, obecní úřad","arrival_time":"21:11:00","departure_time":"21:19:00","lat":49.171013,"lon":16.506845,"is_passed":false}],"4287":[{"stop_id":"U14109Z2","name":"Troubsko, obecní úřad","arrival_time":"21:19:00","departure_time":"21:19:00","lat":49.171349,"lon":16.506327,"is_passed":false},{"stop_id":"U14106Z2","name":"Troubsko, kaplička","arrival_time":"21:20:00","departure_time":"21:20:00","lat":49.168923,"lon":16.511588,"is_passed":false},{"stop_id":"U14126Z2","name":"Troubsko, Nová","arrival_time":"21:21:00","departure_time":"21:21:00","lat":49.166465,"lon":16.519273,"is_passed":false},{"stop_id":"U14110Z2","name":"Troubsko, U dráhy","arrival_time":"21:22:00","departure_time":"21:22:00","lat":49.163317,"lon":16.526862,"is_passed":false},{"stop_id":"U14105Z2","name":"Ostopovice, smyčka","arrival_time":"21:25:00","departure_time":"21:25:00","lat":49.164301,"lon":16.540971,"is_passed":false},{"stop_id":"U14104Z2","name":"Ostopovice, rozcestí","arrival_time":"21:25:00","departure_time":"21:25:00","lat":49.163133,"lon":16.542749,"is_passed":false},{"stop_id":"U14103Z2","name":"Ostopovice, U Kaple","arrival_time":"21:26:00","departure_time":"21:26:00","lat":49.161088,"lon":16.545566,"is_passed":false},{"stop_id":"U14101Z2","name":"Ostopovice, Branky","arrival_time":"21:27:00","departure_time":"21:27:00","lat":49.159942,"lon":16.548414,"is_passed":false},{"stop_id":"U1488Z2","name":"Pod dálnicí","arrival_time":"21:28:00","departure_time":"21:28:00","lat":49.163539,"lon":16.55541,"is_passed":false},{"stop_id":"U1666Z2","name":"Točná","arrival_time":"21:29:00","departure_time":"21:29:00","lat":49.164745,"lon":16.561481,"is_passed":false},{"stop_id":"U1061Z2","name":"Čermákova","arrival_time":"21:30:00","departure_time":"21:30:00","lat":49.164349,"lon":16.564689,"is_passed":false},{"stop_id":"U1627Z2","name":"Svah","arrival_time":"21:30:00","departure_time":"21:30:00","lat":49.164924,"lon":16.567717,"is_passed":false},{"stop_id":"U1273Z1","name":"Kosmonautů","arrival_time":"21:31:00","departure_time":"21:31:00","lat":49.167006,"lon":16.568017,"is_passed":false},{"stop_id":"U1472Z7","name":"Osová","arrival_time":"21:32:00","departure_time":"21:32:00","lat":49.168951,"lon":16.566714,"is_passed":false},{"stop_id":"U7050Z1","name":"ZŠ Vedlejší","arrival_time":"21:32:00","departure_time":"21:32:00","lat":49.171054,"lon":16.569191,"is_passed":false},{"stop_id":"U1748Z2","name":"Vltavská","arrival_time":"21:33:00","departure_time":"21:33:00","lat":49.172487,"lon":16.564821,"is_passed":false},{"stop_id":"U1322Z1","name":"Labská","arrival_time":"21:36:00","departure_time":"21:55:00","lat":49.17151,"lon":16.559604,"is_passed":false}],"4288":[{"stop_id":"U1322Z3","name":"Labská","arrival_time":"21:55:00","departure_time":"21:55:00","lat":49.171353,"lon":16.559418,"is_passed":false},{"stop_id":"U1748Z1","name":"Vltavská","arrival_time":"21:56:00","departure_time":"21:56:00","lat":49.172655,"lon":16.563983,"is_passed":false},{"stop_id":"U1492Z4","name":"Pod nemocnicí","arrival_time":"21:57:00","departure_time":"21:57:00","lat":49.171965,"lon":16.56858,"is_passed":false},{"stop_id":"U1472Z8","name":"Osová","arrival_time":"21:59:00","departure_time":"21:59:00","lat":49.168617,"lon":16.566306,"is_passed":false},{"stop_id":"U1273Z2","name":"Kosmonautů","arrival_time":"21:59:00","departure_time":"21:59:00","lat":49.167124,"lon":16.56745,"is_passed":false},{"stop_id":"U1627Z1","name":"Svah","arrival_time":"22:00:00","departure_time":"22:00:00","lat":49.165199,"lon":16.567969,"is_passed":false},{"stop_id":"U1061Z1","name":"Čermákova","arrival_time":"22:00:00","departure_time":"22:00:00","lat":49.164336,"lon":16.565516,"is_passed":false},{"stop_id":"U1666Z1","name":"Točná","arrival_time":"22:01:00","departure_time":"22:01:00","lat":49.16476,"lon":16.561692,"is_passed":false},{"stop_id":"U1488Z1","name":"Pod dálnicí","arrival_time":"22:02:00","departure_time":"22:02:00","lat":49.163512,"lon":16.555152,"is_passed":false},{"stop_id":"U14101Z1","name":"Ostopovice, Branky","arrival_time":"22:03:00","departure_time":"22:03:00","lat":49.159937,"lon":16.548801,"is_passed":false},{"stop_id":"U14103Z1","name":"Ostopovice, U Kaple","arrival_time":"22:04:00","departure_time":"22:04:00","lat":49.161083,"lon":16.545743,"is_passed":false},{"stop_id":"U14104Z1","name":"Ostopovice, rozcestí","arrival_time":"22:04:00","departure_time":"22:04:00","lat":49.163046,"lon":16.542924,"is_passed":false},{"stop_id":"U14105Z1","name":"Ostopovice, smyčka","arrival_time":"22:05:00","departure_time":"22:15:00","lat":49.164457,"lon":16.540725,"is_passed":false}],"4289":[{"stop_id":"U14105Z2","name":"Ostopovice, smyčka","arrival_time":"22:15:00","departure_time":"22:15:00","lat":49.164301,"lon":16.540971,"is_passed":false},{"stop_id":"U14104Z2","name":"Ostopovice, rozcestí","arrival_time":"22:15:00","departure_time":"22:15:00","lat":49.163133,"lon":16.542749,"is_passed":false},{"stop_id":"U14103Z2","name":"Ostopovice, U Kaple","arrival_time":"22:16:00","departure_time":"22:16:00","lat":49.161088,"lon":16.545566,"is_passed":false},{"stop_id":"U14101Z2","name":"Ostopovice, Branky","arrival_time":"22:17:00","departure_time":"22:17:00","lat":49.159942,"lon":16.548414,"is_passed":false},{"stop_id":"U1488Z2","name":"Pod dálnicí","arrival_time":"22:18:00","departure_time":"22:18:00","lat":49.163539,"lon":16.55541,"is_passed":false},{"stop_id":"U1666Z2","name":"Točná","arrival_time":"22:19:00","departure_time":"22:19:00","lat":49.164745,"lon":16.561481,"is_passed":false},{"stop_id":"U1061Z2","name":"Čermákova","arrival_time":"22:20:00","departure_time":"22:20:00","lat":49.164349,"lon":16.564689,"is_passed":false},{"stop_id":"U1627Z2","name":"Svah","arrival_time":"22:20:00","departure_time":"22:20:00","lat":49.164924,"lon":16.567717,"is_passed":false},{"stop_id":"U1273Z1","name":"Kosmonautů","arrival_time":"22:21:00","departure_time":"22:21:00","lat":49.167006,"lon":16.568017,"is_passed":false},{"stop_id":"U1472Z7","name":"Osová","arrival_time":"22:22:00","departure_time":"22:22:00","lat":49.168951,"lon":16.566714,"is_passed":false},{"stop_id":"U7050Z1","name":"ZŠ Vedlejší","arrival_time":"22:22:00","departure_time":"22:22:00","lat":49.171054,"lon":16.569191,"is_passed":false},{"stop_id":"U1748Z2","name":"Vltavská","arrival_time":"22:23:00","departure_time":"22:23:00","lat":49.172487,"lon":16.564821,"is_passed":false},{"stop_id":"U1322Z1","name":"Labská","arrival_time":"22:26:00","departure_time":"22:40:00","lat":49.17151,"lon":16.559604,"is_passed":false}],"42800":[{"stop_id":"U1213Z2","name":"Jundrov","arrival_time":"18:52:00","departure_time":"18:52:00","lat":49.211666,"lon":16.550607,"is_passed":false},{"stop_id":"U1462Z2","name":"Optátova","arrival_time":"18:53:00","departure_time":"18:53:00","lat":49.208867,"lon":16.555614,"is_passed":false},{"stop_id":"U1214Z1","name":"Jundrovský most","arrival_time":"18:54:00","departure_time":"18:54:00","lat":49.209437,"lon":16.556755,"is_passed":false},{"stop_id":"U1217Z4","name":"Vozovna Komín","arrival_time":"18:55:00","departure_time":"18:55:00","lat":49.214283,"lon":16.559705,"is_passed":false},{"stop_id":"U1143Z2","name":"Hlavní","arrival_time":"18:56:00","departure_time":"18:56:00","lat":49.21715,"lon":16.560506,"is_passed":false},{"stop_id":"U1651Z2","name":"Štursova","arrival_time":"18:57:00","departure_time":"18:57:00","lat":49.215854,"lon":16.564522,"is_passed":false},{"stop_id":"U1544Z4","name":"Rosického náměstí","arrival_time":"18:58:00","departure_time":"18:58:00","lat":49.214881,"lon":16.568314,"is_passed":false},{"stop_id":"U1528Z4","name":"Přívrat","arrival_time":"19:00:00","departure_time":"19:00:00","lat":49.218647,"lon":16.574085,"is_passed":false},{"stop_id":"U1777Z2","name":"Záhřebská","arrival_time":"19:01:00","departure_time":"19:01:00","lat":49.219845,"lon":16.580415,"is_passed":false},{"stop_id":"U1567Z6","name":"Skácelova","arrival_time":"19:03:00","departure_time":"19:03:00","lat":49.22163,"lon":16.585935,"is_passed":false},{"stop_id":"U1586Z4","name":"Slovanské náměstí","arrival_time":"19:04:00","departure_time":"19:04:00","lat":49.222774,"lon":16.591332,"is_passed":false},{"stop_id":"U1181Z2","name":"Charvatská","arrival_time":"19:05:00","departure_time":"19:05:00","lat":49.219543,"lon":16.592241,"is_passed":false},{"stop_id":"U1643Z2","name":"Štefánikova","arrival_time":"19:07:00","departure_time":"19:07:00","lat":49.21528,"lon":16.599053,"is_passed":false},{"stop_id":"U1535Z4","name":"Reissigova","arrival_time":"19:08:00","departure_time":"19:08:00","lat":49.21637,"lon":16.60365,"is_passed":false},{"stop_id":"U1415Z2","name":"NC Královo Pole","arrival_time":"19:10:00","departure_time":"19:10:00","lat":49.217553,"lon":16.607232,"is_passed":false},{"stop_id":"U1535Z2","name":"Reissigova","arrival_time":"19:12:00","departure_time":"19:12:00","lat":49.215925,"lon":16.604659,"is_passed":false},{"stop_id":"U1602Z2","name":"Sportovní","arrival_time":"19:13:00","departure_time":"19:13:00","lat":49.212001,"lon":16.607125,"is_passed":false},{"stop_id":"U1793Z4","name":"Za Lužánkami","arrival_time":"19:14:00","departure_time":"19:14:00","lat":49.208864,"lon":16.609536,"is_passed":false},{"stop_id":"U1177Z2","name":"Schodová","arrival_time":"19:15:00","departure_time":"19:15:00","lat":49.206474,"lon":16.612255,"is_passed":false},{"stop_id":"U1418Z4","name":"Náměstí 28. října","arrival_time":"19:17:00","departure_time":"19:17:00","lat":49.202201,"lon":16.613634,"is_passed":false},{"stop_id":"U1397Z4","name":"Moravské náměstí","arrival_time":"19:19:00","departure_time":"19:19:00","lat":49.199159,"lon":16.608704,"is_passed":false},{"stop_id":"U1193Z4","name":"Janáčkovo divadlo","arrival_time":"19:19:00","departure_time":"19:19:00","lat":49.197997,"lon":16.610307,"is_passed":false},{"stop_id":"U1357Z4","name":"Malinovského náměstí","arrival_time":"19:21:00","departure_time":"19:21:00","lat":49.195612,"lon":16.613248,"is_passed":false},{"stop_id":"U1146Z5","name":"Hlavní nádraží","arrival_time":"19:23:00","departure_time":"19:23:00","lat":49.192074,"lon":16.613923,"is_passed":false},{"stop_id":"U1746Z1","name":"Vlhká","arrival_time":"19:24:00","departure_time":"19:24:00","lat":49.191847,"lon":16.618976,"is_passed":false},{"stop_id":"U1372Z6","name":"Masná","arrival_time":"19:26:00","departure_time":"19:26:00","lat":49.190905,"lon":16.626023,"is_passed":false},{"stop_id":"U1144Z3","name":"Hladíkova","arrival_time":"19:27:00","departure_time":"19:27:00","lat":49.186729,"lon":16.626124,"is_passed":false},{"stop_id":"U1639Z1","name":"Škrobárenská","arrival_time":"19:28:00","departure_time":"19:28:00","lat":49.182466,"lon":16.626261,"is_passed":false},{"stop_id":"U1266Z3","name":"Konopná","arrival_time":"19:30:00","departure_time":"19:30:00","lat":49.180126,"lon":16.621339,"is_passed":false},{"stop_id":"U1256Z3","name":"Komárov","arrival_time":"19:32:00","departure_time":"19:32:00","lat":49.17444,"lon":16.622448,"is_passed":false},{"stop_id":"U1148Z1","name":"Hněvkovského","arrival_time":"19:33:00","departure_time":"19:33:00","lat":49.169807,"lon":16.625991,"is_passed":false},{"stop_id":"U1570Z1","name":"Skandinávská","arrival_time":"19:36:00","departure_time":"19:36:00","lat":49.154716,"lon":16.629354,"is_passed":false},{"stop_id":"U7505Z1","name":"Ikea","arrival_time":"19:37:00","departure_time":"19:37:00","lat":49.156435,"lon":16.628041,"is_passed":false},{"stop_id":"U7524Z1","name":"Avion Shopping Park","arrival_time":"19:39:00","departure_time":"20:42:00","lat":49.158343,"lon":16.627978,"is_passed":false}],"42801":[{"stop_id":"U7524Z2","name":"Avion Shopping Park","arrival_time":"20:42:00","departure_time":"20:42:00","lat":49.158198,"lon":16.627919,"is_passed":false},{"stop_id":"U7505Z2","name":"Ikea","arrival_time":"20:43:00","departure_time":"20:43:00","lat":49.156089,"lon":16.627772,"is_passed":false},{"stop_id":"U1570Z2","name":"Skandinávská","arrival_time":"20:44:00","departure_time":"20:44:00","lat":49.154354,"lon":16.629223,"is_passed":false},{"stop_id":"U1148Z2","name":"Hněvkovského","arrival_time":"20:48:00","departure_time":"20:48:00","lat":49.169618,"lon":16.626335,"is_passed":false},{"stop_id":"U1565Z2","name":"Sazenice","arrival_time":"20:49:00","departure_time":"20:49:00","lat":49.172877,"lon":16.623824,"is_passed":false},{"stop_id":"U1361Z4","name":"Mariánské náměstí","arrival_time":"20:50:00","departure_time":"20:50:00","lat":49.177094,"lon":16.621935,"is_passed":false},{"stop_id":"U1266Z4","name":"Konopná","arrival_time":"20:51:00","departure_time":"20:51:00","lat":49.179332,"lon":16.621811,"is_passed":false},{"stop_id":"U1639Z2","name":"Škrobárenská","arrival_time":"20:52:00","departure_time":"20:52:00","lat":49.183283,"lon":16.626321,"is_passed":false},{"stop_id":"U1144Z4","name":"Hladíkova","arrival_time":"20:53:00","departure_time":"20:53:00","lat":49.18682,"lon":16.626223,"is_passed":false},{"stop_id":"U1372Z2","name":"Masná","arrival_time":"20:55:00","departure_time":"20:55:00","lat":49.191283,"lon":16.6245,"is_passed":false},{"stop_id":"U1746Z2","name":"Vlhká","arrival_time":"20:56:00","departure_time":"20:56:00","lat":49.191852,"lon":16.619157,"is_passed":false},{"stop_id":"U1146Z6","name":"Hlavní nádraží","arrival_time":"20:58:00","departure_time":"20:58:00","lat":49.192214,"lon":16.613823,"is_passed":false},{"stop_id":"U1357Z3","name":"Malinovského náměstí","arrival_time":"21:00:00","departure_time":"21:00:00","lat":49.196131,"lon":16.612953,"is_passed":false},{"stop_id":"U1193Z3","name":"Janáčkovo divadlo","arrival_time":"21:00:00","departure_time":"21:00:00","lat":49.198165,"lon":16.610034,"is_passed":false},{"stop_id":"U1397Z3","name":"Moravské náměstí","arrival_time":"21:01:00","departure_time":"21:01:00","lat":49.199309,"lon":16.609047,"is_passed":false},{"stop_id":"U1418Z3","name":"Náměstí 28. října","arrival_time":"21:04:00","departure_time":"21:04:00","lat":49.201497,"lon":16.614016,"is_passed":false},{"stop_id":"U1177Z1","name":"Schodová","arrival_time":"21:05:00","departure_time":"21:05:00","lat":49.206731,"lon":16.612212,"is_passed":false},{"stop_id":"U1793Z3","name":"Za Lužánkami","arrival_time":"21:06:00","departure_time":"21:06:00","lat":49.208786,"lon":16.609799,"is_passed":false},{"stop_id":"U1602Z1","name":"Sportovní","arrival_time":"21:08:00","departure_time":"21:08:00","lat":49.212234,"lon":16.607184,"is_passed":false},{"stop_id":"U1415Z1","name":"NC Královo Pole","arrival_time":"21:11:00","departure_time":"21:11:00","lat":49.217588,"lon":16.606968,"is_passed":false},{"stop_id":"U1535Z1","name":"Reissigova","arrival_time":"21:12:00","departure_time":"21:12:00","lat":49.21647,"lon":16.603814,"is_passed":false},{"stop_id":"U1643Z1","name":"Štefánikova","arrival_time":"21:14:00","departure_time":"21:14:00","lat":49.215384,"lon":16.599228,"is_passed":false},{"stop_id":"U1181Z1","name":"Charvatská","arrival_time":"21:16:00","departure_time":"21:16:00","lat":49.219239,"lon":16.59252,"is_passed":false},{"stop_id":"U1586Z1","name":"Slovanské náměstí","arrival_time":"21:17:00","departure_time":"21:17:00","lat":49.222659,"lon":16.591882,"is_passed":false},{"stop_id":"U1586Z3","name":"Slovanské náměstí","arrival_time":"21:18:00","departure_time":"21:18:00","lat":49.223525,"lon":16.591009,"is_passed":false},{"stop_id":"U1567Z5","name":"Skácelova","arrival_time":"21:19:00","departure_time":"21:19:00","lat":49.221353,"lon":16.584711,"is_passed":false},{"stop_id":"U1777Z1","name":"Záhřebská","arrival_time":"21:21:00","departure_time":"21:21:00","lat":49.219602,"lon":16.579157,"is_passed":false},{"stop_id":"U1528Z3","name":"Přívrat","arrival_time":"21:22:00","departure_time":"21:22:00","lat":49.218788,"lon":16.574147,"is_passed":false},{"stop_id":"U1544Z3","name":"Rosického náměstí","arrival_time":"21:23:00","departure_time":"21:23:00","lat":49.214882,"lon":16.56907,"is_passed":false},{"stop_id":"U1651Z1","name":"Štursova","arrival_time":"21:24:00","departure_time":"21:24:00","lat":49.216462,"lon":16.563614,"is_passed":false},{"stop_id":"U1143Z1","name":"Hlavní","arrival_time":"21:25:00","departure_time":"21:25:00","lat":49.216836,"lon":16.560198,"is_passed":false},{"stop_id":"U1217Z3","name":"Vozovna Komín","arrival_time":"21:25:00","departure_time":"21:25:00","lat":49.214168,"lon":16.559588,"is_passed":false},{"stop_id":"U1214Z2","name":"Jundrovský most","arrival_time":"21:26:00","departure_time":"21:26:00","lat":49.210699,"lon":16.558163,"is_passed":false},{"stop_id":"U1462Z1","name":"Optátova","arrival_time":"21:27:00","departure_time":"21:27:00","lat":49.208965,"lon":16.555555,"is_passed":false},{"stop_id":"U1416Z1","name":"Nálepkova","arrival_time":"21:28:00","departure_time":"21:28:00","lat":49.208794,"lon":16.55232,"is_passed":false},{"stop_id":"U1213Z1","name":"Jundrov","arrival_time":"21:30:00","departure_time":"22:05:00","lat":49.211836,"lon":16.550693,"is_passed":false}],"42802":[{"stop_id":"U1213Z2","name":"Jundrov","arrival_time":"22:05:00","departure_time":"22:05:00","lat":49.211666,"lon":16.550607,"is_passed":false},{"stop_id":"U1462Z2","name":"Optátova","arrival_time":"22:06:00","departure_time":"22:06:00","lat":49.208867,"lon":16.555614,"is_passed":false},{"stop_id":"U1214Z1","name":"Jundrovský most","arrival_time":"22:06:00","departure_time":"22:06:00","lat":49.209437,"lon":16.556755,"is_passed":false},{"stop_id":"U1217Z4","name":"Vozovna Komín","arrival_time":"22:07:00","departure_time":"22:07:00","lat":49.214283,"lon":16.559705,"is_passed":false},{"stop_id":"U1143Z2","name":"Hlavní","arrival_time":"22:08:00","departure_time":"22:08:00","lat":49.21715,"lon":16.560506,"is_passed":false},{"stop_id":"U1651Z2","name":"Štursova","arrival_time":"22:09:00","departure_time":"22:09:00","lat":49.215854,"lon":16.564522,"is_passed":false},{"stop_id":"U1544Z4","name":"Rosického náměstí","arrival_time":"22:10:00","departure_time":"22:10:00","lat":49.214881,"lon":16.568314,"is_passed":false},{"stop_id":"U1528Z4","name":"Přívrat","arrival_time":"22:11:00","departure_time":"22:11:00","lat":49.218647,"lon":16.574085,"is_passed":false},{"stop_id":"U1777Z2","name":"Záhřebská","arrival_time":"22:12:00","departure_time":"22:12:00","lat":49.219845,"lon":16.580415,"is_passed":false},{"stop_id":"U1567Z6","name":"Skácelova","arrival_time":"22:14:00","departure_time":"22:14:00","lat":49.22163,"lon":16.585935,"is_passed":false},{"stop_id":"U1586Z4","name":"Slovanské náměstí","arrival_time":"22:15:00","departure_time":"22:15:00","lat":49.222774,"lon":16.591332,"is_passed":false},{"stop_id":"U1181Z2","name":"Charvatská","arrival_time":"22:16:00","departure_time":"22:16:00","lat":49.219543,"lon":16.592241,"is_passed":false},{"stop_id":"U1643Z2","name":"Štefánikova","arrival_time":"22:18:00","departure_time":"22:18:00","lat":49.21528,"lon":16.599053,"is_passed":false},{"stop_id":"U1535Z4","name":"Reissigova","arrival_time":"22:19:00","departure_time":"22:19:00","lat":49.21637,"lon":16.60365,"is_passed":false},{"stop_id":"U1415Z2","name":"NC Královo Pole","arrival_time":"22:20:00","departure_time":"22:20:00","lat":49.217553,"lon":16.607232,"is_passed":false},{"stop_id":"U1535Z2","name":"Reissigova","arrival_time":"22:22:00","departure_time":"22:22:00","lat":49.215925,"lon":16.604659,"is_passed":false},{"stop_id":"U1602Z2","name":"Sportovní","arrival_time":"22:23:00","departure_time":"22:23:00","lat":49.212001,"lon":16.607125,"is_passed":false},{"stop_id":"U1793Z4","name":"Za Lužánkami","arrival_time":"22:24:00","departure_time":"22:24:00","lat":49.208864,"lon":16.609536,"is_passed":false},{"stop_id":"U1177Z2","name":"Schodová","arrival_time":"22:25:00","departure_time":"22:25:00","lat":49.206474,"lon":16.612255,"is_passed":false},{"stop_id":"U1418Z4","name":"Náměstí 28. října","arrival_time":"22:26:00","departure_time":"22:26:00","lat":49.202201,"lon":16.613634,"is_passed":false},{"stop_id":"U1397Z4","name":"Moravské náměstí","arrival_time":"22:28:00","departure_time":"22:28:00","lat":49.199159,"lon":16.608704,"is_passed":false},{"stop_id":"U1193Z4","name":"Janáčkovo divadlo","arrival_time":"22:28:00","departure_time":"22:28:00","lat":49.197997,"lon":16.610307,"is_passed":false},{"stop_id":"U1357Z4","name":"Malinovského náměstí","arrival_time":"22:30:00","departure_time":"22:30:00","lat":49.195612,"lon":16.613248,"is_passed":false},{"stop_id":"U1146Z5","name":"Hlavní nádraží","arrival_time":"22:32:00","departure_time":"22:32:00","lat":49.192074,"lon":16.613923,"is_passed":false},{"stop_id":"U1746Z1","name":"Vlhká","arrival_time":"22:33:00","departure_time":"22:33:00","lat":49.191847,"lon":16.618976,"is_passed":false},{"stop_id":"U1372Z6","name":"Masná","arrival_time":"22:34:00","departure_time":"22:34:00","lat":49.190905,"lon":16.626023,"is_passed":false},{"stop_id":"U1144Z3","name":"Hladíkova","arrival_time":"22:35:00","departure_time":"22:35:00","lat":49.186729,"lon":16.626124,"is_passed":false},{"stop_id":"U1639Z1","name":"Škrobárenská","arrival_time":"22:36:00","departure_time":"22:36:00","lat":49.182466,"lon":16.626261,"is_passed":false},{"stop_id":"U1266Z3","name":"Konopná","arrival_time":"22:38:00","departure_time":"22:38:00","lat":49.180126,"lon":16.621339,"is_passed":false},{"stop_id":"U1256Z3","name":"Komárov","arrival_time":"22:40:00","departure_time":"22:40:00","lat":49.17444,"lon":16.622448,"is_passed":false},{"stop_id":"U1148Z1","name":"Hněvkovského","arrival_time":"22:41:00","departure_time":"22:41:00","lat":49.169807,"lon":16.625991,"is_passed":false},{"stop_id":"U1570Z1","name":"Skandinávská","arrival_time":"22:44:00","departure_time":"22:44:00","lat":49.154716,"lon":16.629354,"is_passed":false},{"stop_id":"U7505Z1","name":"Ikea","arrival_time":"22:45:00","departure_time":"22:45:00","lat":49.156435,"lon":16.628041,"is_passed":false},{"stop_id":"U7524Z1","name":"Avion Shopping Park","arrival_time":"22:47:00","departure_time":"23:07:00","lat":49.158343,"lon":16.627978,"is_passed":false}],"42803":[{"stop_id":"U7524Z2","name":"Avion Shopping Park","arrival_time":"23:07:00","departure_time":"23:07:00","lat":49.158198,"lon":16.627919,"is_passed":false},{"stop_id":"U7505Z2","name":"Ikea","arrival_time":"23:07:00","departure_time":"23:07:00","lat":49.156089,"lon":16.627772,"is_passed":false},{"stop_id":"U1570Z2","name":"Skandinávská","arrival_time":"23:08:00","departure_time":"23:08:00","lat":49.154354,"lon":16.629223,"is_passed":false},{"stop_id":"U1148Z2","name":"Hněvkovského","arrival_time":"23:12:00","departure_time":"23:12:00","lat":49.169618,"lon":16.626335,"is_passed":false},{"stop_id":"U1565Z2","name":"Sazenice","arrival_time":"23:12:00","departure_time":"23:12:00","lat":49.172877,"lon":16.623824,"is_passed":false},{"stop_id":"U1361Z4","name":"Mariánské náměstí","arrival_time":"23:13:00","departure_time":"23:13:00","lat":49.177094,"lon":16.621935,"is_passed":false},{"stop_id":"U1266Z4","name":"Konopná","arrival_time":"23:14:00","departure_time":"23:14:00","lat":49.179332,"lon":16.621811,"is_passed":false},{"stop_id":"U1639Z2","name":"Škrobárenská","arrival_time":"23:15:00","departure_time":"23:15:00","lat":49.183283,"lon":16.626321,"is_passed":false},{"stop_id":"U1144Z4","name":"Hladíkova","arrival_time":"23:16:00","departure_time":"23:16:00","lat":49.18682,"lon":16.626223,"is_passed":false},{"stop_id":"U1372Z2","name":"Masná","arrival_time":"23:18:00","departure_time":"23:18:00","lat":49.191283,"lon":16.6245,"is_passed":false},{"stop_id":"U1746Z2","name":"Vlhká","arrival_time":"23:19:00","departure_time":"23:19:00","lat":49.191852,"lon":16.619157,"is_passed":false},{"stop_id":"U1146Z9","name":"Hlavní nádraží","arrival_time":"23:21:00","departure_time":"23:23:00","lat":49.19185,"lon":16.613617,"is_passed":false}],"42804":[{"stop_id":"U1487Z6","name":"Pisárky","arrival_time":"5:42:00","departure_time":"5:42:00","lat":49.193537,"lon":16.570797,"is_passed":false},{"stop_id":"U1320Z2","name":"Květná","arrival_time":"5:43:00","departure_time":"5:43:00","lat":49.193384,"lon":16.576691,"is_passed":false},{"stop_id":"U1478Z4","name":"Pavlíkova","arrival_time":"5:44:00","departure_time":"5:44:00","lat":49.194603,"lon":16.584264,"is_passed":false},{"stop_id":"U1723Z4","name":"Vaňkovo náměstí","arrival_time":"5:45:00","departure_time":"5:45:00","lat":49.195446,"lon":16.585783,"is_passed":false},{"stop_id":"U1328Z2","name":"Lerchova","arrival_time":"5:46:00","departure_time":"5:46:00","lat":49.198598,"lon":16.583814,"is_passed":false},{"stop_id":"U1371Z3","name":"Náměstí Míru","arrival_time":"5:49:00","departure_time":"5:49:00","lat":49.201996,"lon":16.581664,"is_passed":false},{"stop_id":"U1279Z1","name":"Kounicovy koleje","arrival_time":"5:50:00","departure_time":"5:50:00","lat":49.207874,"lon":16.583463,"is_passed":false},{"stop_id":"U1657Z6","name":"Tábor","arrival_time":"5:51:00","departure_time":"5:51:00","lat":49.210122,"lon":16.587633,"is_passed":false},{"stop_id":"U1242Z1","name":"Klusáčkova","arrival_time":"5:53:00","departure_time":"5:53:00","lat":49.212365,"lon":16.592666,"is_passed":false},{"stop_id":"U1643Z2","name":"Štefánikova","arrival_time":"5:55:00","departure_time":"5:55:00","lat":49.21528,"lon":16.599053,"is_passed":false},{"stop_id":"U1535Z4","name":"Reissigova","arrival_time":"5:56:00","departure_time":"5:56:00","lat":49.21637,"lon":16.60365,"is_passed":false},{"stop_id":"U1415Z2","name":"NC Královo Pole","arrival_time":"5:58:00","departure_time":"6:02:00","lat":49.217553,"lon":16.607232,"is_passed":false}],"42805":[{"stop_id":"U1415Z1","name":"NC Královo Pole","arrival_time":"6:02:00","departure_time":"6:02:00","lat":49.217588,"lon":16.606968,"is_passed":false},{"stop_id":"U1535Z1","name":"Reissigova","arrival_time":"6:03:00","departure_time":"6:03:00","lat":49.21647,"lon":16.603814,"is_passed":false},{"stop_id":"U1643Z1","name":"Štefánikova","arrival_time":"6:05:00","departure_time":"6:05:00","lat":49.215384,"lon":16.599228,"is_passed":false},{"stop_id":"U1242Z2","name":"Klusáčkova","arrival_time":"6:07:00","departure_time":"6:07:00","lat":49.211903,"lon":16.592875,"is_passed":false},{"stop_id":"U1657Z1","name":"Tábor","arrival_time":"6:10:00","departure_time":"6:10:00","lat":49.210271,"lon":16.587228,"is_passed":false},{"stop_id":"U1279Z2","name":"Kounicovy koleje","arrival_time":"6:11:00","departure_time":"6:11:00","lat":49.20763,"lon":16.582971,"is_passed":false},{"stop_id":"U1670Z2","name":"Tichého","arrival_time":"6:12:00","departure_time":"6:12:00","lat":49.204993,"lon":16.581692,"is_passed":false},{"stop_id":"U1371Z5","name":"Náměstí Míru","arrival_time":"6:14:00","departure_time":"6:14:00","lat":49.202414,"lon":16.581386,"is_passed":false},{"stop_id":"U1328Z1","name":"Lerchova","arrival_time":"6:15:00","departure_time":"6:15:00","lat":49.198847,"lon":16.583514,"is_passed":false},{"stop_id":"U1723Z3","name":"Vaňkovo náměstí","arrival_time":"6:17:00","departure_time":"6:17:00","lat":49.194723,"lon":16.585005,"is_passed":false},{"stop_id":"U1478Z3","name":"Pavlíkova","arrival_time":"6:17:00","departure_time":"6:17:00","lat":49.194545,"lon":16.583048,"is_passed":false},{"stop_id":"U1487Z5","name":"Pisárky","arrival_time":"6:20:00","departure_time":"6:40:00","lat":49.193517,"lon":16.571155,"is_passed":false}],"42806":[{"stop_id":"U1487Z6","name":"Pisárky","arrival_time":"6:40:00","departure_time":"6:40:00","lat":49.193537,"lon":16.570797,"is_passed":false},{"stop_id":"U1320Z2","name":"Květná","arrival_time":"6:41:00","departure_time":"6:41:00","lat":49.193384,"lon":16.576691,"is_passed":false},{"stop_id":"U1478Z4","name":"Pavlíkova","arrival_time":"6:42:00","departure_time":"6:42:00","lat":49.194603,"lon":16.584264,"is_passed":false},{"stop_id":"U1723Z4","name":"Vaňkovo náměstí","arrival_time":"6:43:00","departure_time":"6:43:00","lat":49.195446,"lon":16.585783,"is_passed":false},{"stop_id":"U1328Z2","name":"Lerchova","arrival_time":"6:44:00","departure_time":"6:44:00","lat":49.198598,"lon":16.583814,"is_passed":false},{"stop_id":"U1371Z3","name":"Náměstí Míru","arrival_time":"6:47:00","departure_time":"6:47:00","lat":49.201996,"lon":16.581664,"is_passed":false},{"stop_id":"U1279Z1","name":"Kounicovy koleje","arrival_time":"6:48:00","departure_time":"6:48:00","lat":49.207874,"lon":16.583463,"is_passed":false},{"stop_id":"U1657Z6","name":"Tábor","arrival_time":"6:50:00","departure_time":"6:50:00","lat":49.210122,"lon":16.587633,"is_passed":false},{"stop_id":"U1242Z1","name":"Klusáčkova","arrival_time":"6:53:00","departure_time":"6:53:00","lat":49.212365,"lon":16.592666,"is_passed":false},{"stop_id":"U1643Z2","name":"Štefánikova","arrival_time":"6:55:00","departure_time":"6:55:00","lat":49.21528,"lon":16.599053,"is_passed":false},{"stop_id":"U1535Z4","name":"Reissigova","arrival_time":"6:56:00","departure_time":"6:56:00","lat":49.21637,"lon":16.60365,"is_passed":false},{"stop_id":"U1415Z2","name":"NC Královo Pole","arrival_time":"6:58:00","departure_time":"7:00:00","lat":49.217553,"lon":16.607232,"is_passed":false}],"42807":[{"stop_id":"U1415Z1","name":"NC Královo Pole","arrival_time":"7:00:00","departure_time":"7:00:00","lat":49.217588,"lon":16.606968,"is_passed":false},{"stop_id":"U1535Z1","name":"Reissigova","arrival_time":"7:01:00","departure_time":"7:01:00","lat":49.21647,"lon":16.603814,"is_passed":false},{"stop_id":"U1643Z1","name":"Štefánikova","arrival_time":"7:03:00","departure_time":"7:03:00","lat":49.215384,"lon":16.599228,"is_passed":false},{"stop_id":"U1242Z2","name":"Klusáčkova","arrival_time":"7:05:00","departure_time":"7:05:00","lat":49.211903,"lon":16.592875,"is_passed":false},{"stop_id":"U1657Z1","name":"Tábor","arrival_time":"7:08:00","departure_time":"7:08:00","lat":49.210271,"lon":16.587228,"is_passed":false},{"stop_id":"U1279Z2","name":"Kounicovy koleje","arrival_time":"7:09:00","departure_time":"7:09:00","lat":49.20763,"lon":16.582971,"is_passed":false},{"stop_id":"U1670Z2","name":"Tichého","arrival_time":"7:10:00","departure_time":"7:10:00","lat":49.204993,"lon":16.581692,"is_passed":false},{"stop_id":"U1371Z5","name":"Náměstí Míru","arrival_time":"7:12:00","departure_time":"7:12:00","lat":49.202414,"lon":16.581386,"is_passed":false},{"stop_id":"U1328Z1","name":"Lerchova","arrival_time":"7:13:00","departure_time":"7:13:00","lat":49.198847,"lon":16.583514,"is_passed":false},{"stop_id":"U1723Z3","name":"Vaňkovo náměstí","arrival_time":"7:15:00","departure_time":"7:15:00","lat":49.194723,"lon":16.585005,"is_passed":false},{"stop_id":"U1478Z3","name":"Pavlíkova","arrival_time":"7:15:00","departure_time":"7:15:00","lat":49.194545,"lon":16.583048,"is_passed":false},{"stop_id":"U1487Z5","name":"Pisárky","arrival_time":"7:18:00","departure_time":"7:30:00","lat":49.193517,"lon":16.571155,"is_passed":false}],"42808":[{"stop_id":"U1487Z6","name":"Pisárky","arrival_time":"7:30:00","departure_time":"7:30:00","lat":49.193537,"lon":16.570797,"is_passed":false},{"stop_id":"U1320Z2","name":"Květná","arrival_time":"7:31:00","departure_time":"7:31:00","lat":49.193384,"lon":16.576691,"is_passed":false},{"stop_id":"U1478Z4","name":"Pavlíkova","arrival_time":"7:32:00","departure_time":"7:32:00","lat":49.194603,"lon":16.584264,"is_passed":false},{"stop_id":"U1723Z4","name":"Vaňkovo náměstí","arrival_time":"7:33:00","departure_time":"7:33:00","lat":49.195446,"lon":16.585783,"is_passed":false},{"stop_id":"U1328Z2","name":"Lerchova","arrival_time":"7:34:00","departure_time":"7:34:00","lat":49.198598,"lon":16.583814,"is_passed":false},{"stop_id":"U1371Z3","name":"Náměstí Míru","arrival_time":"7:37:00","departure_time":"7:37:00","lat":49.201996,"lon":16.581664,"is_passed":false},{"stop_id":"U1279Z1","name":"Kounicovy koleje","arrival_time":"7:38:00","departure_time":"7:38:00","lat":49.207874,"lon":16.583463,"is_passed":false},{"stop_id":"U1657Z6","name":"Tábor","arrival_time":"7:40:00","departure_time":"7:40:00","lat":49.210122,"lon":16.587633,"is_passed":false},{"stop_id":"U1242Z1","name":"Klusáčkova","arrival_time":"7:43:00","departure_time":"7:43:00","lat":49.212365,"lon":16.592666,"is_passed":false},{"stop_id":"U1643Z2","name":"Štefánikova","arrival_time":"7:45:00","departure_time":"7:45:00","lat":49.21528,"lon":16.599053,"is_passed":false},{"stop_id":"U1535Z4","name":"Reissigova","arrival_time":"7:46:00","departure_time":"7:46:00","lat":49.21637,"lon":16.60365,"is_passed":false},{"stop_id":"U1415Z2","name":"NC Královo Pole","arrival_time":"7:48:00","departure_time":"8:02:00","lat":49.217553,"lon":16.607232,"is_passed":false}],"42809":[{"stop_id":"U1415Z1","name":"NC Královo Pole","arrival_time":"8:02:00","departure_time":"8:02:00","lat":49.217588,"lon":16.606968,"is_passed":false},{"stop_id":"U1535Z1","name":"Reissigova","arrival_time":"8:03:00","departure_time":"8:03:00","lat":49.21647,"lon":16.603814,"is_passed":false},{"stop_id":"U1643Z1","name":"Štefánikova","arrival_time":"8:05:00","departure_time":"8:05:00","lat":49.215384,"lon":16.599228,"is_passed":false},{"stop_id":"U1242Z2","name":"Klusáčkova","arrival_time":"8:07:00","departure_time":"8:07:00","lat":49.211903,"lon":16.592875,"is_passed":false},{"stop_id":"U1657Z1","name":"Tábor","arrival_time":"8:10:00","departure_time":"8:10:00","lat":49.210271,"lon":16.587228,"is_passed":false},{"stop_id":"U1279Z2","name":"Kounicovy koleje","arrival_time":"8:11:00","departure_time":"8:11:00","lat":49.20763,"lon":16.582971,"is_passed":false},{"stop_id":"U1670Z2","name":"Tichého","arrival_time":"8:12:00","departure_time":"8:12:00","lat":49.204993,"lon":16.581692,"is_passed":false},{"stop_id":"U1371Z5","name":"Náměstí Míru","arrival_time":"8:14:00","departure_time":"8:14:00","lat":49.202414,"lon":16.581386,"is_passed":false},{"stop_id":"U1328Z1","name":"Lerchova","arrival_time":"8:15:00","departure_time":"8:15:00","lat":49.198847,"lon":16.583514,"is_passed":false},{"stop_id":"U1723Z3","name":"Vaňkovo náměstí","arrival_time":"8:17:00","departure_time":"8:17:00","lat":49.194723,"lon":16.585005,"is_passed":false},{"stop_id":"U1478Z3","name":"Pavlíkova","arrival_time":"8:17:00","departure_time":"8:17:00","lat":49.194545,"lon":16.583048,"is_passed":false},{"stop_id":"U1487Z5","name":"Pisárky","arrival_time":"8:20:00","departure_time":"8:48:00","lat":49.193517,"lon":16.571155,"is_passed":false}],"42810":[{"stop_id":"U1487Z6","name":"Pisárky","arrival_time":"8:48:00","departure_time":"8:48:00","lat":49.193537,"lon":16.570797,"is_passed":false},{"stop_id":"U1320Z2","name":"Květná","arrival_time":"8:49:00","departure_time":"8:49:00","lat":49.193384,"lon":16.576691,"is_passed":false},{"stop_id":"U1478Z4","name":"Pavlíkova","arrival_time":"8:50:00","departure_time":"8:50:00","lat":49.194603,"lon":16.584264,"is_passed":false},{"stop_id":"U1723Z4","name":"Vaňkovo náměstí","arrival_time":"8:51:00","departure_time":"8:51:00","lat":49.195446,"lon":16.585783,"is_passed":false},{"stop_id":"U1328Z2","name":"Lerchova","arrival_time":"8:52:00","departure_time":"8:52:00","lat":49.198598,"lon":16.583814,"is_passed":false},{"stop_id":"U1371Z3","name":"Náměstí Míru","arrival_time":"8:55:00","departure_time":"8:55:00","lat":49.201996,"lon":16.581664,"is_passed":false},{"stop_id":"U1279Z1","name":"Kounicovy koleje","arrival_time":"8:56:00","departure_time":"8:56:00","lat":49.207874,"lon":16.583463,"is_passed":false},{"stop_id":"U1657Z6","name":"Tábor","arrival_time":"8:58:00","departure_time":"8:58:00","lat":49.210122,"lon":16.587633,"is_passed":false},{"stop_id":"U1242Z1","name":"Klusáčkova","arrival_time":"9:01:00","departure_time":"9:01:00","lat":49.212365,"lon":16.592666,"is_passed":false},{"stop_id":"U1643Z2","name":"Štefánikova","arrival_time":"9:03:00","departure_time":"9:03:00","lat":49.21528,"lon":16.599053,"is_passed":false},{"stop_id":"U1535Z4","name":"Reissigova","arrival_time":"9:04:00","departure_time":"9:04:00","lat":49.21637,"lon":16.60365,"is_passed":false},{"stop_id":"U1415Z2","name":"NC Královo Pole","arrival_time":"9:06:00","departure_time":"9:20:00","lat":49.217553,"lon":16.607232,"is_passed":false}],"42811":[{"stop_id":"U1415Z1","name":"NC Královo Pole","arrival_time":"9:20:00","departure_time":"9:20:00","lat":49.217588,"lon":16.606968,"is_passed":false},{"stop_id":"U1535Z1","name":"Reissigova","arrival_time":"9:21:00","departure_time":"9:21:00","lat":49.21647,"lon":16.603814,"is_passed":false},{"stop_id":"U1643Z1","name":"Štefánikova","arrival_time":"9:23:00","departure_time":"9:23:00","lat":49.215384,"lon":16.599228,"is_passed":false},{"stop_id":"U1242Z2","name":"Klusáčkova","arrival_time":"9:25:00","departure_time":"9:25:00","lat":49.211903,"lon":16.592875,"is_passed":false},{"stop_id":"U1657Z1","name":"Tábor","arrival_time":"9:28:00","departure_time":"9:28:00","lat":49.210271,"lon":16.587228,"is_passed":false},{"stop_id":"U1279Z2","name":"Kounicovy koleje","arrival_time":"9:29:00","departure_time":"9:29:00","lat":49.20763,"lon":16.582971,"is_passed":false},{"stop_id":"U1670Z2","name":"Tichého","arrival_time":"9:30:00","departure_time":"9:30:00","lat":49.204993,"lon":16.581692,"is_passed":false},{"stop_id":"U1371Z5","name":"Náměstí Míru","arrival_time":"9:32:00","departure_time":"9:32:00","lat":49.202414,"lon":16.581386,"is_passed":false},{"stop_id":"U1328Z1","name":"Lerchova","arrival_time":"9:33:00","departure_time":"9:33:00","lat":49.198847,"lon":16.583514,"is_passed":false},{"stop_id":"U1723Z3","name":"Vaňkovo náměstí","arrival_time":"9:35:00","departure_time":"9:35:00","lat":49.194723,"lon":16.585005,"is_passed":false},{"stop_id":"U1478Z3","name":"Pavlíkova","arrival_time":"9:35:00","departure_time":"9:35:00","lat":49.194545,"lon":16.583048,"is_passed":false},{"stop_id":"U1487Z5","name":"Pisárky","arrival_time":"9:38:00","departure_time":"9:38:00","lat":49.193517,"lon":16.571155,"is_passed":false},{"stop_id":"U1007Z3","name":"Anthropos","arrival_time":"9:39:00","departure_time":"9:39:00","lat":49.193146,"lon":16.565715,"is_passed":false},{"stop_id":"U1003Z2","name":"Antonína Procházky","arrival_time":"9:40:00","departure_time":"9:40:00","lat":49.194292,"lon":16.55926,"is_passed":false},{"stop_id":"U1636Z1","name":"Šárka","arrival_time":"9:42:00","departure_time":"9:42:00","lat":49.191567,"lon":16.545721,"is_passed":false},{"stop_id":"U1408Z1","name":"Myslivna","arrival_time":"9:44:00","departure_time":"10:03:00","lat":49.18747,"lon":16.552137,"is_passed":false}],"42812":[{"stop_id":"U1408Z2","name":"Myslivna","arrival_time":"10:03:00","departure_time":"10:03:00","lat":49.18786,"lon":16.552068,"is_passed":false},{"stop_id":"U1636Z2","name":"Šárka","arrival_time":"10:04:00","departure_time":"10:04:00","lat":49.19131,"lon":16.545929,"is_passed":false},{"stop_id":"U1003Z1","name":"Antonína Procházky","arrival_time":"10:06:00","departure_time":"10:06:00","lat":49.193559,"lon":16.561795,"is_passed":false},{"stop_id":"U1007Z4","name":"Anthropos","arrival_time":"10:07:00","departure_time":"10:07:00","lat":49.193356,"lon":16.56677,"is_passed":false},{"stop_id":"U1487Z6","name":"Pisárky","arrival_time":"10:08:00","departure_time":"10:08:00","lat":49.193537,"lon":16.570797,"is_passed":false},{"stop_id":"U1320Z2","name":"Květná","arrival_time":"10:09:00","departure_time":"10:09:00","lat":49.193384,"lon":16.576691,"is_passed":false},{"stop_id":"U1478Z4","name":"Pavlíkova","arrival_time":"10:10:00","departure_time":"10:10:00","lat":49.194603,"lon":16.584264,"is_passed":false},{"stop_id":"U1723Z4","name":"Vaňkovo náměstí","arrival_time":"10:11:00","departure_time":"10:11:00","lat":49.195446,"lon":16.585783,"is_passed":false},{"stop_id":"U1328Z2","name":"Lerchova","arrival_time":"10:12:00","departure_time":"10:12:00","lat":49.198598,"lon":16.583814,"is_passed":false},{"stop_id":"U1371Z3","name":"Náměstí Míru","arrival_time":"10:15:00","departure_time":"10:15:00","lat":49.201996,"lon":16.581664,"is_passed":false},{"stop_id":"U1279Z1","name":"Kounicovy koleje","arrival_time":"10:16:00","departure_time":"10:16:00","lat":49.207874,"lon":16.583463,"is_passed":false},{"stop_id":"U1657Z6","name":"Tábor","arrival_time":"10:18:00","departure_time":"10:18:00","lat":49.210122,"lon":16.587633,"is_passed":false},{"stop_id":"U1242Z1","name":"Klusáčkova","arrival_time":"10:21:00","departure_time":"10:21:00","lat":49.212365,"lon":16.592666,"is_passed":false},{"stop_id":"U1643Z2","name":"Štefánikova","arrival_time":"10:23:00","departure_time":"10:23:00","lat":49.21528,"lon":16.599053,"is_passed":false},{"stop_id":"U1535Z4","name":"Reissigova","arrival_time":"10:24:00","departure_time":"10:24:00","lat":49.21637,"lon":16.60365,"is_passed":false},{"stop_id":"U1415Z2","name":"NC Královo Pole","arrival_time":"10:26:00","departure_time":"10:40:00","lat":49.217553,"lon":16.607232,"is_passed":false}],"42813":[{"stop_id":"U1415Z1","name":"NC Královo Pole","arrival_time":"10:40:00","departure_time":"10:40:00","lat":49.217588,"lon":16.606968,"is_passed":false},{"stop_id":"U1535Z1","name":"Reissigova","arrival_time":"10:41:00","departure_time":"10:41:00","lat":49.21647,"lon":16.603814,"is_passed":false},{"stop_id":"U1643Z1","name":"Štefánikova","arrival_time":"10:43:00","departure_time":"10:43:00","lat":49.215384,"lon":16.599228,"is_passed":false},{"stop_id":"U1242Z2","name":"Klusáčkova","arrival_time":"10:45:00","departure_time":"10:45:00","lat":49.211903,"lon":16.592875,"is_passed":false},{"stop_id":"U1657Z1","name":"Tábor","arrival_time":"10:48:00","departure_time":"10:48:00","lat":49.210271,"lon":16.587228,"is_passed":false},{"stop_id":"U1279Z2","name":"Kounicovy koleje","arrival_time":"10:49:00","departure_time":"10:49:00","lat":49.20763,"lon":16.582971,"is_passed":false},{"stop_id":"U1670Z2","name":"Tichého","arrival_time":"10:50:00","departure_time":"10:50:00","lat":49.204993,"lon":16.581692,"is_passed":false},{"stop_id":"U1371Z5","name":"Náměstí Míru","arrival_time":"10:52:00","departure_time":"10:55:00","lat":49.202414,"lon":16.581386,"is_passed":false}],"42814":[{"stop_id":"U1371Z3","name":"Náměstí Míru","arrival_time":"10:55:00","departure_time":"10:55:00","lat":49.201996,"lon":16.581664,"is_passed":false},{"stop_id":"U1279Z1","name":"Kounicovy koleje","arrival_time":"10:56:00","departure_time":"10:56:00","lat":49.207874,"lon":16.583463,"is_passed":false},{"stop_id":"U1657Z6","name":"Tábor","arrival_time":"10:58:00","departure_time":"10:58:00","lat":49.210122,"lon":16.587633,"is_passed":false},{"stop_id":"U1242Z1","name":"Klusáčkova","arrival_time":"11:01:00","departure_time":"11:01:00","lat":49.212365,"lon":16.592666,"is_passed":false},{"stop_id":"U1643Z2","name":"Štefánikova","arrival_time":"11:03:00","departure_time":"11:03:00","lat":49.21528,"lon":16.599053,"is_passed":false},{"stop_id":"U1535Z4","name":"Reissigova","arrival_time":"11:04:00","departure_time":"11:04:00","lat":49.21637,"lon":16.60365,"is_passed":false},{"stop_id":"U1415Z2","name":"NC Královo Pole","arrival_time":"11:06:00","departure_time":"11:20:00","lat":49.217553,"lon":16.607232,"is_passed":false}],"42815":[{"stop_id":"U1415Z1","name":"NC Královo Pole","arrival_time":"11:20:00","departure_time":"11:20:00","lat":49.217588,"lon":16.606968,"is_passed":false},{"stop_id":"U1535Z1","name":"Reissigova","arrival_time":"11:21:00","departure_time":"11:21:00","lat":49.21647,"lon":16.603814,"is_passed":false},{"stop_id":"U1643Z1","name":"Štefánikova","arrival_time":"11:23:00","departure_time":"11:23:00","lat":49.215384,"lon":16.599228,"is_passed":false},{"stop_id":"U1242Z2","name":"Klusáčkova","arrival_time":"11:25:00","departure_time":"11:25:00","lat":49.211903,"lon":16.592875,"is_passed":false},{"stop_id":"U1657Z1","name":"Tábor","arrival_time":"11:28:00","departure_time":"11:28:00","lat":49.210271,"lon":16.587228,"is_passed":false},{"stop_id":"U1279Z2","name":"Kounicovy koleje","arrival_time":"11:29:00","departure_time":"11:29:00","lat":49.20763,"lon":16.582971,"is_passed":false},{"stop_id":"U1670Z2","name":"Tichého","arrival_time":"11:30:00","departure_time":"11:30:00","lat":49.204993,"lon":16.581692,"is_passed":false},{"stop_id":"U1371Z5","name":"Náměstí Míru","arrival_time":"11:32:00","departure_time":"11:32:00","lat":49.202414,"lon":16.581386,"is_passed":false},{"stop_id":"U1328Z1","name":"Lerchova","arrival_time":"11:33:00","departure_time":"11:33:00","lat":49.198847,"lon":16.583514,"is_passed":false},{"stop_id":"U1723Z3","name":"Vaňkovo náměstí","arrival_time":"11:35:00","departure_time":"11:35:00","lat":49.194723,"lon":16.585005,"is_passed":false},{"stop_id":"U1478Z3","name":"Pavlíkova","arrival_time":"11:35:00","departure_time":"11:35:00","lat":49.194545,"lon":16.583048,"is_passed":false},{"stop_id":"U1487Z5","name":"Pisárky","arrival_time":"11:38:00","departure_time":"11:38:00","lat":49.193517,"lon":16.571155,"is_passed":false},{"stop_id":"U1007Z3","name":"Anthropos","arrival_time":"11:39:00","departure_time":"11:39:00","lat":49.193146,"lon":16.565715,"is_passed":false},{"stop_id":"U1003Z2","name":"Antonína Procházky","arrival_time":"11:40:00","departure_time":"11:40:00","lat":49.194292,"lon":16.55926,"is_passed":false},{"stop_id":"U1636Z1","name":"Šárka","arrival_time":"11:42:00","departure_time":"11:42:00","lat":49.191567,"lon":16.545721,"is_passed":false},{"stop_id":"U1408Z1","name":"Myslivna","arrival_time":"11:44:00","departure_time":"12:03:00","lat":49.18747,"lon":16.552137,"is_passed":false}],"42816":[{"stop_id":"U1408Z2","name":"Myslivna","arrival_time":"12:03:00","departure_time":"12:03:00","lat":49.18786,"lon":16.552068,"is_passed":false},{"stop_id":"U1636Z2","name":"Šárka","arrival_time":"12:04:00","departure_time":"12:04:00","lat":49.19131,"lon":16.545929,"is_passed":false},{"stop_id":"U1003Z1","name":"Antonína Procházky","arrival_time":"12:06:00","departure_time":"12:06:00","lat":49.193559,"lon":16.561795,"is_passed":false},{"stop_id":"U1007Z4","name":"Anthropos","arrival_time":"12:07:00","departure_time":"12:07:00","lat":49.193356,"lon":16.56677,"is_passed":false},{"stop_id":"U1487Z6","name":"Pisárky","arrival_time":"12:08:00","departure_time":"12:08:00","lat":49.193537,"lon":16.570797,"is_passed":false},{"stop_id":"U1320Z2","name":"Květná","arrival_time":"12:09:00","departure_time":"12:09:00","lat":49.193384,"lon":16.576691,"is_passed":false},{"stop_id":"U1478Z4","name":"Pavlíkova","arrival_time":"12:10:00","departure_time":"12:10:00","lat":49.194603,"lon":16.584264,"is_passed":false},{"stop_id":"U1723Z4","name":"Vaňkovo náměstí","arrival_time":"12:11:00","departure_time":"12:11:00","lat":49.195446,"lon":16.585783,"is_passed":false},{"stop_id":"U1328Z2","name":"Lerchova","arrival_time":"12:12:00","departure_time":"12:12:00","lat":49.198598,"lon":16.583814,"is_passed":false},{"stop_id":"U1371Z3","name":"Náměstí Míru","arrival_time":"12:15:00","departure_time":"12:15:00","lat":49.201996,"lon":16.581664,"is_passed":false},{"stop_id":"U1279Z1","name":"Kounicovy koleje","arrival_time":"12:16:00","departure_time":"12:16:00","lat":49.207874,"lon":16.583463,"is_passed":false},{"stop_id":"U1657Z6","name":"Tábor","arrival_time":"12:18:00","departure_time":"12:18:00","lat":49.210122,"lon":16.587633,"is_passed":false},{"stop_id":"U1242Z1","name":"Klusáčkova","arrival_time":"12:21:00","departure_time":"12:21:00","lat":49.212365,"lon":16.592666,"is_passed":false},{"stop_id":"U1643Z2","name":"Štefánikova","arrival_time":"12:23:00","departure_time":"12:23:00","lat":49.21528,"lon":16.599053,"is_passed":false},{"stop_id":"U1535Z4","name":"Reissigova","arrival_time":"12:24:00","departure_time":"12:24:00","lat":49.21637,"lon":16.60365,"is_passed":false},{"stop_id":"U1415Z2","name":"NC Královo Pole","arrival_time":"12:26:00","departure_time":"12:40:00","lat":49.217553,"lon":16.607232,"is_passed":false}],"42817":[{"stop_id":"U1415Z1","name":"NC Královo Pole","arrival_time":"12:40:00","departure_time":"12:40:00","lat":49.217588,"lon":16.606968,"is_passed":false},{"stop_id":"U1535Z1","name":"Reissigova","arrival_time":"12:41:00","departure_time":"12:41:00","lat":49.21647,"lon":16.603814,"is_passed":false},{"stop_id":"U1643Z1","name":"Štefánikova","arrival_time":"12:43:00","departure_time":"12:43:00","lat":49.215384,"lon":16.599228,"is_passed":false},{"stop_id":"U1242Z2","name":"Klusáčkova","arrival_time":"12:45:00","departure_time":"12:45:00","lat":49.211903,"lon":16.592875,"is_passed":false},{"stop_id":"U1657Z1","name":"Tábor","arrival_time":"12:48:00","departure_time":"12:48:00","lat":49.210271,"lon":16.587228,"is_passed":false},{"stop_id":"U1279Z2","name":"Kounicovy koleje","arrival_time":"12:49:00","departure_time":"12:49:00","lat":49.20763,"lon":16.582971,"is_passed":false},{"stop_id":"U1670Z2","name":"Tichého","arrival_time":"12:50:00","departure_time":"12:50:00","lat":49.204993,"lon":16.581692,"is_passed":false},{"stop_id":"U1371Z5","name":"Náměstí Míru","arrival_time":"12:52:00","departure_time":"12:55:00","lat":49.202414,"lon":16.581386,"is_passed":false}],"42818":[{"stop_id":"U1371Z3","name":"Náměstí Míru","arrival_time":"12:55:00","departure_time":"12:55:00","lat":49.201996,"lon":16.581664,"is_passed":false},{"stop_id":"U1279Z1","name":"Kounicovy koleje","arrival_time":"12:56:00","departure_time":"12:56:00","lat":49.207874,"lon":16.583463,"is_passed":false},{"stop_id":"U1657Z6","name":"Tábor","arrival_time":"12:58:00","departure_time":"12:58:00","lat":49.210122,"lon":16.587633,"is_passed":false},{"stop_id":"U1242Z1","name":"Klusáčkova","arrival_time":"13:01:00","departure_time":"13:01:00","lat":49.212365,"lon":16.592666,"is_passed":false},{"stop_id":"U1643Z2","name":"Štefánikova","arrival_time":"13:03:00","departure_time":"13:03:00","lat":49.21528,"lon":16.599053,"is_passed":false},{"stop_id":"U1535Z4","name":"Reissigova","arrival_time":"13:04:00","departure_time":"13:04:00","lat":49.21637,"lon":16.60365,"is_passed":false},{"stop_id":"U1415Z2","name":"NC Královo Pole","arrival_time":"13:06:00","departure_time":"13:20:00","lat":49.217553,"lon":16.607232,"is_passed":false}],"42819":[{"stop_id":"U1415Z1","name":"NC Královo Pole","arrival_time":"13:20:00","departure_time":"13:20:00","lat":49.217588,"lon":16.606968,"is_passed":false},{"stop_id":"U1535Z1","name":"Reissigova","arrival_time":"13:21:00","departure_time":"13:21:00","lat":49.21647,"lon":16.603814,"is_passed":false},{"stop_id":"U1643Z1","name":"Štefánikova","arrival_time":"13:23:00","departure_time":"13:23:00","lat":49.215384,"lon":16.599228,"is_passed":false},{"stop_id":"U1242Z2","name":"Klusáčkova","arrival_time":"13:25:00","departure_time":"13:25:00","lat":49.211903,"lon":16.592875,"is_passed":false},{"stop_id":"U1657Z1","name":"Tábor","arrival_time":"13:28:00","departure_time":"13:28:00","lat":49.210271,"lon":16.587228,"is_passed":false},{"stop_id":"U1279Z2","name":"Kounicovy koleje","arrival_time":"13:29:00","departure_time":"13:29:00","lat":49.20763,"lon":16.582971,"is_passed":false},{"stop_id":"U1670Z2","name":"Tichého","arrival_time":"13:30:00","departure_time":"13:30:00","lat":49.204993,"lon":16.581692,"is_passed":false},{"stop_id":"U1371Z5","name":"Náměstí Míru","arrival_time":"13:32:00","departure_time":"13:32:00","lat":49.202414,"lon":16.581386,"is_passed":false},{"stop_id":"U1328Z1","name":"Lerchova","arrival_time":"13:33:00","departure_time":"13:33:00","lat":49.198847,"lon":16.583514,"is_passed":false},{"stop_id":"U1723Z3","name":"Vaňkovo náměstí","arrival_time":"13:35:00","departure_time":"13:35:00","lat":49.194723,"lon":16.585005,"is_passed":false},{"stop_id":"U1478Z3","name":"Pavlíkova","arrival_time":"13:35:00","departure_time":"13:35:00","lat":49.194545,"lon":16.583048,"is_passed":false},{"stop_id":"U1487Z5","name":"Pisárky","arrival_time":"13:38:00","departure_time":"13:38:00","lat":49.193517,"lon":16.571155,"is_passed":false},{"stop_id":"U1007Z3","name":"Anthropos","arrival_time":"13:39:00","departure_time":"13:39:00","lat":49.193146,"lon":16.565715,"is_passed":false},{"stop_id":"U1003Z2","name":"Antonína Procházky","arrival_time":"13:40:00","departure_time":"13:40:00","lat":49.194292,"lon":16.55926,"is_passed":false},{"stop_id":"U1636Z1","name":"Šárka","arrival_time":"13:42:00","departure_time":"13:42:00","lat":49.191567,"lon":16.545721,"is_passed":false},{"stop_id":"U1408Z1","name":"Myslivna","arrival_time":"13:44:00","departure_time":"14:15:00","lat":49.18747,"lon":16.552137,"is_passed":false}],"42820":[{"stop_id":"U1408Z2","name":"Myslivna","arrival_time":"14:15:00","departure_time":"14:15:00","lat":49.18786,"lon":16.552068,"is_passed":false},{"stop_id":"U1636Z2","name":"Šárka","arrival_time":"14:16:00","departure_time":"14:16:00","lat":49.19131,"lon":16.545929,"is_passed":false},{"stop_id":"U1003Z1","name":"Antonína Procházky","arrival_time":"14:18:00","departure_time":"14:18:00","lat":49.193559,"lon":16.561795,"is_passed":false},{"stop_id":"U1007Z4","name":"Anthropos","arrival_time":"14:19:00","departure_time":"14:19:00","lat":49.193356,"lon":16.56677,"is_passed":false},{"stop_id":"U1487Z6","name":"Pisárky","arrival_time":"14:20:00","departure_time":"14:20:00","lat":49.193537,"lon":16.570797,"is_passed":false},{"stop_id":"U1320Z2","name":"Květná","arrival_time":"14:21:00","departure_time":"14:21:00","lat":49.193384,"lon":16.576691,"is_passed":false},{"stop_id":"U1478Z4","name":"Pavlíkova","arrival_time":"14:22:00","departure_time":"14:22:00","lat":49.194603,"lon":16.584264,"is_passed":false},{"stop_id":"U1723Z4","name":"Vaňkovo náměstí","arrival_time":"14:23:00","departure_time":"14:23:00","lat":49.195446,"lon":16.585783,"is_passed":false},{"stop_id":"U1328Z2","name":"Lerchova","arrival_time":"14:24:00","departure_time":"14:24:00","lat":49.198598,"lon":16.583814,"is_passed":false},{"stop_id":"U1371Z3","name":"Náměstí Míru","arrival_time":"14:27:00","departure_time":"14:27:00","lat":49.201996,"lon":16.581664,"is_passed":false},{"stop_id":"U1279Z1","name":"Kounicovy koleje","arrival_time":"14:28:00","departure_time":"14:28:00","lat":49.207874,"lon":16.583463,"is_passed":false},{"stop_id":"U1657Z6","name":"Tábor","arrival_time":"14:30:00","departure_time":"14:30:00","lat":49.210122,"lon":16.587633,"is_passed":false},{"stop_id":"U1242Z1","name":"Klusáčkova","arrival_time":"14:33:00","departure_time":"14:33:00","lat":49.212365,"lon":16.592666,"is_passed":false},{"stop_id":"U1643Z2","name":"Štefánikova","arrival_time":"14:35:00","departure_time":"14:35:00","lat":49.21528,"lon":16.599053,"is_passed":false},{"stop_id":"U1535Z4","name":"Reissigova","arrival_time":"14:36:00","departure_time":"14:36:00","lat":49.21637,"lon":16.60365,"is_passed":false},{"stop_id":"U1415Z2","name":"NC Královo Pole","arrival_time":"14:38:00","departure_time":"15:02:00","lat":49.217553,"lon":16.607232,"is_passed":false}],"42821":[{"stop_id":"U1415Z1","name":"NC Královo Pole","arrival_time":"15:02:00","departure_time":"15:02:00","lat":49.217588,"lon":16.606968,"is_passed":false},{"stop_id":"U1535Z1","name":"Reissigova","arrival_time":"15:03:00","departure_time":"15:03:00","lat":49.21647,"lon":16.603814,"is_passed":false},{"stop_id":"U1643Z1","name":"Štefánikova","arrival_time":"15:05:00","departure_time":"15:05:00","lat":49.215384,"lon":16.599228,"is_passed":false},{"stop_id":"U1242Z2","name":"Klusáčkova","arrival_time":"15:07:00","departure_time":"15:07:00","lat":49.211903,"lon":16.592875,"is_passed":false},{"stop_id":"U1657Z1","name":"Tábor","arrival_time":"15:10:00","departure_time":"15:10:00","lat":49.210271,"lon":16.587228,"is_passed":false},{"stop_id":"U1279Z2","name":"Kounicovy koleje","arrival_time":"15:11:00","departure_time":"15:11:00","lat":49.20763,"lon":16.582971,"is_passed":false},{"stop_id":"U1670Z2","name":"Tichého","arrival_time":"15:12:00","departure_time":"15:12:00","lat":49.204993,"lon":16.581692,"is_passed":false},{"stop_id":"U1371Z5","name":"Náměstí Míru","arrival_time":"15:14:00","departure_time":"15:14:00","lat":49.202414,"lon":16.581386,"is_passed":false},{"stop_id":"U1328Z1","name":"Lerchova","arrival_time":"15:15:00","departure_time":"15:15:00","lat":49.198847,"lon":16.583514,"is_passed":false},{"stop_id":"U1723Z3","name":"Vaňkovo náměstí","arrival_time":"15:17:00","departure_time":"15:17:00","lat":49.194723,"lon":16.585005,"is_passed":false},{"stop_id":"U1478Z3","name":"Pavlíkova","arrival_time":"15:17:00","departure_time":"15:17:00","lat":49.194545,"lon":16.583048,"is_passed":false},{"stop_id":"U1487Z5","name":"Pisárky","arrival_time":"15:20:00","departure_time":"15:40:00","lat":49.193517,"lon":16.571155,"is_passed":false}],"42822":[{"stop_id":"U1487Z6","name":"Pisárky","arrival_time":"15:40:00","departure_time":"15:40:00","lat":49.193537,"lon":16.570797,"is_passed":false},{"stop_id":"U1320Z2","name":"Květná","arrival_time":"15:41:00","departure_time":"15:41:00","lat":49.193384,"lon":16.576691,"is_passed":false},{"stop_id":"U1478Z4","name":"Pavlíkova","arrival_time":"15:42:00","departure_time":"15:42:00","lat":49.194603,"lon":16.584264,"is_passed":false},{"stop_id":"U1723Z4","name":"Vaňkovo náměstí","arrival_time":"15:43:00","departure_time":"15:43:00","lat":49.195446,"lon":16.585783,"is_passed":false},{"stop_id":"U1328Z2","name":"Lerchova","arrival_time":"15:44:00","departure_time":"15:44:00","lat":49.198598,"lon":16.583814,"is_passed":false},{"stop_id":"U1371Z3","name":"Náměstí Míru","arrival_time":"15:47:00","departure_time":"15:47:00","lat":49.201996,"lon":16.581664,"is_passed":false},{"stop_id":"U1279Z1","name":"Kounicovy koleje","arrival_time":"15:48:00","departure_time":"15:48:00","lat":49.207874,"lon":16.583463,"is_passed":false},{"stop_id":"U1657Z6","name":"Tábor","arrival_time":"15:50:00","departure_time":"15:50:00","lat":49.210122,"lon":16.587633,"is_passed":false},{"stop_id":"U1242Z1","name":"Klusáčkova","arrival_time":"15:53:00","departure_time":"15:53:00","lat":49.212365,"lon":16.592666,"is_passed":false},{"stop_id":"U1643Z2","name":"Štefánikova","arrival_time":"15:55:00","departure_time":"15:55:00","lat":49.21528,"lon":16.599053,"is_passed":false},{"stop_id":"U1535Z4","name":"Reissigova","arrival_time":"15:56:00","departure_time":"15:56:00","lat":49.21637,"lon":16.60365,"is_passed":false},{"stop_id":"U1415Z2","name":"NC Královo Pole","arrival_time":"15:58:00","departure_time":"16:22:00","lat":49.217553,"lon":16.607232,"is_passed":false}],"42823":[{"stop_id":"U1415Z1","name":"NC Královo Pole","arrival_time":"16:22:00","departure_time":"16:22:00","lat":49.217588,"lon":16.606968,"is_passed":false},{"stop_id":"U1535Z1","name":"Reissigova","arrival_time":"16:23:00","departure_time":"16:23:00","lat":49.21647,"lon":16.603814,"is_passed":false},{"stop_id":"U1643Z1","name":"Štefánikova","arrival_time":"16:25:00","departure_time":"16:25:00","lat":49.215384,"lon":16.599228,"is_passed":false},{"stop_id":"U1242Z2","name":"Klusáčkova","arrival_time":"16:27:00","departure_time":"16:27:00","lat":49.211903,"lon":16.592875,"is_passed":false},{"stop_id":"U1657Z1","name":"Tábor","arrival_time":"16:30:00","departure_time":"16:30:00","lat":49.210271,"lon":16.587228,"is_passed":false},{"stop_id":"U1279Z2","name":"Kounicovy koleje","arrival_time":"16:31:00","departure_time":"16:31:00","lat":49.20763,"lon":16.582971,"is_passed":false},{"stop_id":"U1670Z2","name":"Tichého","arrival_time":"16:32:00","departure_time":"16:32:00","lat":49.204993,"lon":16.581692,"is_passed":false},{"stop_id":"U1371Z5","name":"Náměstí Míru","arrival_time":"16:34:00","departure_time":"16:34:00","lat":49.202414,"lon":16.581386,"is_passed":false},{"stop_id":"U1328Z1","name":"Lerchova","arrival_time":"16:35:00","departure_time":"16:35:00","lat":49.198847,"lon":16.583514,"is_passed":false},{"stop_id":"U1723Z3","name":"Vaňkovo náměstí","arrival_time":"16:37:00","departure_time":"16:37:00","lat":49.194723,"lon":16.585005,"is_passed":false},{"stop_id":"U1478Z3","name":"Pavlíkova","arrival_time":"16:37:00","departure_time":"16:37:00","lat":49.194545,"lon":16.583048,"is_passed":false},{"stop_id":"U1487Z5","name":"Pisárky","arrival_time":"16:40:00","departure_time":"16:40:00","lat":49.193517,"lon":16.571155,"is_passed":false},{"stop_id":"U1007Z3","name":"Anthropos","arrival_time":"16:41:00","departure_time":"16:41:00","lat":49.193146,"lon":16.565715,"is_passed":false},{"stop_id":"U1003Z2","name":"Antonína Procházky","arrival_time":"16:42:00","departure_time":"16:42:00","lat":49.194292,"lon":16.55926,"is_passed":false},{"stop_id":"U1636Z1","name":"Šárka","arrival_time":"16:44:00","departure_time":"16:44:00","lat":49.191567,"lon":16.545721,"is_passed":false},{"stop_id":"U1408Z1","name":"Myslivna","arrival_time":"16:46:00","departure_time":"16:55:00","lat":49.18747,"lon":16.552137,"is_passed":false}],"42824":[{"stop_id":"U1408Z2","name":"Myslivna","arrival_time":"16:55:00","departure_time":"16:55:00","lat":49.18786,"lon":16.552068,"is_passed":false},{"stop_id":"U1636Z2","name":"Šárka","arrival_time":"16:56:00","departure_time":"16:56:00","lat":49.19131,"lon":16.545929,"is_passed":false},{"stop_id":"U1003Z1","name":"Antonína Procházky","arrival_time":"16:58:00","departure_time":"16:58:00","lat":49.193559,"lon":16.561795,"is_passed":false},{"stop_id":"U1007Z4","name":"Anthropos","arrival_time":"16:59:00","departure_time":"16:59:00","lat":49.193356,"lon":16.56677,"is_passed":false},{"stop_id":"U1487Z6","name":"Pisárky","arrival_time":"17:00:00","departure_time":"17:00:00","lat":49.193537,"lon":16.570797,"is_passed":false},{"stop_id":"U1320Z2","name":"Květná","arrival_time":"17:01:00","departure_time":"17:01:00","lat":49.193384,"lon":16.576691,"is_passed":false},{"stop_id":"U1478Z4","name":"Pavlíkova","arrival_time":"17:02:00","departure_time":"17:02:00","lat":49.194603,"lon":16.584264,"is_passed":false},{"stop_id":"U1723Z4","name":"Vaňkovo náměstí","arrival_time":"17:03:00","departure_time":"17:03:00","lat":49.195446,"lon":16.585783,"is_passed":false},{"stop_id":"U1328Z2","name":"Lerchova","arrival_time":"17:04:00","departure_time":"17:04:00","lat":49.198598,"lon":16.583814,"is_passed":false},{"stop_id":"U1371Z3","name":"Náměstí Míru","arrival_time":"17:07:00","departure_time":"17:07:00","lat":49.201996,"lon":16.581664,"is_passed":false},{"stop_id":"U1279Z1","name":"Kounicovy koleje","arrival_time":"17:08:00","departure_time":"17:08:00","lat":49.207874,"lon":16.583463,"is_passed":false},{"stop_id":"U1657Z6","name":"Tábor","arrival_time":"17:10:00","departure_time":"17:10:00","lat":49.210122,"lon":16.587633,"is_passed":false},{"stop_id":"U1242Z1","name":"Klusáčkova","arrival_time":"17:13:00","departure_time":"17:13:00","lat":49.212365,"lon":16.592666,"is_passed":false},{"stop_id":"U1643Z2","name":"Štefánikova","arrival_time":"17:15:00","departure_time":"17:15:00","lat":49.21528,"lon":16.599053,"is_passed":false},{"stop_id":"U1535Z4","name":"Reissigova","arrival_time":"17:16:00","departure_time":"17:16:00","lat":49.21637,"lon":16.60365,"is_passed":false},{"stop_id":"U1415Z2","name":"NC Královo Pole","arrival_time":"17:18:00","departure_time":"17:22:00","lat":49.217553,"lon":16.607232,"is_passed":false}],"42825":[{"stop_id":"U1415Z1","name":"NC Královo Pole","arrival_time":"17:22:00","departure_time":"17:22:00","lat":49.217588,"lon":16.606968,"is_passed":false},{"stop_id":"U1535Z1","name":"Reissigova","arrival_time":"17:23:00","departure_time":"17:23:00","lat":49.21647,"lon":16.603814,"is_passed":false},{"stop_id":"U1643Z1","name":"Štefánikova","arrival_time":"17:25:00","departure_time":"17:25:00","lat":49.215384,"lon":16.599228,"is_passed":false},{"stop_id":"U1242Z2","name":"Klusáčkova","arrival_time":"17:27:00","departure_time":"17:27:00","lat":49.211903,"lon":16.592875,"is_passed":false},{"stop_id":"U1657Z1","name":"Tábor","arrival_time":"17:30:00","departure_time":"17:30:00","lat":49.210271,"lon":16.587228,"is_passed":false},{"stop_id":"U1279Z2","name":"Kounicovy koleje","arrival_time":"17:31:00","departure_time":"17:31:00","lat":49.20763,"lon":16.582971,"is_passed":false},{"stop_id":"U1670Z2","name":"Tichého","arrival_time":"17:32:00","departure_time":"17:32:00","lat":49.204993,"lon":16.581692,"is_passed":false},{"stop_id":"U1371Z5","name":"Náměstí Míru","arrival_time":"17:34:00","departure_time":"17:34:00","lat":49.202414,"lon":16.581386,"is_passed":false},{"stop_id":"U1328Z1","name":"Lerchova","arrival_time":"17:35:00","departure_time":"17:35:00","lat":49.198847,"lon":16.583514,"is_passed":false},{"stop_id":"U1723Z3","name":"Vaňkovo náměstí","arrival_time":"17:37:00","departure_time":"17:37:00","lat":49.194723,"lon":16.585005,"is_passed":false},{"stop_id":"U1478Z3","name":"Pavlíkova","arrival_time":"17:37:00","departure_time":"17:37:00","lat":49.194545,"lon":16.583048,"is_passed":false},{"stop_id":"U1487Z5","name":"Pisárky","arrival_time":"17:40:00","departure_time":"17:40:00","lat":49.193517,"lon":16.571155,"is_passed":false},{"stop_id":"U1007Z3","name":"Anthropos","arrival_time":"17:41:00","departure_time":"17:41:00","lat":49.193146,"lon":16.565715,"is_passed":false},{"stop_id":"U1003Z2","name":"Antonína Procházky","arrival_time":"17:42:00","departure_time":"17:42:00","lat":49.194292,"lon":16.55926,"is_passed":false},{"stop_id":"U1636Z1","name":"Šárka","arrival_time":"17:44:00","departure_time":"17:44:00","lat":49.191567,"lon":16.545721,"is_passed":false},{"stop_id":"U1408Z1","name":"Myslivna","arrival_time":"17:46:00","departure_time":"17:55:00","lat":49.18747,"lon":16.552137,"is_passed":false}],"42826":[{"stop_id":"U1408Z2","name":"Myslivna","arrival_time":"17:55:00","departure_time":"17:55:00","lat":49.18786,"lon":16.552068,"is_passed":false},{"stop_id":"U1636Z2","name":"Šárka","arrival_time":"17:56:00","departure_time":"17:56:00","lat":49.19131,"lon":16.545929,"is_passed":false},{"stop_id":"U1003Z1","name":"Antonína Procházky","arrival_time":"17:58:00","departure_time":"17:58:00","lat":49.193559,"lon":16.561795,"is_passed":false},{"stop_id":"U1007Z4","name":"Anthropos","arrival_time":"17:59:00","departure_time":"17:59:00","lat":49.193356,"lon":16.56677,"is_passed":false},{"stop_id":"U1487Z6","name":"Pisárky","arrival_time":"18:00:00","departure_time":"18:00:00","lat":49.193537,"lon":16.570797,"is_passed":false},{"stop_id":"U1320Z2","name":"Květná","arrival_time":"18:01:00","departure_time":"18:01:00","lat":49.193384,"lon":16.576691,"is_passed":false},{"stop_id":"U1478Z4","name":"Pavlíkova","arrival_time":"18:02:00","departure_time":"18:02:00","lat":49.194603,"lon":16.584264,"is_passed":false},{"stop_id":"U1723Z4","name":"Vaňkovo náměstí","arrival_time":"18:03:00","departure_time":"18:03:00","lat":49.195446,"lon":16.585783,"is_passed":false},{"stop_id":"U1328Z2","name":"Lerchova","arrival_time":"18:04:00","departure_time":"18:04:00","lat":49.198598,"lon":16.583814,"is_passed":false},{"stop_id":"U1371Z3","name":"Náměstí Míru","arrival_time":"18:07:00","departure_time":"18:07:00","lat":49.201996,"lon":16.581664,"is_passed":false},{"stop_id":"U1279Z1","name":"Kounicovy koleje","arrival_time":"18:08:00","departure_time":"18:08:00","lat":49.207874,"lon":16.583463,"is_passed":false},{"stop_id":"U1657Z6","name":"Tábor","arrival_time":"18:10:00","departure_time":"18:10:00","lat":49.210122,"lon":16.587633,"is_passed":false},{"stop_id":"U1242Z1","name":"Klusáčkova","arrival_time":"18:13:00","departure_time":"18:13:00","lat":49.212365,"lon":16.592666,"is_passed":false},{"stop_id":"U1643Z2","name":"Štefánikova","arrival_time":"18:15:00","departure_time":"18:15:00","lat":49.21528,"lon":16.599053,"is_passed":false},{"stop_id":"U1535Z4","name":"Reissigova","arrival_time":"18:16:00","departure_time":"18:16:00","lat":49.21637,"lon":16.60365,"is_passed":false},{"stop_id":"U1415Z2","name":"NC Královo Pole","arrival_time":"18:18:00","departure_time":"18:22:00","lat":49.217553,"lon":16.607232,"is_passed":false}],"42827":[{"stop_id":"U1415Z1","name":"NC Královo Pole","arrival_time":"18:22:00","departure_time":"18:22:00","lat":49.217588,"lon":16.606968,"is_passed":false},{"stop_id":"U1535Z1","name":"Reissigova","arrival_time":"18:23:00","departure_time":"18:23:00","lat":49.21647,"lon":16.603814,"is_passed":false},{"stop_id":"U1643Z1","name":"Štefánikova","arrival_time":"18:25:00","departure_time":"18:25:00","lat":49.215384,"lon":16.599228,"is_passed":false},{"stop_id":"U1242Z2","name":"Klusáčkova","arrival_time":"18:27:00","departure_time":"18:27:00","lat":49.211903,"lon":16.592875,"is_passed":false},{"stop_id":"U1657Z1","name":"Tábor","arrival_time":"18:30:00","departure_time":"18:30:00","lat":49.210271,"lon":16.587228,"is_passed":false},{"stop_id":"U1279Z2","name":"Kounicovy koleje","arrival_time":"18:31:00","departure_time":"18:31:00","lat":49.20763,"lon":16.582971,"is_passed":false},{"stop_id":"U1670Z2","name":"Tichého","arrival_time":"18:32:00","departure_time":"18:32:00","lat":49.204993,"lon":16.581692,"is_passed":false},{"stop_id":"U1371Z5","name":"Náměstí Míru","arrival_time":"18:34:00","departure_time":"18:34:00","lat":49.202414,"lon":16.581386,"is_passed":false},{"stop_id":"U1328Z1","name":"Lerchova","arrival_time":"18:35:00","departure_time":"18:35:00","lat":49.198847,"lon":16.583514,"is_passed":false},{"stop_id":"U1723Z3","name":"Vaňkovo náměstí","arrival_time":"18:37:00","departure_time":"18:37:00","lat":49.194723,"lon":16.585005,"is_passed":false},{"stop_id":"U1478Z3","name":"Pavlíkova","arrival_time":"18:37:00","departure_time":"18:37:00","lat":49.194545,"lon":16.583048,"is_passed":false},{"stop_id":"U1487Z5","name":"Pisárky","arrival_time":"18:39:00","departure_time":"18:39:00","lat":49.193517,"lon":16.571155,"is_passed":false},{"stop_id":"U1007Z3","name":"Anthropos","arrival_time":"18:40:00","departure_time":"18:40:00","lat":49.193146,"lon":16.565715,"is_passed":false},{"stop_id":"U1003Z2","name":"Antonína Procházky","arrival_time":"18:41:00","departure_time":"18:41:00","lat":49.194292,"lon":16.55926,"is_passed":false},{"stop_id":"U1636Z1","name":"Šárka","arrival_time":"18:42:00","departure_time":"18:42:00","lat":49.191567,"lon":16.545721,"is_passed":false},{"stop_id":"U1408Z1","name":"Myslivna","arrival_time":"18:44:00","departure_time":"19:17:00","lat":49.18747,"lon":16.552137,"is_passed":false}],"42828":[{"stop_id":"U1408Z2","name":"Myslivna","arrival_time":"19:17:00","departure_time":"19:17:00","lat":49.18786,"lon":16.552068,"is_passed":false},{"stop_id":"U1636Z2","name":"Šárka","arrival_time":"19:18:00","departure_time":"19:18:00","lat":49.19131,"lon":16.545929,"is_passed":false},{"stop_id":"U1003Z1","name":"Antonína Procházky","arrival_time":"19:20:00","departure_time":"19:20:00","lat":49.193559,"lon":16.561795,"is_passed":false},{"stop_id":"U1007Z4","name":"Anthropos","arrival_time":"19:21:00","departure_time":"19:21:00","lat":49.193356,"lon":16.56677,"is_passed":false},{"stop_id":"U1487Z6","name":"Pisárky","arrival_time":"19:22:00","departure_time":"19:22:00","lat":49.193537,"lon":16.570797,"is_passed":false},{"stop_id":"U1320Z2","name":"Květná","arrival_time":"19:23:00","departure_time":"19:23:00","lat":49.193384,"lon":16.576691,"is_passed":false},{"stop_id":"U1478Z4","name":"Pavlíkova","arrival_time":"19:24:00","departure_time":"19:24:00","lat":49.194603,"lon":16.584264,"is_passed":false},{"stop_id":"U1723Z4","name":"Vaňkovo náměstí","arrival_time":"19:25:00","departure_time":"19:25:00","lat":49.195446,"lon":16.585783,"is_passed":false},{"stop_id":"U1328Z2","name":"Lerchova","arrival_time":"19:26:00","departure_time":"19:26:00","lat":49.198598,"lon":16.583814,"is_passed":false},{"stop_id":"U1371Z3","name":"Náměstí Míru","arrival_time":"19:29:00","departure_time":"19:29:00","lat":49.201996,"lon":16.581664,"is_passed":false},{"stop_id":"U1279Z1","name":"Kounicovy koleje","arrival_time":"19:30:00","departure_time":"19:30:00","lat":49.207874,"lon":16.583463,"is_passed":false},{"stop_id":"U1657Z6","name":"Tábor","arrival_time":"19:31:00","departure_time":"19:31:00","lat":49.210122,"lon":16.587633,"is_passed":false},{"stop_id":"U1242Z1","name":"Klusáčkova","arrival_time":"19:33:00","departure_time":"19:33:00","lat":49.212365,"lon":16.592666,"is_passed":false},{"stop_id":"U1643Z2","name":"Štefánikova","arrival_time":"19:35:00","departure_time":"19:35:00","lat":49.21528,"lon":16.599053,"is_passed":false},{"stop_id":"U1535Z4","name":"Reissigova","arrival_time":"19:36:00","departure_time":"19:36:00","lat":49.21637,"lon":16.60365,"is_passed":false},{"stop_id":"U1415Z2","name":"NC Královo Pole","arrival_time":"19:38:00","departure_time":"19:42:00","lat":49.217553,"lon":16.607232,"is_passed":false}],"42829":[{"stop_id":"U1415Z1","name":"NC Královo Pole","arrival_time":"19:42:00","departure_time":"19:42:00","lat":49.217588,"lon":16.606968,"is_passed":false},{"stop_id":"U1535Z1","name":"Reissigova","arrival_time":"19:43:00","departure_time":"19:43:00","lat":49.21647,"lon":16.603814,"is_passed":false},{"stop_id":"U1643Z1","name":"Štefánikova","arrival_time":"19:45:00","departure_time":"19:45:00","lat":49.215384,"lon":16.599228,"is_passed":false},{"stop_id":"U1242Z2","name":"Klusáčkova","arrival_time":"19:47:00","departure_time":"19:47:00","lat":49.211903,"lon":16.592875,"is_passed":false},{"stop_id":"U1657Z1","name":"Tábor","arrival_time":"19:50:00","departure_time":"19:50:00","lat":49.210271,"lon":16.587228,"is_passed":false},{"stop_id":"U1279Z2","name":"Kounicovy koleje","arrival_time":"19:51:00","departure_time":"19:51:00","lat":49.20763,"lon":16.582971,"is_passed":false},{"stop_id":"U1670Z2","name":"Tichého","arrival_time":"19:52:00","departure_time":"19:52:00","lat":49.204993,"lon":16.581692,"is_passed":false},{"stop_id":"U1371Z5","name":"Náměstí Míru","arrival_time":"19:54:00","departure_time":"20:09:00","lat":49.202414,"lon":16.581386,"is_passed":false}],"42830":[{"stop_id":"U1371Z3","name":"Náměstí Míru","arrival_time":"20:09:00","departure_time":"20:09:00","lat":49.201996,"lon":16.581664,"is_passed":false},{"stop_id":"U1279Z1","name":"Kounicovy koleje","arrival_time":"20:10:00","departure_time":"20:10:00","lat":49.207874,"lon":16.583463,"is_passed":false},{"stop_id":"U1657Z6","name":"Tábor","arrival_time":"20:11:00","departure_time":"20:11:00","lat":49.210122,"lon":16.587633,"is_passed":false},{"stop_id":"U1242Z1","name":"Klusáčkova","arrival_time":"20:13:00","departure_time":"20:13:00","lat":49.212365,"lon":16.592666,"is_passed":false},{"stop_id":"U1643Z2","name":"Štefánikova","arrival_time":"20:15:00","departure_time":"20:15:00","lat":49.21528,"lon":16.599053,"is_passed":false},{"stop_id":"U1535Z4","name":"Reissigova","arrival_time":"20:16:00","departure_time":"20:16:00","lat":49.21637,"lon":16.60365,"is_passed":false},{"stop_id":"U1415Z2","name":"NC Královo Pole","arrival_time":"20:18:00","departure_time":"20:22:00","lat":49.217553,"lon":16.607232,"is_passed":false}],"42831":[{"stop_id":"U1415Z1","name":"NC Královo Pole","arrival_time":"20:22:00","departure_time":"20:22:00","lat":49.217588,"lon":16.606968,"is_passed":false},{"stop_id":"U1535Z1","name":"Reissigova","arrival_time":"20:23:00","departure_time":"20:23:00","lat":49.21647,"lon":16.603814,"is_passed":false},{"stop_id":"U1643Z1","name":"Štefánikova","arrival_time":"20:25:00","departure_time":"20:25:00","lat":49.215384,"lon":16.599228,"is_passed":false},{"stop_id":"U1242Z2","name":"Klusáčkova","arrival_time":"20:27:00","departure_time":"20:27:00","lat":49.211903,"lon":16.592875,"is_passed":false},{"stop_id":"U1657Z1","name":"Tábor","arrival_time":"20:30:00","departure_time":"20:30:00","lat":49.210271,"lon":16.587228,"is_passed":false},{"stop_id":"U1279Z2","name":"Kounicovy koleje","arrival_time":"20:31:00","departure_time":"20:31:00","lat":49.20763,"lon":16.582971,"is_passed":false},{"stop_id":"U1670Z2","name":"Tichého","arrival_time":"20:32:00","departure_time":"20:32:00","lat":49.204993,"lon":16.581692,"is_passed":false},{"stop_id":"U1371Z5","name":"Náměstí Míru","arrival_time":"20:34:00","departure_time":"20:34:00","lat":49.202414,"lon":16.581386,"is_passed":false},{"stop_id":"U1328Z1","name":"Lerchova","arrival_time":"20:35:00","departure_time":"20:35:00","lat":49.198847,"lon":16.583514,"is_passed":false},{"stop_id":"U1723Z3","name":"Vaňkovo náměstí","arrival_time":"20:37:00","departure_time":"20:37:00","lat":49.194723,"lon":16.585005,"is_passed":false},{"stop_id":"U1478Z3","name":"Pavlíkova","arrival_time":"20:37:00","departure_time":"20:37:00","lat":49.194545,"lon":16.583048,"is_passed":false},{"stop_id":"U1487Z5","name":"Pisárky","arrival_time":"20:39:00","departure_time":"20:39:00","lat":49.193517,"lon":16.571155,"is_passed":false},{"stop_id":"U1007Z3","name":"Anthropos","arrival_time":"20:40:00","departure_time":"20:40:00","lat":49.193146,"lon":16.565715,"is_passed":false},{"stop_id":"U1003Z2","name":"Antonína Procházky","arrival_time":"20:41:00","departure_time":"20:41:00","lat":49.194292,"lon":16.55926,"is_passed":false},{"stop_id":"U1636Z1","name":"Šárka","arrival_time":"20:42:00","departure_time":"20:42:00","lat":49.191567,"lon":16.545721,"is_passed":false},{"stop_id":"U1408Z1","name":"Myslivna","arrival_time":"20:44:00","departure_time":"21:22:00","lat":49.18747,"lon":16.552137,"is_passed":false}],"42832":[{"stop_id":"U1408Z2","name":"Myslivna","arrival_time":"21:22:00","departure_time":"21:22:00","lat":49.18786,"lon":16.552068,"is_passed":false},{"stop_id":"U1636Z2","name":"Šárka","arrival_time":"21:23:00","departure_time":"21:23:00","lat":49.19131,"lon":16.545929,"is_passed":false},{"stop_id":"U1003Z1","name":"Antonína Procházky","arrival_time":"21:25:00","departure_time":"21:25:00","lat":49.193559,"lon":16.561795,"is_passed":false},{"stop_id":"U1007Z4","name":"Anthropos","arrival_time":"21:26:00","departure_time":"21:26:00","lat":49.193356,"lon":16.56677,"is_passed":false},{"stop_id":"U1487Z6","name":"Pisárky","arrival_time":"21:27:00","departure_time":"21:27:00","lat":49.193537,"lon":16.570797,"is_passed":false},{"stop_id":"U1320Z2","name":"Květná","arrival_time":"21:28:00","departure_time":"21:28:00","lat":49.193384,"lon":16.576691,"is_passed":false},{"stop_id":"U1478Z4","name":"Pavlíkova","arrival_time":"21:29:00","departure_time":"21:29:00","lat":49.194603,"lon":16.584264,"is_passed":false},{"stop_id":"U1723Z4","name":"Vaňkovo náměstí","arrival_time":"21:30:00","departure_time":"21:30:00","lat":49.195446,"lon":16.585783,"is_passed":false},{"stop_id":"U1328Z2","name":"Lerchova","arrival_time":"21:31:00","departure_time":"21:31:00","lat":49.198598,"lon":16.583814,"is_passed":false},{"stop_id":"U1371Z3","name":"Náměstí Míru","arrival_time":"21:34:00","departure_time":"21:34:00","lat":49.201996,"lon":16.581664,"is_passed":false},{"stop_id":"U1279Z1","name":"Kounicovy koleje","arrival_time":"21:35:00","departure_time":"21:35:00","lat":49.207874,"lon":16.583463,"is_passed":false},{"stop_id":"U1657Z6","name":"Tábor","arrival_time":"21:36:00","departure_time":"21:36:00","lat":49.210122,"lon":16.587633,"is_passed":false},{"stop_id":"U1242Z1","name":"Klusáčkova","arrival_time":"21:38:00","departure_time":"21:38:00","lat":49.212365,"lon":16.592666,"is_passed":false},{"stop_id":"U1643Z2","name":"Štefánikova","arrival_time":"21:40:00","departure_time":"21:40:00","lat":49.21528,"lon":16.599053,"is_passed":false},{"stop_id":"U1535Z4","name":"Reissigova","arrival_time":"21:41:00","departure_time":"21:41:00","lat":49.21637,"lon":16.60365,"is_passed":false},{"stop_id":"U1415Z2","name":"NC Královo Pole","arrival_time":"21:42:00","departure_time":"21:48:00","lat":49.217553,"lon":16.607232,"is_passed":false}],"42833":[{"stop_id":"U1415Z1","name":"NC Královo Pole","arrival_time":"21:48:00","departure_time":"21:48:00","lat":49.217588,"lon":16.606968,"is_passed":false},{"stop_id":"U1535Z1","name":"Reissigova","arrival_time":"21:49:00","departure_time":"21:49:00","lat":49.21647,"lon":16.603814,"is_passed":false},{"stop_id":"U1643Z1","name":"Štefánikova","arrival_time":"21:50:00","departure_time":"21:50:00","lat":49.215384,"lon":16.599228,"is_passed":false},{"stop_id":"U1242Z2","name":"Klusáčkova","arrival_time":"21:52:00","departure_time":"21:52:00","lat":49.211903,"lon":16.592875,"is_passed":false},{"stop_id":"U1657Z1","name":"Tábor","arrival_time":"21:55:00","departure_time":"21:55:00","lat":49.210271,"lon":16.587228,"is_passed":false},{"stop_id":"U1279Z2","name":"Kounicovy koleje","arrival_time":"21:56:00","departure_time":"21:56:00","lat":49.20763,"lon":16.582971,"is_passed":false},{"stop_id":"U1670Z2","name":"Tichého","arrival_time":"21:56:00","departure_time":"21:56:00","lat":49.204993,"lon":16.581692,"is_passed":false},{"stop_id":"U1371Z5","name":"Náměstí Míru","arrival_time":"21:58:00","departure_time":"21:58:00","lat":49.202414,"lon":16.581386,"is_passed":false},{"stop_id":"U1328Z1","name":"Lerchova","arrival_time":"21:59:00","departure_time":"21:59:00","lat":49.198847,"lon":16.583514,"is_passed":false},{"stop_id":"U1723Z3","name":"Vaňkovo náměstí","arrival_time":"22:01:00","departure_time":"22:01:00","lat":49.194723,"lon":16.585005,"is_passed":false},{"stop_id":"U1478Z3","name":"Pavlíkova","arrival_time":"22:01:00","departure_time":"22:01:00","lat":49.194545,"lon":16.583048,"is_passed":false},{"stop_id":"U1487Z5","name":"Pisárky","arrival_time":"22:03:00","departure_time":"22:03:00","lat":49.193517,"lon":16.571155,"is_passed":false},{"stop_id":"U1007Z3","name":"Anthropos","arrival_time":"22:04:00","departure_time":"22:04:00","lat":49.193146,"lon":16.565715,"is_passed":false},{"stop_id":"U1003Z2","name":"Antonína Procházky","arrival_time":"22:04:00","departure_time":"22:04:00","lat":49.194292,"lon":16.55926,"is_passed":false},{"stop_id":"U1636Z1","name":"Šárka","arrival_time":"22:05:00","departure_time":"22:05:00","lat":49.191567,"lon":16.545721,"is_passed":false},{"stop_id":"U1408Z1","name":"Myslivna","arrival_time":"22:07:00","departure_time":"22:09:00","lat":49.18747,"lon":16.552137,"is_passed":false}],"42834":[{"stop_id":"U1487Z6","name":"Pisárky","arrival_time":"14:00:00","departure_time":"14:00:00","lat":49.193537,"lon":16.570797,"is_passed":false},{"stop_id":"U1320Z2","name":"Květná","arrival_time":"14:01:00","departure_time":"14:01:00","lat":49.193384,"lon":16.576691,"is_passed":false},{"stop_id":"U1478Z4","name":"Pavlíkova","arrival_time":"14:02:00","departure_time":"14:02:00","lat":49.194603,"lon":16.584264,"is_passed":false},{"stop_id":"U1723Z4","name":"Vaňkovo náměstí","arrival_time":"14:03:00","departure_time":"14:03:00","lat":49.195446,"lon":16.585783,"is_passed":false},{"stop_id":"U1328Z2","name":"Lerchova","arrival_time":"14:04:00","departure_time":"14:04:00","lat":49.198598,"lon":16.583814,"is_passed":false},{"stop_id":"U1371Z3","name":"Náměstí Míru","arrival_time":"14:07:00","departure_time":"14:07:00","lat":49.201996,"lon":16.581664,"is_passed":false},{"stop_id":"U1279Z1","name":"Kounicovy koleje","arrival_time":"14:08:00","departure_time":"14:08:00","lat":49.207874,"lon":16.583463,"is_passed":false},{"stop_id":"U1657Z6","name":"Tábor","arrival_time":"14:10:00","departure_time":"14:10:00","lat":49.210122,"lon":16.587633,"is_passed":false},{"stop_id":"U1242Z1","name":"Klusáčkova","arrival_time":"14:13:00","departure_time":"14:13:00","lat":49.212365,"lon":16.592666,"is_passed":false},{"stop_id":"U1643Z2","name":"Štefánikova","arrival_time":"14:15:00","departure_time":"14:15:00","lat":49.21528,"lon":16.599053,"is_passed":false},{"stop_id":"U1535Z4","name":"Reissigova","arrival_time":"14:16:00","departure_time":"14:16:00","lat":49.21637,"lon":16.60365,"is_passed":false},{"stop_id":"U1415Z2","name":"NC Královo Pole","arrival_time":"14:18:00","departure_time":"14:42:00","lat":49.217553,"lon":16.607232,"is_passed":false}],"42835":[{"stop_id":"U1415Z1","name":"NC Královo Pole","arrival_time":"14:42:00","departure_time":"14:42:00","lat":49.217588,"lon":16.606968,"is_passed":false},{"stop_id":"U1535Z1","name":"Reissigova","arrival_time":"14:43:00","departure_time":"14:43:00","lat":49.21647,"lon":16.603814,"is_passed":false},{"stop_id":"U1643Z1","name":"Štefánikova","arrival_time":"14:45:00","departure_time":"14:45:00","lat":49.215384,"lon":16.599228,"is_passed":false},{"stop_id":"U1242Z2","name":"Klusáčkova","arrival_time":"14:47:00","departure_time":"14:47:00","lat":49.211903,"lon":16.592875,"is_passed":false},{"stop_id":"U1657Z1","name":"Tábor","arrival_time":"14:50:00","departure_time":"14:50:00","lat":49.210271,"lon":16.587228,"is_passed":false},