{"428":[{"stop_id":"U29602Z20","name":"Myjava","arrival_time":"12:07:00","departure_time":"12:07:00","lat":48.763386,"lon":17.570662,"is_passed":false},{"stop_id":"U29504Z20","name":"Vrbovce zastávka","arrival_time":"12:14:00","departure_time":"12:14:00","lat":48.804895,"lon":17.529576,"is_passed":false},{"stop_id":"U29501Z20","name":"Vrbovce","arrival_time":"12:19:00","departure_time":"12:30:00","lat":48.824135,"lon":17.515827,"is_passed":false},{"stop_id":"U29502Z1","name":"Javorník nad Veličkou zastávka","arrival_time":"12:35:00","departure_time":"12:35:00","lat":48.862553,"lon":17.52241,"is_passed":false},{"stop_id":"U19525Z10","name":"Velká nad Veličkou","arrival_time":"12:38:00","departure_time":"12:39:00","lat":48.87941,"lon":17.518443,"is_passed":false},{"stop_id":"U19414Z2","name":"Louka, obecní úřad","arrival_time":"12:44:00","departure_time":"12:44:00","lat":48.915623,"lon":17.486768,"is_passed":false},{"stop_id":"U19400Z20","name":"Blatnice pod Sv. Antonínkem, křižovatka","arrival_time":"12:48:00","departure_time":"12:48:00","lat":48.945904,"lon":17.461513,"is_passed":false},{"stop_id":"U19316Z41","name":"Veselí nad Moravou, železniční stanice","arrival_time":"12:56:00","departure_time":"13:04:00","lat":48.949155,"lon":17.381792,"is_passed":false}],"4280":[{"stop_id":"U14105Z2","name":"Ostopovice, smyčka","arrival_time":"22:15:00","departure_time":"22:15:00","lat":49.164301,"lon":16.540971,"is_passed":false},{"stop_id":"U14104Z2","name":"Ostopovice, rozcestí","arrival_time":"22:15:00","departure_time":"22:15:00","lat":49.163133,"lon":16.542749,"is_passed":false},{"stop_id":"U14103Z2","name":"Ostopovice, U Kaple","arrival_time":"22:16:00","departure_time":"22:16:00","lat":49.161088,"lon":16.545566,"is_passed":false},{"stop_id":"U14101Z2","name":"Ostopovice, Branky","arrival_time":"22:17:00","departure_time":"22:17:00","lat":49.159942,"lon":16.548414,"is_passed":false},{"stop_id":"U1488Z2","name":"Pod dálnicí","arrival_time":"22:18:00","departure_time":"22:18:00","lat":49.163539,"lon":16.55541,"is_passed":false},{"stop_id":"U1666Z2","name":"Točná","arrival_time":"22:19:00","departure_time":"22:19:00","lat":49.164745,"lon":16.561481,"is_passed":false},{"stop_id":"U1061Z2","name":"Čermákova","arrival_time":"22:20:00","departure_time":"22:20:00","lat":49.164349,"lon":16.564689,"is_passed":false},{"stop_id":"U1627Z2","name":"Svah","arrival_time":"22:20:00","departure_time":"22:20:00","lat":49.164924,"lon":16.567717,"is_passed":false},{"stop_id":"U1273Z1","name":"Kosmonautů","arrival_time":"22:21:00","departure_time":"22:21:00","lat":49.167006,"lon":16.568017,"is_passed":false},{"stop_id":"U1472Z7","name":"Osová","arrival_time":"22:22:00","departure_time":"22:22:00","lat":49.168951,"lon":16.566714,"is_passed":false},{"stop_id":"U7050Z1","name":"ZŠ Vedlejší","arrival_time":"22:22:00","departure_time":"22:22:00","lat":49.171054,"lon":16.569191,"is_passed":false},{"stop_id":"U1748Z2","name":"Vltavská","arrival_time":"22:23:00","departure_time":"22:23:00","lat":49.172487,"lon":16.564821,"is_passed":false},{"stop_id":"U1322Z1","name":"Labská","arrival_time":"22:26:00","departure_time":"22:40:00","lat":49.17151,"lon":16.559604,"is_passed":false}],"4281":[{"stop_id":"U1322Z3","name":"Labská","arrival_time":"22:40:00","departure_time":"22:40:00","lat":49.171353,"lon":16.559418,"is_passed":false},{"stop_id":"U1748Z1","name":"Vltavská","arrival_time":"22:41:00","departure_time":"22:41:00","lat":49.172655,"lon":16.563983,"is_passed":false},{"stop_id":"U1492Z4","name":"Pod nemocnicí","arrival_time":"22:42:00","departure_time":"22:42:00","lat":49.171965,"lon":16.56858,"is_passed":false},{"stop_id":"U1472Z8","name":"Osová","arrival_time":"22:44:00","departure_time":"22:44:00","lat":49.168617,"lon":16.566306,"is_passed":false},{"stop_id":"U1273Z2","name":"Kosmonautů","arrival_time":"22:44:00","departure_time":"22:44:00","lat":49.167124,"lon":16.56745,"is_passed":false},{"stop_id":"U1627Z1","name":"Svah","arrival_time":"22:45:00","departure_time":"22:45:00","lat":49.165199,"lon":16.567969,"is_passed":false},{"stop_id":"U1061Z1","name":"Čermákova","arrival_time":"22:45:00","departure_time":"22:45:00","lat":49.164336,"lon":16.565516,"is_passed":false},{"stop_id":"U1666Z1","name":"Točná","arrival_time":"22:46:00","departure_time":"22:46:00","lat":49.16476,"lon":16.561692,"is_passed":false},{"stop_id":"U1488Z1","name":"Pod dálnicí","arrival_time":"22:47:00","departure_time":"22:47:00","lat":49.163512,"lon":16.555152,"is_passed":false},{"stop_id":"U14101Z1","name":"Ostopovice, Branky","arrival_time":"22:48:00","departure_time":"22:48:00","lat":49.159937,"lon":16.548801,"is_passed":false},{"stop_id":"U14103Z1","name":"Ostopovice, U Kaple","arrival_time":"22:49:00","departure_time":"22:49:00","lat":49.161083,"lon":16.545743,"is_passed":false},{"stop_id":"U14104Z1","name":"Ostopovice, rozcestí","arrival_time":"22:49:00","departure_time":"22:49:00","lat":49.163046,"lon":16.542924,"is_passed":false},{"stop_id":"U14105Z3","name":"Ostopovice, smyčka","arrival_time":"22:50:00","departure_time":"22:50:00","lat":49.164457,"lon":16.540725,"is_passed":false},{"stop_id":"U14102Z1","name":"Ostopovice, Lipová","arrival_time":"22:51:00","departure_time":"22:51:00","lat":49.163052,"lon":16.536032,"is_passed":false},{"stop_id":"U14110Z1","name":"Troubsko, U dráhy","arrival_time":"22:52:00","departure_time":"22:52:00","lat":49.163195,"lon":16.527182,"is_passed":false},{"stop_id":"U14126Z1","name":"Troubsko, Nová","arrival_time":"22:53:00","departure_time":"22:53:00","lat":49.166982,"lon":16.518167,"is_passed":false},{"stop_id":"U14106Z1","name":"Troubsko, kaplička","arrival_time":"22:54:00","departure_time":"22:54:00","lat":49.169013,"lon":16.511465,"is_passed":false},{"stop_id":"U14109Z1","name":"Troubsko, obecní úřad","arrival_time":"22:55:00","departure_time":"22:55:00","lat":49.171013,"lon":16.506845,"is_passed":false}],"4282":[{"stop_id":"U14109Z1","name":"Troubsko, obecní úřad","arrival_time":"22:55:00","departure_time":"22:55:00","lat":49.171013,"lon":16.506845,"is_passed":false},{"stop_id":"U14119Z1","name":"Střelice, dolní železniční stanice","arrival_time":"22:57:00","departure_time":"22:57:00","lat":49.155987,"lon":16.50456,"is_passed":false},{"stop_id":"U14121Z1","name":"Střelice, obecní úřad","arrival_time":"22:58:00","departure_time":"22:58:00","lat":49.152682,"lon":16.50322,"is_passed":false},{"stop_id":"U14120Z1","name":"Střelice, nákupní středisko","arrival_time":"23:00:00","departure_time":"23:00:00","lat":49.152835,"lon":16.493768,"is_passed":false},{"stop_id":"U14124Z1","name":"Střelice, Vršovice","arrival_time":"23:02:00","departure_time":"23:02:00","lat":49.15349,"lon":16.480352,"is_passed":false},{"stop_id":"U14113Z1","name":"Omice, samoobsluha","arrival_time":"23:10:00","departure_time":"23:10:00","lat":49.16998,"lon":16.451412,"is_passed":false}],"4283":[{"stop_id":"U14113Z2","name":"Omice, samoobsluha","arrival_time":"23:10:00","departure_time":"23:10:00","lat":49.16998,"lon":16.451412,"is_passed":false},{"stop_id":"U14124Z2","name":"Střelice, Vršovice","arrival_time":"23:18:00","departure_time":"23:18:00","lat":49.153397,"lon":16.480075,"is_passed":false},{"stop_id":"U14120Z2","name":"Střelice, nákupní středisko","arrival_time":"23:20:00","departure_time":"23:20:00","lat":49.152702,"lon":16.494152,"is_passed":false},{"stop_id":"U14121Z2","name":"Střelice, obecní úřad","arrival_time":"23:22:00","departure_time":"23:22:00","lat":49.152613,"lon":16.502885,"is_passed":false},{"stop_id":"U14119Z2","name":"Střelice, dolní železniční stanice","arrival_time":"23:23:00","departure_time":"23:23:00","lat":49.156018,"lon":16.50473,"is_passed":false},{"stop_id":"U14109Z3","name":"Troubsko, obecní úřad","arrival_time":"23:26:00","departure_time":"23:26:00","lat":49.170364,"lon":16.505743,"is_passed":false}],"4284":[{"stop_id":"U14109Z3","name":"Troubsko, obecní úřad","arrival_time":"23:26:00","departure_time":"23:26:00","lat":49.170364,"lon":16.505743,"is_passed":false},{"stop_id":"U14106Z2","name":"Troubsko, kaplička","arrival_time":"23:27:00","departure_time":"23:27:00","lat":49.168923,"lon":16.511588,"is_passed":false},{"stop_id":"U14126Z2","name":"Troubsko, Nová","arrival_time":"23:28:00","departure_time":"23:28:00","lat":49.166465,"lon":16.519273,"is_passed":false},{"stop_id":"U14110Z2","name":"Troubsko, U dráhy","arrival_time":"23:29:00","departure_time":"23:29:00","lat":49.163317,"lon":16.526862,"is_passed":false},{"stop_id":"U14105Z2","name":"Ostopovice, smyčka","arrival_time":"23:32:00","departure_time":"23:32:00","lat":49.164301,"lon":16.540971,"is_passed":false},{"stop_id":"U14104Z2","name":"Ostopovice, rozcestí","arrival_time":"23:32:00","departure_time":"23:32:00","lat":49.163133,"lon":16.542749,"is_passed":false},{"stop_id":"U14103Z2","name":"Ostopovice, U Kaple","arrival_time":"23:33:00","departure_time":"23:33:00","lat":49.161088,"lon":16.545566,"is_passed":false},{"stop_id":"U14101Z2","name":"Ostopovice, Branky","arrival_time":"23:34:00","departure_time":"23:34:00","lat":49.159942,"lon":16.548414,"is_passed":false},{"stop_id":"U1488Z2","name":"Pod dálnicí","arrival_time":"23:35:00","departure_time":"23:35:00","lat":49.163539,"lon":16.55541,"is_passed":false},{"stop_id":"U1666Z2","name":"Točná","arrival_time":"23:36:00","departure_time":"23:36:00","lat":49.164745,"lon":16.561481,"is_passed":false},{"stop_id":"U1061Z2","name":"Čermákova","arrival_time":"23:37:00","departure_time":"23:37:00","lat":49.164349,"lon":16.564689,"is_passed":false},{"stop_id":"U1627Z2","name":"Svah","arrival_time":"23:37:00","departure_time":"23:37:00","lat":49.164924,"lon":16.567717,"is_passed":false},{"stop_id":"U1273Z1","name":"Kosmonautů","arrival_time":"23:38:00","departure_time":"23:38:00","lat":49.167006,"lon":16.568017,"is_passed":false},{"stop_id":"U1472Z7","name":"Osová","arrival_time":"23:39:00","departure_time":"23:48:00","lat":49.168951,"lon":16.566714,"is_passed":false}],"4285":[{"stop_id":"U1472Z8","name":"Osová","arrival_time":"23:48:00","departure_time":"23:48:00","lat":49.168617,"lon":16.566306,"is_passed":false},{"stop_id":"U1273Z2","name":"Kosmonautů","arrival_time":"23:48:00","departure_time":"23:48:00","lat":49.167124,"lon":16.56745,"is_passed":false},{"stop_id":"U1627Z1","name":"Svah","arrival_time":"23:49:00","departure_time":"23:49:00","lat":49.165199,"lon":16.567969,"is_passed":false},{"stop_id":"U1061Z1","name":"Čermákova","arrival_time":"23:49:00","departure_time":"23:49:00","lat":49.164336,"lon":16.565516,"is_passed":false},{"stop_id":"U1666Z1","name":"Točná","arrival_time":"23:50:00","departure_time":"23:50:00","lat":49.16476,"lon":16.561692,"is_passed":false},{"stop_id":"U1488Z1","name":"Pod dálnicí","arrival_time":"23:51:00","departure_time":"23:51:00","lat":49.163512,"lon":16.555152,"is_passed":false},{"stop_id":"U14101Z1","name":"Ostopovice, Branky","arrival_time":"23:52:00","departure_time":"23:52:00","lat":49.159937,"lon":16.548801,"is_passed":false},{"stop_id":"U14103Z1","name":"Ostopovice, U Kaple","arrival_time":"23:53:00","departure_time":"23:53:00","lat":49.161083,"lon":16.545743,"is_passed":false},{"stop_id":"U14104Z1","name":"Ostopovice, rozcestí","arrival_time":"23:53:00","departure_time":"23:53:00","lat":49.163046,"lon":16.542924,"is_passed":false},{"stop_id":"U14105Z1","name":"Ostopovice, smyčka","arrival_time":"23:54:00","departure_time":"23:54:00","lat":49.164457,"lon":16.540725,"is_passed":false}],"4286":[{"stop_id":"U15130Z1","name":"Modřice, Olympia","arrival_time":"11:17:00","departure_time":"11:17:00","lat":49.139278,"lon":16.634036,"is_passed":false},{"stop_id":"U15132Z2","name":"Modřice, Olympia jih","arrival_time":"11:18:00","departure_time":"11:18:00","lat":49.135069,"lon":16.633864,"is_passed":false},{"stop_id":"U15124Z2","name":"Modřice, Drůbežářské závody","arrival_time":"11:19:00","departure_time":"11:19:00","lat":49.13409,"lon":16.631493,"is_passed":false},{"stop_id":"U15129Z2","name":"Modřice, náměstí","arrival_time":"11:21:00","departure_time":"11:21:00","lat":49.127756,"lon":16.616081,"is_passed":false},{"stop_id":"U15127Z2","name":"Modřice, Masarykova","arrival_time":"11:23:00","departure_time":"11:23:00","lat":49.131296,"lon":16.614624,"is_passed":false},{"stop_id":"U15126Z1","name":"Modřice, Husova","arrival_time":"11:24:00","departure_time":"11:24:00","lat":49.132247,"lon":16.61201,"is_passed":false},{"stop_id":"U15140Z4","name":"Modřice, železniční stanice","arrival_time":"11:26:00","departure_time":"11:26:00","lat":49.133918,"lon":16.606723,"is_passed":false},{"stop_id":"U15134Z2","name":"Modřice, smyčka","arrival_time":"11:31:00","departure_time":"11:31:00","lat":49.126517,"lon":16.604633,"is_passed":false},{"stop_id":"U15137Z4","name":"Modřice, Tyršova","arrival_time":"11:32:00","departure_time":"11:32:00","lat":49.129402,"lon":16.603203,"is_passed":false},{"stop_id":"U15121Z1","name":"Želešice, na kopci","arrival_time":"11:35:00","departure_time":"11:35:00","lat":49.118092,"lon":16.59048,"is_passed":false},{"stop_id":"U15120Z1","name":"Želešice, hostinec","arrival_time":"11:36:00","departure_time":"11:36:00","lat":49.1169,"lon":16.581776,"is_passed":false},{"stop_id":"U15180Z1","name":"Želešice, u Sulzrů","arrival_time":"11:37:00","departure_time":"11:37:00","lat":49.11668,"lon":16.577048,"is_passed":false},{"stop_id":"U15162Z1","name":"Želešice, u dálnice","arrival_time":"11:38:00","departure_time":"11:38:00","lat":49.115165,"lon":16.56894,"is_passed":false},{"stop_id":"U15101Z1","name":"Hajany","arrival_time":"11:40:00","departure_time":"11:40:00","lat":49.110681,"lon":16.55513,"is_passed":false},{"stop_id":"U14206Z1","name":"Ořechov, tábor","arrival_time":"11:42:00","departure_time":"11:42:00","lat":49.110213,"lon":16.539938,"is_passed":false},{"stop_id":"U14207Z1","name":"Ořechov, zdravotní středisko","arrival_time":"11:43:00","departure_time":"11:43:00","lat":49.110487,"lon":16.526989,"is_passed":false},{"stop_id":"U14204Z1","name":"Ořechov, obecní úřad","arrival_time":"11:45:00","departure_time":"11:45:00","lat":49.111535,"lon":16.518505,"is_passed":false},{"stop_id":"U14201Z3","name":"Ořechov, Jeřábkova","arrival_time":"11:47:00","departure_time":"12:11:00","lat":49.108927,"lon":16.512613,"is_passed":false}],"4287":[{"stop_id":"U14201Z2","name":"Ořechov, Jeřábkova","arrival_time":"12:11:00","departure_time":"12:11:00","lat":49.108927,"lon":16.512613,"is_passed":false},{"stop_id":"U14204Z2","name":"Ořechov, obecní úřad","arrival_time":"12:13:00","departure_time":"12:13:00","lat":49.111497,"lon":16.51816,"is_passed":false},{"stop_id":"U14207Z2","name":"Ořechov, zdravotní středisko","arrival_time":"12:15:00","departure_time":"12:15:00","lat":49.11048,"lon":16.527158,"is_passed":false},{"stop_id":"U14206Z2","name":"Ořechov, tábor","arrival_time":"12:16:00","departure_time":"12:16:00","lat":49.11015,"lon":16.539909,"is_passed":false},{"stop_id":"U15101Z2","name":"Hajany","arrival_time":"12:18:00","departure_time":"12:18:00","lat":49.110659,"lon":16.554994,"is_passed":false},{"stop_id":"U15162Z2","name":"Želešice, u dálnice","arrival_time":"12:20:00","departure_time":"12:20:00","lat":49.115092,"lon":16.569087,"is_passed":false},{"stop_id":"U15180Z2","name":"Želešice, u Sulzrů","arrival_time":"12:22:00","departure_time":"12:22:00","lat":49.116762,"lon":16.577892,"is_passed":false},{"stop_id":"U15120Z2","name":"Želešice, hostinec","arrival_time":"12:23:00","departure_time":"12:23:00","lat":49.116718,"lon":16.581256,"is_passed":false},{"stop_id":"U15121Z2","name":"Želešice, na kopci","arrival_time":"12:24:00","departure_time":"12:24:00","lat":49.118595,"lon":16.593624,"is_passed":false},{"stop_id":"U15134Z1","name":"Modřice, smyčka","arrival_time":"12:28:00","departure_time":"12:28:00","lat":49.127138,"lon":16.604706,"is_passed":false},{"stop_id":"U15122Z2","name":"Modřice, Brněnská","arrival_time":"12:28:00","departure_time":"12:28:00","lat":49.129392,"lon":16.604987,"is_passed":false},{"stop_id":"U15140Z3","name":"Modřice, železniční stanice","arrival_time":"12:31:00","departure_time":"12:31:00","lat":49.133518,"lon":16.606731,"is_passed":false},{"stop_id":"U15126Z2","name":"Modřice, Husova","arrival_time":"12:32:00","departure_time":"12:32:00","lat":49.132153,"lon":16.612307,"is_passed":false},{"stop_id":"U15127Z1","name":"Modřice, Masarykova","arrival_time":"12:33:00","departure_time":"12:33:00","lat":49.130994,"lon":16.614563,"is_passed":false},{"stop_id":"U15129Z1","name":"Modřice, náměstí","arrival_time":"12:35:00","departure_time":"12:35:00","lat":49.127673,"lon":16.615841,"is_passed":false},{"stop_id":"U15139Z1","name":"Modřice, Za mlýnem","arrival_time":"12:36:00","departure_time":"12:36:00","lat":49.130699,"lon":16.624761,"is_passed":false},{"stop_id":"U15124Z1","name":"Modřice, Drůbežářské závody","arrival_time":"12:37:00","departure_time":"12:37:00","lat":49.133319,"lon":16.63039,"is_passed":false},{"stop_id":"U15130Z3","name":"Modřice, Olympia","arrival_time":"12:40:00","departure_time":"13:47:00","lat":49.139507,"lon":16.633749,"is_passed":false}],"4288":[{"stop_id":"U15130Z1","name":"Modřice, Olympia","arrival_time":"13:47:00","departure_time":"13:47:00","lat":49.139278,"lon":16.634036,"is_passed":false},{"stop_id":"U15132Z2","name":"Modřice, Olympia jih","arrival_time":"13:48:00","departure_time":"13:48:00","lat":49.135069,"lon":16.633864,"is_passed":false},{"stop_id":"U15124Z2","name":"Modřice, Drůbežářské závody","arrival_time":"13:49:00","departure_time":"13:49:00","lat":49.13409,"lon":16.631493,"is_passed":false},{"stop_id":"U15129Z2","name":"Modřice, náměstí","arrival_time":"13:51:00","departure_time":"13:51:00","lat":49.127756,"lon":16.616081,"is_passed":false},{"stop_id":"U15127Z2","name":"Modřice, Masarykova","arrival_time":"13:53:00","departure_time":"13:53:00","lat":49.131296,"lon":16.614624,"is_passed":false},{"stop_id":"U15126Z1","name":"Modřice, Husova","arrival_time":"13:54:00","departure_time":"13:54:00","lat":49.132247,"lon":16.61201,"is_passed":false},{"stop_id":"U15140Z4","name":"Modřice, železniční stanice","arrival_time":"13:56:00","departure_time":"13:56:00","lat":49.133918,"lon":16.606723,"is_passed":false},{"stop_id":"U15134Z2","name":"Modřice, smyčka","arrival_time":"14:01:00","departure_time":"14:01:00","lat":49.126517,"lon":16.604633,"is_passed":false},{"stop_id":"U15137Z4","name":"Modřice, Tyršova","arrival_time":"14:02:00","departure_time":"14:02:00","lat":49.129402,"lon":16.603203,"is_passed":false},{"stop_id":"U15121Z1","name":"Želešice, na kopci","arrival_time":"14:05:00","departure_time":"14:05:00","lat":49.118092,"lon":16.59048,"is_passed":false},{"stop_id":"U15120Z1","name":"Želešice, hostinec","arrival_time":"14:06:00","departure_time":"14:06:00","lat":49.1169,"lon":16.581776,"is_passed":false},{"stop_id":"U15180Z1","name":"Želešice, u Sulzrů","arrival_time":"14:07:00","departure_time":"14:07:00","lat":49.11668,"lon":16.577048,"is_passed":false},{"stop_id":"U15162Z1","name":"Želešice, u dálnice","arrival_time":"14:08:00","departure_time":"14:08:00","lat":49.115165,"lon":16.56894,"is_passed":false},{"stop_id":"U15101Z1","name":"Hajany","arrival_time":"14:10:00","departure_time":"14:10:00","lat":49.110681,"lon":16.55513,"is_passed":false},{"stop_id":"U14206Z1","name":"Ořechov, tábor","arrival_time":"14:12:00","departure_time":"14:12:00","lat":49.110213,"lon":16.539938,"is_passed":false},{"stop_id":"U14207Z1","name":"Ořechov, zdravotní středisko","arrival_time":"14:13:00","departure_time":"14:13:00","lat":49.110487,"lon":16.526989,"is_passed":false},{"stop_id":"U14204Z1","name":"Ořechov, obecní úřad","arrival_time":"14:15:00","departure_time":"14:15:00","lat":49.111535,"lon":16.518505,"is_passed":false},{"stop_id":"U14201Z1","name":"Ořechov, Jeřábkova","arrival_time":"14:17:00","departure_time":"14:17:00","lat":49.108887,"lon":16.512248,"is_passed":false},{"stop_id":"U14203Z1","name":"Ořechov, kravín","arrival_time":"14:18:00","departure_time":"14:18:00","lat":49.108683,"lon":16.49674,"is_passed":false},{"stop_id":"U14210Z1","name":"Silůvky","arrival_time":"14:21:00","departure_time":"14:21:00","lat":49.105977,"lon":16.468112,"is_passed":false},{"stop_id":"U14208Z1","name":"Prštice, rozcestí Hlína","arrival_time":"14:23:00","departure_time":"14:23:00","lat":49.113498,"lon":16.46853,"is_passed":false},{"stop_id":"U14209Z1","name":"Prštice, u zámku","arrival_time":"14:24:00","departure_time":"14:24:00","lat":49.117985,"lon":16.473368,"is_passed":false},{"stop_id":"U14213Z2","name":"Radostice, kostel","arrival_time":"14:29:00","departure_time":"14:29:00","lat":49.131522,"lon":16.477831,"is_passed":false}],"4289":[{"stop_id":"U14213Z2","name":"Radostice, kostel","arrival_time":"14:29:00","departure_time":"14:29:00","lat":49.131522,"lon":16.477831,"is_passed":false},{"stop_id":"U14212Z2","name":"Radostice, Mlýnská silnice","arrival_time":"14:30:00","departure_time":"14:30:00","lat":49.135667,"lon":16.474973,"is_passed":false},{"stop_id":"U14211Z2","name":"Radostice, koupaliště","arrival_time":"14:31:00","departure_time":"14:31:00","lat":49.138172,"lon":16.467963,"is_passed":false},{"stop_id":"U14214Z2","name":"Radostice, u Žemličků","arrival_time":"14:32:00","departure_time":"14:32:00","lat":49.143695,"lon":16.467485,"is_passed":false},{"stop_id":"U14122Z2","name":"Střelice, rozcestí Radostice","arrival_time":"14:33:00","departure_time":"14:33:00","lat":49.150502,"lon":16.46454,"is_passed":false},{"stop_id":"U14138Z2","name":"Střelice, Zámeček","arrival_time":"14:34:00","departure_time":"14:34:00","lat":49.151717,"lon":16.470265,"is_passed":false},{"stop_id":"U14124Z2","name":"Střelice, Vršovice","arrival_time":"14:36:00","departure_time":"14:36:00","lat":49.153397,"lon":16.480075,"is_passed":false},{"stop_id":"U14120Z2","name":"Střelice, nákupní středisko","arrival_time":"14:38:00","departure_time":"14:38:00","lat":49.152702,"lon":16.494152,"is_passed":false},{"stop_id":"U14121Z2","name":"Střelice, obecní úřad","arrival_time":"14:40:00","departure_time":"14:40:00","lat":49.152613,"lon":16.502885,"is_passed":false},{"stop_id":"U14119Z2","name":"Střelice, dolní železniční stanice","arrival_time":"14:41:00","departure_time":"14:41:00","lat":49.156018,"lon":16.50473,"is_passed":false},{"stop_id":"U14109Z3","name":"Troubsko, obecní úřad","arrival_time":"14:44:00","departure_time":"14:44:00","lat":49.170364,"lon":16.505743,"is_passed":false},{"stop_id":"U14106Z2","name":"Troubsko, kaplička","arrival_time":"14:45:00","departure_time":"14:45:00","lat":49.168923,"lon":16.511588,"is_passed":false},{"stop_id":"U14126Z4","name":"Troubsko, Nová","arrival_time":"14:46:00","departure_time":"14:46:00","lat":49.166839,"lon":16.518385,"is_passed":false},{"stop_id":"U1516Z1","name":"Pražská","arrival_time":"14:48:00","departure_time":"14:48:00","lat":49.173478,"lon":16.531543,"is_passed":false},{"stop_id":"U1568Z2","name":"Skalní","arrival_time":"14:49:00","departure_time":"14:49:00","lat":49.174201,"lon":16.537903,"is_passed":false},{"stop_id":"U1202Z2","name":"Jemelkova","arrival_time":"14:50:00","departure_time":"14:50:00","lat":49.173163,"lon":16.54872,"is_passed":false},{"stop_id":"U1632Z2","name":"Svážná","arrival_time":"14:51:00","departure_time":"14:51:00","lat":49.173409,"lon":16.553508,"is_passed":false},{"stop_id":"U1429Z7","name":"Nemocnice Bohunice","arrival_time":"14:54:00","departure_time":"14:54:00","lat":49.176176,"lon":16.567045,"is_passed":false}],"42800":[{"stop_id":"U1527Z2","name":"Přístaviště","arrival_time":"22:54:00","departure_time":"22:54:00","lat":49.228519,"lon":16.522556,"is_passed":false},{"stop_id":"U1796Z2","name":"Zoologická zahrada","arrival_time":"22:56:00","departure_time":"22:56:00","lat":49.22774,"lon":16.531898,"is_passed":false},{"stop_id":"U1226Z2","name":"Kamenolom","arrival_time":"22:57:00","departure_time":"22:57:00","lat":49.221888,"lon":16.536713,"is_passed":false},{"stop_id":"U1493Z2","name":"Podlesí","arrival_time":"22:58:00","departure_time":"22:58:00","lat":49.21871,"lon":16.542217,"is_passed":false},{"stop_id":"U1042Z2","name":"Branka","arrival_time":"22:59:00","departure_time":"22:59:00","lat":49.219368,"lon":16.548224,"is_passed":false},{"stop_id":"U1633Z2","name":"Svratecká","arrival_time":"23:00:00","departure_time":"23:00:00","lat":49.21799,"lon":16.553492,"is_passed":false},{"stop_id":"U1217Z2","name":"Vozovna Komín","arrival_time":"23:02:00","departure_time":"23:02:00","lat":49.213224,"lon":16.559619,"is_passed":false},{"stop_id":"U1621Z2","name":"Stránského","arrival_time":"23:03:00","departure_time":"23:03:00","lat":49.211937,"lon":16.568408,"is_passed":false},{"stop_id":"U1041Z2","name":"Bráfova","arrival_time":"23:04:00","departure_time":"23:04:00","lat":49.207033,"lon":16.570558,"is_passed":false},{"stop_id":"U1487Z4","name":"Pisárky","arrival_time":"23:07:00","departure_time":"23:07:00","lat":49.194163,"lon":16.569615,"is_passed":false},{"stop_id":"U1343Z2","name":"ARENA BRNO","arrival_time":"23:08:00","departure_time":"23:08:00","lat":49.191387,"lon":16.576425,"is_passed":false},{"stop_id":"U1769Z2","name":"Výstaviště - vstup G2","arrival_time":"23:09:00","departure_time":"23:09:00","lat":49.190207,"lon":16.580555,"is_passed":false},{"stop_id":"U1768Z2","name":"Výstaviště - hlavní vstup","arrival_time":"23:10:00","departure_time":"23:10:00","lat":49.189325,"lon":16.585699,"is_passed":false},{"stop_id":"U1378Z2","name":"Mendlovo náměstí","arrival_time":"23:12:00","departure_time":"23:12:00","lat":49.190034,"lon":16.593837,"is_passed":false},{"stop_id":"U1721Z2","name":"Václavská","arrival_time":"23:14:00","departure_time":"23:14:00","lat":49.188715,"lon":16.596878,"is_passed":false},{"stop_id":"U1176Z2","name":"Hybešova","arrival_time":"23:15:00","departure_time":"23:15:00","lat":49.189209,"lon":16.603364,"is_passed":false},{"stop_id":"U1436Z2","name":"Nové sady","arrival_time":"23:18:00","departure_time":"23:18:00","lat":49.190222,"lon":16.609403,"is_passed":false},{"stop_id":"U1146Z2","name":"Hlavní nádraží","arrival_time":"23:20:00","departure_time":"23:20:00","lat":49.191394,"lon":16.612548,"is_passed":false},{"stop_id":"U1357Z3","name":"Malinovského náměstí","arrival_time":"23:22:00","departure_time":"23:22:00","lat":49.196131,"lon":16.612953,"is_passed":false},{"stop_id":"U1397Z1","name":"Moravské náměstí","arrival_time":"23:24:00","departure_time":"23:24:00","lat":49.19996,"lon":16.607931,"is_passed":false},{"stop_id":"U1006Z1","name":"Antonínská","arrival_time":"23:25:00","departure_time":"23:25:00","lat":49.203685,"lon":16.606678,"is_passed":false},{"stop_id":"U1483Z1","name":"Pionýrská","arrival_time":"23:26:00","departure_time":"23:26:00","lat":49.207491,"lon":16.604472,"is_passed":false},{"stop_id":"U1166Z1","name":"Hrnčířská","arrival_time":"23:27:00","departure_time":"23:27:00","lat":49.210254,"lon":16.602868,"is_passed":false},{"stop_id":"U1652Z1","name":"Šumavská","arrival_time":"23:28:00","departure_time":"23:28:00","lat":49.213991,"lon":16.600669,"is_passed":false},{"stop_id":"U1233Z1","name":"Kartouzská","arrival_time":"23:29:00","departure_time":"23:29:00","lat":49.216998,"lon":16.598896,"is_passed":false},{"stop_id":"U1218Z1","name":"Jungmannova","arrival_time":"23:30:00","departure_time":"23:30:00","lat":49.220856,"lon":16.596583,"is_passed":false},{"stop_id":"U1171Z1","name":"Husitská","arrival_time":"23:31:00","departure_time":"23:31:00","lat":49.223125,"lon":16.59524,"is_passed":false},{"stop_id":"U1566Z1","name":"Semilasso","arrival_time":"23:33:00","departure_time":"23:33:00","lat":49.227417,"lon":16.592683,"is_passed":false},{"stop_id":"U1683Z1","name":"Tylova","arrival_time":"23:34:00","departure_time":"23:34:00","lat":49.23243,"lon":16.589321,"is_passed":false},{"stop_id":"U1167Z1","name":"Hudcova","arrival_time":"23:35:00","departure_time":"23:35:00","lat":49.235202,"lon":16.587471,"is_passed":false},{"stop_id":"U1272Z1","name":"Kořískova","arrival_time":"23:37:00","departure_time":"23:37:00","lat":49.240579,"lon":16.58388,"is_passed":false},{"stop_id":"U1108Z1","name":"Filkukova","arrival_time":"23:38:00","departure_time":"23:38:00","lat":49.244244,"lon":16.58143,"is_passed":false},{"stop_id":"U1553Z1","name":"Řečkovice","arrival_time":"23:40:00","departure_time":"23:45:00","lat":49.247295,"lon":16.578803,"is_passed":false}],"42801":[{"stop_id":"U1537Z2","name":"Rakovecká","arrival_time":"8:49:00","departure_time":"8:49:00","lat":49.226177,"lon":16.519315,"is_passed":false},{"stop_id":"U1527Z2","name":"Přístaviště","arrival_time":"8:50:00","departure_time":"8:50:00","lat":49.228519,"lon":16.522556,"is_passed":false},{"stop_id":"U1796Z2","name":"Zoologická zahrada","arrival_time":"8:52:00","departure_time":"8:52:00","lat":49.22774,"lon":16.531898,"is_passed":false},{"stop_id":"U1226Z2","name":"Kamenolom","arrival_time":"8:53:00","departure_time":"8:53:00","lat":49.221888,"lon":16.536713,"is_passed":false},{"stop_id":"U1493Z2","name":"Podlesí","arrival_time":"8:54:00","departure_time":"8:54:00","lat":49.21871,"lon":16.542217,"is_passed":false},{"stop_id":"U1042Z2","name":"Branka","arrival_time":"8:55:00","departure_time":"8:55:00","lat":49.219368,"lon":16.548224,"is_passed":false},{"stop_id":"U1633Z2","name":"Svratecká","arrival_time":"8:56:00","departure_time":"8:56:00","lat":49.21799,"lon":16.553492,"is_passed":false},{"stop_id":"U1217Z2","name":"Vozovna Komín","arrival_time":"8:58:00","departure_time":"8:58:00","lat":49.213224,"lon":16.559619,"is_passed":false},{"stop_id":"U1621Z2","name":"Stránského","arrival_time":"8:59:00","departure_time":"8:59:00","lat":49.211937,"lon":16.568408,"is_passed":false},{"stop_id":"U1041Z2","name":"Bráfova","arrival_time":"9:00:00","departure_time":"9:00:00","lat":49.207033,"lon":16.570558,"is_passed":false},{"stop_id":"U1487Z4","name":"Pisárky","arrival_time":"9:03:00","departure_time":"9:03:00","lat":49.194163,"lon":16.569615,"is_passed":false},{"stop_id":"U1343Z2","name":"ARENA BRNO","arrival_time":"9:04:00","departure_time":"9:04:00","lat":49.191387,"lon":16.576425,"is_passed":false},{"stop_id":"U1769Z2","name":"Výstaviště - vstup G2","arrival_time":"9:05:00","departure_time":"9:05:00","lat":49.190207,"lon":16.580555,"is_passed":false},{"stop_id":"U1768Z2","name":"Výstaviště - hlavní vstup","arrival_time":"9:06:00","departure_time":"9:06:00","lat":49.189325,"lon":16.585699,"is_passed":false},{"stop_id":"U1378Z2","name":"Mendlovo náměstí","arrival_time":"9:08:00","departure_time":"9:08:00","lat":49.190034,"lon":16.593837,"is_passed":false},{"stop_id":"U1721Z2","name":"Václavská","arrival_time":"9:10:00","departure_time":"9:10:00","lat":49.188715,"lon":16.596878,"is_passed":false},{"stop_id":"U1176Z2","name":"Hybešova","arrival_time":"9:11:00","departure_time":"9:11:00","lat":49.189209,"lon":16.603364,"is_passed":false},{"stop_id":"U1436Z2","name":"Nové sady","arrival_time":"9:14:00","departure_time":"9:14:00","lat":49.190222,"lon":16.609403,"is_passed":false},{"stop_id":"U1146Z2","name":"Hlavní nádraží","arrival_time":"9:16:00","departure_time":"9:16:00","lat":49.191394,"lon":16.612548,"is_passed":false},{"stop_id":"U1357Z3","name":"Malinovského náměstí","arrival_time":"9:18:00","departure_time":"9:18:00","lat":49.196131,"lon":16.612953,"is_passed":false},{"stop_id":"U1397Z1","name":"Moravské náměstí","arrival_time":"9:20:00","departure_time":"9:20:00","lat":49.19996,"lon":16.607931,"is_passed":false},{"stop_id":"U1006Z1","name":"Antonínská","arrival_time":"9:21:00","departure_time":"9:21:00","lat":49.203685,"lon":16.606678,"is_passed":false},{"stop_id":"U1483Z1","name":"Pionýrská","arrival_time":"9:22:00","departure_time":"9:22:00","lat":49.207491,"lon":16.604472,"is_passed":false},{"stop_id":"U1166Z1","name":"Hrnčířská","arrival_time":"9:24:00","departure_time":"9:24:00","lat":49.210254,"lon":16.602868,"is_passed":false},{"stop_id":"U1652Z1","name":"Šumavská","arrival_time":"9:25:00","departure_time":"9:25:00","lat":49.213991,"lon":16.600669,"is_passed":false},{"stop_id":"U1233Z1","name":"Kartouzská","arrival_time":"9:26:00","departure_time":"9:26:00","lat":49.216998,"lon":16.598896,"is_passed":false},{"stop_id":"U1218Z1","name":"Jungmannova","arrival_time":"9:27:00","departure_time":"9:27:00","lat":49.220856,"lon":16.596583,"is_passed":false},{"stop_id":"U1171Z1","name":"Husitská","arrival_time":"9:28:00","departure_time":"9:28:00","lat":49.223125,"lon":16.59524,"is_passed":false},{"stop_id":"U1566Z1","name":"Semilasso","arrival_time":"9:30:00","departure_time":"9:30:00","lat":49.227417,"lon":16.592683,"is_passed":false},{"stop_id":"U1683Z1","name":"Tylova","arrival_time":"9:31:00","departure_time":"9:31:00","lat":49.23243,"lon":16.589321,"is_passed":false},{"stop_id":"U1167Z1","name":"Hudcova","arrival_time":"9:32:00","departure_time":"9:32:00","lat":49.235202,"lon":16.587471,"is_passed":false},{"stop_id":"U1272Z1","name":"Kořískova","arrival_time":"9:34:00","departure_time":"9:34:00","lat":49.240579,"lon":16.58388,"is_passed":false},{"stop_id":"U1108Z1","name":"Filkukova","arrival_time":"9:35:00","departure_time":"9:35:00","lat":49.244244,"lon":16.58143,"is_passed":false},{"stop_id":"U1553Z1","name":"Řečkovice","arrival_time":"9:37:00","departure_time":"9:49:00","lat":49.247295,"lon":16.578803,"is_passed":false}],"42802":[{"stop_id":"U1553Z2","name":"Řečkovice","arrival_time":"9:49:00","departure_time":"9:49:00","lat":49.246978,"lon":16.5794,"is_passed":false},{"stop_id":"U1108Z2","name":"Filkukova","arrival_time":"9:50:00","departure_time":"9:50:00","lat":49.243517,"lon":16.581881,"is_passed":false},{"stop_id":"U1272Z2","name":"Kořískova","arrival_time":"9:51:00","departure_time":"9:51:00","lat":49.238898,"lon":16.584964,"is_passed":false},{"stop_id":"U1167Z2","name":"Hudcova","arrival_time":"9:52:00","departure_time":"9:52:00","lat":49.235791,"lon":16.587041,"is_passed":false},{"stop_id":"U1683Z2","name":"Tylova","arrival_time":"9:53:00","departure_time":"9:53:00","lat":49.232055,"lon":16.589539,"is_passed":false},{"stop_id":"U1566Z2","name":"Semilasso","arrival_time":"9:54:00","departure_time":"9:54:00","lat":49.228227,"lon":16.592081,"is_passed":false},{"stop_id":"U1171Z2","name":"Husitská","arrival_time":"9:56:00","departure_time":"9:56:00","lat":49.223415,"lon":16.595016,"is_passed":false},{"stop_id":"U1218Z2","name":"Jungmannova","arrival_time":"9:57:00","departure_time":"9:57:00","lat":49.221083,"lon":16.596416,"is_passed":false},{"stop_id":"U1233Z2","name":"Kartouzská","arrival_time":"9:58:00","departure_time":"9:58:00","lat":49.21665,"lon":16.599078,"is_passed":false},{"stop_id":"U1652Z2","name":"Šumavská","arrival_time":"9:59:00","departure_time":"9:59:00","lat":49.214022,"lon":16.60062,"is_passed":false},{"stop_id":"U1166Z2","name":"Hrnčířská","arrival_time":"10:00:00","departure_time":"10:00:00","lat":49.21062,"lon":16.602628,"is_passed":false},{"stop_id":"U1483Z2","name":"Pionýrská","arrival_time":"10:01:00","departure_time":"10:01:00","lat":49.207904,"lon":16.604201,"is_passed":false},{"stop_id":"U1006Z2","name":"Antonínská","arrival_time":"10:02:00","departure_time":"10:02:00","lat":49.203166,"lon":16.606915,"is_passed":false},{"stop_id":"U1397Z2","name":"Moravské náměstí","arrival_time":"10:04:00","departure_time":"10:04:00","lat":49.199237,"lon":16.608067,"is_passed":false},{"stop_id":"U1357Z4","name":"Malinovského náměstí","arrival_time":"10:07:00","departure_time":"10:07:00","lat":49.195612,"lon":16.613248,"is_passed":false},{"stop_id":"U1146Z1","name":"Hlavní nádraží","arrival_time":"10:10:00","departure_time":"10:10:00","lat":49.191185,"lon":16.611879,"is_passed":false},{"stop_id":"U1436Z1","name":"Nové sady","arrival_time":"10:11:00","departure_time":"10:11:00","lat":49.190116,"lon":16.609025,"is_passed":false},{"stop_id":"U1176Z1","name":"Hybešova","arrival_time":"10:13:00","departure_time":"10:13:00","lat":49.189322,"lon":16.602863,"is_passed":false},{"stop_id":"U1721Z1","name":"Václavská","arrival_time":"10:14:00","departure_time":"10:14:00","lat":49.188681,"lon":16.597217,"is_passed":false},{"stop_id":"U1378Z1","name":"Mendlovo náměstí","arrival_time":"10:16:00","departure_time":"10:16:00","lat":49.189659,"lon":16.592283,"is_passed":false},{"stop_id":"U1768Z1","name":"Výstaviště - hlavní vstup","arrival_time":"10:18:00","departure_time":"10:18:00","lat":49.189583,"lon":16.584499,"is_passed":false},{"stop_id":"U1769Z1","name":"Výstaviště - vstup G2","arrival_time":"10:19:00","departure_time":"10:19:00","lat":49.190338,"lon":16.579837,"is_passed":false},{"stop_id":"U1343Z1","name":"ARENA BRNO","arrival_time":"10:20:00","departure_time":"10:20:00","lat":49.191523,"lon":16.576065,"is_passed":false},{"stop_id":"U1487Z3","name":"Pisárky","arrival_time":"10:22:00","departure_time":"10:22:00","lat":49.194099,"lon":16.569741,"is_passed":false},{"stop_id":"U1041Z1","name":"Bráfova","arrival_time":"10:24:00","departure_time":"10:24:00","lat":49.206955,"lon":16.570536,"is_passed":false},{"stop_id":"U1621Z1","name":"Stránského","arrival_time":"10:25:00","departure_time":"10:25:00","lat":49.211954,"lon":16.568673,"is_passed":false},{"stop_id":"U1217Z1","name":"Vozovna Komín","arrival_time":"10:27:00","departure_time":"10:27:00","lat":49.2132,"lon":16.559792,"is_passed":false},{"stop_id":"U1633Z1","name":"Svratecká","arrival_time":"10:28:00","departure_time":"10:28:00","lat":49.217898,"lon":16.553656,"is_passed":false},{"stop_id":"U1042Z1","name":"Branka","arrival_time":"10:29:00","departure_time":"10:29:00","lat":49.219419,"lon":16.54726,"is_passed":false},{"stop_id":"U1493Z1","name":"Podlesí","arrival_time":"10:30:00","departure_time":"10:30:00","lat":49.218711,"lon":16.542392,"is_passed":false},{"stop_id":"U1226Z1","name":"Kamenolom","arrival_time":"10:31:00","departure_time":"10:31:00","lat":49.221657,"lon":16.536794,"is_passed":false},{"stop_id":"U1796Z1","name":"Zoologická zahrada","arrival_time":"10:33:00","departure_time":"10:33:00","lat":49.227674,"lon":16.532002,"is_passed":false},{"stop_id":"U1527Z1","name":"Přístaviště","arrival_time":"10:34:00","departure_time":"10:34:00","lat":49.22814,"lon":16.521658,"is_passed":false},{"stop_id":"U1537Z1","name":"Rakovecká","arrival_time":"10:36:00","departure_time":"10:59:00","lat":49.225877,"lon":16.518739,"is_passed":false}],"42803":[{"stop_id":"U1537Z2","name":"Rakovecká","arrival_time":"10:59:00","departure_time":"10:59:00","lat":49.226177,"lon":16.519315,"is_passed":false},{"stop_id":"U1527Z2","name":"Přístaviště","arrival_time":"11:00:00","departure_time":"11:00:00","lat":49.228519,"lon":16.522556,"is_passed":false},{"stop_id":"U1796Z2","name":"Zoologická zahrada","arrival_time":"11:02:00","departure_time":"11:02:00","lat":49.22774,"lon":16.531898,"is_passed":false},{"stop_id":"U1226Z2","name":"Kamenolom","arrival_time":"11:03:00","departure_time":"11:03:00","lat":49.221888,"lon":16.536713,"is_passed":false},{"stop_id":"U1493Z2","name":"Podlesí","arrival_time":"11:04:00","departure_time":"11:04:00","lat":49.21871,"lon":16.542217,"is_passed":false},{"stop_id":"U1042Z2","name":"Branka","arrival_time":"11:05:00","departure_time":"11:05:00","lat":49.219368,"lon":16.548224,"is_passed":false},{"stop_id":"U1633Z2","name":"Svratecká","arrival_time":"11:06:00","departure_time":"11:06:00","lat":49.21799,"lon":16.553492,"is_passed":false},{"stop_id":"U1217Z2","name":"Vozovna Komín","arrival_time":"11:08:00","departure_time":"11:08:00","lat":49.213224,"lon":16.559619,"is_passed":false},{"stop_id":"U1621Z2","name":"Stránského","arrival_time":"11:09:00","departure_time":"11:09:00","lat":49.211937,"lon":16.568408,"is_passed":false},{"stop_id":"U1041Z2","name":"Bráfova","arrival_time":"11:10:00","departure_time":"11:10:00","lat":49.207033,"lon":16.570558,"is_passed":false},{"stop_id":"U1487Z4","name":"Pisárky","arrival_time":"11:13:00","departure_time":"11:13:00","lat":49.194163,"lon":16.569615,"is_passed":false},{"stop_id":"U1343Z2","name":"ARENA BRNO","arrival_time":"11:14:00","departure_time":"11:14:00","lat":49.191387,"lon":16.576425,"is_passed":false},{"stop_id":"U1769Z2","name":"Výstaviště - vstup G2","arrival_time":"11:15:00","departure_time":"11:15:00","lat":49.190207,"lon":16.580555,"is_passed":false},{"stop_id":"U1768Z2","name":"Výstaviště - hlavní vstup","arrival_time":"11:16:00","departure_time":"11:16:00","lat":49.189325,"lon":16.585699,"is_passed":false},{"stop_id":"U1378Z2","name":"Mendlovo náměstí","arrival_time":"11:18:00","departure_time":"11:18:00","lat":49.190034,"lon":16.593837,"is_passed":false},{"stop_id":"U1721Z2","name":"Václavská","arrival_time":"11:20:00","departure_time":"11:20:00","lat":49.188715,"lon":16.596878,"is_passed":false},{"stop_id":"U1176Z2","name":"Hybešova","arrival_time":"11:21:00","departure_time":"11:21:00","lat":49.189209,"lon":16.603364,"is_passed":false},{"stop_id":"U1436Z2","name":"Nové sady","arrival_time":"11:24:00","departure_time":"11:24:00","lat":49.190222,"lon":16.609403,"is_passed":false},{"stop_id":"U1146Z2","name":"Hlavní nádraží","arrival_time":"11:26:00","departure_time":"11:26:00","lat":49.191394,"lon":16.612548,"is_passed":false},{"stop_id":"U1357Z3","name":"Malinovského náměstí","arrival_time":"11:28:00","departure_time":"11:28:00","lat":49.196131,"lon":16.612953,"is_passed":false},{"stop_id":"U1397Z1","name":"Moravské náměstí","arrival_time":"11:30:00","departure_time":"11:30:00","lat":49.19996,"lon":16.607931,"is_passed":false},{"stop_id":"U1006Z1","name":"Antonínská","arrival_time":"11:31:00","departure_time":"11:31:00","lat":49.203685,"lon":16.606678,"is_passed":false},{"stop_id":"U1483Z1","name":"Pionýrská","arrival_time":"11:32:00","departure_time":"11:32:00","lat":49.207491,"lon":16.604472,"is_passed":false},{"stop_id":"U1166Z1","name":"Hrnčířská","arrival_time":"11:34:00","departure_time":"11:34:00","lat":49.210254,"lon":16.602868,"is_passed":false},{"stop_id":"U1652Z1","name":"Šumavská","arrival_time":"11:35:00","departure_time":"11:35:00","lat":49.213991,"lon":16.600669,"is_passed":false},{"stop_id":"U1233Z1","name":"Kartouzská","arrival_time":"11:36:00","departure_time":"11:36:00","lat":49.216998,"lon":16.598896,"is_passed":false},{"stop_id":"U1218Z1","name":"Jungmannova","arrival_time":"11:37:00","departure_time":"11:37:00","lat":49.220856,"lon":16.596583,"is_passed":false},{"stop_id":"U1171Z1","name":"Husitská","arrival_time":"11:38:00","departure_time":"11:38:00","lat":49.223125,"lon":16.59524,"is_passed":false},{"stop_id":"U1566Z1","name":"Semilasso","arrival_time":"11:40:00","departure_time":"11:40:00","lat":49.227417,"lon":16.592683,"is_passed":false},{"stop_id":"U1683Z1","name":"Tylova","arrival_time":"11:41:00","departure_time":"11:41:00","lat":49.23243,"lon":16.589321,"is_passed":false},{"stop_id":"U1167Z1","name":"Hudcova","arrival_time":"11:42:00","departure_time":"11:42:00","lat":49.235202,"lon":16.587471,"is_passed":false},{"stop_id":"U1272Z1","name":"Kořískova","arrival_time":"11:44:00","departure_time":"11:44:00","lat":49.240579,"lon":16.58388,"is_passed":false},{"stop_id":"U1108Z1","name":"Filkukova","arrival_time":"11:45:00","departure_time":"11:45:00","lat":49.244244,"lon":16.58143,"is_passed":false},{"stop_id":"U1553Z1","name":"Řečkovice","arrival_time":"11:47:00","departure_time":"11:59:00","lat":49.247295,"lon":16.578803,"is_passed":false}],"42804":[{"stop_id":"U1553Z2","name":"Řečkovice","arrival_time":"11:59:00","departure_time":"11:59:00","lat":49.246978,"lon":16.5794,"is_passed":false},{"stop_id":"U1108Z2","name":"Filkukova","arrival_time":"12:00:00","departure_time":"12:00:00","lat":49.243517,"lon":16.581881,"is_passed":false},{"stop_id":"U1272Z2","name":"Kořískova","arrival_time":"12:01:00","departure_time":"12:01:00","lat":49.238898,"lon":16.584964,"is_passed":false},{"stop_id":"U1167Z2","name":"Hudcova","arrival_time":"12:02:00","departure_time":"12:02:00","lat":49.235791,"lon":16.587041,"is_passed":false},{"stop_id":"U1683Z2","name":"Tylova","arrival_time":"12:03:00","departure_time":"12:03:00","lat":49.232055,"lon":16.589539,"is_passed":false},{"stop_id":"U1566Z2","name":"Semilasso","arrival_time":"12:04:00","departure_time":"12:04:00","lat":49.228227,"lon":16.592081,"is_passed":false},{"stop_id":"U1171Z2","name":"Husitská","arrival_time":"12:06:00","departure_time":"12:06:00","lat":49.223415,"lon":16.595016,"is_passed":false},{"stop_id":"U1218Z2","name":"Jungmannova","arrival_time":"12:07:00","departure_time":"12:07:00","lat":49.221083,"lon":16.596416,"is_passed":false},{"stop_id":"U1233Z2","name":"Kartouzská","arrival_time":"12:08:00","departure_time":"12:08:00","lat":49.21665,"lon":16.599078,"is_passed":false},{"stop_id":"U1652Z2","name":"Šumavská","arrival_time":"12:09:00","departure_time":"12:09:00","lat":49.214022,"lon":16.60062,"is_passed":false},{"stop_id":"U1166Z2","name":"Hrnčířská","arrival_time":"12:10:00","departure_time":"12:10:00","lat":49.21062,"lon":16.602628,"is_passed":false},{"stop_id":"U1483Z2","name":"Pionýrská","arrival_time":"12:11:00","departure_time":"12:11:00","lat":49.207904,"lon":16.604201,"is_passed":false},{"stop_id":"U1006Z2","name":"Antonínská","arrival_time":"12:12:00","departure_time":"12:12:00","lat":49.203166,"lon":16.606915,"is_passed":false},{"stop_id":"U1397Z2","name":"Moravské náměstí","arrival_time":"12:14:00","departure_time":"12:14:00","lat":49.199237,"lon":16.608067,"is_passed":false},{"stop_id":"U1357Z4","name":"Malinovského náměstí","arrival_time":"12:17:00","departure_time":"12:17:00","lat":49.195612,"lon":16.613248,"is_passed":false},{"stop_id":"U1146Z1","name":"Hlavní nádraží","arrival_time":"12:20:00","departure_time":"12:20:00","lat":49.191185,"lon":16.611879,"is_passed":false},{"stop_id":"U1436Z1","name":"Nové sady","arrival_time":"12:21:00","departure_time":"12:21:00","lat":49.190116,"lon":16.609025,"is_passed":false},{"stop_id":"U1176Z1","name":"Hybešova","arrival_time":"12:23:00","departure_time":"12:23:00","lat":49.189322,"lon":16.602863,"is_passed":false},{"stop_id":"U1721Z1","name":"Václavská","arrival_time":"12:24:00","departure_time":"12:24:00","lat":49.188681,"lon":16.597217,"is_passed":false},{"stop_id":"U1378Z1","name":"Mendlovo náměstí","arrival_time":"12:26:00","departure_time":"12:26:00","lat":49.189659,"lon":16.592283,"is_passed":false},{"stop_id":"U1768Z1","name":"Výstaviště - hlavní vstup","arrival_time":"12:28:00","departure_time":"12:28:00","lat":49.189583,"lon":16.584499,"is_passed":false},{"stop_id":"U1769Z1","name":"Výstaviště - vstup G2","arrival_time":"12:29:00","departure_time":"12:29:00","lat":49.190338,"lon":16.579837,"is_passed":false},{"stop_id":"U1343Z1","name":"ARENA BRNO","arrival_time":"12:30:00","departure_time":"12:30:00","lat":49.191523,"lon":16.576065,"is_passed":false},{"stop_id":"U1487Z3","name":"Pisárky","arrival_time":"12:32:00","departure_time":"12:32:00","lat":49.194099,"lon":16.569741,"is_passed":false},{"stop_id":"U1041Z1","name":"Bráfova","arrival_time":"12:34:00","departure_time":"12:34:00","lat":49.206955,"lon":16.570536,"is_passed":false},{"stop_id":"U1621Z1","name":"Stránského","arrival_time":"12:35:00","departure_time":"12:35:00","lat":49.211954,"lon":16.568673,"is_passed":false},{"stop_id":"U1217Z1","name":"Vozovna Komín","arrival_time":"12:37:00","departure_time":"12:37:00","lat":49.2132,"lon":16.559792,"is_passed":false},{"stop_id":"U1633Z1","name":"Svratecká","arrival_time":"12:38:00","departure_time":"12:38:00","lat":49.217898,"lon":16.553656,"is_passed":false},{"stop_id":"U1042Z1","name":"Branka","arrival_time":"12:39:00","departure_time":"12:39:00","lat":49.219419,"lon":16.54726,"is_passed":false},{"stop_id":"U1493Z1","name":"Podlesí","arrival_time":"12:40:00","departure_time":"12:40:00","lat":49.218711,"lon":16.542392,"is_passed":false},{"stop_id":"U1226Z1","name":"Kamenolom","arrival_time":"12:41:00","departure_time":"12:41:00","lat":49.221657,"lon":16.536794,"is_passed":false},{"stop_id":"U1796Z1","name":"Zoologická zahrada","arrival_time":"12:43:00","departure_time":"12:43:00","lat":49.227674,"lon":16.532002,"is_passed":false},{"stop_id":"U1527Z1","name":"Přístaviště","arrival_time":"12:44:00","departure_time":"12:44:00","lat":49.22814,"lon":16.521658,"is_passed":false},{"stop_id":"U1537Z1","name":"Rakovecká","arrival_time":"12:46:00","departure_time":"13:09:00","lat":49.225877,"lon":16.518739,"is_passed":false}],"42805":[{"stop_id":"U1537Z2","name":"Rakovecká","arrival_time":"13:09:00","departure_time":"13:09:00","lat":49.226177,"lon":16.519315,"is_passed":false},{"stop_id":"U1527Z2","name":"Přístaviště","arrival_time":"13:10:00","departure_time":"13:10:00","lat":49.228519,"lon":16.522556,"is_passed":false},{"stop_id":"U1796Z2","name":"Zoologická zahrada","arrival_time":"13:12:00","departure_time":"13:12:00","lat":49.22774,"lon":16.531898,"is_passed":false},{"stop_id":"U1226Z2","name":"Kamenolom","arrival_time":"13:13:00","departure_time":"13:13:00","lat":49.221888,"lon":16.536713,"is_passed":false},{"stop_id":"U1493Z2","name":"Podlesí","arrival_time":"13:14:00","departure_time":"13:14:00","lat":49.21871,"lon":16.542217,"is_passed":false},{"stop_id":"U1042Z2","name":"Branka","arrival_time":"13:15:00","departure_time":"13:15:00","lat":49.219368,"lon":16.548224,"is_passed":false},{"stop_id":"U1633Z2","name":"Svratecká","arrival_time":"13:16:00","departure_time":"13:16:00","lat":49.21799,"lon":16.553492,"is_passed":false},{"stop_id":"U1217Z2","name":"Vozovna Komín","arrival_time":"13:18:00","departure_time":"13:18:00","lat":49.213224,"lon":16.559619,"is_passed":false},{"stop_id":"U1621Z2","name":"Stránského","arrival_time":"13:19:00","departure_time":"13:19:00","lat":49.211937,"lon":16.568408,"is_passed":false},{"stop_id":"U1041Z2","name":"Bráfova","arrival_time":"13:20:00","departure_time":"13:20:00","lat":49.207033,"lon":16.570558,"is_passed":false},{"stop_id":"U1487Z4","name":"Pisárky","arrival_time":"13:23:00","departure_time":"13:23:00","lat":49.194163,"lon":16.569615,"is_passed":false},{"stop_id":"U1343Z2","name":"ARENA BRNO","arrival_time":"13:24:00","departure_time":"13:24:00","lat":49.191387,"lon":16.576425,"is_passed":false},{"stop_id":"U1769Z2","name":"Výstaviště - vstup G2","arrival_time":"13:25:00","departure_time":"13:25:00","lat":49.190207,"lon":16.580555,"is_passed":false},{"stop_id":"U1768Z2","name":"Výstaviště - hlavní vstup","arrival_time":"13:26:00","departure_time":"13:26:00","lat":49.189325,"lon":16.585699,"is_passed":false},{"stop_id":"U1378Z2","name":"Mendlovo náměstí","arrival_time":"13:28:00","departure_time":"13:28:00","lat":49.190034,"lon":16.593837,"is_passed":false},{"stop_id":"U1721Z2","name":"Václavská","arrival_time":"13:30:00","departure_time":"13:30:00","lat":49.188715,"lon":16.596878,"is_passed":false},{"stop_id":"U1176Z2","name":"Hybešova","arrival_time":"13:31:00","departure_time":"13:31:00","lat":49.189209,"lon":16.603364,"is_passed":false},{"stop_id":"U1436Z2","name":"Nové sady","arrival_time":"13:34:00","departure_time":"13:34:00","lat":49.190222,"lon":16.609403,"is_passed":false},{"stop_id":"U1146Z2","name":"Hlavní nádraží","arrival_time":"13:36:00","departure_time":"13:36:00","lat":49.191394,"lon":16.612548,"is_passed":false},{"stop_id":"U1357Z3","name":"Malinovského náměstí","arrival_time":"13:38:00","departure_time":"13:38:00","lat":49.196131,"lon":16.612953,"is_passed":false},{"stop_id":"U1397Z1","name":"Moravské náměstí","arrival_time":"13:40:00","departure_time":"13:40:00","lat":49.19996,"lon":16.607931,"is_passed":false},{"stop_id":"U1006Z1","name":"Antonínská","arrival_time":"13:41:00","departure_time":"13:41:00","lat":49.203685,"lon":16.606678,"is_passed":false},{"stop_id":"U1483Z1","name":"Pionýrská","arrival_time":"13:42:00","departure_time":"13:42:00","lat":49.207491,"lon":16.604472,"is_passed":false},{"stop_id":"U1166Z1","name":"Hrnčířská","arrival_time":"13:44:00","departure_time":"13:44:00","lat":49.210254,"lon":16.602868,"is_passed":false},{"stop_id":"U1652Z1","name":"Šumavská","arrival_time":"13:45:00","departure_time":"13:45:00","lat":49.213991,"lon":16.600669,"is_passed":false},{"stop_id":"U1233Z1","name":"Kartouzská","arrival_time":"13:46:00","departure_time":"13:46:00","lat":49.216998,"lon":16.598896,"is_passed":false},{"stop_id":"U1218Z1","name":"Jungmannova","arrival_time":"13:47:00","departure_time":"13:47:00","lat":49.220856,"lon":16.596583,"is_passed":false},{"stop_id":"U1171Z1","name":"Husitská","arrival_time":"13:48:00","departure_time":"13:48:00","lat":49.223125,"lon":16.59524,"is_passed":false},{"stop_id":"U1566Z1","name":"Semilasso","arrival_time":"13:50:00","departure_time":"13:50:00","lat":49.227417,"lon":16.592683,"is_passed":false},{"stop_id":"U1683Z1","name":"Tylova","arrival_time":"13:51:00","departure_time":"13:51:00","lat":49.23243,"lon":16.589321,"is_passed":false},{"stop_id":"U1167Z1","name":"Hudcova","arrival_time":"13:52:00","departure_time":"13:52:00","lat":49.235202,"lon":16.587471,"is_passed":false},{"stop_id":"U1272Z1","name":"Kořískova","arrival_time":"13:54:00","departure_time":"13:54:00","lat":49.240579,"lon":16.58388,"is_passed":false},{"stop_id":"U1108Z1","name":"Filkukova","arrival_time":"13:55:00","departure_time":"13:55:00","lat":49.244244,"lon":16.58143,"is_passed":false},{"stop_id":"U1553Z1","name":"Řečkovice","arrival_time":"13:57:00","departure_time":"14:09:00","lat":49.247295,"lon":16.578803,"is_passed":false}],"42806":[{"stop_id":"U1553Z2","name":"Řečkovice","arrival_time":"14:09:00","departure_time":"14:09:00","lat":49.246978,"lon":16.5794,"is_passed":false},{"stop_id":"U1108Z2","name":"Filkukova","arrival_time":"14:10:00","departure_time":"14:10:00","lat":49.243517,"lon":16.581881,"is_passed":false},{"stop_id":"U1272Z2","name":"Kořískova","arrival_time":"14:11:00","departure_time":"14:11:00","lat":49.238898,"lon":16.584964,"is_passed":false},{"stop_id":"U1167Z2","name":"Hudcova","arrival_time":"14:12:00","departure_time":"14:12:00","lat":49.235791,"lon":16.587041,"is_passed":false},{"stop_id":"U1683Z2","name":"Tylova","arrival_time":"14:13:00","departure_time":"14:13:00","lat":49.232055,"lon":16.589539,"is_passed":false},{"stop_id":"U1566Z2","name":"Semilasso","arrival_time":"14:14:00","departure_time":"14:14:00","lat":49.228227,"lon":16.592081,"is_passed":false},{"stop_id":"U1171Z2","name":"Husitská","arrival_time":"14:16:00","departure_time":"14:16:00","lat":49.223415,"lon":16.595016,"is_passed":false},{"stop_id":"U1218Z2","name":"Jungmannova","arrival_time":"14:17:00","departure_time":"14:17:00","lat":49.221083,"lon":16.596416,"is_passed":false},{"stop_id":"U1233Z2","name":"Kartouzská","arrival_time":"14:18:00","departure_time":"14:18:00","lat":49.21665,"lon":16.599078,"is_passed":false},{"stop_id":"U1652Z2","name":"Šumavská","arrival_time":"14:19:00","departure_time":"14:19:00","lat":49.214022,"lon":16.60062,"is_passed":false},{"stop_id":"U1166Z2","name":"Hrnčířská","arrival_time":"14:20:00","departure_time":"14:20:00","lat":49.21062,"lon":16.602628,"is_passed":false},{"stop_id":"U1483Z2","name":"Pionýrská","arrival_time":"14:21:00","departure_time":"14:21:00","lat":49.207904,"lon":16.604201,"is_passed":false},{"stop_id":"U1006Z2","name":"Antonínská","arrival_time":"14:22:00","departure_time":"14:22:00","lat":49.203166,"lon":16.606915,"is_passed":false},{"stop_id":"U1397Z2","name":"Moravské náměstí","arrival_time":"14:24:00","departure_time":"14:24:00","lat":49.199237,"lon":16.608067,"is_passed":false},{"stop_id":"U1357Z4","name":"Malinovského náměstí","arrival_time":"14:27:00","departure_time":"14:27:00","lat":49.195612,"lon":16.613248,"is_passed":false},{"stop_id":"U1146Z1","name":"Hlavní nádraží","arrival_time":"14:30:00","departure_time":"14:30:00","lat":49.191185,"lon":16.611879,"is_passed":false},{"stop_id":"U1436Z1","name":"Nové sady","arrival_time":"14:31:00","departure_time":"14:31:00","lat":49.190116,"lon":16.609025,"is_passed":false},{"stop_id":"U1176Z1","name":"Hybešova","arrival_time":"14:33:00","departure_time":"14:33:00","lat":49.189322,"lon":16.602863,"is_passed":false},{"stop_id":"U1721Z1","name":"Václavská","arrival_time":"14:34:00","departure_time":"14:34:00","lat":49.188681,"lon":16.597217,"is_passed":false},{"stop_id":"U1378Z1","name":"Mendlovo náměstí","arrival_time":"14:36:00","departure_time":"14:36:00","lat":49.189659,"lon":16.592283,"is_passed":false},{"stop_id":"U1768Z1","name":"Výstaviště - hlavní vstup","arrival_time":"14:38:00","departure_time":"14:38:00","lat":49.189583,"lon":16.584499,"is_passed":false},{"stop_id":"U1769Z1","name":"Výstaviště - vstup G2","arrival_time":"14:39:00","departure_time":"14:39:00","lat":49.190338,"lon":16.579837,"is_passed":false},{"stop_id":"U1343Z1","name":"ARENA BRNO","arrival_time":"14:40:00","departure_time":"14:40:00","lat":49.191523,"lon":16.576065,"is_passed":false},{"stop_id":"U1487Z3","name":"Pisárky","arrival_time":"14:42:00","departure_time":"14:42:00","lat":49.194099,"lon":16.569741,"is_passed":false},{"stop_id":"U1041Z1","name":"Bráfova","arrival_time":"14:44:00","departure_time":"14:44:00","lat":49.206955,"lon":16.570536,"is_passed":false},{"stop_id":"U1621Z1","name":"Stránského","arrival_time":"14:45:00","departure_time":"14:45:00","lat":49.211954,"lon":16.568673,"is_passed":false},{"stop_id":"U1217Z1","name":"Vozovna Komín","arrival_time":"14:47:00","departure_time":"14:47:00","lat":49.2132,"lon":16.559792,"is_passed":false},{"stop_id":"U1633Z1","name":"Svratecká","arrival_time":"14:48:00","departure_time":"14:48:00","lat":49.217898,"lon":16.553656,"is_passed":false},{"stop_id":"U1042Z1","name":"Branka","arrival_time":"14:49:00","departure_time":"14:49:00","lat":49.219419,"lon":16.54726,"is_passed":false},{"stop_id":"U1493Z1","name":"Podlesí","arrival_time":"14:50:00","departure_time":"14:50:00","lat":49.218711,"lon":16.542392,"is_passed":false},{"stop_id":"U1226Z1","name":"Kamenolom","arrival_time":"14:51:00","departure_time":"14:51:00","lat":49.221657,"lon":16.536794,"is_passed":false},{"stop_id":"U1796Z1","name":"Zoologická zahrada","arrival_time":"14:53:00","departure_time":"14:53:00","lat":49.227674,"lon":16.532002,"is_passed":false},{"stop_id":"U1527Z1","name":"Přístaviště","arrival_time":"14:54:00","departure_time":"14:54:00","lat":49.22814,"lon":16.521658,"is_passed":false},{"stop_id":"U1537Z1","name":"Rakovecká","arrival_time":"14:56:00","departure_time":"15:19:00","lat":49.225877,"lon":16.518739,"is_passed":false}],"42807":[{"stop_id":"U1537Z2","name":"Rakovecká","arrival_time":"15:19:00","departure_time":"15:19:00","lat":49.226177,"lon":16.519315,"is_passed":false},{"stop_id":"U1527Z2","name":"Přístaviště","arrival_time":"15:20:00","departure_time":"15:20:00","lat":49.228519,"lon":16.522556,"is_passed":false},{"stop_id":"U1796Z2","name":"Zoologická zahrada","arrival_time":"15:22:00","departure_time":"15:22:00","lat":49.22774,"lon":16.531898,"is_passed":false},{"stop_id":"U1226Z2","name":"Kamenolom","arrival_time":"15:23:00","departure_time":"15:23:00","lat":49.221888,"lon":16.536713,"is_passed":false},{"stop_id":"U1493Z2","name":"Podlesí","arrival_time":"15:24:00","departure_time":"15:24:00","lat":49.21871,"lon":16.542217,"is_passed":false},{"stop_id":"U1042Z2","name":"Branka","arrival_time":"15:25:00","departure_time":"15:25:00","lat":49.219368,"lon":16.548224,"is_passed":false},{"stop_id":"U1633Z2","name":"Svratecká","arrival_time":"15:26:00","departure_time":"15:26:00","lat":49.21799,"lon":16.553492,"is_passed":false},{"stop_id":"U1217Z2","name":"Vozovna Komín","arrival_time":"15:28:00","departure_time":"15:28:00","lat":49.213224,"lon":16.559619,"is_passed":false},{"stop_id":"U1621Z2","name":"Stránského","arrival_time":"15:29:00","departure_time":"15:29:00","lat":49.211937,"lon":16.568408,"is_passed":false},{"stop_id":"U1041Z2","name":"Bráfova","arrival_time":"15:30:00","departure_time":"15:30:00","lat":49.207033,"lon":16.570558,"is_passed":false},{"stop_id":"U1487Z4","name":"Pisárky","arrival_time":"15:33:00","departure_time":"15:33:00","lat":49.194163,"lon":16.569615,"is_passed":false},{"stop_id":"U1343Z2","name":"ARENA BRNO","arrival_time":"15:34:00","departure_time":"15:34:00","lat":49.191387,"lon":16.576425,"is_passed":false},{"stop_id":"U1769Z2","name":"Výstaviště - vstup G2","arrival_time":"15:35:00","departure_time":"15:35:00","lat":49.190207,"lon":16.580555,"is_passed":false},{"stop_id":"U1768Z2","name":"Výstaviště - hlavní vstup","arrival_time":"15:36:00","departure_time":"15:36:00","lat":49.189325,"lon":16.585699,"is_passed":false},{"stop_id":"U1378Z2","name":"Mendlovo náměstí","arrival_time":"15:38:00","departure_time":"15:38:00","lat":49.190034,"lon":16.593837,"is_passed":false},{"stop_id":"U1721Z2","name":"Václavská","arrival_time":"15:40:00","departure_time":"15:40:00","lat":49.188715,"lon":16.596878,"is_passed":false},{"stop_id":"U1176Z2","name":"Hybešova","arrival_time":"15:41:00","departure_time":"15:41:00","lat":49.189209,"lon":16.603364,"is_passed":false},{"stop_id":"U1436Z2","name":"Nové sady","arrival_time":"15:44:00","departure_time":"15:44:00","lat":49.190222,"lon":16.609403,"is_passed":false},{"stop_id":"U1146Z2","name":"Hlavní nádraží","arrival_time":"15:46:00","departure_time":"15:46:00","lat":49.191394,"lon":16.612548,"is_passed":false},{"stop_id":"U1357Z3","name":"Malinovského náměstí","arrival_time":"15:48:00","departure_time":"15:48:00","lat":49.196131,"lon":16.612953,"is_passed":false},{"stop_id":"U1397Z1","name":"Moravské náměstí","arrival_time":"15:50:00","departure_time":"15:50:00","lat":49.19996,"lon":16.607931,"is_passed":false},{"stop_id":"U1006Z1","name":"Antonínská","arrival_time":"15:51:00","departure_time":"15:51:00","lat":49.203685,"lon":16.606678,"is_passed":false},{"stop_id":"U1483Z1","name":"Pionýrská","arrival_time":"15:52:00","departure_time":"15:52:00","lat":49.207491,"lon":16.604472,"is_passed":false},{"stop_id":"U1166Z1","name":"Hrnčířská","arrival_time":"15:54:00","departure_time":"15:54:00","lat":49.210254,"lon":16.602868,"is_passed":false},{"stop_id":"U1652Z1","name":"Šumavská","arrival_time":"15:55:00","departure_time":"15:55:00","lat":49.213991,"lon":16.600669,"is_passed":false},{"stop_id":"U1233Z1","name":"Kartouzská","arrival_time":"15:56:00","departure_time":"15:56:00","lat":49.216998,"lon":16.598896,"is_passed":false},{"stop_id":"U1218Z1","name":"Jungmannova","arrival_time":"15:57:00","departure_time":"15:57:00","lat":49.220856,"lon":16.596583,"is_passed":false},{"stop_id":"U1171Z1","name":"Husitská","arrival_time":"15:58:00","departure_time":"15:58:00","lat":49.223125,"lon":16.59524,"is_passed":false},{"stop_id":"U1566Z1","name":"Semilasso","arrival_time":"16:00:00","departure_time":"16:00:00","lat":49.227417,"lon":16.592683,"is_passed":false},{"stop_id":"U1683Z1","name":"Tylova","arrival_time":"16:01:00","departure_time":"16:01:00","lat":49.23243,"lon":16.589321,"is_passed":false},{"stop_id":"U1167Z1","name":"Hudcova","arrival_time":"16:02:00","departure_time":"16:02:00","lat":49.235202,"lon":16.587471,"is_passed":false},{"stop_id":"U1272Z1","name":"Kořískova","arrival_time":"16:04:00","departure_time":"16:04:00","lat":49.240579,"lon":16.58388,"is_passed":false},{"stop_id":"U1108Z1","name":"Filkukova","arrival_time":"16:05:00","departure_time":"16:05:00","lat":49.244244,"lon":16.58143,"is_passed":false},{"stop_id":"U1553Z1","name":"Řečkovice","arrival_time":"16:07:00","departure_time":"16:19:00","lat":49.247295,"lon":16.578803,"is_passed":false}],"42808":[{"stop_id":"U1553Z2","name":"Řečkovice","arrival_time":"16:19:00","departure_time":"16:19:00","lat":49.246978,"lon":16.5794,"is_passed":false},{"stop_id":"U1108Z2","name":"Filkukova","arrival_time":"16:20:00","departure_time":"16:20:00","lat":49.243517,"lon":16.581881,"is_passed":false},{"stop_id":"U1272Z2","name":"Kořískova","arrival_time":"16:21:00","departure_time":"16:21:00","lat":49.238898,"lon":16.584964,"is_passed":false},{"stop_id":"U1167Z2","name":"Hudcova","arrival_time":"16:22:00","departure_time":"16:22:00","lat":49.235791,"lon":16.587041,"is_passed":false},{"stop_id":"U1683Z2","name":"Tylova","arrival_time":"16:23:00","departure_time":"16:23:00","lat":49.232055,"lon":16.589539,"is_passed":false},{"stop_id":"U1566Z2","name":"Semilasso","arrival_time":"16:24:00","departure_time":"16:24:00","lat":49.228227,"lon":16.592081,"is_passed":false},{"stop_id":"U1171Z2","name":"Husitská","arrival_time":"16:26:00","departure_time":"16:26:00","lat":49.223415,"lon":16.595016,"is_passed":false},{"stop_id":"U1218Z2","name":"Jungmannova","arrival_time":"16:27:00","departure_time":"16:27:00","lat":49.221083,"lon":16.596416,"is_passed":false},{"stop_id":"U1233Z2","name":"Kartouzská","arrival_time":"16:28:00","departure_time":"16:28:00","lat":49.21665,"lon":16.599078,"is_passed":false},{"stop_id":"U1652Z2","name":"Šumavská","arrival_time":"16:29:00","departure_time":"16:29:00","lat":49.214022,"lon":16.60062,"is_passed":false},{"stop_id":"U1166Z2","name":"Hrnčířská","arrival_time":"16:30:00","departure_time":"16:30:00","lat":49.21062,"lon":16.602628,"is_passed":false},{"stop_id":"U1483Z2","name":"Pionýrská","arrival_time":"16:31:00","departure_time":"16:31:00","lat":49.207904,"lon":16.604201,"is_passed":false},{"stop_id":"U1006Z2","name":"Antonínská","arrival_time":"16:32:00","departure_time":"16:32:00","lat":49.203166,"lon":16.606915,"is_passed":false},{"stop_id":"U1397Z2","name":"Moravské náměstí","arrival_time":"16:34:00","departure_time":"16:34:00","lat":49.199237,"lon":16.608067,"is_passed":false},{"stop_id":"U1357Z4","name":"Malinovského náměstí","arrival_time":"16:37:00","departure_time":"16:37:00","lat":49.195612,"lon":16.613248,"is_passed":false},{"stop_id":"U1146Z1","name":"Hlavní nádraží","arrival_time":"16:40:00","departure_time":"16:40:00","lat":49.191185,"lon":16.611879,"is_passed":false},{"stop_id":"U1436Z1","name":"Nové sady","arrival_time":"16:41:00","departure_time":"16:41:00","lat":49.190116,"lon":16.609025,"is_passed":false},{"stop_id":"U1176Z1","name":"Hybešova","arrival_time":"16:43:00","departure_time":"16:43:00","lat":49.189322,"lon":16.602863,"is_passed":false},{"stop_id":"U1721Z1","name":"Václavská","arrival_time":"16:44:00","departure_time":"16:44:00","lat":49.188681,"lon":16.597217,"is_passed":false},{"stop_id":"U1378Z1","name":"Mendlovo náměstí","arrival_time":"16:46:00","departure_time":"16:46:00","lat":49.189659,"lon":16.592283,"is_passed":false},{"stop_id":"U1768Z1","name":"Výstaviště - hlavní vstup","arrival_time":"16:48:00","departure_time":"16:48:00","lat":49.189583,"lon":16.584499,"is_passed":false},{"stop_id":"U1769Z1","name":"Výstaviště - vstup G2","arrival_time":"16:49:00","departure_time":"16:49:00","lat":49.190338,"lon":16.579837,"is_passed":false},{"stop_id":"U1343Z1","name":"ARENA BRNO","arrival_time":"16:50:00","departure_time":"16:50:00","lat":49.191523,"lon":16.576065,"is_passed":false},{"stop_id":"U1487Z3","name":"Pisárky","arrival_time":"16:52:00","departure_time":"16:52:00","lat":49.194099,"lon":16.569741,"is_passed":false},{"stop_id":"U1041Z1","name":"Bráfova","arrival_time":"16:54:00","departure_time":"16:54:00","lat":49.206955,"lon":16.570536,"is_passed":false},{"stop_id":"U1621Z1","name":"Stránského","arrival_time":"16:55:00","departure_time":"16:55:00","lat":49.211954,"lon":16.568673,"is_passed":false},{"stop_id":"U1217Z1","name":"Vozovna Komín","arrival_time":"16:57:00","departure_time":"16:57:00","lat":49.2132,"lon":16.559792,"is_passed":false},{"stop_id":"U1633Z1","name":"Svratecká","arrival_time":"16:58:00","departure_time":"16:58:00","lat":49.217898,"lon":16.553656,"is_passed":false},{"stop_id":"U1042Z1","name":"Branka","arrival_time":"16:59:00","departure_time":"16:59:00","lat":49.219419,"lon":16.54726,"is_passed":false},{"stop_id":"U1493Z1","name":"Podlesí","arrival_time":"17:00:00","departure_time":"17:00:00","lat":49.218711,"lon":16.542392,"is_passed":false},{"stop_id":"U1226Z1","name":"Kamenolom","arrival_time":"17:01:00","departure_time":"17:01:00","lat":49.221657,"lon":16.536794,"is_passed":false},{"stop_id":"U1796Z1","name":"Zoologická zahrada","arrival_time":"17:03:00","departure_time":"17:03:00","lat":49.227674,"lon":16.532002,"is_passed":false},{"stop_id":"U1527Z1","name":"Přístaviště","arrival_time":"17:04:00","departure_time":"17:04:00","lat":49.22814,"lon":16.521658,"is_passed":false},{"stop_id":"U1537Z1","name":"Rakovecká","arrival_time":"17:06:00","departure_time":"17:29:00","lat":49.225877,"lon":16.518739,"is_passed":false}],"42809":[{"stop_id":"U1537Z2","name":"Rakovecká","arrival_time":"17:29:00","departure_time":"17:29:00","lat":49.226177,"lon":16.519315,"is_passed":false},{"stop_id":"U1527Z2","name":"Přístaviště","arrival_time":"17:30:00","departure_time":"17:30:00","lat":49.228519,"lon":16.522556,"is_passed":false},{"stop_id":"U1796Z2","name":"Zoologická zahrada","arrival_time":"17:32:00","departure_time":"17:32:00","lat":49.22774,"lon":16.531898,"is_passed":false},{"stop_id":"U1226Z2","name":"Kamenolom","arrival_time":"17:33:00","departure_time":"17:33:00","lat":49.221888,"lon":16.536713,"is_passed":false},{"stop_id":"U1493Z2","name":"Podlesí","arrival_time":"17:34:00","departure_time":"17:34:00","lat":49.21871,"lon":16.542217,"is_passed":false},{"stop_id":"U1042Z2","name":"Branka","arrival_time":"17:35:00","departure_time":"17:35:00","lat":49.219368,"lon":16.548224,"is_passed":false},{"stop_id":"U1633Z2","name":"Svratecká","arrival_time":"17:36:00","departure_time":"17:36:00","lat":49.21799,"lon":16.553492,"is_passed":false},{"stop_id":"U1217Z2","name":"Vozovna Komín","arrival_time":"17:38:00","departure_time":"17:38:00","lat":49.213224,"lon":16.559619,"is_passed":false},{"stop_id":"U1621Z2","name":"Stránského","arrival_time":"17:39:00","departure_time":"17:39:00","lat":49.211937,"lon":16.568408,"is_passed":false},{"stop_id":"U1041Z2","name":"Bráfova","arrival_time":"17:40:00","departure_time":"17:40:00","lat":49.207033,"lon":16.570558,"is_passed":false},{"stop_id":"U1487Z4","name":"Pisárky","arrival_time":"17:43:00","departure_time":"17:43:00","lat":49.194163,"lon":16.569615,"is_passed":false},{"stop_id":"U1343Z2","name":"ARENA BRNO","arrival_time":"17:44:00","departure_time":"17:44:00","lat":49.191387,"lon":16.576425,"is_passed":false},{"stop_id":"U1769Z2","name":"Výstaviště - vstup G2","arrival_time":"17:45:00","departure_time":"17:45:00","lat":49.190207,"lon":16.580555,"is_passed":false},{"stop_id":"U1768Z2","name":"Výstaviště - hlavní vstup","arrival_time":"17:46:00","departure_time":"17:46:00","lat":49.189325,"lon":16.585699,"is_passed":false},{"stop_id":"U1378Z2","name":"Mendlovo náměstí","arrival_time":"17:48:00","departure_time":"17:48:00","lat":49.190034,"lon":16.593837,"is_passed":false},{"stop_id":"U1721Z2","name":"Václavská","arrival_time":"17:50:00","departure_time":"17:50:00","lat":49.188715,"lon":16.596878,"is_passed":false},{"stop_id":"U1176Z2","name":"Hybešova","arrival_time":"17:51:00","departure_time":"17:51:00","lat":49.189209,"lon":16.603364,"is_passed":false},{"stop_id":"U1436Z2","name":"Nové sady","arrival_time":"17:54:00","departure_time":"17:54:00","lat":49.190222,"lon":16.609403,"is_passed":false},{"stop_id":"U1146Z2","name":"Hlavní nádraží","arrival_time":"17:56:00","departure_time":"17:56:00","lat":49.191394,"lon":16.612548,"is_passed":false},{"stop_id":"U1357Z3","name":"Malinovského náměstí","arrival_time":"17:58:00","departure_time":"17:58:00","lat":49.196131,"lon":16.612953,"is_passed":false},{"stop_id":"U1397Z1","name":"Moravské náměstí","arrival_time":"18:00:00","departure_time":"18:00:00","lat":49.19996,"lon":16.607931,"is_passed":false},{"stop_id":"U1006Z1","name":"Antonínská","arrival_time":"18:01:00","departure_time":"18:01:00","lat":49.203685,"lon":16.606678,"is_passed":false},{"stop_id":"U1483Z1","name":"Pionýrská","arrival_time":"18:02:00","departure_time":"18:02:00","lat":49.207491,"lon":16.604472,"is_passed":false},{"stop_id":"U1166Z1","name":"Hrnčířská","arrival_time":"18:04:00","departure_time":"18:04:00","lat":49.210254,"lon":16.602868,"is_passed":false},{"stop_id":"U1652Z1","name":"Šumavská","arrival_time":"18:05:00","departure_time":"18:05:00","lat":49.213991,"lon":16.600669,"is_passed":false},{"stop_id":"U1233Z1","name":"Kartouzská","arrival_time":"18:06:00","departure_time":"18:06:00","lat":49.216998,"lon":16.598896,"is_passed":false},{"stop_id":"U1218Z1","name":"Jungmannova","arrival_time":"18:07:00","departure_time":"18:07:00","lat":49.220856,"lon":16.596583,"is_passed":false},{"stop_id":"U1171Z1","name":"Husitská","arrival_time":"18:08:00","departure_time":"18:08:00","lat":49.223125,"lon":16.59524,"is_passed":false},{"stop_id":"U1566Z1","name":"Semilasso","arrival_time":"18:10:00","departure_time":"18:10:00","lat":49.227417,"lon":16.592683,"is_passed":false},{"stop_id":"U1683Z1","name":"Tylova","arrival_time":"18:11:00","departure_time":"18:11:00","lat":49.23243,"lon":16.589321,"is_passed":false},{"stop_id":"U1167Z1","name":"Hudcova","arrival_time":"18:12:00","departure_time":"18:12:00","lat":49.235202,"lon":16.587471,"is_passed":false},{"stop_id":"U1272Z1","name":"Kořískova","arrival_time":"18:14:00","departure_time":"18:14:00","lat":49.240579,"lon":16.58388,"is_passed":false},{"stop_id":"U1108Z1","name":"Filkukova","arrival_time":"18:15:00","departure_time":"18:15:00","lat":49.244244,"lon":16.58143,"is_passed":false},{"stop_id":"U1553Z1","name":"Řečkovice","arrival_time":"18:17:00","departure_time":"18:39:00","lat":49.247295,"lon":16.578803,"is_passed":false}],"42810":[{"stop_id":"U1553Z2","name":"Řečkovice","arrival_time":"18:39:00","departure_time":"18:39:00","lat":49.246978,"lon":16.5794,"is_passed":false},{"stop_id":"U1108Z2","name":"Filkukova","arrival_time":"18:40:00","departure_time":"18:40:00","lat":49.243517,"lon":16.581881,"is_passed":false},{"stop_id":"U1272Z2","name":"Kořískova","arrival_time":"18:41:00","departure_time":"18:41:00","lat":49.238898,"lon":16.584964,"is_passed":false},{"stop_id":"U1167Z2","name":"Hudcova","arrival_time":"18:42:00","departure_time":"18:42:00","lat":49.235791,"lon":16.587041,"is_passed":false},{"stop_id":"U1683Z2","name":"Tylova","arrival_time":"18:43:00","departure_time":"18:43:00","lat":49.232055,"lon":16.589539,"is_passed":false},{"stop_id":"U1566Z2","name":"Semilasso","arrival_time":"18:44:00","departure_time":"18:44:00","lat":49.228227,"lon":16.592081,"is_passed":false},{"stop_id":"U1171Z2","name":"Husitská","arrival_time":"18:46:00","departure_time":"18:46:00","lat":49.223415,"lon":16.595016,"is_passed":false},{"stop_id":"U1218Z2","name":"Jungmannova","arrival_time":"18:47:00","departure_time":"18:47:00","lat":49.221083,"lon":16.596416,"is_passed":false},{"stop_id":"U1233Z2","name":"Kartouzská","arrival_time":"18:48:00","departure_time":"18:48:00","lat":49.21665,"lon":16.599078,"is_passed":false},{"stop_id":"U1652Z2","name":"Šumavská","arrival_time":"18:49:00","departure_time":"18:49:00","lat":49.214022,"lon":16.60062,"is_passed":false},{"stop_id":"U1166Z2","name":"Hrnčířská","arrival_time":"18:50:00","departure_time":"18:50:00","lat":49.21062,"lon":16.602628,"is_passed":false},{"stop_id":"U1483Z2","name":"Pionýrská","arrival_time":"18:51:00","departure_time":"18:51:00","lat":49.207904,"lon":16.604201,"is_passed":false},{"stop_id":"U1006Z2","name":"Antonínská","arrival_time":"18:52:00","departure_time":"18:52:00","lat":49.203166,"lon":16.606915,"is_passed":false},{"stop_id":"U1397Z2","name":"Moravské náměstí","arrival_time":"18:54:00","departure_time":"18:54:00","lat":49.199237,"lon":16.608067,"is_passed":false},{"stop_id":"U1357Z4","name":"Malinovského náměstí","arrival_time":"18:57:00","departure_time":"18:57:00","lat":49.195612,"lon":16.613248,"is_passed":false},{"stop_id":"U1146Z1","name":"Hlavní nádraží","arrival_time":"19:00:00","departure_time":"19:00:00","lat":49.191185,"lon":16.611879,"is_passed":false},{"stop_id":"U1436Z1","name":"Nové sady","arrival_time":"19:01:00","departure_time":"19:01:00","lat":49.190116,"lon":16.609025,"is_passed":false},{"stop_id":"U1176Z1","name":"Hybešova","arrival_time":"19:03:00","departure_time":"19:03:00","lat":49.189322,"lon":16.602863,"is_passed":false},{"stop_id":"U1721Z1","name":"Václavská","arrival_time":"19:04:00","departure_time":"19:04:00","lat":49.188681,"lon":16.597217,"is_passed":false},{"stop_id":"U1378Z1","name":"Mendlovo náměstí","arrival_time":"19:06:00","departure_time":"19:06:00","lat":49.189659,"lon":16.592283,"is_passed":false},{"stop_id":"U1768Z1","name":"Výstaviště - hlavní vstup","arrival_time":"19:08:00","departure_time":"19:08:00","lat":49.189583,"lon":16.584499,"is_passed":false},{"stop_id":"U1769Z1","name":"Výstaviště - vstup G2","arrival_time":"19:09:00","departure_time":"19:09:00","lat":49.190338,"lon":16.579837,"is_passed":false},{"stop_id":"U1343Z1","name":"ARENA BRNO","arrival_time":"19:10:00","departure_time":"19:10:00","lat":49.191523,"lon":16.576065,"is_passed":false},{"stop_id":"U1487Z3","name":"Pisárky","arrival_time":"19:12:00","departure_time":"19:12:00","lat":49.194099,"lon":16.569741,"is_passed":false},{"stop_id":"U1041Z1","name":"Bráfova","arrival_time":"19:14:00","departure_time":"19:14:00","lat":49.206955,"lon":16.570536,"is_passed":false},{"stop_id":"U1621Z1","name":"Stránského","arrival_time":"19:15:00","departure_time":"19:15:00","lat":49.211954,"lon":16.568673,"is_passed":false},{"stop_id":"U1217Z1","name":"Vozovna Komín","arrival_time":"19:17:00","departure_time":"19:17:00","lat":49.2132,"lon":16.559792,"is_passed":false},{"stop_id":"U1633Z1","name":"Svratecká","arrival_time":"19:18:00","departure_time":"19:18:00","lat":49.217898,"lon":16.553656,"is_passed":false},{"stop_id":"U1042Z1","name":"Branka","arrival_time":"19:19:00","departure_time":"19:19:00","lat":49.219419,"lon":16.54726,"is_passed":false},{"stop_id":"U1493Z1","name":"Podlesí","arrival_time":"19:20:00","departure_time":"19:20:00","lat":49.218711,"lon":16.542392,"is_passed":false},{"stop_id":"U1226Z1","name":"Kamenolom","arrival_time":"19:21:00","departure_time":"19:21:00","lat":49.221657,"lon":16.536794,"is_passed":false},{"stop_id":"U1796Z1","name":"Zoologická zahrada","arrival_time":"19:23:00","departure_time":"19:23:00","lat":49.227674,"lon":16.532002,"is_passed":false},{"stop_id":"U1527Z1","name":"Přístaviště","arrival_time":"19:24:00","departure_time":"19:24:00","lat":49.22814,"lon":16.521658,"is_passed":false},{"stop_id":"U1537Z1","name":"Rakovecká","arrival_time":"19:26:00","departure_time":"19:26:00","lat":49.225877,"lon":16.518739,"is_passed":false}],"42811":[{"stop_id":"U1537Z2","name":"Rakovecká","arrival_time":"19:45:00","departure_time":"19:45:00","lat":49.226177,"lon":16.519315,"is_passed":false},{"stop_id":"U1527Z2","name":"Přístaviště","arrival_time":"19:46:00","departure_time":"19:46:00","lat":49.228519,"lon":16.522556,"is_passed":false},{"stop_id":"U1796Z2","name":"Zoologická zahrada","arrival_time":"19:48:00","departure_time":"19:48:00","lat":49.22774,"lon":16.531898,"is_passed":false},{"stop_id":"U1226Z2","name":"Kamenolom","arrival_time":"19:49:00","departure_time":"19:49:00","lat":49.221888,"lon":16.536713,"is_passed":false},{"stop_id":"U1493Z2","name":"Podlesí","arrival_time":"19:50:00","departure_time":"19:50:00","lat":49.21871,"lon":16.542217,"is_passed":false},{"stop_id":"U1042Z2","name":"Branka","arrival_time":"19:51:00","departure_time":"19:51:00","lat":49.219368,"lon":16.548224,"is_passed":false},{"stop_id":"U1633Z2","name":"Svratecká","arrival_time":"19:52:00","departure_time":"19:52:00","lat":49.21799,"lon":16.553492,"is_passed":false},{"stop_id":"U1217Z2","name":"Vozovna Komín","arrival_time":"19:54:00","departure_time":"19:54:00","lat":49.213224,"lon":16.559619,"is_passed":false},{"stop_id":"U1621Z2","name":"Stránského","arrival_time":"19:55:00","departure_time":"19:55:00","lat":49.211937,"lon":16.568408,"is_passed":false},{"stop_id":"U1041Z2","name":"Bráfova","arrival_time":"19:56:00","departure_time":"19:56:00","lat":49.207033,"lon":16.570558,"is_passed":false},{"stop_id":"U1487Z4","name":"Pisárky","arrival_time":"19:59:00","departure_time":"19:59:00","lat":49.194163,"lon":16.569615,"is_passed":false},{"stop_id":"U1343Z2","name":"ARENA BRNO","arrival_time":"20:00:00","departure_time":"20:00:00","lat":49.191387,"lon":16.576425,"is_passed":false},{"stop_id":"U1769Z2","name":"Výstaviště - vstup G2","arrival_time":"20:01:00","departure_time":"20:01:00","lat":49.190207,"lon":16.580555,"is_passed":false},{"stop_id":"U1768Z2","name":"Výstaviště - hlavní vstup","arrival_time":"20:02:00","departure_time":"20:02:00","lat":49.189325,"lon":16.585699,"is_passed":false},{"stop_id":"U1378Z2","name":"Mendlovo náměstí","arrival_time":"20:04:00","departure_time":"20:04:00","lat":49.190034,"lon":16.593837,"is_passed":false},{"stop_id":"U1721Z2","name":"Václavská","arrival_time":"20:06:00","departure_time":"20:06:00","lat":49.188715,"lon":16.596878,"is_passed":false},{"stop_id":"U1176Z2","name":"Hybešova","arrival_time":"20:07:00","departure_time":"20:07:00","lat":49.189209,"lon":16.603364,"is_passed":false},{"stop_id":"U1436Z2","name":"Nové sady","arrival_time":"20:10:00","departure_time":"20:10:00","lat":49.190222,"lon":16.609403,"is_passed":false},{"stop_id":"U1146Z4","name":"Hlavní nádraží","arrival_time":"20:12:00","departure_time":"20:12:00","lat":49.19125,"lon":16.612674,"is_passed":false},{"stop_id":"U1716Z1","name":"Úzká","arrival_time":"20:13:00","departure_time":"20:13:00","lat":49.189807,"lon":16.614666,"is_passed":false},{"stop_id":"U1011Z1","name":"Autobusové nádraží","arrival_time":"20:15:00","departure_time":"20:15:00","lat":49.185873,"lon":16.61787,"is_passed":false},{"stop_id":"U1807Z1","name":"Železniční","arrival_time":"20:16:00","departure_time":"20:16:00","lat":49.18274,"lon":16.619609,"is_passed":false},{"stop_id":"U1266Z1","name":"Konopná","arrival_time":"20:17:00","departure_time":"20:17:00","lat":49.18026,"lon":16.621122,"is_passed":false},{"stop_id":"U1256Z1","name":"Komárov","arrival_time":"20:19:00","departure_time":"20:31:00","lat":49.175889,"lon":16.621291,"is_passed":false}],"42812":[{"stop_id":"U1256Z2","name":"Komárov","arrival_time":"20:31:00","departure_time":"20:31:00","lat":49.176162,"lon":16.621658,"is_passed":false},{"stop_id":"U1266Z2","name":"Konopná","arrival_time":"20:31:00","departure_time":"20:31:00","lat":49.180196,"lon":16.621238,"is_passed":false},{"stop_id":"U1807Z2","name":"Železniční","arrival_time":"20:32:00","departure_time":"20:32:00","lat":49.183322,"lon":16.619338,"is_passed":false},{"stop_id":"U1011Z2","name":"Autobusové nádraží","arrival_time":"20:33:00","departure_time":"20:33:00","lat":49.186417,"lon":16.617622,"is_passed":false},{"stop_id":"U1716Z2","name":"Úzká","arrival_time":"20:35:00","departure_time":"20:35:00","lat":49.190179,"lon":16.614625,"is_passed":false},{"stop_id":"U1146Z1","name":"Hlavní nádraží","arrival_time":"20:38:00","departure_time":"20:38:00","lat":49.191185,"lon":16.611879,"is_passed":false},{"stop_id":"U1436Z1","name":"Nové sady","arrival_time":"20:39:00","departure_time":"20:39:00","lat":49.190116,"lon":16.609025,"is_passed":false},{"stop_id":"U1176Z1","name":"Hybešova","arrival_time":"20:41:00","departure_time":"20:41:00","lat":49.189322,"lon":16.602863,"is_passed":false},{"stop_id":"U1721Z1","name":"Václavská","arrival_time":"20:42:00","departure_time":"20:42:00","lat":49.188681,"lon":16.597217,"is_passed":false},{"stop_id":"U1378Z1","name":"Mendlovo náměstí","arrival_time":"20:44:00","departure_time":"20:44:00","lat":49.189659,"lon":16.592283,"is_passed":false},{"stop_id":"U1768Z1","name":"Výstaviště - hlavní vstup","arrival_time":"20:46:00","departure_time":"20:46:00","lat":49.189583,"lon":16.584499,"is_passed":false},{"stop_id":"U1769Z1","name":"Výstaviště - vstup G2","arrival_time":"20:47:00","departure_time":"20:47:00","lat":49.190338,"lon":16.579837,"is_passed":false},{"stop_id":"U1343Z1","name":"ARENA BRNO","arrival_time":"20:48:00","departure_time":"20:48:00","lat":49.191523,"lon":16.576065,"is_passed":false},{"stop_id":"U1487Z3","name":"Pisárky","arrival_time":"20:50:00","departure_time":"20:50:00","lat":49.194099,"lon":16.569741,"is_passed":false},{"stop_id":"U1041Z1","name":"Bráfova","arrival_time":"20:52:00","departure_time":"20:52:00","lat":49.206955,"lon":16.570536,"is_passed":false},{"stop_id":"U1621Z1","name":"Stránského","arrival_time":"20:53:00","departure_time":"20:53:00","lat":49.211954,"lon":16.568673,"is_passed":false},{"stop_id":"U1217Z1","name":"Vozovna Komín","arrival_time":"20:55:00","departure_time":"20:55:00","lat":49.2132,"lon":16.559792,"is_passed":false},{"stop_id":"U1633Z1","name":"Svratecká","arrival_time":"20:56:00","departure_time":"20:56:00","lat":49.217898,"lon":16.553656,"is_passed":false},{"stop_id":"U1042Z1","name":"Branka","arrival_time":"20:57:00","departure_time":"20:57:00","lat":49.219419,"lon":16.54726,"is_passed":false},{"stop_id":"U1493Z1","name":"Podlesí","arrival_time":"20:58:00","departure_time":"20:58:00","lat":49.218711,"lon":16.542392,"is_passed":false},{"stop_id":"U1226Z1","name":"Kamenolom","arrival_time":"20:59:00","departure_time":"20:59:00","lat":49.221657,"lon":16.536794,"is_passed":false},{"stop_id":"U1796Z1","name":"Zoologická zahrada","arrival_time":"21:01:00","departure_time":"21:01:00","lat":49.227674,"lon":16.532002,"is_passed":false},{"stop_id":"U1527Z1","name":"Přístaviště","arrival_time":"21:02:00","departure_time":"21:02:00","lat":49.22814,"lon":16.521658,"is_passed":false},{"stop_id":"U1537Z1","name":"Rakovecká","arrival_time":"21:04:00","departure_time":"21:17:00","lat":49.225877,"lon":16.518739,"is_passed":false}],"42813":[{"stop_id":"U1537Z2","name":"Rakovecká","arrival_time":"21:17:00","departure_time":"21:17:00","lat":49.226177,"lon":16.519315,"is_passed":false},{"stop_id":"U1527Z2","name":"Přístaviště","arrival_time":"21:18:00","departure_time":"21:18:00","lat":49.228519,"lon":16.522556,"is_passed":false},{"stop_id":"U1796Z2","name":"Zoologická zahrada","arrival_time":"21:20:00","departure_time":"21:20:00","lat":49.22774,"lon":16.531898,"is_passed":false},{"stop_id":"U1226Z2","name":"Kamenolom","arrival_time":"21:21:00","departure_time":"21:21:00","lat":49.221888,"lon":16.536713,"is_passed":false},{"stop_id":"U1493Z2","name":"Podlesí","arrival_time":"21:22:00","departure_time":"21:22:00","lat":49.21871,"lon":16.542217,"is_passed":false},{"stop_id":"U1042Z2","name":"Branka","arrival_time":"21:23:00","departure_time":"21:23:00","lat":49.219368,"lon":16.548224,"is_passed":false},{"stop_id":"U1633Z2","name":"Svratecká","arrival_time":"21:24:00","departure_time":"21:24:00","lat":49.21799,"lon":16.553492,"is_passed":false},{"stop_id":"U1217Z2","name":"Vozovna Komín","arrival_time":"21:26:00","departure_time":"21:26:00","lat":49.213224,"lon":16.559619,"is_passed":false},{"stop_id":"U1621Z2","name":"Stránského","arrival_time":"21:27:00","departure_time":"21:27:00","lat":49.211937,"lon":16.568408,"is_passed":false},{"stop_id":"U1041Z2","name":"Bráfova","arrival_time":"21:28:00","departure_time":"21:28:00","lat":49.207033,"lon":16.570558,"is_passed":false},{"stop_id":"U1487Z4","name":"Pisárky","arrival_time":"21:31:00","departure_time":"21:31:00","lat":49.194163,"lon":16.569615,"is_passed":false},{"stop_id":"U1343Z2","name":"ARENA BRNO","arrival_time":"21:32:00","departure_time":"21:32:00","lat":49.191387,"lon":16.576425,"is_passed":false},{"stop_id":"U1769Z2","name":"Výstaviště - vstup G2","arrival_time":"21:33:00","departure_time":"21:33:00","lat":49.190207,"lon":16.580555,"is_passed":false},{"stop_id":"U1768Z2","name":"Výstaviště - hlavní vstup","arrival_time":"21:34:00","departure_time":"21:34:00","lat":49.189325,"lon":16.585699,"is_passed":false},{"stop_id":"U1378Z2","name":"Mendlovo náměstí","arrival_time":"21:36:00","departure_time":"21:36:00","lat":49.190034,"lon":16.593837,"is_passed":false},{"stop_id":"U1721Z2","name":"Václavská","arrival_time":"21:38:00","departure_time":"21:38:00","lat":49.188715,"lon":16.596878,"is_passed":false},{"stop_id":"U1176Z2","name":"Hybešova","arrival_time":"21:39:00","departure_time":"21:39:00","lat":49.189209,"lon":16.603364,"is_passed":false},{"stop_id":"U1436Z2","name":"Nové sady","arrival_time":"21:42:00","departure_time":"21:42:00","lat":49.190222,"lon":16.609403,"is_passed":false},{"stop_id":"U1146Z4","name":"Hlavní nádraží","arrival_time":"21:44:00","departure_time":"21:44:00","lat":49.19125,"lon":16.612674,"is_passed":false},{"stop_id":"U1716Z1","name":"Úzká","arrival_time":"21:45:00","departure_time":"21:45:00","lat":49.189807,"lon":16.614666,"is_passed":false},{"stop_id":"U1011Z1","name":"Autobusové nádraží","arrival_time":"21:47:00","departure_time":"21:47:00","lat":49.185873,"lon":16.61787,"is_passed":false},{"stop_id":"U1807Z1","name":"Železniční","arrival_time":"21:48:00","departure_time":"21:48:00","lat":49.18274,"lon":16.619609,"is_passed":false},{"stop_id":"U1266Z1","name":"Konopná","arrival_time":"21:49:00","departure_time":"21:49:00","lat":49.18026,"lon":16.621122,"is_passed":false},{"stop_id":"U1256Z1","name":"Komárov","arrival_time":"21:51:00","departure_time":"22:12:00","lat":49.175889,"lon":16.621291,"is_passed":false}],"42814":[{"stop_id":"U1256Z2","name":"Komárov","arrival_time":"22:12:00","departure_time":"22:12:00","lat":49.176162,"lon":16.621658,"is_passed":false},{"stop_id":"U1266Z2","name":"Konopná","arrival_time":"22:12:00","departure_time":"22:12:00","lat":49.180196,"lon":16.621238,"is_passed":false},{"stop_id":"U1807Z2","name":"Železniční","arrival_time":"22:13:00","departure_time":"22:13:00","lat":49.183322,"lon":16.619338,"is_passed":false},{"stop_id":"U1011Z2","name":"Autobusové nádraží","arrival_time":"22:14:00","departure_time":"22:14:00","lat":49.186417,"lon":16.617622,"is_passed":false},{"stop_id":"U1716Z2","name":"Úzká","arrival_time":"22:16:00","departure_time":"22:16:00","lat":49.190179,"lon":16.614625,"is_passed":false},{"stop_id":"U1146Z1","name":"Hlavní nádraží","arrival_time":"22:19:00","departure_time":"22:20:00","lat":49.191185,"lon":16.611879,"is_passed":false},{"stop_id":"U1436Z1","name":"Nové sady","arrival_time":"22:21:00","departure_time":"22:21:00","lat":49.190116,"lon":16.609025,"is_passed":false},{"stop_id":"U1176Z1","name":"Hybešova","arrival_time":"22:23:00","departure_time":"22:23:00","lat":49.189322,"lon":16.602863,"is_passed":false},{"stop_id":"U1721Z1","name":"Václavská","arrival_time":"22:24:00","departure_time":"22:24:00","lat":49.188681,"lon":16.597217,"is_passed":false},{"stop_id":"U1378Z1","name":"Mendlovo náměstí","arrival_time":"22:26:00","departure_time":"22:26:00","lat":49.189659,"lon":16.592283,"is_passed":false},{"stop_id":"U1768Z1","name":"Výstaviště - hlavní vstup","arrival_time":"22:28:00","departure_time":"22:28:00","lat":49.189583,"lon":16.584499,"is_passed":false},{"stop_id":"U1769Z1","name":"Výstaviště - vstup G2","arrival_time":"22:29:00","departure_time":"22:29:00","lat":49.190338,"lon":16.579837,"is_passed":false},{"stop_id":"U1343Z1","name":"ARENA BRNO","arrival_time":"22:30:00","departure_time":"22:30:00","lat":49.191523,"lon":16.576065,"is_passed":false},{"stop_id":"U1487Z3","name":"Pisárky","arrival_time":"22:32:00","departure_time":"22:32:00","lat":49.194099,"lon":16.569741,"is_passed":false},{"stop_id":"U1041Z1","name":"Bráfova","arrival_time":"22:34:00","departure_time":"22:34:00","lat":49.206955,"lon":16.570536,"is_passed":false},{"stop_id":"U1621Z1","name":"Stránského","arrival_time":"22:35:00","departure_time":"22:35:00","lat":49.211954,"lon":16.568673,"is_passed":false},{"stop_id":"U1217Z1","name":"Vozovna Komín","arrival_time":"22:37:00","departure_time":"22:37:00","lat":49.2132,"lon":16.559792,"is_passed":false},{"stop_id":"U1633Z1","name":"Svratecká","arrival_time":"22:38:00","departure_time":"22:38:00","lat":49.217898,"lon":16.553656,"is_passed":false},{"stop_id":"U1042Z1","name":"Branka","arrival_time":"22:39:00","departure_time":"22:39:00","lat":49.219419,"lon":16.54726,"is_passed":false},{"stop_id":"U1493Z1","name":"Podlesí","arrival_time":"22:40:00","departure_time":"22:40:00","lat":49.218711,"lon":16.542392,"is_passed":false},{"stop_id":"U1226Z1","name":"Kamenolom","arrival_time":"22:41:00","departure_time":"22:41:00","lat":49.221657,"lon":16.536794,"is_passed":false},{"stop_id":"U1796Z1","name":"Zoologická zahrada","arrival_time":"22:43:00","departure_time":"22:43:00","lat":49.227674,"lon":16.532002,"is_passed":false},{"stop_id":"U1527Z1","name":"Přístaviště","arrival_time":"22:44:00","departure_time":"22:44:00","lat":49.22814,"lon":16.521658,"is_passed":false},{"stop_id":"U1537Z1","name":"Rakovecká","arrival_time":"22:46:00","departure_time":"22:49:00","lat":49.225877,"lon":16.518739,"is_passed":false}],"42815":[{"stop_id":"U1527Z2","name":"Přístaviště","arrival_time":"23:18:00","departure_time":"23:18:00","lat":49.228519,"lon":16.522556,"is_passed":false},{"stop_id":"U1796Z2","name":"Zoologická zahrada","arrival_time":"23:20:00","departure_time":"23:20:00","lat":49.22774,"lon":16.531898,"is_passed":false},{"stop_id":"U1226Z2","name":"Kamenolom","arrival_time":"23:21:00","departure_time":"23:21:00","lat":49.221888,"lon":16.536713,"is_passed":false},{"stop_id":"U1493Z2","name":"Podlesí","arrival_time":"23:22:00","departure_time":"23:22:00","lat":49.21871,"lon":16.542217,"is_passed":false},{"stop_id":"U1042Z2","name":"Branka","arrival_time":"23:23:00","departure_time":"23:23:00","lat":49.219368,"lon":16.548224,"is_passed":false},{"stop_id":"U1633Z2","name":"Svratecká","arrival_time":"23:24:00","departure_time":"23:24:00","lat":49.21799,"lon":16.553492,"is_passed":false},{"stop_id":"U1217Z2","name":"Vozovna Komín","arrival_time":"23:26:00","departure_time":"23:26:00","lat":49.213224,"lon":16.559619,"is_passed":false},{"stop_id":"U1621Z2","name":"Stránského","arrival_time":"23:27:00","departure_time":"23:27:00","lat":49.211937,"lon":16.568408,"is_passed":false},{"stop_id":"U1041Z2","name":"Bráfova","arrival_time":"23:28:00","departure_time":"23:28:00","lat":49.207033,"lon":16.570558,"is_passed":false},{"stop_id":"U1487Z4","name":"Pisárky","arrival_time":"23:31:00","departure_time":"23:31:00","lat":49.194163,"lon":16.569615,"is_passed":false},{"stop_id":"U1343Z2","name":"ARENA BRNO","arrival_time":"23:32:00","departure_time":"23:32:00","lat":49.191387,"lon":16.576425,"is_passed":false},{"stop_id":"U1769Z2","name":"Výstaviště - vstup G2","arrival_time":"23:33:00","departure_time":"23:33:00","lat":49.190207,"lon":16.580555,"is_passed":false},{"stop_id":"U1768Z2","name":"Výstaviště - hlavní vstup","arrival_time":"23:34:00","departure_time":"23:34:00","lat":49.189325,"lon":16.585699,"is_passed":false},{"stop_id":"U1378Z2","name":"Mendlovo náměstí","arrival_time":"23:36:00","departure_time":"23:36:00","lat":49.190034,"lon":16.593837,"is_passed":false},{"stop_id":"U1721Z2","name":"Václavská","arrival_time":"23:38:00","departure_time":"23:38:00","lat":49.188715,"lon":16.596878,"is_passed":false},{"stop_id":"U1176Z2","name":"Hybešova","arrival_time":"23:39:00","departure_time":"23:39:00","lat":49.189209,"lon":16.603364,"is_passed":false},{"stop_id":"U1436Z2","name":"Nové sady","arrival_time":"23:42:00","departure_time":"23:42:00","lat":49.190222,"lon":16.609403,"is_passed":false},{"stop_id":"U1146Z26","name":"Hlavní nádraží","arrival_time":"23:43:00","departure_time":"23:44:00","lat":49.191543,"lon":16.610815,"is_passed":false}],"42816":[{"stop_id":"U1537Z2","name":"Rakovecká","arrival_time":"6:53:00","departure_time":"6:53:00","lat":49.226177,"lon":16.519315,"is_passed":false},{"stop_id":"U1527Z2","name":"Přístaviště","arrival_time":"6:54:00","departure_time":"6:54:00","lat":49.228519,"lon":16.522556,"is_passed":false},{"stop_id":"U1796Z2","name":"Zoologická zahrada","arrival_time":"6:56:00","departure_time":"6:56:00","lat":49.22774,"lon":16.531898,"is_passed":false},{"stop_id":"U1226Z2","name":"Kamenolom","arrival_time":"6:57:00","departure_time":"6:57:00","lat":49.221888,"lon":16.536713,"is_passed":false},{"stop_id":"U1493Z2","name":"Podlesí","arrival_time":"6:58:00","departure_time":"6:58:00","lat":49.21871,"lon":16.542217,"is_passed":false},{"stop_id":"U1042Z2","name":"Branka","arrival_time":"6:59:00","departure_time":"6:59:00","lat":49.219368,"lon":16.548224,"is_passed":false},{"stop_id":"U1633Z2","name":"Svratecká","arrival_time":"7:00:00","departure_time":"7:00:00","lat":49.21799,"lon":16.553492,"is_passed":false},{"stop_id":"U1217Z2","name":"Vozovna Komín","arrival_time":"7:02:00","departure_time":"7:02:00","lat":49.213224,"lon":16.559619,"is_passed":false},{"stop_id":"U1621Z2","name":"Stránského","arrival_time":"7:03:00","departure_time":"7:03:00","lat":49.211937,"lon":16.568408,"is_passed":false},{"stop_id":"U1041Z2","name":"Bráfova","arrival_time":"7:04:00","departure_time":"7:04:00","lat":49.207033,"lon":16.570558,"is_passed":false},{"stop_id":"U1487Z4","name":"Pisárky","arrival_time":"7:07:00","departure_time":"7:07:00","lat":49.194163,"lon":16.569615,"is_passed":false},{"stop_id":"U1343Z2","name":"ARENA BRNO","arrival_time":"7:08:00","departure_time":"7:08:00","lat":49.191387,"lon":16.576425,"is_passed":false},{"stop_id":"U1769Z2","name":"Výstaviště - vstup G2","arrival_time":"7:09:00","departure_time":"7:09:00","lat":49.190207,"lon":16.580555,"is_passed":false},{"stop_id":"U1768Z2","name":"Výstaviště - hlavní vstup","arrival_time":"7:10:00","departure_time":"7:10:00","lat":49.189325,"lon":16.585699,"is_passed":false},{"stop_id":"U1378Z2","name":"Mendlovo náměstí","arrival_time":"7:12:00","departure_time":"7:12:00","lat":49.190034,"lon":16.593837,"is_passed":false},{"stop_id":"U1721Z2","name":"Václavská","arrival_time":"7:14:00","departure_time":"7:14:00","lat":49.188715,"lon":16.596878,"is_passed":false},{"stop_id":"U1176Z2","name":"Hybešova","arrival_time":"7:15:00","departure_time":"7:15:00","lat":49.189209,"lon":16.603364,"is_passed":false},{"stop_id":"U1436Z2","name":"Nové sady","arrival_time":"7:18:00","departure_time":"7:18:00","lat":49.190222,"lon":16.609403,"is_passed":false},{"stop_id":"U1146Z2","name":"Hlavní nádraží","arrival_time":"7:20:00","departure_time":"7:22:00","lat":49.191394,"lon":16.612548,"is_passed":false},{"stop_id":"U1357Z3","name":"Malinovského náměstí","arrival_time":"7:24:00","departure_time":"7:24:00","lat":49.196131,"lon":16.612953,"is_passed":false},{"stop_id":"U1397Z1","name":"Moravské náměstí","arrival_time":"7:26:00","departure_time":"7:26:00","lat":49.19996,"lon":16.607931,"is_passed":false},{"stop_id":"U1006Z1","name":"Antonínská","arrival_time":"7:27:00","departure_time":"7:27:00","lat":49.203685,"lon":16.606678,"is_passed":false},{"stop_id":"U1483Z1","name":"Pionýrská","arrival_time":"7:28:00","departure_time":"7:28:00","lat":49.207491,"lon":16.604472,"is_passed":false},{"stop_id":"U1166Z1","name":"Hrnčířská","arrival_time":"7:29:00","departure_time":"7:29:00","lat":49.210254,"lon":16.602868,"is_passed":false},{"stop_id":"U1652Z1","name":"Šumavská","arrival_time":"7:30:00","departure_time":"7:30:00","lat":49.213991,"lon":16.600669,"is_passed":false},{"stop_id":"U1233Z1","name":"Kartouzská","arrival_time":"7:31:00","departure_time":"7:31:00","lat":49.216998,"lon":16.598896,"is_passed":false},{"stop_id":"U1218Z1","name":"Jungmannova","arrival_time":"7:32:00","departure_time":"7:32:00","lat":49.220856,"lon":16.596583,"is_passed":false},{"stop_id":"U1171Z1","name":"Husitská","arrival_time":"7:33:00","departure_time":"7:33:00","lat":49.223125,"lon":16.59524,"is_passed":false},{"stop_id":"U1566Z1","name":"Semilasso","arrival_time":"7:35:00","departure_time":"7:35:00","lat":49.227417,"lon":16.592683,"is_passed":false},{"stop_id":"U1683Z1","name":"Tylova","arrival_time":"7:36:00","departure_time":"7:36:00","lat":49.23243,"lon":16.589321,"is_passed":false},{"stop_id":"U1167Z1","name":"Hudcova","arrival_time":"7:37:00","departure_time":"7:37:00","lat":49.235202,"lon":16.587471,"is_passed":false},{"stop_id":"U1272Z1","name":"Kořískova","arrival_time":"7:39:00","departure_time":"7:39:00","lat":49.240579,"lon":16.58388,"is_passed":false},{"stop_id":"U1108Z1","name":"Filkukova","arrival_time":"7:40:00","departure_time":"7:40:00","lat":49.244244,"lon":16.58143,"is_passed":false},{"stop_id":"U1553Z1","name":"Řečkovice","arrival_time":"7:42:00","departure_time":"7:53:00","lat":49.247295,"lon":16.578803,"is_passed":false}],"42817":[{"stop_id":"U1553Z2","name":"Řečkovice","arrival_time":"7:53:00","departure_time":"7:53:00","lat":49.246978,"lon":16.5794,"is_passed":false},