[{"stop_id":"U1132Z3","name":"Haškova","arrival_time":"12:48:00","departure_time":"12:48:00","lat":49.233588,"lon":16.623836,"is_passed":false},{"stop_id":"U1043Z2","name":"Brechtova","arrival_time":"12:49:00","departure_time":"12:49:00","lat":49.233462,"lon":16.629437,"is_passed":false},{"stop_id":"U1028Z2","name":"Blažkova","arrival_time":"12:50:00","departure_time":"12:50:00","lat":49.229597,"lon":16.631063,"is_passed":false},{"stop_id":"U1008Z2","name":"Arbesova","arrival_time":"12:51:00","departure_time":"12:51:00","lat":49.225668,"lon":16.630461,"is_passed":false},{"stop_id":"U1138Z2","name":"Heleny Malířové","arrival_time":"12:52:00","departure_time":"12:52:00","lat":49.223075,"lon":16.629159,"is_passed":false},{"stop_id":"U1331Z2","name":"Lesná, nádraží","arrival_time":"12:53:00","departure_time":"12:53:00","lat":49.220094,"lon":16.62942,"is_passed":false},{"stop_id":"U1646Z4","name":"Štefánikova čtvrť","arrival_time":"12:54:00","departure_time":"12:54:00","lat":49.217288,"lon":16.627693,"is_passed":false},{"stop_id":"U1522Z1","name":"Provazníkova","arrival_time":"12:55:00","departure_time":"12:55:00","lat":49.214516,"lon":16.623874,"is_passed":false},{"stop_id":"U1336Z4","name":"Lesnická","arrival_time":"12:57:00","departure_time":"12:57:00","lat":49.212882,"lon":16.617847,"is_passed":false},{"stop_id":"U1786Z2","name":"Zemědělská","arrival_time":"12:58:00","departure_time":"12:58:00","lat":49.210627,"lon":16.618463,"is_passed":false},{"stop_id":"U1100Z1","name":"Erbenova","arrival_time":"12:59:00","departure_time":"13:00:00","lat":49.209592,"lon":16.615921,"is_passed":false}]