[{"stop_id":"U1331Z1","name":"Lesná, nádraží","arrival_time":"17:17:00","departure_time":"17:17:00","lat":49.220041,"lon":16.629534,"is_passed":false},{"stop_id":"U1506Z1","name":"Poliklinika Lesná","arrival_time":"17:18:00","departure_time":"17:18:00","lat":49.222513,"lon":16.625643,"is_passed":false},{"stop_id":"U1128Z3","name":"Halasovo náměstí","arrival_time":"17:19:00","departure_time":"17:19:00","lat":49.223406,"lon":16.622237,"is_passed":false},{"stop_id":"U1582Z1","name":"Slavíčkova","arrival_time":"17:20:00","departure_time":"17:20:00","lat":49.226088,"lon":16.617914,"is_passed":false},{"stop_id":"U1111Z1","name":"Fillova","arrival_time":"17:21:00","departure_time":"17:21:00","lat":49.229105,"lon":16.616814,"is_passed":false},{"stop_id":"U1348Z1","name":"Loosova","arrival_time":"17:22:00","departure_time":"17:22:00","lat":49.232374,"lon":16.619952,"is_passed":false},{"stop_id":"U1132Z2","name":"Haškova","arrival_time":"17:23:00","departure_time":"17:50:00","lat":49.233801,"lon":16.624796,"is_passed":false}]