{"431":[{"stop_id":"U12736Z51","name":"Letovice, železniční stanice","arrival_time":"5:22:00","departure_time":"5:22:00","lat":49.555973,"lon":16.570906,"is_passed":false},{"stop_id":"U22702Z2","name":"Letovice zastávka","arrival_time":"5:24:00","departure_time":"5:25:00","lat":49.536152,"lon":16.576186,"is_passed":false},{"stop_id":"U22701Z2","name":"Zboněk","arrival_time":"5:27:00","departure_time":"5:27:00","lat":49.520482,"lon":16.584439,"is_passed":false},{"stop_id":"U22602Z2","name":"Svitávka","arrival_time":"5:30:00","departure_time":"5:30:00","lat":49.499434,"lon":16.599208,"is_passed":false},{"stop_id":"U12676Z51","name":"Skalice nad Svitavou, žel.st.","arrival_time":"5:33:00","departure_time":"5:42:00","lat":49.480123,"lon":16.609726,"is_passed":false},{"stop_id":"U12511Z51","name":"Doubravice, žel.st.","arrival_time":"5:47:00","departure_time":"5:47:00","lat":49.438707,"lon":16.621809,"is_passed":false},{"stop_id":"U12439Z51","name":"Rájec-Jestřebí, železniční stanice","arrival_time":"5:50:00","departure_time":"5:51:00","lat":49.408206,"lon":16.627711,"is_passed":false},{"stop_id":"U22301Z2","name":"Dolní Lhota","arrival_time":"5:54:00","departure_time":"5:54:00","lat":49.386917,"lon":16.633978,"is_passed":false},{"stop_id":"U22302Z2","name":"Blansko město","arrival_time":"5:57:00","departure_time":"5:58:00","lat":49.360996,"lon":16.639464,"is_passed":false},{"stop_id":"U12342Z29","name":"Blansko, aut. st.","arrival_time":"5:59:00","departure_time":"6:01:00","lat":49.352753,"lon":16.646848,"is_passed":false},{"stop_id":"U12231Z11","name":"Adamov, železniční zastávka","arrival_time":"6:06:00","departure_time":"6:07:00","lat":49.300671,"lon":16.650653,"is_passed":false},{"stop_id":"U12230Z11","name":"Adamov, železniční stanice","arrival_time":"6:08:00","departure_time":"6:09:00","lat":49.295341,"lon":16.663538,"is_passed":false},{"stop_id":"U22101Z2","name":"Babice nad Svitavou","arrival_time":"6:12:00","departure_time":"6:12:00","lat":49.276645,"lon":16.673012,"is_passed":false},{"stop_id":"U12158Z11","name":"Bílovice nad Svitavou, žel. stanice","arrival_time":"6:16:00","departure_time":"6:17:00","lat":49.242715,"lon":16.673677,"is_passed":false},{"stop_id":"U1809Z11","name":"Židenice, nádraží","arrival_time":"6:22:00","departure_time":"6:22:00","lat":49.204282,"lon":16.636042,"is_passed":false},{"stop_id":"U1146Z98","name":"Hlavní nádraží","arrival_time":"6:27:00","departure_time":"6:35:00","lat":49.19035,"lon":16.612342,"is_passed":false},{"stop_id":"U1183Z11","name":"Chrlice, nádraží","arrival_time":"6:43:00","departure_time":"6:47:00","lat":49.132031,"lon":16.657232,"is_passed":false},{"stop_id":"U16149Z11","name":"Sokolnice, železniční stanice","arrival_time":"6:53:00","departure_time":"7:40:00","lat":49.108029,"lon":16.733459,"is_passed":false}],"4310":[{"stop_id":"U14109Z2","name":"Troubsko, obecní úřad","arrival_time":"5:59:00","departure_time":"5:59:00","lat":49.171349,"lon":16.506327,"is_passed":false},{"stop_id":"U14106Z2","name":"Troubsko, kaplička","arrival_time":"6:00:00","departure_time":"6:00:00","lat":49.168923,"lon":16.511588,"is_passed":false},{"stop_id":"U14126Z2","name":"Troubsko, Nová","arrival_time":"6:01:00","departure_time":"6:01:00","lat":49.166465,"lon":16.519273,"is_passed":false},{"stop_id":"U14110Z2","name":"Troubsko, U dráhy","arrival_time":"6:02:00","departure_time":"6:02:00","lat":49.163317,"lon":16.526862,"is_passed":false},{"stop_id":"U14105Z2","name":"Ostopovice, smyčka","arrival_time":"6:05:00","departure_time":"6:05:00","lat":49.164301,"lon":16.540971,"is_passed":false},{"stop_id":"U14104Z2","name":"Ostopovice, rozcestí","arrival_time":"6:05:00","departure_time":"6:05:00","lat":49.163133,"lon":16.542749,"is_passed":false},{"stop_id":"U14103Z2","name":"Ostopovice, U Kaple","arrival_time":"6:06:00","departure_time":"6:06:00","lat":49.161088,"lon":16.545566,"is_passed":false},{"stop_id":"U14101Z2","name":"Ostopovice, Branky","arrival_time":"6:07:00","departure_time":"6:07:00","lat":49.159942,"lon":16.548414,"is_passed":false},{"stop_id":"U1488Z2","name":"Pod dálnicí","arrival_time":"6:08:00","departure_time":"6:08:00","lat":49.163539,"lon":16.55541,"is_passed":false},{"stop_id":"U1666Z2","name":"Točná","arrival_time":"6:09:00","departure_time":"6:09:00","lat":49.164745,"lon":16.561481,"is_passed":false},{"stop_id":"U1061Z2","name":"Čermákova","arrival_time":"6:10:00","departure_time":"6:10:00","lat":49.164349,"lon":16.564689,"is_passed":false},{"stop_id":"U1627Z2","name":"Svah","arrival_time":"6:10:00","departure_time":"6:10:00","lat":49.164924,"lon":16.567717,"is_passed":false},{"stop_id":"U1273Z1","name":"Kosmonautů","arrival_time":"6:11:00","departure_time":"6:11:00","lat":49.167006,"lon":16.568017,"is_passed":false},{"stop_id":"U1472Z7","name":"Osová","arrival_time":"6:12:00","departure_time":"6:12:00","lat":49.168951,"lon":16.566714,"is_passed":false},{"stop_id":"U7050Z1","name":"ZŠ Vedlejší","arrival_time":"6:12:00","departure_time":"6:12:00","lat":49.171054,"lon":16.569191,"is_passed":false},{"stop_id":"U1748Z2","name":"Vltavská","arrival_time":"6:13:00","departure_time":"6:13:00","lat":49.172487,"lon":16.564821,"is_passed":false},{"stop_id":"U1322Z1","name":"Labská","arrival_time":"6:16:00","departure_time":"6:22:00","lat":49.17151,"lon":16.559604,"is_passed":false}],"4311":[{"stop_id":"U1322Z3","name":"Labská","arrival_time":"6:22:00","departure_time":"6:22:00","lat":49.171353,"lon":16.559418,"is_passed":false},{"stop_id":"U1748Z1","name":"Vltavská","arrival_time":"6:23:00","departure_time":"6:23:00","lat":49.172655,"lon":16.563983,"is_passed":false},{"stop_id":"U1492Z4","name":"Pod nemocnicí","arrival_time":"6:24:00","departure_time":"6:24:00","lat":49.171965,"lon":16.56858,"is_passed":false},{"stop_id":"U1472Z8","name":"Osová","arrival_time":"6:27:00","departure_time":"6:27:00","lat":49.168617,"lon":16.566306,"is_passed":false},{"stop_id":"U1273Z2","name":"Kosmonautů","arrival_time":"6:27:00","departure_time":"6:27:00","lat":49.167124,"lon":16.56745,"is_passed":false},{"stop_id":"U1627Z1","name":"Svah","arrival_time":"6:28:00","departure_time":"6:28:00","lat":49.165199,"lon":16.567969,"is_passed":false},{"stop_id":"U1061Z1","name":"Čermákova","arrival_time":"6:28:00","departure_time":"6:28:00","lat":49.164336,"lon":16.565516,"is_passed":false},{"stop_id":"U1666Z1","name":"Točná","arrival_time":"6:29:00","departure_time":"6:29:00","lat":49.16476,"lon":16.561692,"is_passed":false},{"stop_id":"U1488Z1","name":"Pod dálnicí","arrival_time":"6:30:00","departure_time":"6:30:00","lat":49.163512,"lon":16.555152,"is_passed":false},{"stop_id":"U14101Z1","name":"Ostopovice, Branky","arrival_time":"6:31:00","departure_time":"6:31:00","lat":49.159937,"lon":16.548801,"is_passed":false},{"stop_id":"U14103Z1","name":"Ostopovice, U Kaple","arrival_time":"6:32:00","departure_time":"6:32:00","lat":49.161083,"lon":16.545743,"is_passed":false},{"stop_id":"U14104Z1","name":"Ostopovice, rozcestí","arrival_time":"6:32:00","departure_time":"6:32:00","lat":49.163046,"lon":16.542924,"is_passed":false},{"stop_id":"U14105Z3","name":"Ostopovice, smyčka","arrival_time":"6:33:00","departure_time":"6:33:00","lat":49.164457,"lon":16.540725,"is_passed":false},{"stop_id":"U14102Z1","name":"Ostopovice, Lipová","arrival_time":"6:34:00","departure_time":"6:34:00","lat":49.163052,"lon":16.536032,"is_passed":false},{"stop_id":"U14110Z1","name":"Troubsko, U dráhy","arrival_time":"6:35:00","departure_time":"6:35:00","lat":49.163195,"lon":16.527182,"is_passed":false},{"stop_id":"U14126Z1","name":"Troubsko, Nová","arrival_time":"6:37:00","departure_time":"6:37:00","lat":49.166982,"lon":16.518167,"is_passed":false},{"stop_id":"U14106Z1","name":"Troubsko, kaplička","arrival_time":"6:38:00","departure_time":"6:38:00","lat":49.169013,"lon":16.511465,"is_passed":false},{"stop_id":"U14109Z1","name":"Troubsko, obecní úřad","arrival_time":"6:39:00","departure_time":"6:59:00","lat":49.171013,"lon":16.506845,"is_passed":false}],"4312":[{"stop_id":"U14109Z2","name":"Troubsko, obecní úřad","arrival_time":"6:59:00","departure_time":"6:59:00","lat":49.171349,"lon":16.506327,"is_passed":false},{"stop_id":"U14106Z2","name":"Troubsko, kaplička","arrival_time":"7:00:00","departure_time":"7:00:00","lat":49.168923,"lon":16.511588,"is_passed":false},{"stop_id":"U14126Z2","name":"Troubsko, Nová","arrival_time":"7:01:00","departure_time":"7:01:00","lat":49.166465,"lon":16.519273,"is_passed":false},{"stop_id":"U14110Z2","name":"Troubsko, U dráhy","arrival_time":"7:02:00","departure_time":"7:02:00","lat":49.163317,"lon":16.526862,"is_passed":false},{"stop_id":"U14105Z2","name":"Ostopovice, smyčka","arrival_time":"7:05:00","departure_time":"7:05:00","lat":49.164301,"lon":16.540971,"is_passed":false},{"stop_id":"U14104Z2","name":"Ostopovice, rozcestí","arrival_time":"7:05:00","departure_time":"7:05:00","lat":49.163133,"lon":16.542749,"is_passed":false},{"stop_id":"U14103Z2","name":"Ostopovice, U Kaple","arrival_time":"7:06:00","departure_time":"7:06:00","lat":49.161088,"lon":16.545566,"is_passed":false},{"stop_id":"U14101Z2","name":"Ostopovice, Branky","arrival_time":"7:07:00","departure_time":"7:07:00","lat":49.159942,"lon":16.548414,"is_passed":false},{"stop_id":"U1488Z2","name":"Pod dálnicí","arrival_time":"7:08:00","departure_time":"7:08:00","lat":49.163539,"lon":16.55541,"is_passed":false},{"stop_id":"U1666Z2","name":"Točná","arrival_time":"7:09:00","departure_time":"7:09:00","lat":49.164745,"lon":16.561481,"is_passed":false},{"stop_id":"U1061Z2","name":"Čermákova","arrival_time":"7:10:00","departure_time":"7:10:00","lat":49.164349,"lon":16.564689,"is_passed":false},{"stop_id":"U1627Z2","name":"Svah","arrival_time":"7:10:00","departure_time":"7:10:00","lat":49.164924,"lon":16.567717,"is_passed":false},{"stop_id":"U1273Z1","name":"Kosmonautů","arrival_time":"7:11:00","departure_time":"7:11:00","lat":49.167006,"lon":16.568017,"is_passed":false},{"stop_id":"U1472Z7","name":"Osová","arrival_time":"7:12:00","departure_time":"7:12:00","lat":49.168951,"lon":16.566714,"is_passed":false},{"stop_id":"U7050Z1","name":"ZŠ Vedlejší","arrival_time":"7:12:00","departure_time":"7:12:00","lat":49.171054,"lon":16.569191,"is_passed":false},{"stop_id":"U1748Z2","name":"Vltavská","arrival_time":"7:13:00","departure_time":"7:13:00","lat":49.172487,"lon":16.564821,"is_passed":false},{"stop_id":"U1322Z1","name":"Labská","arrival_time":"7:16:00","departure_time":"7:22:00","lat":49.17151,"lon":16.559604,"is_passed":false}],"4313":[{"stop_id":"U1322Z3","name":"Labská","arrival_time":"7:22:00","departure_time":"7:22:00","lat":49.171353,"lon":16.559418,"is_passed":false},{"stop_id":"U1748Z1","name":"Vltavská","arrival_time":"7:23:00","departure_time":"7:23:00","lat":49.172655,"lon":16.563983,"is_passed":false},{"stop_id":"U1492Z4","name":"Pod nemocnicí","arrival_time":"7:24:00","departure_time":"7:24:00","lat":49.171965,"lon":16.56858,"is_passed":false},{"stop_id":"U1472Z8","name":"Osová","arrival_time":"7:27:00","departure_time":"7:27:00","lat":49.168617,"lon":16.566306,"is_passed":false},{"stop_id":"U1273Z2","name":"Kosmonautů","arrival_time":"7:27:00","departure_time":"7:27:00","lat":49.167124,"lon":16.56745,"is_passed":false},{"stop_id":"U1627Z1","name":"Svah","arrival_time":"7:28:00","departure_time":"7:28:00","lat":49.165199,"lon":16.567969,"is_passed":false},{"stop_id":"U1061Z1","name":"Čermákova","arrival_time":"7:28:00","departure_time":"7:28:00","lat":49.164336,"lon":16.565516,"is_passed":false},{"stop_id":"U1666Z1","name":"Točná","arrival_time":"7:29:00","departure_time":"7:29:00","lat":49.16476,"lon":16.561692,"is_passed":false},{"stop_id":"U1488Z1","name":"Pod dálnicí","arrival_time":"7:30:00","departure_time":"7:30:00","lat":49.163512,"lon":16.555152,"is_passed":false},{"stop_id":"U14101Z1","name":"Ostopovice, Branky","arrival_time":"7:31:00","departure_time":"7:31:00","lat":49.159937,"lon":16.548801,"is_passed":false},{"stop_id":"U14103Z1","name":"Ostopovice, U Kaple","arrival_time":"7:32:00","departure_time":"7:32:00","lat":49.161083,"lon":16.545743,"is_passed":false},{"stop_id":"U14104Z1","name":"Ostopovice, rozcestí","arrival_time":"7:32:00","departure_time":"7:32:00","lat":49.163046,"lon":16.542924,"is_passed":false},{"stop_id":"U14105Z3","name":"Ostopovice, smyčka","arrival_time":"7:33:00","departure_time":"7:33:00","lat":49.164457,"lon":16.540725,"is_passed":false},{"stop_id":"U14102Z1","name":"Ostopovice, Lipová","arrival_time":"7:34:00","departure_time":"7:34:00","lat":49.163052,"lon":16.536032,"is_passed":false},{"stop_id":"U14110Z1","name":"Troubsko, U dráhy","arrival_time":"7:35:00","departure_time":"7:35:00","lat":49.163195,"lon":16.527182,"is_passed":false},{"stop_id":"U14126Z1","name":"Troubsko, Nová","arrival_time":"7:37:00","departure_time":"7:37:00","lat":49.166982,"lon":16.518167,"is_passed":false},{"stop_id":"U14106Z1","name":"Troubsko, kaplička","arrival_time":"7:38:00","departure_time":"7:38:00","lat":49.169013,"lon":16.511465,"is_passed":false},{"stop_id":"U14109Z1","name":"Troubsko, obecní úřad","arrival_time":"7:39:00","departure_time":"7:59:00","lat":49.171013,"lon":16.506845,"is_passed":false}],"4314":[{"stop_id":"U14109Z2","name":"Troubsko, obecní úřad","arrival_time":"7:59:00","departure_time":"7:59:00","lat":49.171349,"lon":16.506327,"is_passed":false},{"stop_id":"U14106Z2","name":"Troubsko, kaplička","arrival_time":"8:00:00","departure_time":"8:00:00","lat":49.168923,"lon":16.511588,"is_passed":false},{"stop_id":"U14126Z2","name":"Troubsko, Nová","arrival_time":"8:01:00","departure_time":"8:01:00","lat":49.166465,"lon":16.519273,"is_passed":false},{"stop_id":"U14110Z2","name":"Troubsko, U dráhy","arrival_time":"8:02:00","departure_time":"8:02:00","lat":49.163317,"lon":16.526862,"is_passed":false},{"stop_id":"U14105Z2","name":"Ostopovice, smyčka","arrival_time":"8:05:00","departure_time":"8:05:00","lat":49.164301,"lon":16.540971,"is_passed":false},{"stop_id":"U14104Z2","name":"Ostopovice, rozcestí","arrival_time":"8:05:00","departure_time":"8:05:00","lat":49.163133,"lon":16.542749,"is_passed":false},{"stop_id":"U14103Z2","name":"Ostopovice, U Kaple","arrival_time":"8:06:00","departure_time":"8:06:00","lat":49.161088,"lon":16.545566,"is_passed":false},{"stop_id":"U14101Z2","name":"Ostopovice, Branky","arrival_time":"8:07:00","departure_time":"8:07:00","lat":49.159942,"lon":16.548414,"is_passed":false},{"stop_id":"U1488Z2","name":"Pod dálnicí","arrival_time":"8:08:00","departure_time":"8:08:00","lat":49.163539,"lon":16.55541,"is_passed":false},{"stop_id":"U1666Z2","name":"Točná","arrival_time":"8:09:00","departure_time":"8:09:00","lat":49.164745,"lon":16.561481,"is_passed":false},{"stop_id":"U1061Z2","name":"Čermákova","arrival_time":"8:10:00","departure_time":"8:10:00","lat":49.164349,"lon":16.564689,"is_passed":false},{"stop_id":"U1627Z2","name":"Svah","arrival_time":"8:10:00","departure_time":"8:10:00","lat":49.164924,"lon":16.567717,"is_passed":false},{"stop_id":"U1273Z1","name":"Kosmonautů","arrival_time":"8:11:00","departure_time":"8:11:00","lat":49.167006,"lon":16.568017,"is_passed":false},{"stop_id":"U1472Z7","name":"Osová","arrival_time":"8:12:00","departure_time":"8:12:00","lat":49.168951,"lon":16.566714,"is_passed":false},{"stop_id":"U7050Z1","name":"ZŠ Vedlejší","arrival_time":"8:12:00","departure_time":"8:12:00","lat":49.171054,"lon":16.569191,"is_passed":false},{"stop_id":"U1748Z2","name":"Vltavská","arrival_time":"8:13:00","departure_time":"8:13:00","lat":49.172487,"lon":16.564821,"is_passed":false},{"stop_id":"U1322Z1","name":"Labská","arrival_time":"8:16:00","departure_time":"13:42:00","lat":49.17151,"lon":16.559604,"is_passed":false}],"4315":[{"stop_id":"U1322Z3","name":"Labská","arrival_time":"13:42:00","departure_time":"13:42:00","lat":49.171353,"lon":16.559418,"is_passed":false},{"stop_id":"U1748Z1","name":"Vltavská","arrival_time":"13:43:00","departure_time":"13:43:00","lat":49.172655,"lon":16.563983,"is_passed":false},{"stop_id":"U1492Z4","name":"Pod nemocnicí","arrival_time":"13:44:00","departure_time":"13:44:00","lat":49.171965,"lon":16.56858,"is_passed":false},{"stop_id":"U1472Z8","name":"Osová","arrival_time":"13:47:00","departure_time":"13:47:00","lat":49.168617,"lon":16.566306,"is_passed":false},{"stop_id":"U1273Z2","name":"Kosmonautů","arrival_time":"13:47:00","departure_time":"13:47:00","lat":49.167124,"lon":16.56745,"is_passed":false},{"stop_id":"U1627Z1","name":"Svah","arrival_time":"13:48:00","departure_time":"13:48:00","lat":49.165199,"lon":16.567969,"is_passed":false},{"stop_id":"U1061Z1","name":"Čermákova","arrival_time":"13:48:00","departure_time":"13:48:00","lat":49.164336,"lon":16.565516,"is_passed":false},{"stop_id":"U1666Z1","name":"Točná","arrival_time":"13:49:00","departure_time":"13:49:00","lat":49.16476,"lon":16.561692,"is_passed":false},{"stop_id":"U1488Z1","name":"Pod dálnicí","arrival_time":"13:50:00","departure_time":"13:50:00","lat":49.163512,"lon":16.555152,"is_passed":false},{"stop_id":"U14101Z1","name":"Ostopovice, Branky","arrival_time":"13:51:00","departure_time":"13:51:00","lat":49.159937,"lon":16.548801,"is_passed":false},{"stop_id":"U14103Z1","name":"Ostopovice, U Kaple","arrival_time":"13:52:00","departure_time":"13:52:00","lat":49.161083,"lon":16.545743,"is_passed":false},{"stop_id":"U14104Z1","name":"Ostopovice, rozcestí","arrival_time":"13:52:00","departure_time":"13:52:00","lat":49.163046,"lon":16.542924,"is_passed":false},{"stop_id":"U14105Z3","name":"Ostopovice, smyčka","arrival_time":"13:53:00","departure_time":"13:53:00","lat":49.164457,"lon":16.540725,"is_passed":false},{"stop_id":"U14102Z1","name":"Ostopovice, Lipová","arrival_time":"13:54:00","departure_time":"13:54:00","lat":49.163052,"lon":16.536032,"is_passed":false},{"stop_id":"U14110Z1","name":"Troubsko, U dráhy","arrival_time":"13:55:00","departure_time":"13:55:00","lat":49.163195,"lon":16.527182,"is_passed":false},{"stop_id":"U14126Z1","name":"Troubsko, Nová","arrival_time":"13:57:00","departure_time":"13:57:00","lat":49.166982,"lon":16.518167,"is_passed":false},{"stop_id":"U14106Z1","name":"Troubsko, kaplička","arrival_time":"13:58:00","departure_time":"13:58:00","lat":49.169013,"lon":16.511465,"is_passed":false},{"stop_id":"U14109Z1","name":"Troubsko, obecní úřad","arrival_time":"13:59:00","departure_time":"14:19:00","lat":49.171013,"lon":16.506845,"is_passed":false}],"4316":[{"stop_id":"U14109Z2","name":"Troubsko, obecní úřad","arrival_time":"14:19:00","departure_time":"14:19:00","lat":49.171349,"lon":16.506327,"is_passed":false},{"stop_id":"U14106Z2","name":"Troubsko, kaplička","arrival_time":"14:20:00","departure_time":"14:20:00","lat":49.168923,"lon":16.511588,"is_passed":false},{"stop_id":"U14126Z2","name":"Troubsko, Nová","arrival_time":"14:21:00","departure_time":"14:21:00","lat":49.166465,"lon":16.519273,"is_passed":false},{"stop_id":"U14110Z2","name":"Troubsko, U dráhy","arrival_time":"14:22:00","departure_time":"14:22:00","lat":49.163317,"lon":16.526862,"is_passed":false},{"stop_id":"U14105Z2","name":"Ostopovice, smyčka","arrival_time":"14:25:00","departure_time":"14:25:00","lat":49.164301,"lon":16.540971,"is_passed":false},{"stop_id":"U14104Z2","name":"Ostopovice, rozcestí","arrival_time":"14:25:00","departure_time":"14:25:00","lat":49.163133,"lon":16.542749,"is_passed":false},{"stop_id":"U14103Z2","name":"Ostopovice, U Kaple","arrival_time":"14:26:00","departure_time":"14:26:00","lat":49.161088,"lon":16.545566,"is_passed":false},{"stop_id":"U14101Z2","name":"Ostopovice, Branky","arrival_time":"14:27:00","departure_time":"14:27:00","lat":49.159942,"lon":16.548414,"is_passed":false},{"stop_id":"U1488Z2","name":"Pod dálnicí","arrival_time":"14:28:00","departure_time":"14:28:00","lat":49.163539,"lon":16.55541,"is_passed":false},{"stop_id":"U1666Z2","name":"Točná","arrival_time":"14:29:00","departure_time":"14:29:00","lat":49.164745,"lon":16.561481,"is_passed":false},{"stop_id":"U1061Z2","name":"Čermákova","arrival_time":"14:30:00","departure_time":"14:30:00","lat":49.164349,"lon":16.564689,"is_passed":false},{"stop_id":"U1627Z2","name":"Svah","arrival_time":"14:30:00","departure_time":"14:30:00","lat":49.164924,"lon":16.567717,"is_passed":false},{"stop_id":"U1273Z1","name":"Kosmonautů","arrival_time":"14:31:00","departure_time":"14:31:00","lat":49.167006,"lon":16.568017,"is_passed":false},{"stop_id":"U1472Z7","name":"Osová","arrival_time":"14:32:00","departure_time":"14:32:00","lat":49.168951,"lon":16.566714,"is_passed":false},{"stop_id":"U7050Z1","name":"ZŠ Vedlejší","arrival_time":"14:32:00","departure_time":"14:32:00","lat":49.171054,"lon":16.569191,"is_passed":false},{"stop_id":"U1748Z2","name":"Vltavská","arrival_time":"14:33:00","departure_time":"14:33:00","lat":49.172487,"lon":16.564821,"is_passed":false},{"stop_id":"U1322Z1","name":"Labská","arrival_time":"14:36:00","departure_time":"14:42:00","lat":49.17151,"lon":16.559604,"is_passed":false}],"4317":[{"stop_id":"U1322Z3","name":"Labská","arrival_time":"14:42:00","departure_time":"14:42:00","lat":49.171353,"lon":16.559418,"is_passed":false},{"stop_id":"U1748Z1","name":"Vltavská","arrival_time":"14:43:00","departure_time":"14:43:00","lat":49.172655,"lon":16.563983,"is_passed":false},{"stop_id":"U1492Z4","name":"Pod nemocnicí","arrival_time":"14:44:00","departure_time":"14:44:00","lat":49.171965,"lon":16.56858,"is_passed":false},{"stop_id":"U1472Z8","name":"Osová","arrival_time":"14:47:00","departure_time":"14:47:00","lat":49.168617,"lon":16.566306,"is_passed":false},{"stop_id":"U1273Z2","name":"Kosmonautů","arrival_time":"14:47:00","departure_time":"14:47:00","lat":49.167124,"lon":16.56745,"is_passed":false},{"stop_id":"U1627Z1","name":"Svah","arrival_time":"14:48:00","departure_time":"14:48:00","lat":49.165199,"lon":16.567969,"is_passed":false},{"stop_id":"U1061Z1","name":"Čermákova","arrival_time":"14:48:00","departure_time":"14:48:00","lat":49.164336,"lon":16.565516,"is_passed":false},{"stop_id":"U1666Z1","name":"Točná","arrival_time":"14:49:00","departure_time":"14:49:00","lat":49.16476,"lon":16.561692,"is_passed":false},{"stop_id":"U1488Z1","name":"Pod dálnicí","arrival_time":"14:50:00","departure_time":"14:50:00","lat":49.163512,"lon":16.555152,"is_passed":false},{"stop_id":"U14101Z1","name":"Ostopovice, Branky","arrival_time":"14:51:00","departure_time":"14:51:00","lat":49.159937,"lon":16.548801,"is_passed":false},{"stop_id":"U14103Z1","name":"Ostopovice, U Kaple","arrival_time":"14:52:00","departure_time":"14:52:00","lat":49.161083,"lon":16.545743,"is_passed":false},{"stop_id":"U14104Z1","name":"Ostopovice, rozcestí","arrival_time":"14:52:00","departure_time":"14:52:00","lat":49.163046,"lon":16.542924,"is_passed":false},{"stop_id":"U14105Z3","name":"Ostopovice, smyčka","arrival_time":"14:53:00","departure_time":"14:53:00","lat":49.164457,"lon":16.540725,"is_passed":false},{"stop_id":"U14102Z1","name":"Ostopovice, Lipová","arrival_time":"14:54:00","departure_time":"14:54:00","lat":49.163052,"lon":16.536032,"is_passed":false},{"stop_id":"U14110Z1","name":"Troubsko, U dráhy","arrival_time":"14:55:00","departure_time":"14:55:00","lat":49.163195,"lon":16.527182,"is_passed":false},{"stop_id":"U14126Z1","name":"Troubsko, Nová","arrival_time":"14:57:00","departure_time":"14:57:00","lat":49.166982,"lon":16.518167,"is_passed":false},{"stop_id":"U14106Z1","name":"Troubsko, kaplička","arrival_time":"14:58:00","departure_time":"14:58:00","lat":49.169013,"lon":16.511465,"is_passed":false},{"stop_id":"U14109Z1","name":"Troubsko, obecní úřad","arrival_time":"14:59:00","departure_time":"15:19:00","lat":49.171013,"lon":16.506845,"is_passed":false}],"4318":[{"stop_id":"U14109Z2","name":"Troubsko, obecní úřad","arrival_time":"15:19:00","departure_time":"15:19:00","lat":49.171349,"lon":16.506327,"is_passed":false},{"stop_id":"U14106Z2","name":"Troubsko, kaplička","arrival_time":"15:20:00","departure_time":"15:20:00","lat":49.168923,"lon":16.511588,"is_passed":false},{"stop_id":"U14126Z2","name":"Troubsko, Nová","arrival_time":"15:21:00","departure_time":"15:21:00","lat":49.166465,"lon":16.519273,"is_passed":false},{"stop_id":"U14110Z2","name":"Troubsko, U dráhy","arrival_time":"15:22:00","departure_time":"15:22:00","lat":49.163317,"lon":16.526862,"is_passed":false},{"stop_id":"U14105Z2","name":"Ostopovice, smyčka","arrival_time":"15:25:00","departure_time":"15:25:00","lat":49.164301,"lon":16.540971,"is_passed":false},{"stop_id":"U14104Z2","name":"Ostopovice, rozcestí","arrival_time":"15:25:00","departure_time":"15:25:00","lat":49.163133,"lon":16.542749,"is_passed":false},{"stop_id":"U14103Z2","name":"Ostopovice, U Kaple","arrival_time":"15:26:00","departure_time":"15:26:00","lat":49.161088,"lon":16.545566,"is_passed":false},{"stop_id":"U14101Z2","name":"Ostopovice, Branky","arrival_time":"15:27:00","departure_time":"15:27:00","lat":49.159942,"lon":16.548414,"is_passed":false},{"stop_id":"U1488Z2","name":"Pod dálnicí","arrival_time":"15:28:00","departure_time":"15:28:00","lat":49.163539,"lon":16.55541,"is_passed":false},{"stop_id":"U1666Z2","name":"Točná","arrival_time":"15:29:00","departure_time":"15:29:00","lat":49.164745,"lon":16.561481,"is_passed":false},{"stop_id":"U1061Z2","name":"Čermákova","arrival_time":"15:30:00","departure_time":"15:30:00","lat":49.164349,"lon":16.564689,"is_passed":false},{"stop_id":"U1627Z2","name":"Svah","arrival_time":"15:30:00","departure_time":"15:30:00","lat":49.164924,"lon":16.567717,"is_passed":false},{"stop_id":"U1273Z1","name":"Kosmonautů","arrival_time":"15:31:00","departure_time":"15:31:00","lat":49.167006,"lon":16.568017,"is_passed":false},{"stop_id":"U1472Z7","name":"Osová","arrival_time":"15:32:00","departure_time":"15:32:00","lat":49.168951,"lon":16.566714,"is_passed":false},{"stop_id":"U7050Z1","name":"ZŠ Vedlejší","arrival_time":"15:32:00","departure_time":"15:32:00","lat":49.171054,"lon":16.569191,"is_passed":false},{"stop_id":"U1748Z2","name":"Vltavská","arrival_time":"15:33:00","departure_time":"15:33:00","lat":49.172487,"lon":16.564821,"is_passed":false},{"stop_id":"U1322Z1","name":"Labská","arrival_time":"15:36:00","departure_time":"15:42:00","lat":49.17151,"lon":16.559604,"is_passed":false}],"4319":[{"stop_id":"U1322Z3","name":"Labská","arrival_time":"15:42:00","departure_time":"15:42:00","lat":49.171353,"lon":16.559418,"is_passed":false},{"stop_id":"U1748Z1","name":"Vltavská","arrival_time":"15:43:00","departure_time":"15:43:00","lat":49.172655,"lon":16.563983,"is_passed":false},{"stop_id":"U1492Z4","name":"Pod nemocnicí","arrival_time":"15:44:00","departure_time":"15:44:00","lat":49.171965,"lon":16.56858,"is_passed":false},{"stop_id":"U1472Z8","name":"Osová","arrival_time":"15:47:00","departure_time":"15:47:00","lat":49.168617,"lon":16.566306,"is_passed":false},{"stop_id":"U1273Z2","name":"Kosmonautů","arrival_time":"15:47:00","departure_time":"15:47:00","lat":49.167124,"lon":16.56745,"is_passed":false},{"stop_id":"U1627Z1","name":"Svah","arrival_time":"15:48:00","departure_time":"15:48:00","lat":49.165199,"lon":16.567969,"is_passed":false},{"stop_id":"U1061Z1","name":"Čermákova","arrival_time":"15:48:00","departure_time":"15:48:00","lat":49.164336,"lon":16.565516,"is_passed":false},{"stop_id":"U1666Z1","name":"Točná","arrival_time":"15:49:00","departure_time":"15:49:00","lat":49.16476,"lon":16.561692,"is_passed":false},{"stop_id":"U1488Z1","name":"Pod dálnicí","arrival_time":"15:50:00","departure_time":"15:50:00","lat":49.163512,"lon":16.555152,"is_passed":false},{"stop_id":"U14101Z1","name":"Ostopovice, Branky","arrival_time":"15:51:00","departure_time":"15:51:00","lat":49.159937,"lon":16.548801,"is_passed":false},{"stop_id":"U14103Z1","name":"Ostopovice, U Kaple","arrival_time":"15:52:00","departure_time":"15:52:00","lat":49.161083,"lon":16.545743,"is_passed":false},{"stop_id":"U14104Z1","name":"Ostopovice, rozcestí","arrival_time":"15:52:00","departure_time":"15:52:00","lat":49.163046,"lon":16.542924,"is_passed":false},{"stop_id":"U14105Z3","name":"Ostopovice, smyčka","arrival_time":"15:53:00","departure_time":"15:53:00","lat":49.164457,"lon":16.540725,"is_passed":false},{"stop_id":"U14102Z1","name":"Ostopovice, Lipová","arrival_time":"15:54:00","departure_time":"15:54:00","lat":49.163052,"lon":16.536032,"is_passed":false},{"stop_id":"U14110Z1","name":"Troubsko, U dráhy","arrival_time":"15:55:00","departure_time":"15:55:00","lat":49.163195,"lon":16.527182,"is_passed":false},{"stop_id":"U14126Z1","name":"Troubsko, Nová","arrival_time":"15:57:00","departure_time":"15:57:00","lat":49.166982,"lon":16.518167,"is_passed":false},{"stop_id":"U14106Z1","name":"Troubsko, kaplička","arrival_time":"15:58:00","departure_time":"15:58:00","lat":49.169013,"lon":16.511465,"is_passed":false},{"stop_id":"U14109Z1","name":"Troubsko, obecní úřad","arrival_time":"15:59:00","departure_time":"16:19:00","lat":49.171013,"lon":16.506845,"is_passed":false}],"43100":[{"stop_id":"U1659Z4","name":"Technologický park","arrival_time":"20:51:00","departure_time":"20:51:00","lat":49.231509,"lon":16.576781,"is_passed":false},{"stop_id":"U1104Z1","name":"Edisonova","arrival_time":"20:51:00","departure_time":"20:51:00","lat":49.22828,"lon":16.576461,"is_passed":false},{"stop_id":"U1499Z2","name":"Podnikatelská","arrival_time":"20:52:00","departure_time":"20:52:00","lat":49.227023,"lon":16.576248,"is_passed":false},{"stop_id":"U1660Z2","name":"Technická","arrival_time":"20:53:00","departure_time":"20:53:00","lat":49.223975,"lon":16.579308,"is_passed":false},{"stop_id":"U1155Z2","name":"Horská","arrival_time":"20:54:00","departure_time":"20:54:00","lat":49.221604,"lon":16.579463,"is_passed":false},{"stop_id":"U1777Z2","name":"Záhřebská","arrival_time":"20:55:00","departure_time":"20:55:00","lat":49.219845,"lon":16.580415,"is_passed":false},{"stop_id":"U1567Z6","name":"Skácelova","arrival_time":"20:57:00","departure_time":"20:57:00","lat":49.22163,"lon":16.585935,"is_passed":false},{"stop_id":"U1586Z4","name":"Slovanské náměstí","arrival_time":"20:58:00","departure_time":"20:58:00","lat":49.222774,"lon":16.591332,"is_passed":false},{"stop_id":"U1171Z3","name":"Husitská","arrival_time":"20:59:00","departure_time":"20:59:00","lat":49.223851,"lon":16.594116,"is_passed":false},{"stop_id":"U1566Z4","name":"Semilasso","arrival_time":"21:01:00","departure_time":"21:01:00","lat":49.228055,"lon":16.593438,"is_passed":false},{"stop_id":"U1286Z3","name":"Královo Pole, nádraží","arrival_time":"21:02:00","departure_time":"21:02:00","lat":49.229218,"lon":16.596271,"is_passed":false},{"stop_id":"U1388Z2","name":"Mojmírovo náměstí","arrival_time":"21:03:00","departure_time":"21:03:00","lat":49.226499,"lon":16.598423,"is_passed":false},{"stop_id":"U1246Z1","name":"Kociánka","arrival_time":"21:04:00","departure_time":"21:04:00","lat":49.225575,"lon":16.601869,"is_passed":false},{"stop_id":"U1288Z1","name":"Královopolská strojírna","arrival_time":"21:05:00","departure_time":"21:05:00","lat":49.223948,"lon":16.60736,"is_passed":false},{"stop_id":"U1087Z1","name":"Divišova čtvrť","arrival_time":"21:06:00","departure_time":"21:06:00","lat":49.223493,"lon":16.613643,"is_passed":false},{"stop_id":"U1692Z1","name":"U tunýlku","arrival_time":"21:06:00","departure_time":"21:06:00","lat":49.222688,"lon":16.617771,"is_passed":false},{"stop_id":"U1128Z4","name":"Halasovo náměstí","arrival_time":"21:08:00","departure_time":"21:08:00","lat":49.22314,"lon":16.622438,"is_passed":false},{"stop_id":"U1506Z2","name":"Poliklinika Lesná","arrival_time":"21:09:00","departure_time":"21:09:00","lat":49.222411,"lon":16.625672,"is_passed":false},{"stop_id":"U1331Z2","name":"Lesná, nádraží","arrival_time":"21:10:00","departure_time":"21:10:00","lat":49.220094,"lon":16.62942,"is_passed":false},{"stop_id":"U1646Z4","name":"Štefánikova čtvrť","arrival_time":"21:11:00","departure_time":"21:11:00","lat":49.217288,"lon":16.627693,"is_passed":false},{"stop_id":"U1381Z1","name":"Merhautova","arrival_time":"21:12:00","departure_time":"21:12:00","lat":49.21485,"lon":16.627477,"is_passed":false},{"stop_id":"U1668Z3","name":"Tomkovo náměstí","arrival_time":"21:13:00","departure_time":"21:13:00","lat":49.213205,"lon":16.636652,"is_passed":false},{"stop_id":"U1002Z1","name":"Akátky","arrival_time":"21:15:00","departure_time":"21:15:00","lat":49.208518,"lon":16.648742,"is_passed":false},{"stop_id":"U1743Z1","name":"Vlčnovská","arrival_time":"21:16:00","departure_time":"21:16:00","lat":49.210995,"lon":16.660327,"is_passed":false},{"stop_id":"U1523Z1","name":"Prušánecká","arrival_time":"21:17:00","departure_time":"21:17:00","lat":49.20827,"lon":16.663465,"is_passed":false},{"stop_id":"U1383Z1","name":"Mikulovská","arrival_time":"21:18:00","departure_time":"21:18:00","lat":49.2055,"lon":16.665833,"is_passed":false},{"stop_id":"U1551Z2","name":"Růženin dvůr","arrival_time":"21:19:00","departure_time":"21:19:00","lat":49.203263,"lon":16.666525,"is_passed":false},{"stop_id":"U1026Z4","name":"Bílá hora","arrival_time":"21:21:00","departure_time":"21:21:00","lat":49.193975,"lon":16.667677,"is_passed":false},{"stop_id":"U1501Z4","name":"Podstránská","arrival_time":"21:23:00","departure_time":"21:23:00","lat":49.186139,"lon":16.667061,"is_passed":false},{"stop_id":"U1068Z1","name":"Černovičky","arrival_time":"21:25:00","departure_time":"21:25:00","lat":49.182244,"lon":16.66894,"is_passed":false},{"stop_id":"U1741Z1","name":"Vlárská","arrival_time":"21:26:00","departure_time":"21:26:00","lat":49.180745,"lon":16.671647,"is_passed":false},{"stop_id":"U1105Z1","name":"Ericha Roučky","arrival_time":"21:28:00","departure_time":"21:28:00","lat":49.174784,"lon":16.66987,"is_passed":false},{"stop_id":"U1064Z1","name":"Černovická terasa I","arrival_time":"21:29:00","departure_time":"21:29:00","lat":49.171172,"lon":16.673495,"is_passed":false},{"stop_id":"U1065Z1","name":"Černovická terasa II","arrival_time":"21:30:00","departure_time":"21:30:00","lat":49.167108,"lon":16.67608,"is_passed":false},{"stop_id":"U1581Z3","name":"Areál Slatina","arrival_time":"21:32:00","departure_time":"22:12:00","lat":49.168533,"lon":16.678786,"is_passed":false}],"43101":[{"stop_id":"U1581Z1","name":"Areál Slatina","arrival_time":"22:12:00","departure_time":"22:12:00","lat":49.168614,"lon":16.67804,"is_passed":false},{"stop_id":"U1065Z2","name":"Černovická terasa II","arrival_time":"22:12:00","departure_time":"22:12:00","lat":49.168348,"lon":16.675307,"is_passed":false},{"stop_id":"U1064Z2","name":"Černovická terasa I","arrival_time":"22:13:00","departure_time":"22:13:00","lat":49.171843,"lon":16.673091,"is_passed":false},{"stop_id":"U1105Z2","name":"Ericha Roučky","arrival_time":"22:14:00","departure_time":"22:14:00","lat":49.175109,"lon":16.669439,"is_passed":false},{"stop_id":"U1741Z2","name":"Vlárská","arrival_time":"22:16:00","departure_time":"22:16:00","lat":49.180702,"lon":16.672017,"is_passed":false},{"stop_id":"U1068Z4","name":"Černovičky","arrival_time":"22:17:00","departure_time":"22:17:00","lat":49.183907,"lon":16.668247,"is_passed":false},{"stop_id":"U1501Z3","name":"Podstránská","arrival_time":"22:17:00","departure_time":"22:17:00","lat":49.186855,"lon":16.66649,"is_passed":false},{"stop_id":"U1026Z3","name":"Bílá hora","arrival_time":"22:19:00","departure_time":"22:19:00","lat":49.194009,"lon":16.668034,"is_passed":false},{"stop_id":"U1551Z1","name":"Růženin dvůr","arrival_time":"22:21:00","departure_time":"22:21:00","lat":49.203651,"lon":16.666867,"is_passed":false},{"stop_id":"U1383Z2","name":"Mikulovská","arrival_time":"22:22:00","departure_time":"22:22:00","lat":49.206311,"lon":16.664823,"is_passed":false},{"stop_id":"U1523Z2","name":"Prušánecká","arrival_time":"22:23:00","departure_time":"22:23:00","lat":49.209503,"lon":16.663369,"is_passed":false},{"stop_id":"U1743Z2","name":"Vlčnovská","arrival_time":"22:24:00","departure_time":"22:24:00","lat":49.211166,"lon":16.659638,"is_passed":false},{"stop_id":"U1128Z3","name":"Halasovo náměstí","arrival_time":"22:29:00","departure_time":"22:29:00","lat":49.223406,"lon":16.622237,"is_passed":false},{"stop_id":"U1692Z2","name":"U tunýlku","arrival_time":"22:30:00","departure_time":"22:30:00","lat":49.222902,"lon":16.617348,"is_passed":false},{"stop_id":"U1087Z2","name":"Divišova čtvrť","arrival_time":"22:30:00","departure_time":"22:30:00","lat":49.223685,"lon":16.612398,"is_passed":false},{"stop_id":"U1288Z2","name":"Královopolská strojírna","arrival_time":"22:31:00","departure_time":"22:31:00","lat":49.224075,"lon":16.607207,"is_passed":false},{"stop_id":"U1246Z2","name":"Kociánka","arrival_time":"22:32:00","departure_time":"22:32:00","lat":49.225972,"lon":16.601746,"is_passed":false},{"stop_id":"U1286Z4","name":"Královo Pole, nádraží","arrival_time":"22:34:00","departure_time":"22:34:00","lat":49.230229,"lon":16.595629,"is_passed":false},{"stop_id":"U1566Z6","name":"Semilasso","arrival_time":"22:35:00","departure_time":"22:35:00","lat":49.228248,"lon":16.593466,"is_passed":false},{"stop_id":"U1171Z4","name":"Husitská","arrival_time":"22:36:00","departure_time":"22:36:00","lat":49.224063,"lon":16.593994,"is_passed":false},{"stop_id":"U1586Z3","name":"Slovanské náměstí","arrival_time":"22:37:00","departure_time":"22:37:00","lat":49.223525,"lon":16.591009,"is_passed":false},{"stop_id":"U1567Z5","name":"Skácelova","arrival_time":"22:38:00","departure_time":"22:38:00","lat":49.221353,"lon":16.584711,"is_passed":false},{"stop_id":"U1777Z3","name":"Záhřebská","arrival_time":"22:40:00","departure_time":"22:40:00","lat":49.22001,"lon":16.579572,"is_passed":false},{"stop_id":"U1155Z1","name":"Horská","arrival_time":"22:40:00","departure_time":"22:40:00","lat":49.221621,"lon":16.579517,"is_passed":false},{"stop_id":"U1660Z3","name":"Technická","arrival_time":"22:41:00","departure_time":"22:41:00","lat":49.224462,"lon":16.579066,"is_passed":false},{"stop_id":"U1499Z1","name":"Podnikatelská","arrival_time":"22:42:00","departure_time":"22:42:00","lat":49.227371,"lon":16.576366,"is_passed":false},{"stop_id":"U1252Z2","name":"Kolejní","arrival_time":"22:43:00","departure_time":"22:43:00","lat":49.230641,"lon":16.57191,"is_passed":false},{"stop_id":"U1733Z1","name":"Vědeckotechnický park","arrival_time":"22:44:00","departure_time":"22:44:00","lat":49.2326,"lon":16.574806,"is_passed":false},{"stop_id":"U1659Z3","name":"Technologický park","arrival_time":"22:45:00","departure_time":"22:47:00","lat":49.23192,"lon":16.576848,"is_passed":false}],"43102":[{"stop_id":"U1286Z5","name":"Královo Pole, nádraží","arrival_time":"13:21:00","departure_time":"13:21:00","lat":49.229633,"lon":16.595447,"is_passed":false},{"stop_id":"U1566Z6","name":"Semilasso","arrival_time":"13:22:00","departure_time":"13:22:00","lat":49.228248,"lon":16.593466,"is_passed":false},{"stop_id":"U1171Z4","name":"Husitská","arrival_time":"13:24:00","departure_time":"13:24:00","lat":49.224063,"lon":16.593994,"is_passed":false},{"stop_id":"U1586Z3","name":"Slovanské náměstí","arrival_time":"13:25:00","departure_time":"13:25:00","lat":49.223525,"lon":16.591009,"is_passed":false},{"stop_id":"U1567Z5","name":"Skácelova","arrival_time":"13:26:00","departure_time":"13:26:00","lat":49.221353,"lon":16.584711,"is_passed":false},{"stop_id":"U1777Z3","name":"Záhřebská","arrival_time":"13:28:00","departure_time":"13:28:00","lat":49.22001,"lon":16.579572,"is_passed":false},{"stop_id":"U1155Z1","name":"Horská","arrival_time":"13:28:00","departure_time":"13:28:00","lat":49.221621,"lon":16.579517,"is_passed":false},{"stop_id":"U1660Z3","name":"Technická","arrival_time":"13:30:00","departure_time":"13:30:00","lat":49.224462,"lon":16.579066,"is_passed":false},{"stop_id":"U1499Z1","name":"Podnikatelská","arrival_time":"13:31:00","departure_time":"13:31:00","lat":49.227371,"lon":16.576366,"is_passed":false},{"stop_id":"U1252Z2","name":"Kolejní","arrival_time":"13:33:00","departure_time":"13:33:00","lat":49.230641,"lon":16.57191,"is_passed":false},{"stop_id":"U1733Z1","name":"Vědeckotechnický park","arrival_time":"13:34:00","departure_time":"13:34:00","lat":49.2326,"lon":16.574806,"is_passed":false},{"stop_id":"U1659Z4","name":"Technologický park","arrival_time":"13:35:00","departure_time":"13:38:00","lat":49.231509,"lon":16.576781,"is_passed":false}],"43103":[{"stop_id":"U1659Z4","name":"Technologický park","arrival_time":"13:38:00","departure_time":"13:38:00","lat":49.231509,"lon":16.576781,"is_passed":false},{"stop_id":"U1104Z1","name":"Edisonova","arrival_time":"13:38:00","departure_time":"13:38:00","lat":49.22828,"lon":16.576461,"is_passed":false},{"stop_id":"U1499Z2","name":"Podnikatelská","arrival_time":"13:39:00","departure_time":"13:39:00","lat":49.227023,"lon":16.576248,"is_passed":false},{"stop_id":"U1660Z2","name":"Technická","arrival_time":"13:40:00","departure_time":"13:40:00","lat":49.223975,"lon":16.579308,"is_passed":false},{"stop_id":"U1155Z2","name":"Horská","arrival_time":"13:41:00","departure_time":"13:41:00","lat":49.221604,"lon":16.579463,"is_passed":false},{"stop_id":"U1777Z2","name":"Záhřebská","arrival_time":"13:43:00","departure_time":"13:43:00","lat":49.219845,"lon":16.580415,"is_passed":false},{"stop_id":"U1567Z6","name":"Skácelova","arrival_time":"13:45:00","departure_time":"13:45:00","lat":49.22163,"lon":16.585935,"is_passed":false},{"stop_id":"U1586Z4","name":"Slovanské náměstí","arrival_time":"13:46:00","departure_time":"13:46:00","lat":49.222774,"lon":16.591332,"is_passed":false},{"stop_id":"U1171Z3","name":"Husitská","arrival_time":"13:47:00","departure_time":"13:47:00","lat":49.223851,"lon":16.594116,"is_passed":false},{"stop_id":"U1566Z4","name":"Semilasso","arrival_time":"13:49:00","departure_time":"13:49:00","lat":49.228055,"lon":16.593438,"is_passed":false},{"stop_id":"U1286Z3","name":"Královo Pole, nádraží","arrival_time":"13:50:00","departure_time":"13:50:00","lat":49.229218,"lon":16.596271,"is_passed":false},{"stop_id":"U1388Z2","name":"Mojmírovo náměstí","arrival_time":"13:51:00","departure_time":"13:51:00","lat":49.226499,"lon":16.598423,"is_passed":false},{"stop_id":"U1246Z1","name":"Kociánka","arrival_time":"13:52:00","departure_time":"13:52:00","lat":49.225575,"lon":16.601869,"is_passed":false},{"stop_id":"U1288Z1","name":"Královopolská strojírna","arrival_time":"13:53:00","departure_time":"13:53:00","lat":49.223948,"lon":16.60736,"is_passed":false},{"stop_id":"U1087Z1","name":"Divišova čtvrť","arrival_time":"13:54:00","departure_time":"13:54:00","lat":49.223493,"lon":16.613643,"is_passed":false},{"stop_id":"U1692Z1","name":"U tunýlku","arrival_time":"13:55:00","departure_time":"13:55:00","lat":49.222688,"lon":16.617771,"is_passed":false},{"stop_id":"U1128Z4","name":"Halasovo náměstí","arrival_time":"13:57:00","departure_time":"13:57:00","lat":49.22314,"lon":16.622438,"is_passed":false},{"stop_id":"U1506Z2","name":"Poliklinika Lesná","arrival_time":"13:58:00","departure_time":"13:58:00","lat":49.222411,"lon":16.625672,"is_passed":false},{"stop_id":"U1331Z2","name":"Lesná, nádraží","arrival_time":"13:59:00","departure_time":"14:16:00","lat":49.220094,"lon":16.62942,"is_passed":false}],"43104":[{"stop_id":"U1331Z1","name":"Lesná, nádraží","arrival_time":"14:16:00","departure_time":"14:16:00","lat":49.220041,"lon":16.629534,"is_passed":false},{"stop_id":"U1506Z1","name":"Poliklinika Lesná","arrival_time":"14:17:00","departure_time":"14:17:00","lat":49.222513,"lon":16.625643,"is_passed":false},{"stop_id":"U1128Z3","name":"Halasovo náměstí","arrival_time":"14:18:00","departure_time":"14:18:00","lat":49.223406,"lon":16.622237,"is_passed":false},{"stop_id":"U1692Z2","name":"U tunýlku","arrival_time":"14:19:00","departure_time":"14:19:00","lat":49.222902,"lon":16.617348,"is_passed":false},{"stop_id":"U1087Z2","name":"Divišova čtvrť","arrival_time":"14:20:00","departure_time":"14:20:00","lat":49.223685,"lon":16.612398,"is_passed":false},{"stop_id":"U1288Z2","name":"Královopolská strojírna","arrival_time":"14:21:00","departure_time":"14:21:00","lat":49.224075,"lon":16.607207,"is_passed":false},{"stop_id":"U1246Z2","name":"Kociánka","arrival_time":"14:22:00","departure_time":"14:22:00","lat":49.225972,"lon":16.601746,"is_passed":false},{"stop_id":"U1286Z4","name":"Královo Pole, nádraží","arrival_time":"14:25:00","departure_time":"14:25:00","lat":49.230229,"lon":16.595629,"is_passed":false},{"stop_id":"U1566Z6","name":"Semilasso","arrival_time":"14:26:00","departure_time":"14:26:00","lat":49.228248,"lon":16.593466,"is_passed":false},{"stop_id":"U1171Z4","name":"Husitská","arrival_time":"14:28:00","departure_time":"14:28:00","lat":49.224063,"lon":16.593994,"is_passed":false},{"stop_id":"U1586Z3","name":"Slovanské náměstí","arrival_time":"14:29:00","departure_time":"14:29:00","lat":49.223525,"lon":16.591009,"is_passed":false},{"stop_id":"U1567Z5","name":"Skácelova","arrival_time":"14:30:00","departure_time":"14:30:00","lat":49.221353,"lon":16.584711,"is_passed":false},{"stop_id":"U1777Z3","name":"Záhřebská","arrival_time":"14:32:00","departure_time":"14:32:00","lat":49.22001,"lon":16.579572,"is_passed":false},{"stop_id":"U1155Z1","name":"Horská","arrival_time":"14:32:00","departure_time":"14:32:00","lat":49.221621,"lon":16.579517,"is_passed":false},{"stop_id":"U1660Z3","name":"Technická","arrival_time":"14:34:00","departure_time":"14:34:00","lat":49.224462,"lon":16.579066,"is_passed":false},{"stop_id":"U1499Z1","name":"Podnikatelská","arrival_time":"14:35:00","departure_time":"14:35:00","lat":49.227371,"lon":16.576366,"is_passed":false},{"stop_id":"U1252Z2","name":"Kolejní","arrival_time":"14:37:00","departure_time":"14:37:00","lat":49.230641,"lon":16.57191,"is_passed":false},{"stop_id":"U1733Z1","name":"Vědeckotechnický park","arrival_time":"14:38:00","departure_time":"14:38:00","lat":49.2326,"lon":16.574806,"is_passed":false},{"stop_id":"U1659Z4","name":"Technologický park","arrival_time":"14:39:00","departure_time":"14:40:00","lat":49.231509,"lon":16.576781,"is_passed":false}],"43105":[{"stop_id":"U1659Z4","name":"Technologický park","arrival_time":"14:40:00","departure_time":"14:40:00","lat":49.231509,"lon":16.576781,"is_passed":false},{"stop_id":"U1104Z1","name":"Edisonova","arrival_time":"14:40:00","departure_time":"14:40:00","lat":49.22828,"lon":16.576461,"is_passed":false},{"stop_id":"U1499Z2","name":"Podnikatelská","arrival_time":"14:41:00","departure_time":"14:41:00","lat":49.227023,"lon":16.576248,"is_passed":false},{"stop_id":"U1660Z2","name":"Technická","arrival_time":"14:42:00","departure_time":"14:42:00","lat":49.223975,"lon":16.579308,"is_passed":false},{"stop_id":"U1155Z2","name":"Horská","arrival_time":"14:43:00","departure_time":"14:43:00","lat":49.221604,"lon":16.579463,"is_passed":false},{"stop_id":"U1777Z2","name":"Záhřebská","arrival_time":"14:45:00","departure_time":"14:45:00","lat":49.219845,"lon":16.580415,"is_passed":false},{"stop_id":"U1567Z6","name":"Skácelova","arrival_time":"14:47:00","departure_time":"14:47:00","lat":49.22163,"lon":16.585935,"is_passed":false},{"stop_id":"U1586Z4","name":"Slovanské náměstí","arrival_time":"14:48:00","departure_time":"14:48:00","lat":49.222774,"lon":16.591332,"is_passed":false},{"stop_id":"U1171Z3","name":"Husitská","arrival_time":"14:49:00","departure_time":"14:49:00","lat":49.223851,"lon":16.594116,"is_passed":false},{"stop_id":"U1566Z4","name":"Semilasso","arrival_time":"14:51:00","departure_time":"14:51:00","lat":49.228055,"lon":16.593438,"is_passed":false},{"stop_id":"U1286Z3","name":"Královo Pole, nádraží","arrival_time":"14:52:00","departure_time":"14:52:00","lat":49.229218,"lon":16.596271,"is_passed":false},{"stop_id":"U1388Z2","name":"Mojmírovo náměstí","arrival_time":"14:53:00","departure_time":"14:53:00","lat":49.226499,"lon":16.598423,"is_passed":false},{"stop_id":"U1246Z1","name":"Kociánka","arrival_time":"14:54:00","departure_time":"14:54:00","lat":49.225575,"lon":16.601869,"is_passed":false},{"stop_id":"U1288Z1","name":"Královopolská strojírna","arrival_time":"14:55:00","departure_time":"14:55:00","lat":49.223948,"lon":16.60736,"is_passed":false},{"stop_id":"U1087Z1","name":"Divišova čtvrť","arrival_time":"14:56:00","departure_time":"14:56:00","lat":49.223493,"lon":16.613643,"is_passed":false},{"stop_id":"U1692Z1","name":"U tunýlku","arrival_time":"14:57:00","departure_time":"14:57:00","lat":49.222688,"lon":16.617771,"is_passed":false},{"stop_id":"U1128Z4","name":"Halasovo náměstí","arrival_time":"14:59:00","departure_time":"14:59:00","lat":49.22314,"lon":16.622438,"is_passed":false},{"stop_id":"U1506Z2","name":"Poliklinika Lesná","arrival_time":"15:00:00","departure_time":"15:00:00","lat":49.222411,"lon":16.625672,"is_passed":false},{"stop_id":"U1331Z2","name":"Lesná, nádraží","arrival_time":"15:01:00","departure_time":"15:16:00","lat":49.220094,"lon":16.62942,"is_passed":false}],"43106":[{"stop_id":"U1331Z1","name":"Lesná, nádraží","arrival_time":"15:16:00","departure_time":"15:16:00","lat":49.220041,"lon":16.629534,"is_passed":false},{"stop_id":"U1506Z1","name":"Poliklinika Lesná","arrival_time":"15:17:00","departure_time":"15:17:00","lat":49.222513,"lon":16.625643,"is_passed":false},{"stop_id":"U1128Z3","name":"Halasovo náměstí","arrival_time":"15:18:00","departure_time":"15:18:00","lat":49.223406,"lon":16.622237,"is_passed":false},{"stop_id":"U1692Z2","name":"U tunýlku","arrival_time":"15:19:00","departure_time":"15:19:00","lat":49.222902,"lon":16.617348,"is_passed":false},{"stop_id":"U1087Z2","name":"Divišova čtvrť","arrival_time":"15:20:00","departure_time":"15:20:00","lat":49.223685,"lon":16.612398,"is_passed":false},{"stop_id":"U1288Z2","name":"Královopolská strojírna","arrival_time":"15:21:00","departure_time":"15:21:00","lat":49.224075,"lon":16.607207,"is_passed":false},{"stop_id":"U1246Z2","name":"Kociánka","arrival_time":"15:22:00","departure_time":"15:22:00","lat":49.225972,"lon":16.601746,"is_passed":false},{"stop_id":"U1286Z4","name":"Královo Pole, nádraží","arrival_time":"15:25:00","departure_time":"15:25:00","lat":49.230229,"lon":16.595629,"is_passed":false},{"stop_id":"U1566Z6","name":"Semilasso","arrival_time":"15:26:00","departure_time":"15:26:00","lat":49.228248,"lon":16.593466,"is_passed":false},{"stop_id":"U1171Z4","name":"Husitská","arrival_time":"15:28:00","departure_time":"15:28:00","lat":49.224063,"lon":16.593994,"is_passed":false},{"stop_id":"U1586Z3","name":"Slovanské náměstí","arrival_time":"15:29:00","departure_time":"15:29:00","lat":49.223525,"lon":16.591009,"is_passed":false},{"stop_id":"U1567Z5","name":"Skácelova","arrival_time":"15:30:00","departure_time":"15:30:00","lat":49.221353,"lon":16.584711,"is_passed":false},{"stop_id":"U1777Z3","name":"Záhřebská","arrival_time":"15:32:00","departure_time":"15:32:00","lat":49.22001,"lon":16.579572,"is_passed":false},{"stop_id":"U1155Z1","name":"Horská","arrival_time":"15:32:00","departure_time":"15:32:00","lat":49.221621,"lon":16.579517,"is_passed":false},{"stop_id":"U1660Z3","name":"Technická","arrival_time":"15:34:00","departure_time":"15:34:00","lat":49.224462,"lon":16.579066,"is_passed":false},{"stop_id":"U1499Z1","name":"Podnikatelská","arrival_time":"15:35:00","departure_time":"15:35:00","lat":49.227371,"lon":16.576366,"is_passed":false},{"stop_id":"U1252Z2","name":"Kolejní","arrival_time":"15:37:00","departure_time":"15:37:00","lat":49.230641,"lon":16.57191,"is_passed":false},{"stop_id":"U1733Z1","name":"Vědeckotechnický park","arrival_time":"15:38:00","departure_time":"15:38:00","lat":49.2326,"lon":16.574806,"is_passed":false},{"stop_id":"U1659Z4","name":"Technologický park","arrival_time":"15:39:00","departure_time":"15:40:00","lat":49.231509,"lon":16.576781,"is_passed":false}],"43107":[{"stop_id":"U1659Z4","name":"Technologický park","arrival_time":"15:40:00","departure_time":"15:40:00","lat":49.231509,"lon":16.576781,"is_passed":false},{"stop_id":"U1104Z1","name":"Edisonova","arrival_time":"15:40:00","departure_time":"15:40:00","lat":49.22828,"lon":16.576461,"is_passed":false},{"stop_id":"U1499Z2","name":"Podnikatelská","arrival_time":"15:41:00","departure_time":"15:41:00","lat":49.227023,"lon":16.576248,"is_passed":false},{"stop_id":"U1660Z2","name":"Technická","arrival_time":"15:42:00","departure_time":"15:42:00","lat":49.223975,"lon":16.579308,"is_passed":false},{"stop_id":"U1155Z2","name":"Horská","arrival_time":"15:43:00","departure_time":"15:43:00","lat":49.221604,"lon":16.579463,"is_passed":false},{"stop_id":"U1777Z2","name":"Záhřebská","arrival_time":"15:45:00","departure_time":"15:45:00","lat":49.219845,"lon":16.580415,"is_passed":false},{"stop_id":"U1567Z6","name":"Skácelova","arrival_time":"15:47:00","departure_time":"15:47:00","lat":49.22163,"lon":16.585935,"is_passed":false},{"stop_id":"U1586Z4","name":"Slovanské náměstí","arrival_time":"15:48:00","departure_time":"15:48:00","lat":49.222774,"lon":16.591332,"is_passed":false},{"stop_id":"U1171Z3","name":"Husitská","arrival_time":"15:49:00","departure_time":"15:49:00","lat":49.223851,"lon":16.594116,"is_passed":false},{"stop_id":"U1566Z4","name":"Semilasso","arrival_time":"15:51:00","departure_time":"15:51:00","lat":49.228055,"lon":16.593438,"is_passed":false},{"stop_id":"U1286Z3","name":"Královo Pole, nádraží","arrival_time":"15:52:00","departure_time":"15:52:00","lat":49.229218,"lon":16.596271,"is_passed":false},{"stop_id":"U1388Z2","name":"Mojmírovo náměstí","arrival_time":"15:53:00","departure_time":"15:53:00","lat":49.226499,"lon":16.598423,"is_passed":false},{"stop_id":"U1246Z1","name":"Kociánka","arrival_time":"15:54:00","departure_time":"15:54:00","lat":49.225575,"lon":16.601869,"is_passed":false},{"stop_id":"U1288Z1","name":"Královopolská strojírna","arrival_time":"15:55:00","departure_time":"15:55:00","lat":49.223948,"lon":16.60736,"is_passed":false},{"stop_id":"U1087Z1","name":"Divišova čtvrť","arrival_time":"15:56:00","departure_time":"15:56:00","lat":49.223493,"lon":16.613643,"is_passed":false},{"stop_id":"U1692Z1","name":"U tunýlku","arrival_time":"15:57:00","departure_time":"15:57:00","lat":49.222688,"lon":16.617771,"is_passed":false},{"stop_id":"U1128Z4","name":"Halasovo náměstí","arrival_time":"15:59:00","departure_time":"15:59:00","lat":49.22314,"lon":16.622438,"is_passed":false},{"stop_id":"U1506Z2","name":"Poliklinika Lesná","arrival_time":"16:00:00","departure_time":"16:00:00","lat":49.222411,"lon":16.625672,"is_passed":false},{"stop_id":"U1331Z2","name":"Lesná, nádraží","arrival_time":"16:01:00","departure_time":"16:16:00","lat":49.220094,"lon":16.62942,"is_passed":false}],"43108":[{"stop_id":"U1331Z1","name":"Lesná, nádraží","arrival_time":"16:16:00","departure_time":"16:16:00","lat":49.220041,"lon":16.629534,"is_passed":false},{"stop_id":"U1506Z1","name":"Poliklinika Lesná","arrival_time":"16:17:00","departure_time":"16:17:00","lat":49.222513,"lon":16.625643,"is_passed":false},{"stop_id":"U1128Z3","name":"Halasovo náměstí","arrival_time":"16:18:00","departure_time":"16:18:00","lat":49.223406,"lon":16.622237,"is_passed":false},{"stop_id":"U1692Z2","name":"U tunýlku","arrival_time":"16:19:00","departure_time":"16:19:00","lat":49.222902,"lon":16.617348,"is_passed":false},{"stop_id":"U1087Z2","name":"Divišova čtvrť","arrival_time":"16:20:00","departure_time":"16:20:00","lat":49.223685,"lon":16.612398,"is_passed":false},{"stop_id":"U1288Z2","name":"Královopolská strojírna","arrival_time":"16:21:00","departure_time":"16:21:00","lat":49.224075,"lon":16.607207,"is_passed":false},{"stop_id":"U1246Z2","name":"Kociánka","arrival_time":"16:22:00","departure_time":"16:22:00","lat":49.225972,"lon":16.601746,"is_passed":false},{"stop_id":"U1286Z4","name":"Královo Pole, nádraží","arrival_time":"16:25:00","departure_time":"16:25:00","lat":49.230229,"lon":16.595629,"is_passed":false},{"stop_id":"U1566Z6","name":"Semilasso","arrival_time":"16:26:00","departure_time":"16:26:00","lat":49.228248,"lon":16.593466,"is_passed":false},{"stop_id":"U1171Z4","name":"Husitská","arrival_time":"16:28:00","departure_time":"16:28:00","lat":49.224063,"lon":16.593994,"is_passed":false},{"stop_id":"U1586Z3","name":"Slovanské náměstí","arrival_time":"16:29:00","departure_time":"16:29:00","lat":49.223525,"lon":16.591009,"is_passed":false},{"stop_id":"U1567Z5","name":"Skácelova","arrival_time":"16:30:00","departure_time":"16:30:00","lat":49.221353,"lon":16.584711,"is_passed":false},{"stop_id":"U1777Z3","name":"Záhřebská","arrival_time":"16:32:00","departure_time":"16:32:00","lat":49.22001,"lon":16.579572,"is_passed":false},{"stop_id":"U1155Z1","name":"Horská","arrival_time":"16:32:00","departure_time":"16:32:00","lat":49.221621,"lon":16.579517,"is_passed":false},{"stop_id":"U1660Z3","name":"Technická","arrival_time":"16:34:00","departure_time":"16:34:00","lat":49.224462,"lon":16.579066,"is_passed":false},{"stop_id":"U1499Z1","name":"Podnikatelská","arrival_time":"16:35:00","departure_time":"16:35:00","lat":49.227371,"lon":16.576366,"is_passed":false},{"stop_id":"U1252Z2","name":"Kolejní","arrival_time":"16:37:00","departure_time":"16:37:00","lat":49.230641,"lon":16.57191,"is_passed":false},{"stop_id":"U1733Z1","name":"Vědeckotechnický park","arrival_time":"16:38:00","departure_time":"16:38:00","lat":49.2326,"lon":16.574806,"is_passed":false},{"stop_id":"U1659Z4","name":"Technologický park","arrival_time":"16:39:00","departure_time":"16:40:00","lat":49.231509,"lon":16.576781,"is_passed":false}],"43109":[{"stop_id":"U1659Z4","name":"Technologický park","arrival_time":"16:40:00","departure_time":"16:40:00","lat":49.231509,"lon":16.576781,"is_passed":false},{"stop_id":"U1104Z1","name":"Edisonova","arrival_time":"16:40:00","departure_time":"16:40:00","lat":49.22828,"lon":16.576461,"is_passed":false},{"stop_id":"U1499Z2","name":"Podnikatelská","arrival_time":"16:41:00","departure_time":"16:41:00","lat":49.227023,"lon":16.576248,"is_passed":false},{"stop_id":"U1660Z2","name":"Technická","arrival_time":"16:42:00","departure_time":"16:42:00","lat":49.223975,"lon":16.579308,"is_passed":false},{"stop_id":"U1155Z2","name":"Horská","arrival_time":"16:43:00","departure_time":"16:43:00","lat":49.221604,"lon":16.579463,"is_passed":false},{"stop_id":"U1777Z2","name":"Záhřebská","arrival_time":"16:45:00","departure_time":"16:45:00","lat":49.219845,"lon":16.580415,"is_passed":false},{"stop_id":"U1567Z6","name":"Skácelova","arrival_time":"16:47:00","departure_time":"16:47:00","lat":49.22163,"lon":16.585935,"is_passed":false},{"stop_id":"U1586Z4","name":"Slovanské náměstí","arrival_time":"16:48:00","departure_time":"16:48:00","lat":49.222774,"lon":16.591332,"is_passed":false},{"stop_id":"U1171Z3","name":"Husitská","arrival_time":"16:49:00","departure_time":"16:49:00","lat":49.223851,"lon":16.594116,"is_passed":false},{"stop_id":"U1566Z4","name":"Semilasso","arrival_time":"16:51:00","departure_time":"16:51:00","lat":49.228055,"lon":16.593438,"is_passed":false},{"stop_id":"U1286Z8","name":"Královo Pole, nádraží","arrival_time":"16:53:00","departure_time":"17:25:00","lat":49.230335,"lon":16.595523,"is_passed":false}],"43110":[{"stop_id":"U1286Z5","name":"Královo Pole, nádraží","arrival_time":"17:25:00","departure_time":"17:25:00","lat":49.229633,"lon":16.595447,"is_passed":false},{"stop_id":"U1566Z6","name":"Semilasso","arrival_time":"17:26:00","departure_time":"17:26:00","lat":49.228248,"lon":16.593466,"is_passed":false},{"stop_id":"U1171Z4","name":"Husitská","arrival_time":"17:28:00","departure_time":"17:28:00","lat":49.224063,"lon":16.593994,"is_passed":false},{"stop_id":"U1586Z3","name":"Slovanské náměstí","arrival_time":"17:29:00","departure_time":"17:29:00","lat":49.223525,"lon":16.591009,"is_passed":false},{"stop_id":"U1567Z5","name":"Skácelova","arrival_time":"17:30:00","departure_time":"17:30:00","lat":49.221353,"lon":16.584711,"is_passed":false},{"stop_id":"U1777Z3","name":"Záhřebská","arrival_time":"17:32:00","departure_time":"17:32:00","lat":49.22001,"lon":16.579572,"is_passed":false},{"stop_id":"U1155Z1","name":"Horská","arrival_time":"17:32:00","departure_time":"17:32:00","lat":49.221621,"lon":16.579517,"is_passed":false},{"stop_id":"U1660Z3","name":"Technická","arrival_time":"17:34:00","departure_time":"17:34:00","lat":49.224462,"lon":16.579066,"is_passed":false},{"stop_id":"U1499Z1","name":"Podnikatelská","arrival_time":"17:35:00","departure_time":"17:35:00","lat":49.227371,"lon":16.576366,"is_passed":false},{"stop_id":"U1252Z2","name":"Kolejní","arrival_time":"17:37:00","departure_time":"17:37:00","lat":49.230641,"lon":16.57191,"is_passed":false},{"stop_id":"U1733Z1","name":"Vědeckotechnický park","arrival_time":"17:38:00","departure_time":"17:38:00","lat":49.2326,"lon":16.574806,"is_passed":false},{"stop_id":"U1659Z4","name":"Technologický park","arrival_time":"17:39:00","departure_time":"17:40:00","lat":49.231509,"lon":16.576781,"is_passed":false}],"43111":[{"stop_id":"U1659Z4","name":"Technologický park","arrival_time":"17:40:00","departure_time":"17:40:00","lat":49.231509,"lon":16.576781,"is_passed":false},{"stop_id":"U1104Z1","name":"Edisonova","arrival_time":"17:40:00","departure_time":"17:40:00","lat":49.22828,"lon":16.576461,"is_passed":false},{"stop_id":"U1499Z2","name":"Podnikatelská","arrival_time":"17:41:00","departure_time":"17:41:00","lat":49.227023,"lon":16.576248,"is_passed":false},{"stop_id":"U1660Z2","name":"Technická","arrival_time":"17:42:00","departure_time":"17:42:00","lat":49.223975,"lon":16.579308,"is_passed":false},{"stop_id":"U1155Z2","name":"Horská","arrival_time":"17:43:00","departure_time":"17:43:00","lat":49.221604,"lon":16.579463,"is_passed":false},{"stop_id":"U1777Z2","name":"Záhřebská","arrival_time":"17:45:00","departure_time":"17:45:00","lat":49.219845,"lon":16.580415,"is_passed":false},{"stop_id":"U1567Z6","name":"Skácelova","arrival_time":"17:47:00","departure_time":"17:47:00","lat":49.22163,"lon":16.585935,"is_passed":false},{"stop_id":"U1586Z4","name":"Slovanské náměstí","arrival_time":"17:48:00","departure_time":"17:48:00","lat":49.222774,"lon":16.591332,"is_passed":false},{"stop_id":"U1171Z3","name":"Husitská","arrival_time":"17:49:00","departure_time":"17:49:00","lat":49.223851,"lon":16.594116,"is_passed":false},{"stop_id":"U1566Z4","name":"Semilasso","arrival_time":"17:51:00","departure_time":"17:51:00","lat":49.228055,"lon":16.593438,"is_passed":false},{"stop_id":"U1286Z8","name":"Královo Pole, nádraží","arrival_time":"17:53:00","departure_time":"18:25:00","lat":49.230335,"lon":16.595523,"is_passed":false}],"43112":[{"stop_id":"U1286Z5","name":"Královo Pole, nádraží","arrival_time":"18:25:00","departure_time":"18:25:00","lat":49.229633,"lon":16.595447,"is_passed":false},{"stop_id":"U1566Z6","name":"Semilasso","arrival_time":"18:26:00","departure_time":"18:26:00","lat":49.228248,"lon":16.593466,"is_passed":false},{"stop_id":"U1171Z4","name":"Husitská","arrival_time":"18:28:00","departure_time":"18:28:00","lat":49.224063,"lon":16.593994,"is_passed":false},{"stop_id":"U1586Z3","name":"Slovanské náměstí","arrival_time":"18:29:00","departure_time":"18:29:00","lat":49.223525,"lon":16.591009,"is_passed":false},{"stop_id":"U1567Z5","name":"Skácelova","arrival_time":"18:30:00","departure_time":"18:30:00","lat":49.221353,"lon":16.584711,"is_passed":false},{"stop_id":"U1777Z3","name":"Záhřebská","arrival_time":"18:32:00","departure_time":"18:32:00","lat":49.22001,"lon":16.579572,"is_passed":false},{"stop_id":"U1155Z1","name":"Horská","arrival_time":"18:32:00","departure_time":"18:32:00","lat":49.221621,"lon":16.579517,"is_passed":false},{"stop_id":"U1660Z3","name":"Technická","arrival_time":"18:34:00","departure_time":"18:34:00","lat":49.224462,"lon":16.579066,"is_passed":false},{"stop_id":"U1499Z1","name":"Podnikatelská","arrival_time":"18:35:00","departure_time":"18:35:00","lat":49.227371,"lon":16.576366,"is_passed":false},{"stop_id":"U1252Z2","name":"Kolejní","arrival_time":"18:37:00","departure_time":"18:37:00","lat":49.230641,"lon":16.57191,"is_passed":false},{"stop_id":"U1733Z1","name":"Vědeckotechnický park","arrival_time":"18:38:00","departure_time":"18:38:00","lat":49.2326,"lon":16.574806,"is_passed":false},{"stop_id":"U1659Z4","name":"Technologický park","arrival_time":"18:39:00","departure_time":"18:40:00","lat":49.231509,"lon":16.576781,"is_passed":false}],"43113":[{"stop_id":"U1659Z4","name":"Technologický park","arrival_time":"18:40:00","departure_time":"18:40:00","lat":49.231509,"lon":16.576781,"is_passed":false},{"stop_id":"U1104Z1","name":"Edisonova","arrival_time":"18:40:00","departure_time":"18:40:00","lat":49.22828,"lon":16.576461,"is_passed":false},{"stop_id":"U1499Z2","name":"Podnikatelská","arrival_time":"18:41:00","departure_time":"18:41:00","lat":49.227023,"lon":16.576248,"is_passed":false},{"stop_id":"U1660Z2","name":"Technická","arrival_time":"18:42:00","departure_time":"18:42:00","lat":49.223975,"lon":16.579308,"is_passed":false},{"stop_id":"U1155Z2","name":"Horská","arrival_time":"18:43:00","departure_time":"18:43:00","lat":49.221604,"lon":16.579463,"is_passed":false},{"stop_id":"U1777Z2","name":"Záhřebská","arrival_time":"18:44:00","departure_time":"18:44:00","lat":49.219845,"lon":16.580415,"is_passed":false},{"stop_id":"U1567Z6","name":"Skácelova","arrival_time":"18:46:00","departure_time":"18:46:00","lat":49.22163,"lon":16.585935,"is_passed":false},{"stop_id":"U1586Z4","name":"Slovanské náměstí","arrival_time":"18:47:00","departure_time":"18:47:00","lat":49.222774,"lon":16.591332,"is_passed":false},{"stop_id":"U1171Z3","name":"Husitská","arrival_time":"18:48:00","departure_time":"18:48:00","lat":49.223851,"lon":16.594116,"is_passed":false},{"stop_id":"U1566Z4","name":"Semilasso","arrival_time":"18:50:00","departure_time":"18:50:00","lat":49.228055,"lon":16.593438,"is_passed":false},{"stop_id":"U1286Z8","name":"Královo Pole, nádraží","arrival_time":"18:52:00","departure_time":"18:54:00","lat":49.230335,"lon":16.595523,"is_passed":false}],"43114":[{"stop_id":"U1331Z1","name":"Lesná, nádraží","arrival_time":"13:31:00","departure_time":"13:31:00","lat":49.220041,"lon":16.629534,"is_passed":false},{"stop_id":"U1506Z1","name":"Poliklinika Lesná","arrival_time":"13:32:00","departure_time":"13:32:00","lat":49.222513,"lon":16.625643,"is_passed":false},{"stop_id":"U1128Z3","name":"Halasovo náměstí","arrival_time":"13:33:00","departure_time":"13:33:00","lat":49.223406,"lon":16.622237,"is_passed":false},{"stop_id":"U1692Z2","name":"U tunýlku","arrival_time":"13:34:00","departure_time":"13:34:00","lat":49.222902,"lon":16.617348,"is_passed":false},{"stop_id":"U1087Z2","name":"Divišova čtvrť","arrival_time":"13:35:00","departure_time":"13:35:00","lat":49.223685,"lon":16.612398,"is_passed":false},{"stop_id":"U1288Z2","name":"Královopolská strojírna","arrival_time":"13:36:00","departure_time":"13:36:00","lat":49.224075,"lon":16.607207,"is_passed":false},{"stop_id":"U1246Z2","name":"Kociánka","arrival_time":"13:37:00","departure_time":"13:37:00","lat":49.225972,"lon":16.601746,"is_passed":false},{"stop_id":"U1286Z4","name":"Královo Pole, nádraží","arrival_time":"13:40:00","departure_time":"13:40:00","lat":49.230229,"lon":16.595629,"is_passed":false},{"stop_id":"U1566Z6","name":"Semilasso","arrival_time":"13:41:00","departure_time":"13:41:00","lat":49.228248,"lon":16.593466,"is_passed":false},{"stop_id":"U1171Z4","name":"Husitská","arrival_time":"13:43:00","departure_time":"13:43:00","lat":49.224063,"lon":16.593994,"is_passed":false},{"stop_id":"U1586Z3","name":"Slovanské náměstí","arrival_time":"13:44:00","departure_time":"13:44:00","lat":49.223525,"lon":16.591009,"is_passed":false},{"stop_id":"U1567Z5","name":"Skácelova","arrival_time":"13:45:00","departure_time":"13:45:00","lat":49.221353,"lon":16.584711,"is_passed":false},{"stop_id":"U1777Z3","name":"Záhřebská","arrival_time":"13:47:00","departure_time":"13:47:00","lat":49.22001,"lon":16.579572,"is_passed":false},{"stop_id":"U1155Z1","name":"Horská","arrival_time":"13:47:00","departure_time":"13:47:00","lat":49.221621,"lon":16.579517,"is_passed":false},{"stop_id":"U1660Z3","name":"Technická","arrival_time":"13:49:00","departure_time":"13:49:00","lat":49.224462,"lon":16.579066,"is_passed":false},{"stop_id":"U1499Z1","name":"Podnikatelská","arrival_time":"13:50:00","departure_time":"13:50:00","lat":49.227371,"lon":16.576366,"is_passed":false},{"stop_id":"U1252Z2","name":"Kolejní","arrival_time":"13:52:00","departure_time":"13:52:00","lat":49.230641,"lon":16.57191,"is_passed":false},{"stop_id":"U1733Z1","name":"Vědeckotechnický park","arrival_time":"13:53:00","departure_time":"13:53:00","lat":49.2326,"lon":16.574806,"is_passed":false},{"stop_id":"U1659Z4","name":"Technologický park","arrival_time":"13:54:00","departure_time":"13:55:00","lat":49.231509,"lon":16.576781,"is_passed":false}],"43115":[{"stop_id":"U1659Z4","name":"Technologický park","arrival_time":"13:55:00","departure_time":"13:55:00","lat":49.231509,"lon":16.576781,"is_passed":false},{"stop_id":"U1104Z1","name":"Edisonova","arrival_time":"13:55:00","departure_time":"13:55:00","lat":49.22828,"lon":16.576461,"is_passed":false},{"stop_id":"U1499Z2","name":"Podnikatelská","arrival_time":"13:56:00","departure_time":"13:56:00","lat":49.227023,"lon":16.576248,"is_passed":false},{"stop_id":"U1660Z2","name":"Technická","arrival_time":"13:57:00","departure_time":"13:57:00","lat":49.223975,"lon":16.579308,"is_passed":false},{"stop_id":"U1155Z2","name":"Horská","arrival_time":"13:58:00","departure_time":"13:58:00","lat":49.221604,"lon":16.579463,"is_passed":false},{"stop_id":"U1777Z2","name":"Záhřebská","arrival_time":"14:00:00","departure_time":"14:00:00","lat":49.219845,"lon":16.580415,"is_passed":false},{"stop_id":"U1567Z6","name":"Skácelova","arrival_time":"14:02:00","departure_time":"14:02:00","lat":49.22163,"lon":16.585935,"is_passed":false},{"stop_id":"U1586Z4","name":"Slovanské náměstí","arrival_time":"14:03:00","departure_time":"14:03:00","lat":49.222774,"lon":16.591332,"is_passed":false},{"stop_id":"U1171Z3","name":"Husitská","arrival_time":"14:04:00","departure_time":"14:04:00","lat":49.223851,"lon":16.594116,"is_passed":false},{"stop_id":"U1566Z4","name":"Semilasso","arrival_time":"14:06:00","departure_time":"14:06:00","lat":49.228055,"lon":16.593438,"is_passed":false},{"stop_id":"U1286Z3","name":"Královo Pole, nádraží","arrival_time":"14:07:00","departure_time":"14:07:00","lat":49.229218,"lon":16.596271,"is_passed":false},{"stop_id":"U1388Z2","name":"Mojmírovo náměstí","arrival_time":"14:08:00","departure_time":"14:08:00","lat":49.226499,"lon":16.598423,"is_passed":false},{"stop_id":"U1246Z1","name":"Kociánka","arrival_time":"14:09:00","departure_time":"14:09:00","lat":49.225575,"lon":16.601869,"is_passed":false},{"stop_id":"U1288Z1","name":"Královopolská strojírna","arrival_time":"14:10:00","departure_time":"14:10:00","lat":49.223948,"lon":16.60736,"is_passed":false},{"stop_id":"U1087Z1","name":"Divišova čtvrť","arrival_time":"14:11:00","departure_time":"14:11:00","lat":49.223493,"lon":16.613643,"is_passed":false},{"stop_id":"U1692Z1","name":"U tunýlku","arrival_time":"14:12:00","departure_time":"14:12:00","lat":49.222688,"lon":16.617771,"is_passed":false},{"stop_id":"U1128Z4","name":"Halasovo náměstí","arrival_time":"14:14:00","departure_time":"14:14:00","lat":49.22314,"lon":16.622438,"is_passed":false},{"stop_id":"U1506Z2","name":"Poliklinika Lesná","arrival_time":"14:15:00","departure_time":"14:15:00","lat":49.222411,"lon":16.625672,"is_passed":false},{"stop_id":"U1331Z2","name":"Lesná, nádraží","arrival_time":"14:16:00","departure_time":"14:16:00","lat":49.220094,"lon":16.62942,"is_passed":false},{"stop_id":"U1646Z4","name":"Štefánikova čtvrť","arrival_time":"14:17:00","departure_time":"14:17:00","lat":49.217288,"lon":16.627693,"is_passed":false},{"stop_id":"U1381Z1","name":"Merhautova","arrival_time":"14:19:00","departure_time":"14:19:00","lat":49.21485,"lon":16.627477,"is_passed":false},{"stop_id":"U1668Z3","name":"Tomkovo náměstí","arrival_time":"14:21:00","departure_time":"14:21:00","lat":49.213205,"lon":16.636652,"is_passed":false},{"stop_id":"U1002Z1","name":"Akátky","arrival_time":"14:24:00","departure_time":"14:24:00","lat":49.208518,"lon":16.648742,"is_passed":false},{"stop_id":"U1743Z1","name":"Vlčnovská","arrival_time":"14:26:00","departure_time":"14:26:00","lat":49.210995,"lon":16.660327,"is_passed":false},{"stop_id":"U1523Z1","name":"Prušánecká","arrival_time":"14:27:00","departure_time":"14:27:00","lat":49.20827,"lon":16.663465,"is_passed":false},{"stop_id":"U1383Z1","name":"Mikulovská","arrival_time":"14:28:00","departure_time":"14:28:00","lat":49.2055,"lon":16.665833,"is_passed":false},{"stop_id":"U1551Z2","name":"Růženin dvůr","arrival_time":"14:29:00","departure_time":"14:29:00","lat":49.203263,"lon":16.666525,"is_passed":false},{"stop_id":"U1026Z4","name":"Bílá hora","arrival_time":"14:32:00","departure_time":"14:32:00","lat":49.193975,"lon":16.667677,"is_passed":false},{"stop_id":"U1501Z4","name":"Podstránská","arrival_time":"14:34:00","departure_time":"14:34:00","lat":49.186139,"lon":16.667061,"is_passed":false},{"stop_id":"U1068Z1","name":"Černovičky","arrival_time":"14:36:00","departure_time":"14:36:00","lat":49.182244,"lon":16.66894,"is_passed":false},{"stop_id":"U1741Z1","name":"Vlárská","arrival_time":"14:37:00","departure_time":"14:37:00","lat":49.180745,"lon":16.671647,"is_passed":false},{"stop_id":"U1105Z1","name":"Ericha Roučky","arrival_time":"14:39:00","departure_time":"14:39:00","lat":49.174784,"lon":16.66987,"is_passed":false},{"stop_id":"U1064Z1","name":"Černovická terasa I","arrival_time":"14:40:00","departure_time":"14:40:00","lat":49.171172,"lon":16.673495,"is_passed":false},{"stop_id":"U1065Z1","name":"Černovická terasa II","arrival_time":"14:41:00","departure_time":"14:41:00","lat":49.167108,"lon":16.67608,"is_passed":false},{"stop_id":"U1581Z3","name":"Areál Slatina","arrival_time":"14:43:00","departure_time":"15:12:00","lat":49.168533,"lon":16.678786,"is_passed":false}],"43116":[{"stop_id":"U1581Z1","name":"Areál Slatina","arrival_time":"15:12:00","departure_time":"15:12:00","lat":49.168614,"lon":16.67804,"is_passed":false},{"stop_id":"U1065Z2","name":"Černovická terasa II","arrival_time":"15:12:00","departure_time":"15:12:00","lat":49.168348,"lon":16.675307,"is_passed":false},{"stop_id":"U1064Z2","name":"Černovická terasa I","arrival_time":"15:13:00","departure_time":"15:13:00","lat":49.171843,"lon":16.673091,"is_passed":false},{"stop_id":"U1105Z2","name":"Ericha Roučky","arrival_time":"15:14:00","departure_time":"15:14:00","lat":49.175109,"lon":16.669439,"is_passed":false},{"stop_id":"U1741Z2","name":"Vlárská","arrival_time":"15:16:00","departure_time":"15:16:00","lat":49.180702,"lon":16.672017,"is_passed":false},{"stop_id":"U1068Z4","name":"Černovičky","arrival_time":"15:18:00","departure_time":"15:18:00","lat":49.183907,"lon":16.668247,"is_passed":false},{"stop_id":"U1501Z3","name":"Podstránská","arrival_time":"15:18:00","departure_time":"15:18:00","lat":49.186855,"lon":16.66649,"is_passed":false},{"stop_id":"U1026Z3","name":"Bílá hora","arrival_time":"15:21:00","departure_time":"15:21:00","lat":49.194009,"lon":16.668034,"is_passed":false},{"stop_id":"U1551Z1","name":"Růženin dvůr","arrival_time":"15:24:00","departure_time":"15:24:00","lat":49.203651,"lon":16.666867,"is_passed":false},{"stop_id":"U1383Z2","name":"Mikulovská","arrival_time":"15:25:00","departure_time":"15:25:00","lat":49.206311,"lon":16.664823,"is_passed":false},{"stop_id":"U1523Z2","name":"Prušánecká","arrival_time":"15:26:00","departure_time":"15:26:00","lat":49.209503,"lon":16.663369,"is_passed":false},{"stop_id":"U1743Z2","name":"Vlčnovská","arrival_time":"15:27:00","departure_time":"15:27:00","lat":49.211166,"lon":16.659638,"is_passed":false},{"stop_id":"U1128Z3","name":"Halasovo náměstí","arrival_time":"15:33:00","departure_time":"15:33:00","lat":49.223406,"lon":16.622237,"is_passed":false},{"stop_id":"U1692Z2","name":"U tunýlku","arrival_time":"15:34:00","departure_time":"15:34:00","lat":49.222902,"lon":16.617348,"is_passed":false},{"stop_id":"U1087Z2","name":"Divišova čtvrť","arrival_time":"15:35:00","departure_time":"15:35:00","lat":49.223685,"lon":16.612398,"is_passed":false},{"stop_id":"U1288Z2","name":"Královopolská strojírna","arrival_time":"15:36:00","departure_time":"15:36:00","lat":49.224075,"lon":16.607207,"is_passed":false},{"stop_id":"U1246Z2","name":"Kociánka","arrival_time":"15:37:00","departure_time":"15:37:00","lat":49.225972,"lon":16.601746,"is_passed":false},{"stop_id":"U1286Z4","name":"Královo Pole, nádraží","arrival_time":"15:40:00","departure_time":"15:40:00","lat":49.230229,"lon":16.595629,"is_passed":false},{"stop_id":"U1566Z6","name":"Semilasso","arrival_time":"15:41:00","departure_time":"15:41:00","lat":49.228248,"lon":16.593466,"is_passed":false},{"stop_id":"U1171Z4","name":"Husitská","arrival_time":"15:43:00","departure_time":"15:43:00","lat":49.224063,"lon":16.593994,"is_passed":false},{"stop_id":"U1586Z3","name":"Slovanské náměstí","arrival_time":"15:44:00","departure_time":"15:44:00","lat":49.223525,"lon":16.591009,"is_passed":false},{"stop_id":"U1567Z5","name":"Skácelova","arrival_time":"15:45:00","departure_time":"15:45:00","lat":49.221353,"lon":16.584711,"is_passed":false},{"stop_id":"U1777Z3","name":"Záhřebská","arrival_time":"15:47:00","departure_time":"15:47:00","lat":49.22001,"lon":16.579572,"is_passed":false},{"stop_id":"U1155Z1","name":"Horská","arrival_time":"15:47:00","departure_time":"15:47:00","lat":49.221621,"lon":16.579517,"is_passed":false},{"stop_id":"U1660Z3","name":"Technická","arrival_time":"15:49:00","departure_time":"15:49:00","lat":49.224462,"lon":16.579066,"is_passed":false},{"stop_id":"U1499Z1","name":"Podnikatelská","arrival_time":"15:50:00","departure_time":"15:50:00","lat":49.227371,"lon":16.576366,"is_passed":false},{"stop_id":"U1252Z2","name":"Kolejní","arrival_time":"15:52:00","departure_time":"15:52:00","lat":49.230641,"lon":16.57191,"is_passed":false},{"stop_id":"U1733Z1","name":"Vědeckotechnický park","arrival_time":"15:53:00","departure_time":"15:53:00","lat":49.2326,"lon":16.574806,"is_passed":false},{"stop_id":"U1659Z4","name":"Technologický park","arrival_time":"15:54:00","departure_time":"15:55:00","lat":49.231509,"lon":16.576781,"is_passed":false}],"43117":[{"stop_id":"U1659Z4","name":"Technologický park","arrival_time":"15:55:00","departure_time":"15:55:00","lat":49.231509,"lon":16.576781,"is_passed":false},{"stop_id":"U1104Z1","name":"Edisonova","arrival_time":"15:55:00","departure_time":"15:55:00","lat":49.22828,"lon":16.576461,"is_passed":false},{"stop_id":"U1499Z2","name":"Podnikatelská","arrival_time":"15:56:00","departure_time":"15:56:00","lat":49.227023,"lon":16.576248,"is_passed":false},{"stop_id":"U1660Z2","name":"Technická","arrival_time":"15:57:00","departure_time":"15:57:00","lat":49.223975,"lon":16.579308,"is_passed":false},{"stop_id":"U1155Z2","name":"Horská","arrival_time":"15:58:00","departure_time":"15:58:00","lat":49.221604,"lon":16.579463,"is_passed":false},{"stop_id":"U1777Z2","name":"Záhřebská","arrival_time":"16:00:00","departure_time":"16:00:00","lat":49.219845,"lon":16.580415,"is_passed":false},{"stop_id":"U1567Z6","name":"Skácelova","arrival_time":"16:02:00","departure_time":"16:02:00","lat":49.22163,"lon":16.585935,"is_passed":false},{"stop_id":"U1586Z4","name":"Slovanské náměstí","arrival_time":"16:03:00","departure_time":"16:03:00","lat":49.222774,"lon":16.591332,"is_passed":false},{"stop_id":"U1171Z3","name":"Husitská","arrival_time":"16:04:00","departure_time":"16:04:00","lat":49.223851,"lon":16.594116,"is_passed":false},{"stop_id":"U1566Z4","name":"Semilasso","arrival_time":"16:06:00","departure_time":"16:06:00","lat":49.228055,"lon":16.593438,"is_passed":false},{"stop_id":"U1286Z3","name":"Královo Pole, nádraží","arrival_time":"16:07:00","departure_time":"16:07:00","lat":49.229218,"lon":16.596271,"is_passed":false},{"stop_id":"U1388Z2","name":"Mojmírovo náměstí","arrival_time":"16:08:00","departure_time":"16:08:00","lat":49.226499,"lon":16.598423,"is_passed":false},{"stop_id":"U1246Z1","name":"Kociánka","arrival_time":"16:09:00","departure_time":"16:09:00","lat":49.225575,"lon":16.601869,"is_passed":false},{"stop_id":"U1288Z1","name":"Královopolská strojírna","arrival_time":"16:10:00","departure_time":"16:10:00","lat":49.223948,"lon":16.60736,"is_passed":false},{"stop_id":"U1087Z1","name":"Divišova čtvrť","arrival_time":"16:11:00","departure_time":"16:11:00","lat":49.223493,"lon":16.613643,"is_passed":false},{"stop_id":"U1692Z1","name":"U tunýlku","arrival_time":"16:12:00","departure_time":"16:12:00","lat":49.222688,"lon":16.617771,"is_passed":false},{"stop_id":"U1128Z4","name":"Halasovo náměstí","arrival_time":"16:14:00","departure_time":"16:14:00","lat":49.22314,"lon":16.622438,"is_passed":false},{"stop_id":"U1506Z2","name":"Poliklinika Lesná","arrival_time":"16:15:00","departure_time":"16:15:00","lat":49.222411,"lon":16.625672,"is_passed":false},{"stop_id":"U1331Z2","name":"Lesná, nádraží","arrival_time":"16:16:00","departure_time":"16:16:00","lat":49.220094,"lon":16.62942,"is_passed":false},{"stop_id":"U1646Z4","name":"Štefánikova čtvrť","arrival_time":"16:17:00","departure_time":"16:17:00","lat":49.217288,"lon":16.627693,"is_passed":false},{"stop_id":"U1381Z1","name":"Merhautova","arrival_time":"16:19:00","departure_time":"16:19:00","lat":49.21485,"lon":16.627477,"is_passed":false},{"stop_id":"U1668Z3","name":"Tomkovo náměstí","arrival_time":"16:21:00","departure_time":"16:21:00","lat":49.213205,"lon":16.636652,"is_passed":false},{"stop_id":"U1002Z1","name":"Akátky","arrival_time":"16:24:00","departure_time":"16:24:00","lat":49.208518,"lon":16.648742,"is_passed":false},{"stop_id":"U1743Z1","name":"Vlčnovská","arrival_time":"16:26:00","departure_time":"16:26:00","lat":49.210995,"lon":16.660327,"is_passed":false},{"stop_id":"U1523Z1","name":"Prušánecká","arrival_time":"16:27:00","departure_time":"16:27:00","lat":49.20827,"lon":16.663465,"is_passed":false},{"stop_id":"U1383Z1","name":"Mikulovská","arrival_time":"16:28:00","departure_time":"16:28:00","lat":49.2055,"lon":16.665833,"is_passed":false},{"stop_id":"U1551Z2","name":"Růženin dvůr","arrival_time":"16:29:00","departure_time":"16:29:00","lat":49.203263,"lon":16.666525,"is_passed":false},{"stop_id":"U1026Z4","name":"Bílá hora","arrival_time":"16:32:00","departure_time":"16:32:00","lat":49.193975,"lon":16.667677,"is_passed":false},{"stop_id":"U1501Z4","name":"Podstránská","arrival_time":"16:34:00","departure_time":"16:34:00","lat":49.186139,"lon":16.667061,"is_passed":false},{"stop_id":"U1068Z1","name":"Černovičky","arrival_time":"16:36:00","departure_time":"16:36:00","lat":49.182244,"lon":16.66894,"is_passed":false},{"stop_id":"U1741Z1","name":"Vlárská","arrival_time":"16:37:00","departure_time":"16:37:00","lat":49.180745,"lon":16.671647,"is_passed":false},{"stop_id":"U1105Z1","name":"Ericha Roučky","arrival_time":"16:39:00","departure_time":"16:39:00","lat":49.174784,"lon":16.66987,"is_passed":false},{"stop_id":"U1064Z1","name":"Černovická terasa I","arrival_time":"16:40:00","departure_time":"16:40:00","lat":49.171172,"lon":16.673495,"is_passed":false},{"stop_id":"U1065Z1","name":"Černovická terasa II","arrival_time":"16:41:00","departure_time":"16:41:00","lat":49.167108,"lon":16.67608,"is_passed":false},{"stop_id":"U1581Z3","name":"Areál Slatina","arrival_time":"16:43:00","departure_time":"17:12:00","lat":49.168533,"lon":16.678786,"is_passed":false}],"43118":[{"stop_id":"U1581Z1","name":"Areál Slatina","arrival_time":"17:12:00","departure_time":"17:12:00","lat":49.168614,"lon":16.67804,"is_passed":false},{"stop_id":"U1065Z2","name":"Černovická terasa II","arrival_time":"17:12:00","departure_time":"17:12:00","lat":49.168348,"lon":16.675307,"is_passed":false},{"stop_id":"U1064Z2","name":"Černovická terasa I","arrival_time":"17:13:00","departure_time":"17:13:00","lat":49.171843,"lon":16.673091,"is_passed":false},{"stop_id":"U1105Z2","name":"Ericha Roučky","arrival_time":"17:14:00","departure_time":"17:14:00","lat":49.175109,"lon":16.669439,"is_passed":false},{"stop_id":"U1741Z2","name":"Vlárská","arrival_time":"17:16:00","departure_time":"17:16:00","lat":49.180702,"lon":16.672017,"is_passed":false},{"stop_id":"U1068Z4","name":"Černovičky","arrival_time":"17:18:00","departure_time":"17:18:00","lat":49.183907,"lon":16.668247,"is_passed":false},{"stop_id":"U1501Z3","name":"Podstránská","arrival_time":"17:18:00","departure_time":"17:18:00","lat":49.186855,"lon":16.66649,"is_passed":false},{"stop_id":"U1026Z3","name":"Bílá hora","arrival_time":"17:21:00","departure_time":"17:21:00","lat":49.194009,"lon":16.668034,"is_passed":false},{"stop_id":"U1551Z1","name":"Růženin dvůr","arrival_time":"17:24:00","departure_time":"17:24:00","lat":49.203651,"lon":16.666867,"is_passed":false},{"stop_id":"U1383Z2","name":"Mikulovská","arrival_time":"17:25:00","departure_time":"17:25:00","lat":49.206311,"lon":16.664823,"is_passed":false},{"stop_id":"U1523Z2","name":"Prušánecká","arrival_time":"17:26:00","departure_time":"17:26:00","lat":49.209503,"lon":16.663369,"is_passed":false},{"stop_id":"U1743Z2","name":"Vlčnovská","arrival_time":"17:27:00","departure_time":"17:27:00","lat":49.211166,"lon":16.659638,"is_passed":false},{"stop_id":"U1128Z3","name":"Halasovo náměstí","arrival_time":"17:33:00","departure_time":"17:33:00","lat":49.223406,"lon":16.622237,"is_passed":false},{"stop_id":"U1692Z2","name":"U tunýlku","arrival_time":"17:34:00","departure_time":"17:34:00","lat":49.222902,"lon":16.617348,"is_passed":false},{"stop_id":"U1087Z2","name":"Divišova čtvrť","arrival_time":"17:35:00","departure_time":"17:35:00","lat":49.223685,"lon":16.612398,"is_passed":false},{"stop_id":"U1288Z2","name":"Královopolská strojírna","arrival_time":"17:36:00","departure_time":"17:36:00","lat":49.224075,"lon":16.607207,"is_passed":false},{"stop_id":"U1246Z2","name":"Kociánka","arrival_time":"17:37:00","departure_time":"17:37:00","lat":49.225972,"lon":16.601746,"is_passed":false},{"stop_id":"U1286Z4","name":"Královo Pole, nádraží","arrival_time":"17:40:00","departure_time":"17:40:00","lat":49.230229,"lon":16.595629,"is_passed":false},{"stop_id":"U1566Z6","name":"Semilasso","arrival_time":"17:41:00","departure_time":"17:41:00","lat":49.228248,"lon":16.593466,"is_passed":false},{"stop_id":"U1171Z4","name":"Husitská","arrival_time":"17:43:00","departure_time":"17:43:00","lat":49.224063,"lon":16.593994,"is_passed":false},{"stop_id":"U1586Z3","name":"Slovanské náměstí","arrival_time":"17:44:00","departure_time":"17:44:00","lat":49.223525,"lon":16.591009,"is_passed":false},{"stop_id":"U1567Z5","name":"Skácelova","arrival_time":"17:45:00","departure_time":"17:45:00","lat":49.221353,"lon":16.584711,"is_passed":false},{"stop_id":"U1777Z3","name":"Záhřebská","arrival_time":"17:47:00","departure_time":"17:47:00","lat":49.22001,"lon":16.579572,"is_passed":false},{"stop_id":"U1155Z1","name":"Horská","arrival_time":"17:47:00","departure_time":"17:47:00","lat":49.221621,"lon":16.579517,"is_passed":false},{"stop_id":"U1660Z3","name":"Technická","arrival_time":"17:49:00","departure_time":"17:49:00","lat":49.224462,"lon":16.579066,"is_passed":false},{"stop_id":"U1499Z1","name":"Podnikatelská","arrival_time":"17:50:00","departure_time":"17:50:00","lat":49.227371,"lon":16.576366,"is_passed":false},{"stop_id":"U1252Z2","name":"Kolejní","arrival_time":"17:52:00","departure_time":"17:52:00","lat":49.230641,"lon":16.57191,"is_passed":false},{"stop_id":"U1733Z1","name":"Vědeckotechnický park","arrival_time":"17:53:00","departure_time":"17:53:00","lat":49.2326,"lon":16.574806,"is_passed":false},{"stop_id":"U1659Z4","name":"Technologický park","arrival_time":"17:54:00","departure_time":"17:55:00","lat":49.231509,"lon":16.576781,"is_passed":false}],"43119":[{"stop_id":"U1659Z4","name":"Technologický park","arrival_time":"17:55:00","departure_time":"17:55:00","lat":49.231509,"lon":16.576781,"is_passed":false},{"stop_id":"U1104Z1","name":"Edisonova","arrival_time":"17:55:00","departure_time":"17:55:00","lat":49.22828,"lon":16.576461,"is_passed":false},{"stop_id":"U1499Z2","name":"Podnikatelská","arrival_time":"17:56:00","departure_time":"17:56:00","lat":49.227023,"lon":16.576248,"is_passed":false},{"stop_id":"U1660Z2","name":"Technická","arrival_time":"17:57:00","departure_time":"17:57:00","lat":49.223975,"lon":16.579308,"is_passed":false},{"stop_id":"U1155Z2","name":"Horská","arrival_time":"17:58:00","departure_time":"17:58:00","lat":49.221604,"lon":16.579463,"is_passed":false},{"stop_id":"U1777Z2","name":"Záhřebská","arrival_time":"18:00:00","departure_time":"18:00:00","lat":49.219845,"lon":16.580415,"is_passed":false},{"stop_id":"U1567Z6","name":"Skácelova","arrival_time":"18:02:00","departure_time":"18:02:00","lat":49.22163,"lon":16.585935,"is_passed":false},{"stop_id":"U1586Z4","name":"Slovanské náměstí","arrival_time":"18:03:00","departure_time":"18:03:00","lat":49.222774,"lon":16.591332,"is_passed":false},{"stop_id":"U1171Z3","name":"Husitská","arrival_time":"18:04:00","departure_time":"18:04:00","lat":49.223851,"lon":16.594116,"is_passed":false},{"stop_id":"U1566Z4","name":"Semilasso","arrival_time":"18:06:00","departure_time":"18:06:00","lat":49.228055,"lon":16.593438,"is_passed":false},{"stop_id":"U1286Z3","name":"Královo Pole, nádraží","arrival_time":"18:07:00","departure_time":"18:07:00","lat":49.229218,"lon":16.596271,"is_passed":false},{"stop_id":"U1388Z2","name":"Mojmírovo náměstí","arrival_time":"18:08:00","departure_time":"18:08:00","lat":49.226499,"lon":16.598423,"is_passed":false},{"stop_id":"U1246Z1","name":"Kociánka","arrival_time":"18:09:00","departure_time":"18:09:00","lat":49.225575,"lon":16.601869,"is_passed":false},{"stop_id":"U1288Z1","name":"Královopolská strojírna","arrival_time":"18:10:00","departure_time":"18:10:00","lat":49.223948,"lon":16.60736,"is_passed":false},{"stop_id":"U1087Z1","name":"Divišova čtvrť","arrival_time":"18:11:00","departure_time":"18:11:00","lat":49.223493,"lon":16.613643,"is_passed":false},{"stop_id":"U1692Z1","name":"U tunýlku","arrival_time":"18:12:00","departure_time":"18:12:00","lat":49.222688,"lon":16.617771,"is_passed":false},{"stop_id":"U1128Z4","name":"Halasovo náměstí","arrival_time":"18:14:00","departure_time":"18:14:00","lat":49.22314,"lon":16.622438,"is_passed":false},{"stop_id":"U1506Z2","name":"Poliklinika Lesná","arrival_time":"18:15:00","departure_time":"18:15:00","lat":49.222411,"lon":16.625672,"is_passed":false},{"stop_id":"U1331Z2","name":"Lesná, nádraží","arrival_time":"18:16:00","departure_time":"18:16:00","lat":49.220094,"lon":16.62942,"is_passed":false},{"stop_id":"U1646Z4","name":"Štefánikova čtvrť","arrival_time":"18:17:00","departure_time":"18:17:00","lat":49.217288,"lon":16.627693,"is_passed":false},{"stop_id":"U1381Z1","name":"Merhautova","arrival_time":"18:19:00","departure_time":"18:19:00","lat":49.21485,"lon":16.627477,"is_passed":false},{"stop_id":"U1668Z3","name":"Tomkovo náměstí","arrival_time":"18:21:00","departure_time":"18:21:00","lat":49.213205,"lon":16.636652,"is_passed":false},{"stop_id":"U1002Z1","name":"Akátky","arrival_time":"18:24:00","departure_time":"18:24:00","lat":49.208518,"lon":16.648742,"is_passed":false},{"stop_id":"U1743Z1","name":"Vlčnovská","arrival_time":"18:26:00","departure_time":"18:26:00","lat":49.210995,"lon":16.660327,"is_passed":false},{"stop_id":"U1523Z1","name":"Prušánecká","arrival_time":"18:27:00","departure_time":"18:27:00","lat":49.20827,"lon":16.663465,"is_passed":false},{"stop_id":"U1383Z1","name":"Mikulovská","arrival_time":"18:28:00","departure_time":"18:28:00","lat":49.2055,"lon":16.665833,"is_passed":false},{"stop_id":"U1551Z2","name":"Růženin dvůr","arrival_time":"18:29:00","departure_time":"18:29:00","lat":49.203263,"lon":16.666525,"is_passed":false},{"stop_id":"U1026Z4","name":"Bílá hora","arrival_time":"18:32:00","departure_time":"18:32:00","lat":49.193975,"lon":16.667677,"is_passed":false},{"stop_id":"U1501Z4","name":"Podstránská","arrival_time":"18:34:00","departure_time":"18:34:00","lat":49.186139,"lon":16.667061,"is_passed":false},{"stop_id":"U1068Z1","name":"Černovičky","arrival_time":"18:36:00","departure_time":"18:36:00","lat":49.182244,"lon":16.66894,"is_passed":false},{"stop_id":"U1741Z1","name":"Vlárská","arrival_time":"18:37:00","departure_time":"18:37:00","lat":49.180745,"lon":16.671647,"is_passed":false},{"stop_id":"U1105Z1","name":"Ericha Roučky","arrival_time":"18:39:00","departure_time":"18:39:00","lat":49.174784,"lon":16.66987,"is_passed":false},{"stop_id":"U1064Z1","name":"Černovická terasa I","arrival_time":"18:40:00","departure_time":"18:40:00","lat":49.171172,"lon":16.673495,"is_passed":false},{"stop_id":"U1065Z1","name":"Černovická terasa II","arrival_time":"18:41:00","departure_time":"18:41:00","lat":49.167108,"lon":16.67608,"is_passed":false},{"stop_id":"U1581Z3","name":"Areál Slatina","arrival_time":"18:43:00","departure_time":"18:45:00","lat":49.168533,"lon":16.678786,"is_passed":false}],"43120":[{"stop_id":"U1581Z1","name":"Areál Slatina","arrival_time":"14:42:00","departure_time":"14:42:00","lat":49.168614,"lon":16.67804,"is_passed":false},{"stop_id":"U1065Z2","name":"Černovická terasa II","arrival_time":"14:42:00","departure_time":"14:42:00","lat":49.168348,"lon":16.675307,"is_passed":false},{"stop_id":"U1064Z2","name":"Černovická terasa I","arrival_time":"14:43:00","departure_time":"14:43:00","lat":49.171843,"lon":16.673091,"is_passed":false},{"stop_id":"U1105Z2","name":"Ericha Roučky","arrival_time":"14:44:00","departure_time":"14:44:00","lat":49.175109,"lon":16.669439,"is_passed":false},{"stop_id":"U1741Z2","name":"Vlárská","arrival_time":"14:46:00","departure_time":"14:46:00","lat":49.180702,"lon":16.672017,"is_passed":false},{"stop_id":"U1068Z4","name":"Černovičky","arrival_time":"14:48:00","departure_time":"14:48:00","lat":49.183907,"lon":16.668247,"is_passed":false},{"stop_id":"U1501Z3","name":"Podstránská","arrival_time":"14:48:00","departure_time":"14:48:00","lat":49.186855,"lon":16.66649,"is_passed":false},{"stop_id":"U1026Z3","name":"Bílá hora","arrival_time":"14:51:00","departure_time":"14:51:00","lat":49.194009,"lon":16.668034,"is_passed":false},{"stop_id":"U1551Z1","name":"Růženin dvůr","arrival_time":"14:54:00","departure_time":"14:54:00","lat":49.203651,"lon":16.666867,"is_passed":false},{"stop_id":"U1383Z2","name":"Mikulovská","arrival_time":"14:55:00","departure_time":"14:55:00","lat":49.206311,"lon":16.664823,"is_passed":false},{"stop_id":"U1523Z2","name":"Prušánecká","arrival_time":"14:56:00","departure_time":"14:56:00","lat":49.209503,"lon":16.663369,"is_passed":false},{"stop_id":"U1743Z2","name":"Vlčnovská","arrival_time":"14:57:00","departure_time":"14:57:00","lat":49.211166,"lon":16.659638,"is_passed":false},{"stop_id":"U1128Z3","name":"Halasovo náměstí","arrival_time":"15:03:00","departure_time":"15:03:00","lat":49.223406,"lon":16.622237,"is_passed":false},{"stop_id":"U1692Z2","name":"U tunýlku","arrival_time":"15:04:00","departure_time":"15:04:00","lat":49.222902,"lon":16.617348,"is_passed":false},{"stop_id":"U1087Z2","name":"Divišova čtvrť","arrival_time":"15:05:00","departure_time":"15:05:00","lat":49.223685,"lon":16.612398,"is_passed":false},{"stop_id":"U1288Z2","name":"Královopolská strojírna","arrival_time":"15:06:00","departure_time":"15:06:00","lat":49.224075,"lon":16.607207,"is_passed":false},{"stop_id":"U1246Z2","name":"Kociánka","arrival_time":"15:07:00","departure_time":"15:07:00","lat":49.225972,"lon":16.601746,"is_passed":false},{"stop_id":"U1286Z4","name":"Královo Pole, nádraží","arrival_time":"15:10:00","departure_time":"15:10:00","lat":49.230229,"lon":16.595629,"is_passed":false},{"stop_id":"U1566Z6","name":"Semilasso","arrival_time":"15:11:00","departure_time":"15:11:00","lat":49.228248,"lon":16.593466,"is_passed":false},{"stop_id":"U1171Z4","name":"Husitská","arrival_time":"15:13:00","departure_time":"15:13:00","lat":49.224063,"lon":16.593994,"is_passed":false},{"stop_id":"U1586Z3","name":"Slovanské náměstí","arrival_time":"15:14:00","departure_time":"15:14:00","lat":49.223525,"lon":16.591009,"is_passed":false},{"stop_id":"U1567Z5","name":"Skácelova","arrival_time":"15:15:00","departure_time":"15:15:00","lat":49.221353,"lon":16.584711,"is_passed":false},{"stop_id":"U1777Z3","name":"Záhřebská","arrival_time":"15:17:00","departure_time":"15:17:00","lat":49.22001,"lon":16.579572,"is_passed":false},{"stop_id":"U1155Z1","name":"Horská","arrival_time":"15:17:00","departure_time":"15:17:00","lat":49.221621,"lon":16.579517,"is_passed":false},{"stop_id":"U1660Z3","name":"Technická","arrival_time":"15:19:00","departure_time":"15:19:00","lat":49.224462,"lon":16.579066,"is_passed":false},{"stop_id":"U1499Z1","name":"Podnikatelská","arrival_time":"15:20:00","departure_time":"15:20:00","lat":49.227371,"lon":16.576366,"is_passed":false},{"stop_id":"U1252Z2","name":"Kolejní","arrival_time":"15:22:00","departure_time":"15:22:00","lat":49.230641,"lon":16.57191,"is_passed":false},{"stop_id":"U1733Z1","name":"Vědeckotechnický park","arrival_time":"15:23:00","departure_time":"15:23:00","lat":49.2326,"lon":16.574806,"is_passed":false},{"stop_id":"U1659Z4","name":"Technologický park","arrival_time":"15:24:00","departure_time":"15:25:00","lat":49.231509,"lon":16.576781,"is_passed":false}],"43121":[{"stop_id":"U1659Z4","name":"Technologický park","arrival_time":"15:25:00","departure_time":"15:25:00","lat":49.231509,"lon":16.576781,"is_passed":false},{"stop_id":"U1104Z1","name":"Edisonova","arrival_time":"15:25:00","departure_time":"15:25:00","lat":49.22828,"lon":16.576461,"is_passed":false},{"stop_id":"U1499Z2","name":"Podnikatelská","arrival_time":"15:26:00","departure_time":"15:26:00","lat":49.227023,"lon":16.576248,"is_passed":false},{"stop_id":"U1660Z2","name":"Technická","arrival_time":"15:27:00","departure_time":"15:27:00","lat":49.223975,"lon":16.579308,"is_passed":false},{"stop_id":"U1155Z2","name":"Horská","arrival_time":"15:28:00","departure_time":"15:28:00","lat":49.221604,"lon":16.579463,"is_passed":false},{"stop_id":"U1777Z2","name":"Záhřebská","arrival_time":"15:30:00","departure_time":"15:30:00","lat":49.219845,"lon":16.580415,"is_passed":false},{"stop_id":"U1567Z6","name":"Skácelova","arrival_time":"15:32:00","departure_time":"15:32:00","lat":49.22163,"lon":16.585935,"is_passed":false},{"stop_id":"U1586Z4","name":"Slovanské náměstí","arrival_time":"15:33:00","departure_time":"15:33:00","lat":49.222774,"lon":16.591332,"is_passed":false},{"stop_id":"U1171Z3","name":"Husitská","arrival_time":"15:34:00","departure_time":"15:34:00","lat":49.223851,"lon":16.594116,"is_passed":false},{"stop_id":"U1566Z4","name":"Semilasso","arrival_time":"15:36:00","departure_time":"15:36:00","lat":49.228055,"lon":16.593438,"is_passed":false},{"stop_id":"U1286Z3","name":"Královo Pole, nádraží","arrival_time":"15:37:00","departure_time":"15:37:00","lat":49.229218,"lon":16.596271,"is_passed":false},{"stop_id":"U1388Z2","name":"Mojmírovo náměstí","arrival_time":"15:38:00","departure_time":"15:38:00","lat":49.226499,"lon":16.598423,"is_passed":false},{"stop_id":"U1246Z1","name":"Kociánka","arrival_time":"15:39:00","departure_time":"15:39:00","lat":49.225575,"lon":16.601869,"is_passed":false},{"stop_id":"U1288Z1","name":"Královopolská strojírna","arrival_time":"15:40:00","departure_time":"15:40:00","lat":49.223948,"lon":16.60736,"is_passed":false},{"stop_id":"U1087Z1","name":"Divišova čtvrť","arrival_time":"15:41:00","departure_time":"15:41:00","lat":49.223493,"lon":16.613643,"is_passed":false},{"stop_id":"U1692Z1","name":"U tunýlku","arrival_time":"15:42:00","departure_time":"15:42:00","lat":49.222688,"lon":16.617771,"is_passed":false},{"stop_id":"U1128Z4","name":"Halasovo náměstí","arrival_time":"15:44:00","departure_time":"15:44:00","lat":49.22314,"lon":16.622438,"is_passed":false},{"stop_id":"U1506Z2","name":"Poliklinika Lesná","arrival_time":"15:45:00","departure_time":"15:45:00","lat":49.222411,"lon":16.625672,"is_passed":false},{"stop_id":"U1331Z2","name":"Lesná, nádraží","arrival_time":"15:46:00","departure_time":"15:46:00","lat":49.220094,"lon":16.62942,"is_passed":false},{"stop_id":"U1646Z4","name":"Štefánikova čtvrť","arrival_time":"15:47:00","departure_time":"15:47:00","lat":49.217288,"lon":16.627693,"is_passed":false},