[{"stop_id":"U1438Z4","name":"Novolíšeňská","arrival_time":"5:04:00","departure_time":"5:04:00","lat":49.201792,"lon":16.670352,"is_passed":false},{"stop_id":"U1551Z1","name":"Růženin dvůr","arrival_time":"5:05:00","departure_time":"5:05:00","lat":49.203651,"lon":16.666867,"is_passed":false},{"stop_id":"U1623Z1","name":"Strnadova","arrival_time":"5:06:00","departure_time":"5:06:00","lat":49.205754,"lon":16.66904,"is_passed":false},{"stop_id":"U1103Z1","name":"Elplova","arrival_time":"5:08:00","departure_time":"5:08:00","lat":49.210484,"lon":16.675106,"is_passed":false},{"stop_id":"U1157Z1","name":"Horníkova","arrival_time":"5:09:00","departure_time":"5:09:00","lat":49.212138,"lon":16.676622,"is_passed":false},{"stop_id":"U1489Z1","name":"Podbělová","arrival_time":"5:10:00","departure_time":"5:10:00","lat":49.213881,"lon":16.681661,"is_passed":false},{"stop_id":"U1392Z1","name":"Molákova","arrival_time":"5:11:00","departure_time":"5:11:00","lat":49.212873,"lon":16.686835,"is_passed":false},{"stop_id":"U1208Z4","name":"Jírova","arrival_time":"5:12:00","departure_time":"5:12:00","lat":49.209099,"lon":16.688056,"is_passed":false},{"stop_id":"U1421Z2","name":"Náměstí Karla IV.","arrival_time":"5:13:00","departure_time":"5:13:00","lat":49.206113,"lon":16.69444,"is_passed":false},{"stop_id":"U1232Z2","name":"Karolíny Světlé","arrival_time":"5:14:00","departure_time":"5:14:00","lat":49.203721,"lon":16.694074,"is_passed":false},{"stop_id":"U1406Z1","name":"Muzeum dopravy","arrival_time":"5:15:00","departure_time":"5:15:00","lat":49.201045,"lon":16.69455,"is_passed":false},{"stop_id":"U1339Z1","name":"Letecká","arrival_time":"5:16:00","departure_time":"5:16:00","lat":49.197603,"lon":16.695882,"is_passed":false},{"stop_id":"U1152Z1","name":"Holzova","arrival_time":"5:17:00","departure_time":"5:17:00","lat":49.194703,"lon":16.696956,"is_passed":false},{"stop_id":"U1356Z1","name":"Malečkova","arrival_time":"5:18:00","departure_time":"5:18:00","lat":49.18583,"lon":16.69265,"is_passed":false},{"stop_id":"U1576Z1","name":"Slatina, rozcestí","arrival_time":"5:20:00","departure_time":"5:20:00","lat":49.181647,"lon":16.691923,"is_passed":false},{"stop_id":"U1292Z2","name":"Krejčího","arrival_time":"5:21:00","departure_time":"5:21:00","lat":49.177496,"lon":16.690785,"is_passed":false},{"stop_id":"U1525Z2","name":"Přemyslovo náměstí","arrival_time":"5:21:00","departure_time":"5:21:00","lat":49.176456,"lon":16.687324,"is_passed":false},{"stop_id":"U1300Z2","name":"Křehlíkova","arrival_time":"5:22:00","departure_time":"5:22:00","lat":49.174794,"lon":16.685267,"is_passed":false},{"stop_id":"U1562Z4","name":"Řípská","arrival_time":"5:24:00","departure_time":"5:24:00","lat":49.172829,"lon":16.682244,"is_passed":false},{"stop_id":"U1581Z1","name":"Areál Slatina","arrival_time":"5:25:00","departure_time":"5:25:00","lat":49.168614,"lon":16.67804,"is_passed":false},{"stop_id":"U1772Z1","name":"Za křížem","arrival_time":"5:26:00","departure_time":"5:26:00","lat":49.15982,"lon":16.670772,"is_passed":false},{"stop_id":"U1131Z1","name":"Hanácká","arrival_time":"5:28:00","departure_time":"5:28:00","lat":49.146954,"lon":16.667509,"is_passed":false},{"stop_id":"U1186Z1","name":"Chrlická","arrival_time":"5:29:00","departure_time":"5:29:00","lat":49.144276,"lon":16.66513,"is_passed":false},{"stop_id":"U1693Z1","name":"U viaduktu","arrival_time":"5:30:00","departure_time":"5:30:00","lat":49.13875,"lon":16.659846,"is_passed":false},{"stop_id":"U1187Z1","name":"Chrlické náměstí","arrival_time":"5:31:00","departure_time":"5:32:00","lat":49.135283,"lon":16.653902,"is_passed":false}]