[{"stop_id":"U1438Z4","name":"Novolíšeňská","arrival_time":"16:32:00","departure_time":"16:32:00","lat":49.201792,"lon":16.670352,"is_passed":false},{"stop_id":"U1787Z1","name":"Zetor - silnice","arrival_time":"16:34:00","departure_time":"16:34:00","lat":49.200733,"lon":16.6707,"is_passed":false},{"stop_id":"U1780Z1","name":"Zaoralova","arrival_time":"16:35:00","departure_time":"16:35:00","lat":49.200223,"lon":16.679582,"is_passed":false},{"stop_id":"U1238Z1","name":"Klicperova","arrival_time":"16:37:00","departure_time":"16:37:00","lat":49.202482,"lon":16.688386,"is_passed":false},{"stop_id":"U1232Z1","name":"Karolíny Světlé","arrival_time":"16:38:00","departure_time":"16:38:00","lat":49.2026,"lon":16.693683,"is_passed":false},{"stop_id":"U1421Z1","name":"Náměstí Karla IV.","arrival_time":"16:39:00","departure_time":"16:39:00","lat":49.206363,"lon":16.694621,"is_passed":false},{"stop_id":"U1638Z1","name":"Šimáčkova","arrival_time":"16:40:00","departure_time":"16:40:00","lat":49.209403,"lon":16.696102,"is_passed":false},{"stop_id":"U1311Z1","name":"Kubelíkova","arrival_time":"16:41:00","departure_time":"16:41:00","lat":49.212191,"lon":16.69892,"is_passed":false},{"stop_id":"U1441Z1","name":"Obecká","arrival_time":"16:42:00","departure_time":"16:42:00","lat":49.21465,"lon":16.702159,"is_passed":false},{"stop_id":"U1346Z1","name":"Líšeň, hřbitov","arrival_time":"16:44:00","departure_time":"17:01:00","lat":49.217474,"lon":16.702799,"is_passed":false}]