[{"stop_id":"U1331Z1","name":"Lesná, nádraží","arrival_time":"7:14:00","departure_time":"7:14:00","lat":49.220041,"lon":16.629534,"is_passed":false},{"stop_id":"U1506Z1","name":"Poliklinika Lesná","arrival_time":"7:15:00","departure_time":"7:15:00","lat":49.222513,"lon":16.625643,"is_passed":false},{"stop_id":"U1128Z3","name":"Halasovo náměstí","arrival_time":"7:16:00","departure_time":"7:16:00","lat":49.223406,"lon":16.622237,"is_passed":false},{"stop_id":"U1692Z2","name":"U tunýlku","arrival_time":"7:17:00","departure_time":"7:17:00","lat":49.222902,"lon":16.617348,"is_passed":false},{"stop_id":"U1087Z2","name":"Divišova čtvrť","arrival_time":"7:18:00","departure_time":"7:18:00","lat":49.223685,"lon":16.612398,"is_passed":false},{"stop_id":"U1288Z2","name":"Královopolská strojírna","arrival_time":"7:19:00","departure_time":"7:19:00","lat":49.224075,"lon":16.607207,"is_passed":false},{"stop_id":"U1246Z2","name":"Kociánka","arrival_time":"7:20:00","departure_time":"7:20:00","lat":49.225972,"lon":16.601746,"is_passed":false},{"stop_id":"U1286Z4","name":"Královo Pole, nádraží","arrival_time":"7:23:00","departure_time":"7:23:00","lat":49.230229,"lon":16.595629,"is_passed":false},{"stop_id":"U1566Z6","name":"Semilasso","arrival_time":"7:24:00","departure_time":"7:24:00","lat":49.228248,"lon":16.593466,"is_passed":false},{"stop_id":"U1171Z4","name":"Husitská","arrival_time":"7:26:00","departure_time":"7:26:00","lat":49.224063,"lon":16.593994,"is_passed":false},{"stop_id":"U1586Z3","name":"Slovanské náměstí","arrival_time":"7:27:00","departure_time":"7:27:00","lat":49.223525,"lon":16.591009,"is_passed":false},{"stop_id":"U1567Z5","name":"Skácelova","arrival_time":"7:28:00","departure_time":"7:28:00","lat":49.221353,"lon":16.584711,"is_passed":false},{"stop_id":"U1777Z3","name":"Záhřebská","arrival_time":"7:30:00","departure_time":"7:30:00","lat":49.22001,"lon":16.579572,"is_passed":false},{"stop_id":"U1155Z1","name":"Horská","arrival_time":"7:30:00","departure_time":"7:30:00","lat":49.221621,"lon":16.579517,"is_passed":false},{"stop_id":"U1660Z3","name":"Technická","arrival_time":"7:32:00","departure_time":"7:32:00","lat":49.223701,"lon":16.578091,"is_passed":false},{"stop_id":"U1499Z1","name":"Podnikatelská","arrival_time":"7:33:00","departure_time":"7:33:00","lat":49.227371,"lon":16.576366,"is_passed":false},{"stop_id":"U1252Z2","name":"Kolejní","arrival_time":"7:35:00","departure_time":"7:35:00","lat":49.230641,"lon":16.57191,"is_passed":false},{"stop_id":"U1733Z1","name":"Vědeckotechnický park","arrival_time":"7:36:00","departure_time":"7:36:00","lat":49.2326,"lon":16.574806,"is_passed":false},{"stop_id":"U1659Z4","name":"Technologický park","arrival_time":"7:37:00","departure_time":"7:38:00","lat":49.231509,"lon":16.576781,"is_passed":false}]