[{"stop_id":"U1581Z1","name":"Areál Slatina","arrival_time":"17:13:00","departure_time":"17:13:00","lat":49.168614,"lon":16.67804,"is_passed":false},{"stop_id":"U1065Z2","name":"Černovická terasa II","arrival_time":"17:13:00","departure_time":"17:13:00","lat":49.168348,"lon":16.675307,"is_passed":false},{"stop_id":"U1064Z2","name":"Černovická terasa I","arrival_time":"17:14:00","departure_time":"17:14:00","lat":49.171843,"lon":16.673091,"is_passed":false},{"stop_id":"U1105Z4","name":"Ericha Roučky","arrival_time":"17:16:00","departure_time":"17:16:00","lat":49.175789,"lon":16.668403,"is_passed":false},{"stop_id":"U1739Z2","name":"Vlastimila Pecha","arrival_time":"17:17:00","departure_time":"17:17:00","lat":49.179751,"lon":16.662407,"is_passed":false},{"stop_id":"U1665Z2","name":"Těžební","arrival_time":"17:18:00","departure_time":"17:18:00","lat":49.182639,"lon":16.656437,"is_passed":false},{"stop_id":"U1641Z1","name":"Škroupova","arrival_time":"17:23:00","departure_time":"17:23:00","lat":49.192022,"lon":16.648112,"is_passed":false},{"stop_id":"U1473Z4","name":"Otakara Ševčíka","arrival_time":"17:24:00","departure_time":"17:24:00","lat":49.194988,"lon":16.646643,"is_passed":false},{"stop_id":"U1611Z6","name":"Stará osada","arrival_time":"17:27:00","departure_time":"17:27:00","lat":49.201731,"lon":16.642184,"is_passed":false},{"stop_id":"U1809Z1","name":"Židenice, nádraží","arrival_time":"17:30:00","departure_time":"17:31:00","lat":49.20162,"lon":16.635716,"is_passed":false}]