[{"stop_id":"U1337Z2","name":"Letiště Tuřany - terminál","arrival_time":"6:11:00","departure_time":"6:11:00","lat":49.154845,"lon":16.692583,"is_passed":false},{"stop_id":"U1334Z2","name":"Letiště - logistický areál","arrival_time":"6:13:00","departure_time":"6:13:00","lat":49.156979,"lon":16.699058,"is_passed":false},{"stop_id":"U7502Z2","name":"CTPark Brno South","arrival_time":"6:14:00","departure_time":"6:14:00","lat":49.160548,"lon":16.700716,"is_passed":false},{"stop_id":"U1010Z2","name":"Airport Park","arrival_time":"6:17:00","departure_time":"6:17:00","lat":49.158031,"lon":16.683199,"is_passed":false},{"stop_id":"U1581Z1","name":"Areál Slatina","arrival_time":"6:21:00","departure_time":"6:22:00","lat":49.168614,"lon":16.67804,"is_passed":false},{"stop_id":"U1065Z2","name":"Černovická terasa II","arrival_time":"6:22:00","departure_time":"6:22:00","lat":49.168348,"lon":16.675307,"is_passed":false},{"stop_id":"U1064Z2","name":"Černovická terasa I","arrival_time":"6:23:00","departure_time":"6:23:00","lat":49.171843,"lon":16.673091,"is_passed":false},{"stop_id":"U1105Z4","name":"Ericha Roučky","arrival_time":"6:25:00","departure_time":"6:25:00","lat":49.175789,"lon":16.668403,"is_passed":false},{"stop_id":"U1739Z2","name":"Vlastimila Pecha","arrival_time":"6:26:00","departure_time":"6:26:00","lat":49.179751,"lon":16.662407,"is_passed":false},{"stop_id":"U1665Z2","name":"Těžební","arrival_time":"6:27:00","departure_time":"6:27:00","lat":49.182639,"lon":16.656437,"is_passed":false},{"stop_id":"U1455Z2","name":"Olomoucká - u školy","arrival_time":"6:29:00","departure_time":"6:29:00","lat":49.186437,"lon":16.652477,"is_passed":false},{"stop_id":"U1598Z2","name":"Spáčilova","arrival_time":"6:30:00","departure_time":"6:30:00","lat":49.188617,"lon":16.641569,"is_passed":false},{"stop_id":"U1677Z2","name":"Tržní","arrival_time":"6:33:00","departure_time":"6:33:00","lat":49.189407,"lon":16.629972,"is_passed":false},{"stop_id":"U1144Z2","name":"Hladíkova","arrival_time":"6:33:00","departure_time":"6:33:00","lat":49.187865,"lon":16.625741,"is_passed":false},{"stop_id":"U1011Z3","name":"Autobusové nádraží","arrival_time":"6:35:00","departure_time":"6:35:00","lat":49.186909,"lon":16.617974,"is_passed":false},{"stop_id":"U1716Z3","name":"Úzká","arrival_time":"6:38:00","departure_time":"7:02:00","lat":49.189244,"lon":16.613733,"is_passed":false}]