[{"stop_id":"U1071Z2","name":"Červený písek","arrival_time":"17:31:00","departure_time":"17:31:00","lat":49.220452,"lon":16.657444,"is_passed":false},{"stop_id":"U1503Z3","name":"Podzimní","arrival_time":"17:31:00","departure_time":"17:31:00","lat":49.22165,"lon":16.652917,"is_passed":false},{"stop_id":"U1197Z3","name":"Jarní ČD","arrival_time":"17:32:00","departure_time":"17:32:00","lat":49.22026,"lon":16.652902,"is_passed":false},{"stop_id":"U1808Z2","name":"Železniční stavitelství","arrival_time":"17:33:00","departure_time":"17:33:00","lat":49.216798,"lon":16.654101,"is_passed":false},{"stop_id":"U1791Z1","name":"Zimní I","arrival_time":"17:34:00","departure_time":"17:34:00","lat":49.213186,"lon":16.658794,"is_passed":false},{"stop_id":"U1792Z1","name":"Zimní II","arrival_time":"17:35:00","departure_time":"17:35:00","lat":49.213409,"lon":16.655937,"is_passed":false},{"stop_id":"U1083Z2","name":"Depo ČD","arrival_time":"17:36:00","departure_time":"17:36:00","lat":49.214319,"lon":16.652131,"is_passed":false},{"stop_id":"U1316Z2","name":"Kulkova","arrival_time":"17:36:00","departure_time":"17:36:00","lat":49.211681,"lon":16.648344,"is_passed":false},{"stop_id":"U1498Z2","name":"Podsednická","arrival_time":"17:37:00","departure_time":"17:37:00","lat":49.209601,"lon":16.645873,"is_passed":false},{"stop_id":"U1698Z2","name":"Údolíček","arrival_time":"17:38:00","departure_time":"17:38:00","lat":49.206553,"lon":16.643865,"is_passed":false},{"stop_id":"U1631Z1","name":"Svatoplukova","arrival_time":"17:40:00","departure_time":"17:40:00","lat":49.2051,"lon":16.641425,"is_passed":false},{"stop_id":"U1611Z9","name":"Stará osada","arrival_time":"17:42:00","departure_time":"17:42:00","lat":49.202037,"lon":16.641659,"is_passed":false},{"stop_id":"U1313Z2","name":"Kuldova","arrival_time":"17:44:00","departure_time":"17:44:00","lat":49.201319,"lon":16.634551,"is_passed":false},{"stop_id":"U1669Z1","name":"Tomáškova","arrival_time":"17:45:00","departure_time":"17:45:00","lat":49.198844,"lon":16.631798,"is_passed":false},{"stop_id":"U1713Z1","name":"Uzavřená","arrival_time":"17:46:00","departure_time":"17:46:00","lat":49.196566,"lon":16.633434,"is_passed":false},{"stop_id":"U1203Z1","name":"Jílkova","arrival_time":"17:47:00","departure_time":"17:47:00","lat":49.195907,"lon":16.637881,"is_passed":false},{"stop_id":"U1116Z2","name":"Geislerova","arrival_time":"17:49:00","departure_time":"17:49:00","lat":49.192754,"lon":16.634757,"is_passed":false},{"stop_id":"U1814Z6","name":"Životského","arrival_time":"17:50:00","departure_time":"17:50:00","lat":49.190736,"lon":16.63382,"is_passed":false},{"stop_id":"U1372Z6","name":"Masná","arrival_time":"17:53:00","departure_time":"17:53:00","lat":49.190905,"lon":16.626023,"is_passed":false},{"stop_id":"U1144Z3","name":"Hladíkova","arrival_time":"17:54:00","departure_time":"17:54:00","lat":49.186729,"lon":16.626124,"is_passed":false},{"stop_id":"U1639Z1","name":"Škrobárenská","arrival_time":"17:55:00","departure_time":"17:55:00","lat":49.182466,"lon":16.626261,"is_passed":false},{"stop_id":"U1266Z3","name":"Konopná","arrival_time":"17:57:00","departure_time":"17:57:00","lat":49.180126,"lon":16.621339,"is_passed":false},{"stop_id":"U1256Z3","name":"Komárov","arrival_time":"17:59:00","departure_time":"17:59:00","lat":49.17444,"lon":16.622448,"is_passed":false},{"stop_id":"U1148Z1","name":"Hněvkovského","arrival_time":"18:00:00","departure_time":"18:00:00","lat":49.169807,"lon":16.625991,"is_passed":false},{"stop_id":"U1533Z1","name":"Ráječek","arrival_time":"18:03:00","departure_time":"18:03:00","lat":49.160802,"lon":16.638242,"is_passed":false},{"stop_id":"U1511Z1","name":"Popelova","arrival_time":"18:04:00","departure_time":"18:04:00","lat":49.156621,"lon":16.646516,"is_passed":false},{"stop_id":"U1518Z1","name":"Prodloužená","arrival_time":"18:05:00","departure_time":"18:05:00","lat":49.151349,"lon":16.647722,"is_passed":false},{"stop_id":"U1717Z1","name":"V aleji","arrival_time":"18:06:00","departure_time":"18:06:00","lat":49.147687,"lon":16.648637,"is_passed":false},{"stop_id":"U1151Z1","name":"Holásky","arrival_time":"18:08:00","departure_time":"18:08:00","lat":49.143624,"lon":16.650395,"is_passed":false},{"stop_id":"U1718Z1","name":"V rejích","arrival_time":"18:09:00","departure_time":"18:09:00","lat":49.139511,"lon":16.654735,"is_passed":false},{"stop_id":"U1187Z1","name":"Chrlické náměstí","arrival_time":"18:11:00","departure_time":"18:11:00","lat":49.135283,"lon":16.653902,"is_passed":false},{"stop_id":"U1183Z1","name":"Chrlice, nádraží","arrival_time":"18:12:00","departure_time":"18:12:00","lat":49.131712,"lon":16.656596,"is_passed":false},{"stop_id":"U1182Z1","name":"Chrlice, smyčka","arrival_time":"18:14:00","departure_time":"18:52:00","lat":49.126642,"lon":16.654642,"is_passed":false}]