[{"stop_id":"U13467Z2","name":"Pernštejnské Jestřabí, Maňová","arrival_time":"6:48:00","departure_time":"6:48:00","lat":49.415564,"lon":16.332006,"is_passed":false},{"stop_id":"U13504Z2","name":"Doubravník, náměstí","arrival_time":"6:53:00","departure_time":"6:53:00","lat":49.424698,"lon":16.35174,"is_passed":false},{"stop_id":"U13505Z2","name":"Doubravník, Prudká, rozcestí","arrival_time":"6:57:00","departure_time":"6:57:00","lat":49.422025,"lon":16.370061,"is_passed":false},{"stop_id":"U13502Z2","name":"Běleč, dolní konec","arrival_time":"6:58:00","departure_time":"6:58:00","lat":49.428406,"lon":16.375999,"is_passed":false},{"stop_id":"U13503Z1","name":"Běleč, Křeptov","arrival_time":"7:02:00","departure_time":"7:02:00","lat":49.440602,"lon":16.378132,"is_passed":false},{"stop_id":"U13501Z1","name":"Běleč","arrival_time":"7:04:00","departure_time":"7:04:00","lat":49.433212,"lon":16.384372,"is_passed":false},{"stop_id":"U13422Z2","name":"Ochoz u Tišnova","arrival_time":"7:06:00","departure_time":"7:06:00","lat":49.42737,"lon":16.393555,"is_passed":false},{"stop_id":"U13435Z1","name":"Synalov, rozcestí","arrival_time":"7:07:00","departure_time":"7:07:00","lat":49.420267,"lon":16.399215,"is_passed":false},{"stop_id":"U13434Z1","name":"Synalov","arrival_time":"7:11:00","departure_time":"7:11:00","lat":49.432263,"lon":16.41387,"is_passed":false},{"stop_id":"U13435Z2","name":"Synalov, rozcestí","arrival_time":"7:15:00","departure_time":"7:15:00","lat":49.4199,"lon":16.398823,"is_passed":false},{"stop_id":"U13421Z1","name":"Lomnice, Družstevní","arrival_time":"7:17:00","departure_time":"7:17:00","lat":49.410052,"lon":16.408305,"is_passed":false},{"stop_id":"U13419Z1","name":"Lomnice, náměstí","arrival_time":"7:19:00","departure_time":"7:20:00","lat":49.403322,"lon":16.414044,"is_passed":false}]