[{"stop_id":"U1223Z2","name":"Kamenný vrch","arrival_time":"4:08:00","departure_time":"4:08:00","lat":49.179747,"lon":16.547764,"is_passed":false},{"stop_id":"U1443Z2","name":"Oblá","arrival_time":"4:09:00","departure_time":"4:09:00","lat":49.177425,"lon":16.552647,"is_passed":false},{"stop_id":"U1263Z2","name":"Koniklecová","arrival_time":"4:10:00","departure_time":"4:10:00","lat":49.176417,"lon":16.559347,"is_passed":false},{"stop_id":"U1078Z1","name":"Čtvrtě","arrival_time":"4:11:00","departure_time":"4:11:00","lat":49.178814,"lon":16.56227,"is_passed":false},{"stop_id":"U1532Z1","name":"Raisova","arrival_time":"4:11:00","departure_time":"4:11:00","lat":49.182247,"lon":16.562612,"is_passed":false},{"stop_id":"U1241Z1","name":"Kluchova","arrival_time":"4:12:00","departure_time":"4:12:00","lat":49.183183,"lon":16.563258,"is_passed":false},{"stop_id":"U1332Z1","name":"Lesní","arrival_time":"4:12:00","departure_time":"4:12:00","lat":49.185631,"lon":16.564655,"is_passed":false},{"stop_id":"U1007Z4","name":"Anthropos","arrival_time":"4:14:00","departure_time":"4:14:00","lat":49.193356,"lon":16.56677,"is_passed":false},{"stop_id":"U1487Z6","name":"Pisárky","arrival_time":"4:15:00","departure_time":"4:15:00","lat":49.193537,"lon":16.570797,"is_passed":false},{"stop_id":"U1320Z2","name":"Květná","arrival_time":"4:16:00","departure_time":"4:16:00","lat":49.193384,"lon":16.576691,"is_passed":false},{"stop_id":"U1478Z4","name":"Pavlíkova","arrival_time":"4:16:00","departure_time":"4:16:00","lat":49.194603,"lon":16.584264,"is_passed":false},{"stop_id":"U1723Z2","name":"Vaňkovo náměstí","arrival_time":"4:17:00","departure_time":"4:17:00","lat":49.194962,"lon":16.586678,"is_passed":false},{"stop_id":"U1816Z2","name":"Žlutý kopec","arrival_time":"4:17:00","departure_time":"4:17:00","lat":49.195368,"lon":16.588271,"is_passed":false},{"stop_id":"U1682Z2","name":"Tvrdého","arrival_time":"4:18:00","departure_time":"4:18:00","lat":49.196917,"lon":16.592895,"is_passed":false},{"stop_id":"U1712Z4","name":"Úvoz","arrival_time":"4:19:00","departure_time":"4:19:00","lat":49.198264,"lon":16.59531,"is_passed":false},{"stop_id":"U1442Z2","name":"Obilní trh","arrival_time":"4:19:00","departure_time":"4:19:00","lat":49.198022,"lon":16.598215,"is_passed":false},{"stop_id":"U1257Z2","name":"Komenského náměstí","arrival_time":"4:20:00","departure_time":"4:20:00","lat":49.197135,"lon":16.602612,"is_passed":false},{"stop_id":"U1073Z2","name":"Česká","arrival_time":"4:21:00","departure_time":"4:21:00","lat":49.197702,"lon":16.606463,"is_passed":false},{"stop_id":"U1357Z4","name":"Malinovského náměstí","arrival_time":"4:23:00","departure_time":"4:23:00","lat":49.195612,"lon":16.613248,"is_passed":false},{"stop_id":"U1146Z11","name":"Hlavní nádraží","arrival_time":"4:25:00","departure_time":"4:30:00","lat":49.191728,"lon":16.613768,"is_passed":false},{"stop_id":"U1716Z1","name":"Úzká","arrival_time":"4:31:00","departure_time":"4:31:00","lat":49.189807,"lon":16.614666,"is_passed":false},{"stop_id":"U1011Z1","name":"Autobusové nádraží","arrival_time":"4:32:00","departure_time":"4:32:00","lat":49.185873,"lon":16.61787,"is_passed":false},{"stop_id":"U1807Z1","name":"Železniční","arrival_time":"4:32:00","departure_time":"4:32:00","lat":49.18274,"lon":16.619609,"is_passed":false},{"stop_id":"U1266Z3","name":"Konopná","arrival_time":"4:33:00","departure_time":"4:33:00","lat":49.180126,"lon":16.621339,"is_passed":false},{"stop_id":"U1256Z3","name":"Komárov","arrival_time":"4:35:00","departure_time":"4:35:00","lat":49.17444,"lon":16.622448,"is_passed":false},{"stop_id":"U1148Z1","name":"Hněvkovského","arrival_time":"4:36:00","departure_time":"4:36:00","lat":49.169807,"lon":16.625991,"is_passed":false},{"stop_id":"U1533Z1","name":"Ráječek","arrival_time":"4:37:00","departure_time":"4:37:00","lat":49.160802,"lon":16.638242,"is_passed":false},{"stop_id":"U1511Z1","name":"Popelova","arrival_time":"4:38:00","departure_time":"4:38:00","lat":49.156621,"lon":16.646516,"is_passed":false},{"stop_id":"U1518Z1","name":"Prodloužená","arrival_time":"4:39:00","departure_time":"4:39:00","lat":49.151349,"lon":16.647722,"is_passed":false},{"stop_id":"U1717Z1","name":"V aleji","arrival_time":"4:40:00","departure_time":"4:40:00","lat":49.147687,"lon":16.648637,"is_passed":false},{"stop_id":"U1151Z1","name":"Holásky","arrival_time":"4:41:00","departure_time":"4:41:00","lat":49.143624,"lon":16.650395,"is_passed":false},{"stop_id":"U1543Z1","name":"Rolencova","arrival_time":"4:42:00","departure_time":"4:42:00","lat":49.145069,"lon":16.655039,"is_passed":false},{"stop_id":"U1154Z2","name":"Holásecká","arrival_time":"4:43:00","departure_time":"4:43:00","lat":49.147689,"lon":16.661673,"is_passed":false},{"stop_id":"U1131Z1","name":"Hanácká","arrival_time":"4:45:00","departure_time":"4:45:00","lat":49.146954,"lon":16.667509,"is_passed":false},{"stop_id":"U1186Z1","name":"Chrlická","arrival_time":"4:46:00","departure_time":"4:46:00","lat":49.144276,"lon":16.66513,"is_passed":false},{"stop_id":"U1693Z1","name":"U viaduktu","arrival_time":"4:47:00","departure_time":"4:47:00","lat":49.13875,"lon":16.659846,"is_passed":false},{"stop_id":"U1187Z1","name":"Chrlické náměstí","arrival_time":"4:48:00","departure_time":"4:48:00","lat":49.135283,"lon":16.653902,"is_passed":false},{"stop_id":"U1183Z1","name":"Chrlice, nádraží","arrival_time":"4:49:00","departure_time":"4:49:00","lat":49.131712,"lon":16.656596,"is_passed":false},{"stop_id":"U1182Z4","name":"Chrlice, smyčka","arrival_time":"4:50:00","departure_time":"4:50:00","lat":49.126443,"lon":16.654784,"is_passed":false},{"stop_id":"U1547Z1","name":"Roviny","arrival_time":"4:53:00","departure_time":"4:53:00","lat":49.127938,"lon":16.681267,"is_passed":false},{"stop_id":"U1671Z1","name":"Tovární","arrival_time":"4:54:00","departure_time":"4:54:00","lat":49.133433,"lon":16.673552,"is_passed":false}]