{"438":[{"stop_id":"U12736Z51","name":"Letovice, železniční stanice","arrival_time":"22:59:00","departure_time":"22:59:00","lat":49.555973,"lon":16.570906,"is_passed":false},{"stop_id":"U22702Z2","name":"Letovice zastávka","arrival_time":"23:01:00","departure_time":"23:02:00","lat":49.536152,"lon":16.576186,"is_passed":false},{"stop_id":"U22602Z2","name":"Svitávka","arrival_time":"23:06:00","departure_time":"23:06:00","lat":49.499434,"lon":16.599208,"is_passed":false},{"stop_id":"U12676Z51","name":"Skalice nad Svitavou, žel.st.","arrival_time":"23:09:00","departure_time":"23:09:00","lat":49.480123,"lon":16.609726,"is_passed":false},{"stop_id":"U12511Z51","name":"Doubravice, žel.st.","arrival_time":"23:14:00","departure_time":"23:14:00","lat":49.438707,"lon":16.621809,"is_passed":false},{"stop_id":"U12439Z51","name":"Rájec-Jestřebí, železniční stanice","arrival_time":"23:17:00","departure_time":"23:18:00","lat":49.408206,"lon":16.627711,"is_passed":false},{"stop_id":"U22301Z2","name":"Dolní Lhota","arrival_time":"23:20:00","departure_time":"23:20:00","lat":49.386917,"lon":16.633978,"is_passed":false},{"stop_id":"U22302Z2","name":"Blansko město","arrival_time":"23:22:00","departure_time":"23:23:00","lat":49.360996,"lon":16.639464,"is_passed":false},{"stop_id":"U12342Z29","name":"Blansko, aut. st.","arrival_time":"23:24:00","departure_time":"23:25:00","lat":49.352753,"lon":16.646848,"is_passed":false},{"stop_id":"U12231Z11","name":"Adamov, železniční zastávka","arrival_time":"23:30:00","departure_time":"23:31:00","lat":49.300671,"lon":16.650653,"is_passed":false},{"stop_id":"U12230Z11","name":"Adamov, železniční stanice","arrival_time":"23:32:00","departure_time":"23:33:00","lat":49.295341,"lon":16.663538,"is_passed":false},{"stop_id":"U12158Z11","name":"Bílovice nad Svitavou, žel. stanice","arrival_time":"23:38:00","departure_time":"23:39:00","lat":49.242715,"lon":16.673677,"is_passed":false},{"stop_id":"U1809Z11","name":"Židenice, nádraží","arrival_time":"23:44:00","departure_time":"23:44:00","lat":49.204282,"lon":16.636042,"is_passed":false},{"stop_id":"U1146Z98","name":"Hlavní nádraží","arrival_time":"23:48:00","departure_time":"23:48:00","lat":49.19035,"lon":16.612342,"is_passed":false}],"4380":[{"stop_id":"U14315Z2","name":"Zbraslav","arrival_time":"20:54:00","departure_time":"20:54:00","lat":49.220975,"lon":16.295838,"is_passed":false},{"stop_id":"U14318Z2","name":"Zbraslav, Malinovského","arrival_time":"20:55:00","departure_time":"20:55:00","lat":49.217557,"lon":16.298735,"is_passed":false},{"stop_id":"U14314Z2","name":"Příbram na Moravě, rozc. 2.0","arrival_time":"20:57:00","departure_time":"20:57:00","lat":49.204666,"lon":16.31052,"is_passed":false},{"stop_id":"U14241Z2","name":"Zastávka, Kopečky","arrival_time":"21:01:00","departure_time":"21:01:00","lat":49.196112,"lon":16.359187,"is_passed":false},{"stop_id":"U14239Z1","name":"Zastávka, Dům zdraví","arrival_time":"21:04:00","departure_time":"21:04:00","lat":49.186831,"lon":16.361669,"is_passed":false},{"stop_id":"U14242Z10","name":"Zastávka, železniční stanice","arrival_time":"21:07:00","departure_time":"21:07:00","lat":49.187164,"lon":16.360086,"is_passed":false}],"4381":[{"stop_id":"U14242Z4","name":"Zastávka, železniční stanice","arrival_time":"21:19:00","departure_time":"21:19:00","lat":49.187553,"lon":16.359243,"is_passed":false},{"stop_id":"U14224Z1","name":"Babice u Rosic","arrival_time":"21:22:00","departure_time":"21:22:00","lat":49.171094,"lon":16.359022,"is_passed":false},{"stop_id":"U14338Z1","name":"Zbýšov, Sička","arrival_time":"21:24:00","departure_time":"21:24:00","lat":49.166783,"lon":16.353281,"is_passed":false},{"stop_id":"U14334Z1","name":"Zbýšov, internát","arrival_time":"21:26:00","departure_time":"21:26:00","lat":49.161984,"lon":16.344287,"is_passed":false},{"stop_id":"U14330Z1","name":"Zakřany, Jednota","arrival_time":"21:30:00","departure_time":"21:30:00","lat":49.168713,"lon":16.331422,"is_passed":false},{"stop_id":"U14331Z1","name":"Zakřany, obecní úřad","arrival_time":"21:31:00","departure_time":"21:31:00","lat":49.170393,"lon":16.325588,"is_passed":false},{"stop_id":"U14332Z1","name":"Zakřany, ZD","arrival_time":"21:32:00","departure_time":"21:32:00","lat":49.169187,"lon":16.319818,"is_passed":false},{"stop_id":"U14324Z1","name":"Lukovany, u kapličky","arrival_time":"21:34:00","departure_time":"21:34:00","lat":49.163321,"lon":16.3027,"is_passed":false},{"stop_id":"U14322Z1","name":"Lukovany, na dolině","arrival_time":"21:35:00","departure_time":"21:35:00","lat":49.162995,"lon":16.299642,"is_passed":false},{"stop_id":"U14323Z1","name":"Lukovany, točna","arrival_time":"21:36:00","departure_time":"21:36:00","lat":49.163362,"lon":16.295969,"is_passed":false}],"4382":[{"stop_id":"U14242Z2","name":"Zastávka, železniční stanice","arrival_time":"5:17:00","departure_time":"5:17:00","lat":49.187449,"lon":16.359445,"is_passed":false},{"stop_id":"U14239Z2","name":"Zastávka, Dům zdraví","arrival_time":"5:18:00","departure_time":"5:18:00","lat":49.186967,"lon":16.361933,"is_passed":false},{"stop_id":"U14225Z2","name":"Rosice, ADOSA","arrival_time":"5:20:00","departure_time":"5:20:00","lat":49.183986,"lon":16.370956,"is_passed":false},{"stop_id":"U14229Z2","name":"Rosice, Kamínky","arrival_time":"5:22:00","departure_time":"5:22:00","lat":49.184668,"lon":16.382321,"is_passed":false},{"stop_id":"U14235Z2","name":"Rosice, Trávníky","arrival_time":"5:24:00","departure_time":"5:24:00","lat":49.183467,"lon":16.390594,"is_passed":false},{"stop_id":"U14226Z2","name":"Rosice, Brněnská","arrival_time":"5:26:00","departure_time":"5:26:00","lat":49.182913,"lon":16.39836,"is_passed":false},{"stop_id":"U14233Z2","name":"Rosice, STK","arrival_time":"5:27:00","departure_time":"5:27:00","lat":49.184703,"lon":16.405114,"is_passed":false},{"stop_id":"U14111Z2","name":"Omice, Kývalka","arrival_time":"5:31:00","departure_time":"5:31:00","lat":49.189889,"lon":16.452549,"is_passed":false},{"stop_id":"U14133Z2","name":"Popůvky, Vintrovna","arrival_time":"5:34:00","departure_time":"5:34:00","lat":49.181645,"lon":16.49075,"is_passed":false},{"stop_id":"U14160Z2","name":"Troubsko, Veselka","arrival_time":"5:36:00","departure_time":"5:36:00","lat":49.176834,"lon":16.503674,"is_passed":false},{"stop_id":"U14107Z2","name":"Troubsko, Kovopodnik","arrival_time":"5:37:00","departure_time":"5:37:00","lat":49.175782,"lon":16.511673,"is_passed":false},{"stop_id":"U1672Z2","name":"Tranzitní plynovod","arrival_time":"5:38:00","departure_time":"5:38:00","lat":49.174004,"lon":16.523133,"is_passed":false},{"stop_id":"U1516Z1","name":"Pražská","arrival_time":"5:39:00","departure_time":"5:39:00","lat":49.173478,"lon":16.531543,"is_passed":false},{"stop_id":"U1568Z2","name":"Skalní","arrival_time":"5:40:00","departure_time":"5:40:00","lat":49.174201,"lon":16.537903,"is_passed":false},{"stop_id":"U1202Z2","name":"Jemelkova","arrival_time":"5:41:00","departure_time":"5:41:00","lat":49.173163,"lon":16.54872,"is_passed":false},{"stop_id":"U1632Z2","name":"Svážná","arrival_time":"5:42:00","departure_time":"5:42:00","lat":49.173409,"lon":16.553508,"is_passed":false},{"stop_id":"U1429Z7","name":"Nemocnice Bohunice","arrival_time":"5:45:00","departure_time":"6:12:00","lat":49.176176,"lon":16.567045,"is_passed":false}],"4383":[{"stop_id":"U1429Z7","name":"Nemocnice Bohunice","arrival_time":"6:12:00","departure_time":"6:12:00","lat":49.176176,"lon":16.567045,"is_passed":false},{"stop_id":"U1632Z1","name":"Svážná","arrival_time":"6:14:00","departure_time":"6:14:00","lat":49.173544,"lon":16.553381,"is_passed":false},{"stop_id":"U1202Z1","name":"Jemelkova","arrival_time":"6:14:00","departure_time":"6:14:00","lat":49.173333,"lon":16.548692,"is_passed":false},{"stop_id":"U1568Z1","name":"Skalní","arrival_time":"6:16:00","departure_time":"6:16:00","lat":49.174278,"lon":16.534362,"is_passed":false},{"stop_id":"U1161Z3","name":"Hoštická","arrival_time":"6:17:00","departure_time":"6:17:00","lat":49.173743,"lon":16.529523,"is_passed":false},{"stop_id":"U1672Z1","name":"Tranzitní plynovod","arrival_time":"6:18:00","departure_time":"6:18:00","lat":49.174213,"lon":16.522313,"is_passed":false},{"stop_id":"U14107Z1","name":"Troubsko, Kovopodnik","arrival_time":"6:19:00","departure_time":"6:19:00","lat":49.175866,"lon":16.511544,"is_passed":false},{"stop_id":"U14160Z1","name":"Troubsko, Veselka","arrival_time":"6:20:00","departure_time":"6:20:00","lat":49.176905,"lon":16.503284,"is_passed":false},{"stop_id":"U14133Z1","name":"Popůvky, Vintrovna","arrival_time":"6:22:00","departure_time":"6:22:00","lat":49.181813,"lon":16.490518,"is_passed":false},{"stop_id":"U14111Z1","name":"Omice, Kývalka","arrival_time":"6:25:00","departure_time":"6:25:00","lat":49.190139,"lon":16.451061,"is_passed":false},{"stop_id":"U14233Z1","name":"Rosice, STK","arrival_time":"6:29:00","departure_time":"6:29:00","lat":49.184733,"lon":16.404825,"is_passed":false},{"stop_id":"U14226Z1","name":"Rosice, Brněnská","arrival_time":"6:30:00","departure_time":"6:30:00","lat":49.182964,"lon":16.39814,"is_passed":false},{"stop_id":"U14235Z1","name":"Rosice, Trávníky","arrival_time":"6:31:00","departure_time":"6:31:00","lat":49.183539,"lon":16.390958,"is_passed":false},{"stop_id":"U14229Z1","name":"Rosice, Kamínky","arrival_time":"6:32:00","departure_time":"6:32:00","lat":49.184836,"lon":16.382997,"is_passed":false},{"stop_id":"U14225Z1","name":"Rosice, ADOSA","arrival_time":"6:34:00","departure_time":"6:34:00","lat":49.184094,"lon":16.370947,"is_passed":false},{"stop_id":"U14239Z1","name":"Zastávka, Dům zdraví","arrival_time":"6:36:00","departure_time":"6:36:00","lat":49.186831,"lon":16.361669,"is_passed":false},{"stop_id":"U14242Z10","name":"Zastávka, železniční stanice","arrival_time":"6:39:00","departure_time":"7:17:00","lat":49.187164,"lon":16.360086,"is_passed":false}],"4384":[{"stop_id":"U14242Z2","name":"Zastávka, železniční stanice","arrival_time":"7:17:00","departure_time":"7:17:00","lat":49.187449,"lon":16.359445,"is_passed":false},{"stop_id":"U14239Z2","name":"Zastávka, Dům zdraví","arrival_time":"7:18:00","departure_time":"7:18:00","lat":49.186967,"lon":16.361933,"is_passed":false},{"stop_id":"U14225Z2","name":"Rosice, ADOSA","arrival_time":"7:20:00","departure_time":"7:20:00","lat":49.183986,"lon":16.370956,"is_passed":false},{"stop_id":"U14229Z2","name":"Rosice, Kamínky","arrival_time":"7:22:00","departure_time":"7:22:00","lat":49.184668,"lon":16.382321,"is_passed":false},{"stop_id":"U14235Z2","name":"Rosice, Trávníky","arrival_time":"7:24:00","departure_time":"7:24:00","lat":49.183467,"lon":16.390594,"is_passed":false},{"stop_id":"U14226Z2","name":"Rosice, Brněnská","arrival_time":"7:26:00","departure_time":"7:26:00","lat":49.182913,"lon":16.39836,"is_passed":false},{"stop_id":"U14233Z2","name":"Rosice, STK","arrival_time":"7:27:00","departure_time":"7:27:00","lat":49.184703,"lon":16.405114,"is_passed":false},{"stop_id":"U14111Z2","name":"Omice, Kývalka","arrival_time":"7:31:00","departure_time":"7:31:00","lat":49.189889,"lon":16.452549,"is_passed":false},{"stop_id":"U14133Z2","name":"Popůvky, Vintrovna","arrival_time":"7:34:00","departure_time":"7:34:00","lat":49.181645,"lon":16.49075,"is_passed":false},{"stop_id":"U14160Z2","name":"Troubsko, Veselka","arrival_time":"7:36:00","departure_time":"7:36:00","lat":49.176834,"lon":16.503674,"is_passed":false},{"stop_id":"U14107Z2","name":"Troubsko, Kovopodnik","arrival_time":"7:37:00","departure_time":"7:37:00","lat":49.175782,"lon":16.511673,"is_passed":false},{"stop_id":"U1672Z2","name":"Tranzitní plynovod","arrival_time":"7:38:00","departure_time":"7:38:00","lat":49.174004,"lon":16.523133,"is_passed":false},{"stop_id":"U1516Z1","name":"Pražská","arrival_time":"7:39:00","departure_time":"7:39:00","lat":49.173478,"lon":16.531543,"is_passed":false},{"stop_id":"U1568Z2","name":"Skalní","arrival_time":"7:40:00","departure_time":"7:40:00","lat":49.174201,"lon":16.537903,"is_passed":false},{"stop_id":"U1202Z2","name":"Jemelkova","arrival_time":"7:41:00","departure_time":"7:41:00","lat":49.173163,"lon":16.54872,"is_passed":false},{"stop_id":"U1632Z2","name":"Svážná","arrival_time":"7:42:00","departure_time":"7:42:00","lat":49.173409,"lon":16.553508,"is_passed":false},{"stop_id":"U1429Z7","name":"Nemocnice Bohunice","arrival_time":"7:45:00","departure_time":"7:47:00","lat":49.176176,"lon":16.567045,"is_passed":false}],"4385":[{"stop_id":"U15134Z2","name":"Modřice, smyčka","arrival_time":"11:46:00","departure_time":"11:46:00","lat":49.126517,"lon":16.604633,"is_passed":false},{"stop_id":"U15137Z4","name":"Modřice, Tyršova","arrival_time":"11:47:00","departure_time":"11:47:00","lat":49.129402,"lon":16.603203,"is_passed":false},{"stop_id":"U15168Z1","name":"Rajhrad, městský úřad","arrival_time":"11:53:00","departure_time":"11:53:00","lat":49.089663,"lon":16.603985,"is_passed":false},{"stop_id":"U15181Z5","name":"Rajhrad, železniční stanice","arrival_time":"11:55:00","departure_time":"11:55:00","lat":49.083879,"lon":16.605011,"is_passed":false},{"stop_id":"U15166Z1","name":"Rajhrad, stará pošta","arrival_time":"11:59:00","departure_time":"11:59:00","lat":49.087759,"lon":16.591479,"is_passed":false},{"stop_id":"U15182Z1","name":"Rajhrad, GEIS","arrival_time":"12:00:00","departure_time":"12:00:00","lat":49.08538,"lon":16.582,"is_passed":false},{"stop_id":"U15210Z1","name":"Syrovice","arrival_time":"12:03:00","departure_time":"12:03:00","lat":49.080328,"lon":16.548173,"is_passed":false},{"stop_id":"U15212Z1","name":"Syrovice, Sobotovická","arrival_time":"12:04:00","departure_time":"12:04:00","lat":49.077625,"lon":16.545298,"is_passed":false},{"stop_id":"U15209Z1","name":"Sobotovice, transformátor","arrival_time":"12:07:00","departure_time":"12:07:00","lat":49.061401,"lon":16.552707,"is_passed":false},{"stop_id":"U15208Z3","name":"Sobotovice","arrival_time":"12:09:00","departure_time":"12:09:00","lat":49.059067,"lon":16.558138,"is_passed":false},{"stop_id":"U15203Z3","name":"Ledce, obecní úřad","arrival_time":"12:11:00","departure_time":"12:11:00","lat":49.052175,"lon":16.555735,"is_passed":false},{"stop_id":"U15204Z3","name":"Ledce, rozcestí","arrival_time":"12:12:00","departure_time":"12:12:00","lat":49.04971,"lon":16.565488,"is_passed":false},{"stop_id":"U15255Z2","name":"Medlov, seniorcentrum","arrival_time":"12:17:00","departure_time":"12:17:00","lat":49.035713,"lon":16.528477,"is_passed":false},{"stop_id":"U15205Z1","name":"Medlov","arrival_time":"12:18:00","departure_time":"12:18:00","lat":49.034707,"lon":16.523155,"is_passed":false},{"stop_id":"U15234Z2","name":"Medlov, Kafilerie","arrival_time":"12:21:00","departure_time":"12:21:00","lat":49.017717,"lon":16.534908,"is_passed":false},{"stop_id":"U15321Z2","name":"Pohořelice, Smolín","arrival_time":"12:23:00","departure_time":"12:23:00","lat":49.007298,"lon":16.540125,"is_passed":false},{"stop_id":"U15379Z1","name":"Pohořelice, průmyslová zóna východ","arrival_time":"12:27:00","departure_time":"12:27:00","lat":48.989921,"lon":16.539353,"is_passed":false},{"stop_id":"U15315Z1","name":"Pohořelice, Brněnská","arrival_time":"12:28:00","departure_time":"12:28:00","lat":48.984843,"lon":16.529998,"is_passed":false},{"stop_id":"U15317Z51","name":"Pohořelice, náměstí","arrival_time":"12:30:00","departure_time":"12:30:00","lat":48.98068,"lon":16.522099,"is_passed":false}],"4386":[{"stop_id":"U15317Z8","name":"Pohořelice, náměstí","arrival_time":"12:30:00","departure_time":"12:30:00","lat":48.980751,"lon":16.522478,"is_passed":false},{"stop_id":"U15315Z2","name":"Pohořelice, Brněnská","arrival_time":"12:31:00","departure_time":"12:31:00","lat":48.984956,"lon":16.530513,"is_passed":false},{"stop_id":"U15379Z2","name":"Pohořelice, průmyslová zóna východ","arrival_time":"12:33:00","departure_time":"12:33:00","lat":48.990539,"lon":16.540751,"is_passed":false},{"stop_id":"U15321Z1","name":"Pohořelice, Smolín","arrival_time":"12:37:00","departure_time":"12:37:00","lat":49.007295,"lon":16.54034,"is_passed":false},{"stop_id":"U15234Z1","name":"Medlov, Kafilerie","arrival_time":"12:39:00","departure_time":"12:39:00","lat":49.017847,"lon":16.534967,"is_passed":false},{"stop_id":"U15205Z1","name":"Medlov","arrival_time":"12:42:00","departure_time":"12:42:00","lat":49.034707,"lon":16.523155,"is_passed":false},{"stop_id":"U15255Z1","name":"Medlov, seniorcentrum","arrival_time":"12:43:00","departure_time":"12:43:00","lat":49.035709,"lon":16.528745,"is_passed":false},{"stop_id":"U15204Z4","name":"Ledce, rozcestí","arrival_time":"12:48:00","departure_time":"12:48:00","lat":49.04988,"lon":16.565693,"is_passed":false},{"stop_id":"U15203Z4","name":"Ledce, obecní úřad","arrival_time":"12:49:00","departure_time":"12:49:00","lat":49.052175,"lon":16.555735,"is_passed":false},{"stop_id":"U15208Z4","name":"Sobotovice","arrival_time":"12:51:00","departure_time":"12:51:00","lat":49.059145,"lon":16.558115,"is_passed":false},{"stop_id":"U15209Z2","name":"Sobotovice, transformátor","arrival_time":"12:53:00","departure_time":"12:53:00","lat":49.061625,"lon":16.552708,"is_passed":false},{"stop_id":"U15212Z2","name":"Syrovice, Sobotovická","arrival_time":"12:56:00","departure_time":"12:56:00","lat":49.077625,"lon":16.545298,"is_passed":false},{"stop_id":"U15210Z2","name":"Syrovice","arrival_time":"12:57:00","departure_time":"12:57:00","lat":49.08029,"lon":16.548905,"is_passed":false},{"stop_id":"U15182Z2","name":"Rajhrad, GEIS","arrival_time":"12:59:00","departure_time":"12:59:00","lat":49.085595,"lon":16.583357,"is_passed":false},{"stop_id":"U15166Z2","name":"Rajhrad, stará pošta","arrival_time":"13:00:00","departure_time":"13:00:00","lat":49.087794,"lon":16.591688,"is_passed":false},{"stop_id":"U15181Z7","name":"Rajhrad, železniční stanice","arrival_time":"13:05:00","departure_time":"13:05:00","lat":49.084495,"lon":16.605152,"is_passed":false},{"stop_id":"U15168Z2","name":"Rajhrad, městský úřad","arrival_time":"13:06:00","departure_time":"13:06:00","lat":49.089963,"lon":16.60397,"is_passed":false},{"stop_id":"U15122Z4","name":"Modřice, Brněnská","arrival_time":"13:12:00","departure_time":"13:12:00","lat":49.130132,"lon":16.604936,"is_passed":false},{"stop_id":"U1393Z4","name":"Moravanská","arrival_time":"13:14:00","departure_time":"13:14:00","lat":49.142614,"lon":16.603006,"is_passed":false},{"stop_id":"U1396Z4","name":"Moravanské lány","arrival_time":"13:15:00","departure_time":"13:15:00","lat":49.149305,"lon":16.601813,"is_passed":false},{"stop_id":"U1466Z4","name":"Ořechovská","arrival_time":"13:17:00","departure_time":"13:17:00","lat":49.156124,"lon":16.600676,"is_passed":false},{"stop_id":"U1703Z5","name":"Ústřední hřbitov","arrival_time":"13:22:00","departure_time":"13:24:00","lat":49.171604,"lon":16.597316,"is_passed":false}],"4387":[{"stop_id":"U1429Z7","name":"Nemocnice Bohunice","arrival_time":"14:12:00","departure_time":"14:12:00","lat":49.176176,"lon":16.567045,"is_passed":false},{"stop_id":"U1632Z1","name":"Svážná","arrival_time":"14:14:00","departure_time":"14:14:00","lat":49.173544,"lon":16.553381,"is_passed":false},{"stop_id":"U1202Z1","name":"Jemelkova","arrival_time":"14:14:00","departure_time":"14:14:00","lat":49.173333,"lon":16.548692,"is_passed":false},{"stop_id":"U1568Z1","name":"Skalní","arrival_time":"14:16:00","departure_time":"14:16:00","lat":49.174278,"lon":16.534362,"is_passed":false},{"stop_id":"U1161Z3","name":"Hoštická","arrival_time":"14:17:00","departure_time":"14:17:00","lat":49.173743,"lon":16.529523,"is_passed":false},{"stop_id":"U1672Z1","name":"Tranzitní plynovod","arrival_time":"14:18:00","departure_time":"14:18:00","lat":49.174213,"lon":16.522313,"is_passed":false},{"stop_id":"U14107Z1","name":"Troubsko, Kovopodnik","arrival_time":"14:19:00","departure_time":"14:19:00","lat":49.175866,"lon":16.511544,"is_passed":false},{"stop_id":"U14160Z1","name":"Troubsko, Veselka","arrival_time":"14:20:00","departure_time":"14:20:00","lat":49.176905,"lon":16.503284,"is_passed":false},{"stop_id":"U14133Z1","name":"Popůvky, Vintrovna","arrival_time":"14:22:00","departure_time":"14:22:00","lat":49.181813,"lon":16.490518,"is_passed":false},{"stop_id":"U14111Z1","name":"Omice, Kývalka","arrival_time":"14:25:00","departure_time":"14:25:00","lat":49.190139,"lon":16.451061,"is_passed":false},{"stop_id":"U14233Z1","name":"Rosice, STK","arrival_time":"14:29:00","departure_time":"14:29:00","lat":49.184733,"lon":16.404825,"is_passed":false},{"stop_id":"U14226Z1","name":"Rosice, Brněnská","arrival_time":"14:30:00","departure_time":"14:30:00","lat":49.182964,"lon":16.39814,"is_passed":false},{"stop_id":"U14235Z1","name":"Rosice, Trávníky","arrival_time":"14:31:00","departure_time":"14:31:00","lat":49.183539,"lon":16.390958,"is_passed":false},{"stop_id":"U14229Z1","name":"Rosice, Kamínky","arrival_time":"14:32:00","departure_time":"14:32:00","lat":49.184836,"lon":16.382997,"is_passed":false},{"stop_id":"U14225Z1","name":"Rosice, ADOSA","arrival_time":"14:34:00","departure_time":"14:34:00","lat":49.184094,"lon":16.370947,"is_passed":false},{"stop_id":"U14239Z1","name":"Zastávka, Dům zdraví","arrival_time":"14:36:00","departure_time":"14:36:00","lat":49.186831,"lon":16.361669,"is_passed":false},{"stop_id":"U14242Z10","name":"Zastávka, železniční stanice","arrival_time":"14:39:00","departure_time":"15:17:00","lat":49.187164,"lon":16.360086,"is_passed":false}],"4388":[{"stop_id":"U14242Z2","name":"Zastávka, železniční stanice","arrival_time":"15:17:00","departure_time":"15:17:00","lat":49.187449,"lon":16.359445,"is_passed":false},{"stop_id":"U14239Z2","name":"Zastávka, Dům zdraví","arrival_time":"15:18:00","departure_time":"15:18:00","lat":49.186967,"lon":16.361933,"is_passed":false},{"stop_id":"U14225Z2","name":"Rosice, ADOSA","arrival_time":"15:20:00","departure_time":"15:20:00","lat":49.183986,"lon":16.370956,"is_passed":false},{"stop_id":"U14229Z2","name":"Rosice, Kamínky","arrival_time":"15:22:00","departure_time":"15:22:00","lat":49.184668,"lon":16.382321,"is_passed":false},{"stop_id":"U14235Z2","name":"Rosice, Trávníky","arrival_time":"15:24:00","departure_time":"15:24:00","lat":49.183467,"lon":16.390594,"is_passed":false},{"stop_id":"U14226Z2","name":"Rosice, Brněnská","arrival_time":"15:26:00","departure_time":"15:26:00","lat":49.182913,"lon":16.39836,"is_passed":false},{"stop_id":"U14233Z2","name":"Rosice, STK","arrival_time":"15:27:00","departure_time":"15:27:00","lat":49.184703,"lon":16.405114,"is_passed":false},{"stop_id":"U14111Z2","name":"Omice, Kývalka","arrival_time":"15:31:00","departure_time":"15:31:00","lat":49.189889,"lon":16.452549,"is_passed":false},{"stop_id":"U14133Z2","name":"Popůvky, Vintrovna","arrival_time":"15:34:00","departure_time":"15:34:00","lat":49.181645,"lon":16.49075,"is_passed":false},{"stop_id":"U14160Z2","name":"Troubsko, Veselka","arrival_time":"15:36:00","departure_time":"15:36:00","lat":49.176834,"lon":16.503674,"is_passed":false},{"stop_id":"U14107Z2","name":"Troubsko, Kovopodnik","arrival_time":"15:37:00","departure_time":"15:37:00","lat":49.175782,"lon":16.511673,"is_passed":false},{"stop_id":"U1672Z2","name":"Tranzitní plynovod","arrival_time":"15:38:00","departure_time":"15:38:00","lat":49.174004,"lon":16.523133,"is_passed":false},{"stop_id":"U1516Z1","name":"Pražská","arrival_time":"15:39:00","departure_time":"15:39:00","lat":49.173478,"lon":16.531543,"is_passed":false},{"stop_id":"U1568Z2","name":"Skalní","arrival_time":"15:40:00","departure_time":"15:40:00","lat":49.174201,"lon":16.537903,"is_passed":false},{"stop_id":"U1202Z2","name":"Jemelkova","arrival_time":"15:41:00","departure_time":"15:41:00","lat":49.173163,"lon":16.54872,"is_passed":false},{"stop_id":"U1632Z2","name":"Svážná","arrival_time":"15:42:00","departure_time":"15:42:00","lat":49.173409,"lon":16.553508,"is_passed":false},{"stop_id":"U1429Z7","name":"Nemocnice Bohunice","arrival_time":"15:45:00","departure_time":"16:12:00","lat":49.176176,"lon":16.567045,"is_passed":false}],"4389":[{"stop_id":"U1429Z7","name":"Nemocnice Bohunice","arrival_time":"16:12:00","departure_time":"16:12:00","lat":49.176176,"lon":16.567045,"is_passed":false},{"stop_id":"U1632Z1","name":"Svážná","arrival_time":"16:14:00","departure_time":"16:14:00","lat":49.173544,"lon":16.553381,"is_passed":false},{"stop_id":"U1202Z1","name":"Jemelkova","arrival_time":"16:14:00","departure_time":"16:14:00","lat":49.173333,"lon":16.548692,"is_passed":false},{"stop_id":"U1568Z1","name":"Skalní","arrival_time":"16:16:00","departure_time":"16:16:00","lat":49.174278,"lon":16.534362,"is_passed":false},{"stop_id":"U1161Z3","name":"Hoštická","arrival_time":"16:17:00","departure_time":"16:17:00","lat":49.173743,"lon":16.529523,"is_passed":false},{"stop_id":"U1672Z1","name":"Tranzitní plynovod","arrival_time":"16:18:00","departure_time":"16:18:00","lat":49.174213,"lon":16.522313,"is_passed":false},{"stop_id":"U14107Z1","name":"Troubsko, Kovopodnik","arrival_time":"16:19:00","departure_time":"16:19:00","lat":49.175866,"lon":16.511544,"is_passed":false},{"stop_id":"U14160Z1","name":"Troubsko, Veselka","arrival_time":"16:20:00","departure_time":"16:20:00","lat":49.176905,"lon":16.503284,"is_passed":false},{"stop_id":"U14133Z1","name":"Popůvky, Vintrovna","arrival_time":"16:22:00","departure_time":"16:22:00","lat":49.181813,"lon":16.490518,"is_passed":false},{"stop_id":"U14111Z1","name":"Omice, Kývalka","arrival_time":"16:25:00","departure_time":"16:25:00","lat":49.190139,"lon":16.451061,"is_passed":false},{"stop_id":"U14233Z1","name":"Rosice, STK","arrival_time":"16:29:00","departure_time":"16:29:00","lat":49.184733,"lon":16.404825,"is_passed":false},{"stop_id":"U14226Z1","name":"Rosice, Brněnská","arrival_time":"16:30:00","departure_time":"16:30:00","lat":49.182964,"lon":16.39814,"is_passed":false},{"stop_id":"U14235Z1","name":"Rosice, Trávníky","arrival_time":"16:31:00","departure_time":"16:31:00","lat":49.183539,"lon":16.390958,"is_passed":false},{"stop_id":"U14229Z1","name":"Rosice, Kamínky","arrival_time":"16:32:00","departure_time":"16:32:00","lat":49.184836,"lon":16.382997,"is_passed":false},{"stop_id":"U14225Z1","name":"Rosice, ADOSA","arrival_time":"16:34:00","departure_time":"16:34:00","lat":49.184094,"lon":16.370947,"is_passed":false},{"stop_id":"U14239Z1","name":"Zastávka, Dům zdraví","arrival_time":"16:36:00","departure_time":"16:36:00","lat":49.186831,"lon":16.361669,"is_passed":false},{"stop_id":"U14242Z10","name":"Zastávka, železniční stanice","arrival_time":"16:39:00","departure_time":"16:41:00","lat":49.187164,"lon":16.360086,"is_passed":false}],"43800":[{"stop_id":"U1553Z2","name":"Řečkovice","arrival_time":"9:59:00","departure_time":"9:59:00","lat":49.246978,"lon":16.5794,"is_passed":false},{"stop_id":"U1108Z2","name":"Filkukova","arrival_time":"10:00:00","departure_time":"10:00:00","lat":49.243517,"lon":16.581881,"is_passed":false},{"stop_id":"U1272Z2","name":"Kořískova","arrival_time":"10:01:00","departure_time":"10:01:00","lat":49.238898,"lon":16.584964,"is_passed":false},{"stop_id":"U1167Z2","name":"Hudcova","arrival_time":"10:02:00","departure_time":"10:02:00","lat":49.235791,"lon":16.587041,"is_passed":false},{"stop_id":"U1683Z2","name":"Tylova","arrival_time":"10:03:00","departure_time":"10:03:00","lat":49.232055,"lon":16.589539,"is_passed":false},{"stop_id":"U1566Z2","name":"Semilasso","arrival_time":"10:04:00","departure_time":"10:04:00","lat":49.228227,"lon":16.592081,"is_passed":false},{"stop_id":"U1171Z2","name":"Husitská","arrival_time":"10:06:00","departure_time":"10:06:00","lat":49.223415,"lon":16.595016,"is_passed":false},{"stop_id":"U1218Z2","name":"Jungmannova","arrival_time":"10:07:00","departure_time":"10:07:00","lat":49.221083,"lon":16.596416,"is_passed":false},{"stop_id":"U1233Z2","name":"Kartouzská","arrival_time":"10:08:00","departure_time":"10:08:00","lat":49.21665,"lon":16.599078,"is_passed":false},{"stop_id":"U1652Z2","name":"Šumavská","arrival_time":"10:09:00","departure_time":"10:09:00","lat":49.214022,"lon":16.60062,"is_passed":false},{"stop_id":"U1166Z2","name":"Hrnčířská","arrival_time":"10:10:00","departure_time":"10:10:00","lat":49.21062,"lon":16.602628,"is_passed":false},{"stop_id":"U1483Z2","name":"Pionýrská","arrival_time":"10:11:00","departure_time":"10:11:00","lat":49.207904,"lon":16.604201,"is_passed":false},{"stop_id":"U1006Z2","name":"Antonínská","arrival_time":"10:12:00","departure_time":"10:12:00","lat":49.203166,"lon":16.606915,"is_passed":false},{"stop_id":"U1397Z2","name":"Moravské náměstí","arrival_time":"10:14:00","departure_time":"10:14:00","lat":49.199237,"lon":16.608067,"is_passed":false},{"stop_id":"U1357Z4","name":"Malinovského náměstí","arrival_time":"10:17:00","departure_time":"10:17:00","lat":49.195612,"lon":16.613248,"is_passed":false},{"stop_id":"U1146Z1","name":"Hlavní nádraží","arrival_time":"10:20:00","departure_time":"10:20:00","lat":49.191185,"lon":16.611879,"is_passed":false},{"stop_id":"U1436Z1","name":"Nové sady","arrival_time":"10:21:00","departure_time":"10:21:00","lat":49.190116,"lon":16.609025,"is_passed":false},{"stop_id":"U1176Z1","name":"Hybešova","arrival_time":"10:23:00","departure_time":"10:23:00","lat":49.189322,"lon":16.602863,"is_passed":false},{"stop_id":"U1721Z1","name":"Václavská","arrival_time":"10:24:00","departure_time":"10:24:00","lat":49.188681,"lon":16.597217,"is_passed":false},{"stop_id":"U1378Z1","name":"Mendlovo náměstí","arrival_time":"10:26:00","departure_time":"10:26:00","lat":49.189659,"lon":16.592283,"is_passed":false},{"stop_id":"U1768Z1","name":"Výstaviště - hlavní vstup","arrival_time":"10:28:00","departure_time":"10:28:00","lat":49.189583,"lon":16.584499,"is_passed":false},{"stop_id":"U1769Z1","name":"Výstaviště - vstup G2","arrival_time":"10:29:00","departure_time":"10:29:00","lat":49.190338,"lon":16.579837,"is_passed":false},{"stop_id":"U1343Z1","name":"ARENA BRNO","arrival_time":"10:30:00","departure_time":"10:30:00","lat":49.191523,"lon":16.576065,"is_passed":false},{"stop_id":"U1487Z3","name":"Pisárky","arrival_time":"10:32:00","departure_time":"10:32:00","lat":49.194099,"lon":16.569741,"is_passed":false},{"stop_id":"U1041Z1","name":"Bráfova","arrival_time":"10:34:00","departure_time":"10:34:00","lat":49.206955,"lon":16.570536,"is_passed":false},{"stop_id":"U1621Z1","name":"Stránského","arrival_time":"10:35:00","departure_time":"10:35:00","lat":49.211954,"lon":16.568673,"is_passed":false},{"stop_id":"U1217Z11","name":"Vozovna Komín","arrival_time":"10:36:00","departure_time":"10:36:00","lat":49.212594,"lon":16.563449,"is_passed":false},{"stop_id":"U1633Z1","name":"Svratecká","arrival_time":"10:40:00","departure_time":"10:40:00","lat":49.217898,"lon":16.553656,"is_passed":false},{"stop_id":"U1042Z1","name":"Branka","arrival_time":"10:41:00","departure_time":"10:41:00","lat":49.219419,"lon":16.54726,"is_passed":false},{"stop_id":"U1493Z1","name":"Podlesí","arrival_time":"10:42:00","departure_time":"10:42:00","lat":49.218711,"lon":16.542392,"is_passed":false},{"stop_id":"U1226Z1","name":"Kamenolom","arrival_time":"10:43:00","departure_time":"10:43:00","lat":49.221657,"lon":16.536794,"is_passed":false},{"stop_id":"U1796Z1","name":"Zoologická zahrada","arrival_time":"10:45:00","departure_time":"10:45:00","lat":49.227674,"lon":16.532002,"is_passed":false},{"stop_id":"U1527Z1","name":"Přístaviště","arrival_time":"10:46:00","departure_time":"10:46:00","lat":49.22814,"lon":16.521658,"is_passed":false},{"stop_id":"U1537Z1","name":"Rakovecká","arrival_time":"10:48:00","departure_time":"11:07:00","lat":49.225877,"lon":16.518739,"is_passed":false}],"43801":[{"stop_id":"U1537Z2","name":"Rakovecká","arrival_time":"11:07:00","departure_time":"11:07:00","lat":49.226177,"lon":16.519315,"is_passed":false},{"stop_id":"U1527Z2","name":"Přístaviště","arrival_time":"11:08:00","departure_time":"11:08:00","lat":49.228519,"lon":16.522556,"is_passed":false},{"stop_id":"U1796Z2","name":"Zoologická zahrada","arrival_time":"11:10:00","departure_time":"11:10:00","lat":49.22774,"lon":16.531898,"is_passed":false},{"stop_id":"U1226Z2","name":"Kamenolom","arrival_time":"11:11:00","departure_time":"11:11:00","lat":49.221888,"lon":16.536713,"is_passed":false},{"stop_id":"U1493Z2","name":"Podlesí","arrival_time":"11:12:00","departure_time":"11:12:00","lat":49.21871,"lon":16.542217,"is_passed":false},{"stop_id":"U1042Z2","name":"Branka","arrival_time":"11:13:00","departure_time":"11:13:00","lat":49.219368,"lon":16.548224,"is_passed":false},{"stop_id":"U1633Z2","name":"Svratecká","arrival_time":"11:14:00","departure_time":"11:14:00","lat":49.21799,"lon":16.553492,"is_passed":false},{"stop_id":"U1217Z12","name":"Vozovna Komín","arrival_time":"11:18:00","departure_time":"11:18:00","lat":49.212491,"lon":16.563754,"is_passed":false},{"stop_id":"U1621Z2","name":"Stránského","arrival_time":"11:19:00","departure_time":"11:19:00","lat":49.211937,"lon":16.568408,"is_passed":false},{"stop_id":"U1041Z2","name":"Bráfova","arrival_time":"11:20:00","departure_time":"11:20:00","lat":49.207033,"lon":16.570558,"is_passed":false},{"stop_id":"U1487Z4","name":"Pisárky","arrival_time":"11:23:00","departure_time":"11:23:00","lat":49.194163,"lon":16.569615,"is_passed":false},{"stop_id":"U1343Z2","name":"ARENA BRNO","arrival_time":"11:24:00","departure_time":"11:24:00","lat":49.191387,"lon":16.576425,"is_passed":false},{"stop_id":"U1769Z2","name":"Výstaviště - vstup G2","arrival_time":"11:25:00","departure_time":"11:25:00","lat":49.190207,"lon":16.580555,"is_passed":false},{"stop_id":"U1768Z2","name":"Výstaviště - hlavní vstup","arrival_time":"11:26:00","departure_time":"11:26:00","lat":49.189325,"lon":16.585699,"is_passed":false},{"stop_id":"U1378Z2","name":"Mendlovo náměstí","arrival_time":"11:28:00","departure_time":"11:28:00","lat":49.190034,"lon":16.593837,"is_passed":false},{"stop_id":"U1721Z2","name":"Václavská","arrival_time":"11:30:00","departure_time":"11:30:00","lat":49.188715,"lon":16.596878,"is_passed":false},{"stop_id":"U1176Z2","name":"Hybešova","arrival_time":"11:31:00","departure_time":"11:31:00","lat":49.189209,"lon":16.603364,"is_passed":false},{"stop_id":"U1436Z2","name":"Nové sady","arrival_time":"11:34:00","departure_time":"11:34:00","lat":49.190222,"lon":16.609403,"is_passed":false},{"stop_id":"U1146Z2","name":"Hlavní nádraží","arrival_time":"11:36:00","departure_time":"11:36:00","lat":49.191394,"lon":16.612548,"is_passed":false},{"stop_id":"U1357Z3","name":"Malinovského náměstí","arrival_time":"11:38:00","departure_time":"11:38:00","lat":49.196131,"lon":16.612953,"is_passed":false},{"stop_id":"U1397Z1","name":"Moravské náměstí","arrival_time":"11:40:00","departure_time":"11:40:00","lat":49.19996,"lon":16.607931,"is_passed":false},{"stop_id":"U1006Z1","name":"Antonínská","arrival_time":"11:41:00","departure_time":"11:41:00","lat":49.203685,"lon":16.606678,"is_passed":false},{"stop_id":"U1483Z1","name":"Pionýrská","arrival_time":"11:42:00","departure_time":"11:42:00","lat":49.207491,"lon":16.604472,"is_passed":false},{"stop_id":"U1166Z1","name":"Hrnčířská","arrival_time":"11:44:00","departure_time":"11:44:00","lat":49.210254,"lon":16.602868,"is_passed":false},{"stop_id":"U1652Z1","name":"Šumavská","arrival_time":"11:45:00","departure_time":"11:45:00","lat":49.213991,"lon":16.600669,"is_passed":false},{"stop_id":"U1233Z1","name":"Kartouzská","arrival_time":"11:46:00","departure_time":"11:46:00","lat":49.216998,"lon":16.598896,"is_passed":false},{"stop_id":"U1218Z1","name":"Jungmannova","arrival_time":"11:47:00","departure_time":"11:47:00","lat":49.220856,"lon":16.596583,"is_passed":false},{"stop_id":"U1171Z1","name":"Husitská","arrival_time":"11:48:00","departure_time":"11:48:00","lat":49.223125,"lon":16.59524,"is_passed":false},{"stop_id":"U1566Z1","name":"Semilasso","arrival_time":"11:50:00","departure_time":"11:50:00","lat":49.227417,"lon":16.592683,"is_passed":false},{"stop_id":"U1683Z1","name":"Tylova","arrival_time":"11:51:00","departure_time":"11:51:00","lat":49.23243,"lon":16.589321,"is_passed":false},{"stop_id":"U1167Z1","name":"Hudcova","arrival_time":"11:52:00","departure_time":"11:52:00","lat":49.235202,"lon":16.587471,"is_passed":false},{"stop_id":"U1272Z1","name":"Kořískova","arrival_time":"11:54:00","departure_time":"11:54:00","lat":49.240579,"lon":16.58388,"is_passed":false},{"stop_id":"U1108Z1","name":"Filkukova","arrival_time":"11:55:00","departure_time":"11:55:00","lat":49.244244,"lon":16.58143,"is_passed":false},{"stop_id":"U1553Z1","name":"Řečkovice","arrival_time":"11:57:00","departure_time":"12:09:00","lat":49.247295,"lon":16.578803,"is_passed":false}],"43802":[{"stop_id":"U1553Z2","name":"Řečkovice","arrival_time":"12:09:00","departure_time":"12:09:00","lat":49.246978,"lon":16.5794,"is_passed":false},{"stop_id":"U1108Z2","name":"Filkukova","arrival_time":"12:10:00","departure_time":"12:10:00","lat":49.243517,"lon":16.581881,"is_passed":false},{"stop_id":"U1272Z2","name":"Kořískova","arrival_time":"12:11:00","departure_time":"12:11:00","lat":49.238898,"lon":16.584964,"is_passed":false},{"stop_id":"U1167Z2","name":"Hudcova","arrival_time":"12:12:00","departure_time":"12:12:00","lat":49.235791,"lon":16.587041,"is_passed":false},{"stop_id":"U1683Z2","name":"Tylova","arrival_time":"12:13:00","departure_time":"12:13:00","lat":49.232055,"lon":16.589539,"is_passed":false},{"stop_id":"U1566Z2","name":"Semilasso","arrival_time":"12:14:00","departure_time":"12:14:00","lat":49.228227,"lon":16.592081,"is_passed":false},{"stop_id":"U1171Z2","name":"Husitská","arrival_time":"12:16:00","departure_time":"12:16:00","lat":49.223415,"lon":16.595016,"is_passed":false},{"stop_id":"U1218Z2","name":"Jungmannova","arrival_time":"12:17:00","departure_time":"12:17:00","lat":49.221083,"lon":16.596416,"is_passed":false},{"stop_id":"U1233Z2","name":"Kartouzská","arrival_time":"12:18:00","departure_time":"12:18:00","lat":49.21665,"lon":16.599078,"is_passed":false},{"stop_id":"U1652Z2","name":"Šumavská","arrival_time":"12:19:00","departure_time":"12:19:00","lat":49.214022,"lon":16.60062,"is_passed":false},{"stop_id":"U1166Z2","name":"Hrnčířská","arrival_time":"12:20:00","departure_time":"12:20:00","lat":49.21062,"lon":16.602628,"is_passed":false},{"stop_id":"U1483Z2","name":"Pionýrská","arrival_time":"12:21:00","departure_time":"12:21:00","lat":49.207904,"lon":16.604201,"is_passed":false},{"stop_id":"U1006Z2","name":"Antonínská","arrival_time":"12:22:00","departure_time":"12:22:00","lat":49.203166,"lon":16.606915,"is_passed":false},{"stop_id":"U1397Z2","name":"Moravské náměstí","arrival_time":"12:24:00","departure_time":"12:24:00","lat":49.199237,"lon":16.608067,"is_passed":false},{"stop_id":"U1357Z4","name":"Malinovského náměstí","arrival_time":"12:27:00","departure_time":"12:27:00","lat":49.195612,"lon":16.613248,"is_passed":false},{"stop_id":"U1146Z1","name":"Hlavní nádraží","arrival_time":"12:30:00","departure_time":"12:30:00","lat":49.191185,"lon":16.611879,"is_passed":false},{"stop_id":"U1436Z1","name":"Nové sady","arrival_time":"12:31:00","departure_time":"12:31:00","lat":49.190116,"lon":16.609025,"is_passed":false},{"stop_id":"U1176Z1","name":"Hybešova","arrival_time":"12:33:00","departure_time":"12:33:00","lat":49.189322,"lon":16.602863,"is_passed":false},{"stop_id":"U1721Z1","name":"Václavská","arrival_time":"12:34:00","departure_time":"12:34:00","lat":49.188681,"lon":16.597217,"is_passed":false},{"stop_id":"U1378Z1","name":"Mendlovo náměstí","arrival_time":"12:36:00","departure_time":"12:36:00","lat":49.189659,"lon":16.592283,"is_passed":false},{"stop_id":"U1768Z1","name":"Výstaviště - hlavní vstup","arrival_time":"12:38:00","departure_time":"12:38:00","lat":49.189583,"lon":16.584499,"is_passed":false},{"stop_id":"U1769Z1","name":"Výstaviště - vstup G2","arrival_time":"12:39:00","departure_time":"12:39:00","lat":49.190338,"lon":16.579837,"is_passed":false},{"stop_id":"U1343Z1","name":"ARENA BRNO","arrival_time":"12:40:00","departure_time":"12:40:00","lat":49.191523,"lon":16.576065,"is_passed":false},{"stop_id":"U1487Z3","name":"Pisárky","arrival_time":"12:42:00","departure_time":"12:42:00","lat":49.194099,"lon":16.569741,"is_passed":false},{"stop_id":"U1041Z1","name":"Bráfova","arrival_time":"12:44:00","departure_time":"12:44:00","lat":49.206955,"lon":16.570536,"is_passed":false},{"stop_id":"U1621Z1","name":"Stránského","arrival_time":"12:45:00","departure_time":"12:45:00","lat":49.211954,"lon":16.568673,"is_passed":false},{"stop_id":"U1217Z11","name":"Vozovna Komín","arrival_time":"12:46:00","departure_time":"12:46:00","lat":49.212594,"lon":16.563449,"is_passed":false},{"stop_id":"U1633Z1","name":"Svratecká","arrival_time":"12:50:00","departure_time":"12:50:00","lat":49.217898,"lon":16.553656,"is_passed":false},{"stop_id":"U1042Z1","name":"Branka","arrival_time":"12:51:00","departure_time":"12:51:00","lat":49.219419,"lon":16.54726,"is_passed":false},{"stop_id":"U1493Z1","name":"Podlesí","arrival_time":"12:52:00","departure_time":"12:52:00","lat":49.218711,"lon":16.542392,"is_passed":false},{"stop_id":"U1226Z1","name":"Kamenolom","arrival_time":"12:53:00","departure_time":"12:53:00","lat":49.221657,"lon":16.536794,"is_passed":false},{"stop_id":"U1796Z1","name":"Zoologická zahrada","arrival_time":"12:55:00","departure_time":"12:55:00","lat":49.227674,"lon":16.532002,"is_passed":false},{"stop_id":"U1527Z1","name":"Přístaviště","arrival_time":"12:56:00","departure_time":"12:56:00","lat":49.22814,"lon":16.521658,"is_passed":false},{"stop_id":"U1537Z1","name":"Rakovecká","arrival_time":"12:58:00","departure_time":"13:17:00","lat":49.225877,"lon":16.518739,"is_passed":false}],"43803":[{"stop_id":"U1537Z2","name":"Rakovecká","arrival_time":"13:17:00","departure_time":"13:17:00","lat":49.226177,"lon":16.519315,"is_passed":false},{"stop_id":"U1527Z2","name":"Přístaviště","arrival_time":"13:18:00","departure_time":"13:18:00","lat":49.228519,"lon":16.522556,"is_passed":false},{"stop_id":"U1796Z2","name":"Zoologická zahrada","arrival_time":"13:20:00","departure_time":"13:20:00","lat":49.22774,"lon":16.531898,"is_passed":false},{"stop_id":"U1226Z2","name":"Kamenolom","arrival_time":"13:21:00","departure_time":"13:21:00","lat":49.221888,"lon":16.536713,"is_passed":false},{"stop_id":"U1493Z2","name":"Podlesí","arrival_time":"13:22:00","departure_time":"13:22:00","lat":49.21871,"lon":16.542217,"is_passed":false},{"stop_id":"U1042Z2","name":"Branka","arrival_time":"13:23:00","departure_time":"13:23:00","lat":49.219368,"lon":16.548224,"is_passed":false},{"stop_id":"U1633Z2","name":"Svratecká","arrival_time":"13:24:00","departure_time":"13:24:00","lat":49.21799,"lon":16.553492,"is_passed":false},{"stop_id":"U1217Z12","name":"Vozovna Komín","arrival_time":"13:28:00","departure_time":"13:28:00","lat":49.212491,"lon":16.563754,"is_passed":false},{"stop_id":"U1621Z2","name":"Stránského","arrival_time":"13:29:00","departure_time":"13:29:00","lat":49.211937,"lon":16.568408,"is_passed":false},{"stop_id":"U1041Z2","name":"Bráfova","arrival_time":"13:30:00","departure_time":"13:30:00","lat":49.207033,"lon":16.570558,"is_passed":false},{"stop_id":"U1487Z4","name":"Pisárky","arrival_time":"13:33:00","departure_time":"13:33:00","lat":49.194163,"lon":16.569615,"is_passed":false},{"stop_id":"U1343Z2","name":"ARENA BRNO","arrival_time":"13:34:00","departure_time":"13:34:00","lat":49.191387,"lon":16.576425,"is_passed":false},{"stop_id":"U1769Z2","name":"Výstaviště - vstup G2","arrival_time":"13:35:00","departure_time":"13:35:00","lat":49.190207,"lon":16.580555,"is_passed":false},{"stop_id":"U1768Z2","name":"Výstaviště - hlavní vstup","arrival_time":"13:36:00","departure_time":"13:36:00","lat":49.189325,"lon":16.585699,"is_passed":false},{"stop_id":"U1378Z2","name":"Mendlovo náměstí","arrival_time":"13:38:00","departure_time":"13:38:00","lat":49.190034,"lon":16.593837,"is_passed":false},{"stop_id":"U1721Z2","name":"Václavská","arrival_time":"13:40:00","departure_time":"13:40:00","lat":49.188715,"lon":16.596878,"is_passed":false},{"stop_id":"U1176Z2","name":"Hybešova","arrival_time":"13:41:00","departure_time":"13:41:00","lat":49.189209,"lon":16.603364,"is_passed":false},{"stop_id":"U1436Z2","name":"Nové sady","arrival_time":"13:44:00","departure_time":"13:44:00","lat":49.190222,"lon":16.609403,"is_passed":false},{"stop_id":"U1146Z2","name":"Hlavní nádraží","arrival_time":"13:46:00","departure_time":"13:46:00","lat":49.191394,"lon":16.612548,"is_passed":false},{"stop_id":"U1357Z3","name":"Malinovského náměstí","arrival_time":"13:48:00","departure_time":"13:48:00","lat":49.196131,"lon":16.612953,"is_passed":false},{"stop_id":"U1397Z1","name":"Moravské náměstí","arrival_time":"13:50:00","departure_time":"13:50:00","lat":49.19996,"lon":16.607931,"is_passed":false},{"stop_id":"U1006Z1","name":"Antonínská","arrival_time":"13:51:00","departure_time":"13:51:00","lat":49.203685,"lon":16.606678,"is_passed":false},{"stop_id":"U1483Z1","name":"Pionýrská","arrival_time":"13:52:00","departure_time":"13:52:00","lat":49.207491,"lon":16.604472,"is_passed":false},{"stop_id":"U1166Z1","name":"Hrnčířská","arrival_time":"13:54:00","departure_time":"13:54:00","lat":49.210254,"lon":16.602868,"is_passed":false},{"stop_id":"U1652Z1","name":"Šumavská","arrival_time":"13:55:00","departure_time":"13:55:00","lat":49.213991,"lon":16.600669,"is_passed":false},{"stop_id":"U1233Z1","name":"Kartouzská","arrival_time":"13:56:00","departure_time":"13:56:00","lat":49.216998,"lon":16.598896,"is_passed":false},{"stop_id":"U1218Z1","name":"Jungmannova","arrival_time":"13:57:00","departure_time":"13:57:00","lat":49.220856,"lon":16.596583,"is_passed":false},{"stop_id":"U1171Z1","name":"Husitská","arrival_time":"13:58:00","departure_time":"13:58:00","lat":49.223125,"lon":16.59524,"is_passed":false},{"stop_id":"U1566Z1","name":"Semilasso","arrival_time":"14:00:00","departure_time":"14:00:00","lat":49.227417,"lon":16.592683,"is_passed":false},{"stop_id":"U1683Z1","name":"Tylova","arrival_time":"14:01:00","departure_time":"14:01:00","lat":49.23243,"lon":16.589321,"is_passed":false},{"stop_id":"U1167Z1","name":"Hudcova","arrival_time":"14:02:00","departure_time":"14:02:00","lat":49.235202,"lon":16.587471,"is_passed":false},{"stop_id":"U1272Z1","name":"Kořískova","arrival_time":"14:04:00","departure_time":"14:04:00","lat":49.240579,"lon":16.58388,"is_passed":false},{"stop_id":"U1108Z1","name":"Filkukova","arrival_time":"14:05:00","departure_time":"14:05:00","lat":49.244244,"lon":16.58143,"is_passed":false},{"stop_id":"U1553Z1","name":"Řečkovice","arrival_time":"14:07:00","departure_time":"14:09:00","lat":49.247295,"lon":16.578803,"is_passed":false}],"43804":[{"stop_id":"U1553Z2","name":"Řečkovice","arrival_time":"14:09:00","departure_time":"14:09:00","lat":49.246978,"lon":16.5794,"is_passed":false},{"stop_id":"U1108Z2","name":"Filkukova","arrival_time":"14:10:00","departure_time":"14:10:00","lat":49.243517,"lon":16.581881,"is_passed":false},{"stop_id":"U1272Z2","name":"Kořískova","arrival_time":"14:11:00","departure_time":"14:11:00","lat":49.238898,"lon":16.584964,"is_passed":false},{"stop_id":"U1167Z2","name":"Hudcova","arrival_time":"14:12:00","departure_time":"14:12:00","lat":49.235791,"lon":16.587041,"is_passed":false},{"stop_id":"U1683Z2","name":"Tylova","arrival_time":"14:13:00","departure_time":"14:13:00","lat":49.232055,"lon":16.589539,"is_passed":false},{"stop_id":"U1566Z2","name":"Semilasso","arrival_time":"14:14:00","departure_time":"14:14:00","lat":49.228227,"lon":16.592081,"is_passed":false},{"stop_id":"U1171Z2","name":"Husitská","arrival_time":"14:16:00","departure_time":"14:16:00","lat":49.223415,"lon":16.595016,"is_passed":false},{"stop_id":"U1218Z2","name":"Jungmannova","arrival_time":"14:17:00","departure_time":"14:17:00","lat":49.221083,"lon":16.596416,"is_passed":false},{"stop_id":"U1233Z2","name":"Kartouzská","arrival_time":"14:18:00","departure_time":"14:18:00","lat":49.21665,"lon":16.599078,"is_passed":false},{"stop_id":"U1652Z2","name":"Šumavská","arrival_time":"14:19:00","departure_time":"14:19:00","lat":49.214022,"lon":16.60062,"is_passed":false},{"stop_id":"U1166Z2","name":"Hrnčířská","arrival_time":"14:20:00","departure_time":"14:20:00","lat":49.21062,"lon":16.602628,"is_passed":false},{"stop_id":"U1483Z2","name":"Pionýrská","arrival_time":"14:21:00","departure_time":"14:21:00","lat":49.207904,"lon":16.604201,"is_passed":false},{"stop_id":"U1006Z2","name":"Antonínská","arrival_time":"14:22:00","departure_time":"14:22:00","lat":49.203166,"lon":16.606915,"is_passed":false},{"stop_id":"U1397Z2","name":"Moravské náměstí","arrival_time":"14:24:00","departure_time":"14:24:00","lat":49.199237,"lon":16.608067,"is_passed":false},{"stop_id":"U1357Z4","name":"Malinovského náměstí","arrival_time":"14:27:00","departure_time":"14:27:00","lat":49.195612,"lon":16.613248,"is_passed":false},{"stop_id":"U1146Z1","name":"Hlavní nádraží","arrival_time":"14:30:00","departure_time":"14:30:00","lat":49.191185,"lon":16.611879,"is_passed":false},{"stop_id":"U1436Z1","name":"Nové sady","arrival_time":"14:31:00","departure_time":"14:31:00","lat":49.190116,"lon":16.609025,"is_passed":false},{"stop_id":"U1176Z1","name":"Hybešova","arrival_time":"14:33:00","departure_time":"14:33:00","lat":49.189322,"lon":16.602863,"is_passed":false},{"stop_id":"U1721Z1","name":"Václavská","arrival_time":"14:34:00","departure_time":"14:34:00","lat":49.188681,"lon":16.597217,"is_passed":false},{"stop_id":"U1378Z1","name":"Mendlovo náměstí","arrival_time":"14:36:00","departure_time":"14:36:00","lat":49.189659,"lon":16.592283,"is_passed":false},{"stop_id":"U1768Z1","name":"Výstaviště - hlavní vstup","arrival_time":"14:38:00","departure_time":"14:38:00","lat":49.189583,"lon":16.584499,"is_passed":false},{"stop_id":"U1769Z1","name":"Výstaviště - vstup G2","arrival_time":"14:39:00","departure_time":"14:39:00","lat":49.190338,"lon":16.579837,"is_passed":false},{"stop_id":"U1343Z1","name":"ARENA BRNO","arrival_time":"14:40:00","departure_time":"14:40:00","lat":49.191523,"lon":16.576065,"is_passed":false},{"stop_id":"U1487Z3","name":"Pisárky","arrival_time":"14:42:00","departure_time":"14:42:00","lat":49.194099,"lon":16.569741,"is_passed":false},{"stop_id":"U1041Z1","name":"Bráfova","arrival_time":"14:44:00","departure_time":"14:44:00","lat":49.206955,"lon":16.570536,"is_passed":false},{"stop_id":"U1621Z1","name":"Stránského","arrival_time":"14:45:00","departure_time":"14:45:00","lat":49.211954,"lon":16.568673,"is_passed":false},{"stop_id":"U1217Z11","name":"Vozovna Komín","arrival_time":"14:46:00","departure_time":"14:46:00","lat":49.212594,"lon":16.563449,"is_passed":false},{"stop_id":"U1633Z1","name":"Svratecká","arrival_time":"14:50:00","departure_time":"14:50:00","lat":49.217898,"lon":16.553656,"is_passed":false},{"stop_id":"U1042Z1","name":"Branka","arrival_time":"14:51:00","departure_time":"14:51:00","lat":49.219419,"lon":16.54726,"is_passed":false},{"stop_id":"U1493Z1","name":"Podlesí","arrival_time":"14:52:00","departure_time":"14:52:00","lat":49.218711,"lon":16.542392,"is_passed":false},{"stop_id":"U1226Z1","name":"Kamenolom","arrival_time":"14:53:00","departure_time":"14:53:00","lat":49.221657,"lon":16.536794,"is_passed":false},{"stop_id":"U1796Z1","name":"Zoologická zahrada","arrival_time":"14:55:00","departure_time":"14:55:00","lat":49.227674,"lon":16.532002,"is_passed":false},{"stop_id":"U1527Z1","name":"Přístaviště","arrival_time":"14:56:00","departure_time":"14:56:00","lat":49.22814,"lon":16.521658,"is_passed":false},{"stop_id":"U1537Z1","name":"Rakovecká","arrival_time":"14:58:00","departure_time":"15:17:00","lat":49.225877,"lon":16.518739,"is_passed":false}],"43805":[{"stop_id":"U1537Z2","name":"Rakovecká","arrival_time":"15:17:00","departure_time":"15:17:00","lat":49.226177,"lon":16.519315,"is_passed":false},{"stop_id":"U1527Z2","name":"Přístaviště","arrival_time":"15:18:00","departure_time":"15:18:00","lat":49.228519,"lon":16.522556,"is_passed":false},{"stop_id":"U1796Z2","name":"Zoologická zahrada","arrival_time":"15:20:00","departure_time":"15:20:00","lat":49.22774,"lon":16.531898,"is_passed":false},{"stop_id":"U1226Z2","name":"Kamenolom","arrival_time":"15:21:00","departure_time":"15:21:00","lat":49.221888,"lon":16.536713,"is_passed":false},{"stop_id":"U1493Z2","name":"Podlesí","arrival_time":"15:22:00","departure_time":"15:22:00","lat":49.21871,"lon":16.542217,"is_passed":false},{"stop_id":"U1042Z2","name":"Branka","arrival_time":"15:23:00","departure_time":"15:23:00","lat":49.219368,"lon":16.548224,"is_passed":false},{"stop_id":"U1633Z2","name":"Svratecká","arrival_time":"15:24:00","departure_time":"15:24:00","lat":49.21799,"lon":16.553492,"is_passed":false},{"stop_id":"U1217Z12","name":"Vozovna Komín","arrival_time":"15:28:00","departure_time":"15:28:00","lat":49.212491,"lon":16.563754,"is_passed":false},{"stop_id":"U1621Z2","name":"Stránského","arrival_time":"15:29:00","departure_time":"15:29:00","lat":49.211937,"lon":16.568408,"is_passed":false},{"stop_id":"U1041Z2","name":"Bráfova","arrival_time":"15:30:00","departure_time":"15:30:00","lat":49.207033,"lon":16.570558,"is_passed":false},{"stop_id":"U1487Z4","name":"Pisárky","arrival_time":"15:33:00","departure_time":"15:33:00","lat":49.194163,"lon":16.569615,"is_passed":false},{"stop_id":"U1343Z2","name":"ARENA BRNO","arrival_time":"15:34:00","departure_time":"15:34:00","lat":49.191387,"lon":16.576425,"is_passed":false},{"stop_id":"U1769Z2","name":"Výstaviště - vstup G2","arrival_time":"15:35:00","departure_time":"15:35:00","lat":49.190207,"lon":16.580555,"is_passed":false},{"stop_id":"U1768Z2","name":"Výstaviště - hlavní vstup","arrival_time":"15:36:00","departure_time":"15:36:00","lat":49.189325,"lon":16.585699,"is_passed":false},{"stop_id":"U1378Z2","name":"Mendlovo náměstí","arrival_time":"15:38:00","departure_time":"15:38:00","lat":49.190034,"lon":16.593837,"is_passed":false},{"stop_id":"U1721Z2","name":"Václavská","arrival_time":"15:40:00","departure_time":"15:40:00","lat":49.188715,"lon":16.596878,"is_passed":false},{"stop_id":"U1176Z2","name":"Hybešova","arrival_time":"15:41:00","departure_time":"15:41:00","lat":49.189209,"lon":16.603364,"is_passed":false},{"stop_id":"U1436Z2","name":"Nové sady","arrival_time":"15:44:00","departure_time":"15:44:00","lat":49.190222,"lon":16.609403,"is_passed":false},{"stop_id":"U1146Z2","name":"Hlavní nádraží","arrival_time":"15:46:00","departure_time":"15:46:00","lat":49.191394,"lon":16.612548,"is_passed":false},{"stop_id":"U1357Z3","name":"Malinovského náměstí","arrival_time":"15:48:00","departure_time":"15:48:00","lat":49.196131,"lon":16.612953,"is_passed":false},{"stop_id":"U1397Z1","name":"Moravské náměstí","arrival_time":"15:50:00","departure_time":"15:50:00","lat":49.19996,"lon":16.607931,"is_passed":false},{"stop_id":"U1006Z1","name":"Antonínská","arrival_time":"15:51:00","departure_time":"15:51:00","lat":49.203685,"lon":16.606678,"is_passed":false},{"stop_id":"U1483Z1","name":"Pionýrská","arrival_time":"15:52:00","departure_time":"15:52:00","lat":49.207491,"lon":16.604472,"is_passed":false},{"stop_id":"U1166Z1","name":"Hrnčířská","arrival_time":"15:54:00","departure_time":"15:54:00","lat":49.210254,"lon":16.602868,"is_passed":false},{"stop_id":"U1652Z1","name":"Šumavská","arrival_time":"15:55:00","departure_time":"15:55:00","lat":49.213991,"lon":16.600669,"is_passed":false},{"stop_id":"U1233Z1","name":"Kartouzská","arrival_time":"15:56:00","departure_time":"15:56:00","lat":49.216998,"lon":16.598896,"is_passed":false},{"stop_id":"U1218Z1","name":"Jungmannova","arrival_time":"15:57:00","departure_time":"15:57:00","lat":49.220856,"lon":16.596583,"is_passed":false},{"stop_id":"U1171Z1","name":"Husitská","arrival_time":"15:58:00","departure_time":"15:58:00","lat":49.223125,"lon":16.59524,"is_passed":false},{"stop_id":"U1566Z1","name":"Semilasso","arrival_time":"16:00:00","departure_time":"16:00:00","lat":49.227417,"lon":16.592683,"is_passed":false},{"stop_id":"U1683Z1","name":"Tylova","arrival_time":"16:01:00","departure_time":"16:01:00","lat":49.23243,"lon":16.589321,"is_passed":false},{"stop_id":"U1167Z1","name":"Hudcova","arrival_time":"16:02:00","departure_time":"16:02:00","lat":49.235202,"lon":16.587471,"is_passed":false},{"stop_id":"U1272Z1","name":"Kořískova","arrival_time":"16:04:00","departure_time":"16:04:00","lat":49.240579,"lon":16.58388,"is_passed":false},{"stop_id":"U1108Z1","name":"Filkukova","arrival_time":"16:05:00","departure_time":"16:05:00","lat":49.244244,"lon":16.58143,"is_passed":false},{"stop_id":"U1553Z1","name":"Řečkovice","arrival_time":"16:07:00","departure_time":"16:19:00","lat":49.247295,"lon":16.578803,"is_passed":false}],"43806":[{"stop_id":"U1553Z2","name":"Řečkovice","arrival_time":"16:19:00","departure_time":"16:19:00","lat":49.246978,"lon":16.5794,"is_passed":false},{"stop_id":"U1108Z2","name":"Filkukova","arrival_time":"16:20:00","departure_time":"16:20:00","lat":49.243517,"lon":16.581881,"is_passed":false},{"stop_id":"U1272Z2","name":"Kořískova","arrival_time":"16:21:00","departure_time":"16:21:00","lat":49.238898,"lon":16.584964,"is_passed":false},{"stop_id":"U1167Z2","name":"Hudcova","arrival_time":"16:22:00","departure_time":"16:22:00","lat":49.235791,"lon":16.587041,"is_passed":false},{"stop_id":"U1683Z2","name":"Tylova","arrival_time":"16:23:00","departure_time":"16:23:00","lat":49.232055,"lon":16.589539,"is_passed":false},{"stop_id":"U1566Z2","name":"Semilasso","arrival_time":"16:24:00","departure_time":"16:24:00","lat":49.228227,"lon":16.592081,"is_passed":false},{"stop_id":"U1171Z2","name":"Husitská","arrival_time":"16:26:00","departure_time":"16:26:00","lat":49.223415,"lon":16.595016,"is_passed":false},{"stop_id":"U1218Z2","name":"Jungmannova","arrival_time":"16:27:00","departure_time":"16:27:00","lat":49.221083,"lon":16.596416,"is_passed":false},{"stop_id":"U1233Z2","name":"Kartouzská","arrival_time":"16:28:00","departure_time":"16:28:00","lat":49.21665,"lon":16.599078,"is_passed":false},{"stop_id":"U1652Z2","name":"Šumavská","arrival_time":"16:29:00","departure_time":"16:29:00","lat":49.214022,"lon":16.60062,"is_passed":false},{"stop_id":"U1166Z2","name":"Hrnčířská","arrival_time":"16:30:00","departure_time":"16:30:00","lat":49.21062,"lon":16.602628,"is_passed":false},{"stop_id":"U1483Z2","name":"Pionýrská","arrival_time":"16:31:00","departure_time":"16:31:00","lat":49.207904,"lon":16.604201,"is_passed":false},{"stop_id":"U1006Z2","name":"Antonínská","arrival_time":"16:32:00","departure_time":"16:32:00","lat":49.203166,"lon":16.606915,"is_passed":false},{"stop_id":"U1397Z2","name":"Moravské náměstí","arrival_time":"16:34:00","departure_time":"16:34:00","lat":49.199237,"lon":16.608067,"is_passed":false},{"stop_id":"U1357Z4","name":"Malinovského náměstí","arrival_time":"16:37:00","departure_time":"16:37:00","lat":49.195612,"lon":16.613248,"is_passed":false},{"stop_id":"U1146Z1","name":"Hlavní nádraží","arrival_time":"16:40:00","departure_time":"16:40:00","lat":49.191185,"lon":16.611879,"is_passed":false},{"stop_id":"U1436Z1","name":"Nové sady","arrival_time":"16:41:00","departure_time":"16:41:00","lat":49.190116,"lon":16.609025,"is_passed":false},{"stop_id":"U1176Z1","name":"Hybešova","arrival_time":"16:43:00","departure_time":"16:43:00","lat":49.189322,"lon":16.602863,"is_passed":false},{"stop_id":"U1721Z1","name":"Václavská","arrival_time":"16:44:00","departure_time":"16:44:00","lat":49.188681,"lon":16.597217,"is_passed":false},{"stop_id":"U1378Z1","name":"Mendlovo náměstí","arrival_time":"16:46:00","departure_time":"16:46:00","lat":49.189659,"lon":16.592283,"is_passed":false},{"stop_id":"U1768Z1","name":"Výstaviště - hlavní vstup","arrival_time":"16:48:00","departure_time":"16:48:00","lat":49.189583,"lon":16.584499,"is_passed":false},{"stop_id":"U1769Z1","name":"Výstaviště - vstup G2","arrival_time":"16:49:00","departure_time":"16:49:00","lat":49.190338,"lon":16.579837,"is_passed":false},{"stop_id":"U1343Z1","name":"ARENA BRNO","arrival_time":"16:50:00","departure_time":"16:50:00","lat":49.191523,"lon":16.576065,"is_passed":false},{"stop_id":"U1487Z3","name":"Pisárky","arrival_time":"16:52:00","departure_time":"16:52:00","lat":49.194099,"lon":16.569741,"is_passed":false},{"stop_id":"U1041Z1","name":"Bráfova","arrival_time":"16:54:00","departure_time":"16:54:00","lat":49.206955,"lon":16.570536,"is_passed":false},{"stop_id":"U1621Z1","name":"Stránského","arrival_time":"16:55:00","departure_time":"16:55:00","lat":49.211954,"lon":16.568673,"is_passed":false},{"stop_id":"U1217Z11","name":"Vozovna Komín","arrival_time":"16:56:00","departure_time":"16:56:00","lat":49.212594,"lon":16.563449,"is_passed":false},{"stop_id":"U1633Z1","name":"Svratecká","arrival_time":"17:00:00","departure_time":"17:00:00","lat":49.217898,"lon":16.553656,"is_passed":false},{"stop_id":"U1042Z1","name":"Branka","arrival_time":"17:01:00","departure_time":"17:01:00","lat":49.219419,"lon":16.54726,"is_passed":false},{"stop_id":"U1493Z1","name":"Podlesí","arrival_time":"17:02:00","departure_time":"17:02:00","lat":49.218711,"lon":16.542392,"is_passed":false},{"stop_id":"U1226Z1","name":"Kamenolom","arrival_time":"17:03:00","departure_time":"17:03:00","lat":49.221657,"lon":16.536794,"is_passed":false},{"stop_id":"U1796Z1","name":"Zoologická zahrada","arrival_time":"17:05:00","departure_time":"17:05:00","lat":49.227674,"lon":16.532002,"is_passed":false},{"stop_id":"U1527Z1","name":"Přístaviště","arrival_time":"17:06:00","departure_time":"17:06:00","lat":49.22814,"lon":16.521658,"is_passed":false},{"stop_id":"U1537Z1","name":"Rakovecká","arrival_time":"17:08:00","departure_time":"17:27:00","lat":49.225877,"lon":16.518739,"is_passed":false}],"43807":[{"stop_id":"U1537Z2","name":"Rakovecká","arrival_time":"17:27:00","departure_time":"17:27:00","lat":49.226177,"lon":16.519315,"is_passed":false},{"stop_id":"U1527Z2","name":"Přístaviště","arrival_time":"17:28:00","departure_time":"17:28:00","lat":49.228519,"lon":16.522556,"is_passed":false},{"stop_id":"U1796Z2","name":"Zoologická zahrada","arrival_time":"17:30:00","departure_time":"17:30:00","lat":49.22774,"lon":16.531898,"is_passed":false},{"stop_id":"U1226Z2","name":"Kamenolom","arrival_time":"17:31:00","departure_time":"17:31:00","lat":49.221888,"lon":16.536713,"is_passed":false},{"stop_id":"U1493Z2","name":"Podlesí","arrival_time":"17:32:00","departure_time":"17:32:00","lat":49.21871,"lon":16.542217,"is_passed":false},{"stop_id":"U1042Z2","name":"Branka","arrival_time":"17:33:00","departure_time":"17:33:00","lat":49.219368,"lon":16.548224,"is_passed":false},{"stop_id":"U1633Z2","name":"Svratecká","arrival_time":"17:34:00","departure_time":"17:34:00","lat":49.21799,"lon":16.553492,"is_passed":false},{"stop_id":"U1217Z12","name":"Vozovna Komín","arrival_time":"17:38:00","departure_time":"17:38:00","lat":49.212491,"lon":16.563754,"is_passed":false},{"stop_id":"U1621Z2","name":"Stránského","arrival_time":"17:39:00","departure_time":"17:39:00","lat":49.211937,"lon":16.568408,"is_passed":false},{"stop_id":"U1041Z2","name":"Bráfova","arrival_time":"17:40:00","departure_time":"17:40:00","lat":49.207033,"lon":16.570558,"is_passed":false},{"stop_id":"U1487Z4","name":"Pisárky","arrival_time":"17:43:00","departure_time":"17:43:00","lat":49.194163,"lon":16.569615,"is_passed":false},{"stop_id":"U1343Z2","name":"ARENA BRNO","arrival_time":"17:44:00","departure_time":"17:44:00","lat":49.191387,"lon":16.576425,"is_passed":false},{"stop_id":"U1769Z2","name":"Výstaviště - vstup G2","arrival_time":"17:45:00","departure_time":"17:45:00","lat":49.190207,"lon":16.580555,"is_passed":false},{"stop_id":"U1768Z2","name":"Výstaviště - hlavní vstup","arrival_time":"17:46:00","departure_time":"17:46:00","lat":49.189325,"lon":16.585699,"is_passed":false},{"stop_id":"U1378Z2","name":"Mendlovo náměstí","arrival_time":"17:48:00","departure_time":"17:48:00","lat":49.190034,"lon":16.593837,"is_passed":false},{"stop_id":"U1721Z2","name":"Václavská","arrival_time":"17:50:00","departure_time":"17:50:00","lat":49.188715,"lon":16.596878,"is_passed":false},{"stop_id":"U1176Z2","name":"Hybešova","arrival_time":"17:51:00","departure_time":"17:51:00","lat":49.189209,"lon":16.603364,"is_passed":false},{"stop_id":"U1436Z2","name":"Nové sady","arrival_time":"17:54:00","departure_time":"17:54:00","lat":49.190222,"lon":16.609403,"is_passed":false},{"stop_id":"U1146Z2","name":"Hlavní nádraží","arrival_time":"17:56:00","departure_time":"17:56:00","lat":49.191394,"lon":16.612548,"is_passed":false},{"stop_id":"U1357Z3","name":"Malinovského náměstí","arrival_time":"17:58:00","departure_time":"17:58:00","lat":49.196131,"lon":16.612953,"is_passed":false},{"stop_id":"U1397Z1","name":"Moravské náměstí","arrival_time":"18:00:00","departure_time":"18:00:00","lat":49.19996,"lon":16.607931,"is_passed":false},{"stop_id":"U1006Z1","name":"Antonínská","arrival_time":"18:01:00","departure_time":"18:01:00","lat":49.203685,"lon":16.606678,"is_passed":false},{"stop_id":"U1483Z1","name":"Pionýrská","arrival_time":"18:02:00","departure_time":"18:02:00","lat":49.207491,"lon":16.604472,"is_passed":false},{"stop_id":"U1166Z1","name":"Hrnčířská","arrival_time":"18:04:00","departure_time":"18:04:00","lat":49.210254,"lon":16.602868,"is_passed":false},{"stop_id":"U1652Z1","name":"Šumavská","arrival_time":"18:05:00","departure_time":"18:05:00","lat":49.213991,"lon":16.600669,"is_passed":false},{"stop_id":"U1233Z1","name":"Kartouzská","arrival_time":"18:06:00","departure_time":"18:06:00","lat":49.216998,"lon":16.598896,"is_passed":false},{"stop_id":"U1218Z1","name":"Jungmannova","arrival_time":"18:07:00","departure_time":"18:07:00","lat":49.220856,"lon":16.596583,"is_passed":false},{"stop_id":"U1171Z1","name":"Husitská","arrival_time":"18:08:00","departure_time":"18:08:00","lat":49.223125,"lon":16.59524,"is_passed":false},{"stop_id":"U1566Z1","name":"Semilasso","arrival_time":"18:10:00","departure_time":"18:10:00","lat":49.227417,"lon":16.592683,"is_passed":false},{"stop_id":"U1683Z1","name":"Tylova","arrival_time":"18:11:00","departure_time":"18:11:00","lat":49.23243,"lon":16.589321,"is_passed":false},{"stop_id":"U1167Z1","name":"Hudcova","arrival_time":"18:12:00","departure_time":"18:12:00","lat":49.235202,"lon":16.587471,"is_passed":false},{"stop_id":"U1272Z1","name":"Kořískova","arrival_time":"18:14:00","departure_time":"18:14:00","lat":49.240579,"lon":16.58388,"is_passed":false},{"stop_id":"U1108Z1","name":"Filkukova","arrival_time":"18:15:00","departure_time":"18:15:00","lat":49.244244,"lon":16.58143,"is_passed":false},{"stop_id":"U1553Z1","name":"Řečkovice","arrival_time":"18:17:00","departure_time":"18:29:00","lat":49.247295,"lon":16.578803,"is_passed":false}],"43808":[{"stop_id":"U1553Z2","name":"Řečkovice","arrival_time":"18:29:00","departure_time":"18:29:00","lat":49.246978,"lon":16.5794,"is_passed":false},{"stop_id":"U1108Z2","name":"Filkukova","arrival_time":"18:30:00","departure_time":"18:30:00","lat":49.243517,"lon":16.581881,"is_passed":false},{"stop_id":"U1272Z2","name":"Kořískova","arrival_time":"18:31:00","departure_time":"18:31:00","lat":49.238898,"lon":16.584964,"is_passed":false},{"stop_id":"U1167Z2","name":"Hudcova","arrival_time":"18:32:00","departure_time":"18:32:00","lat":49.235791,"lon":16.587041,"is_passed":false},{"stop_id":"U1683Z2","name":"Tylova","arrival_time":"18:33:00","departure_time":"18:33:00","lat":49.232055,"lon":16.589539,"is_passed":false},{"stop_id":"U1566Z2","name":"Semilasso","arrival_time":"18:34:00","departure_time":"18:34:00","lat":49.228227,"lon":16.592081,"is_passed":false},{"stop_id":"U1171Z2","name":"Husitská","arrival_time":"18:36:00","departure_time":"18:36:00","lat":49.223415,"lon":16.595016,"is_passed":false},{"stop_id":"U1218Z2","name":"Jungmannova","arrival_time":"18:37:00","departure_time":"18:37:00","lat":49.221083,"lon":16.596416,"is_passed":false},{"stop_id":"U1233Z2","name":"Kartouzská","arrival_time":"18:38:00","departure_time":"18:38:00","lat":49.21665,"lon":16.599078,"is_passed":false},{"stop_id":"U1652Z2","name":"Šumavská","arrival_time":"18:39:00","departure_time":"18:39:00","lat":49.214022,"lon":16.60062,"is_passed":false},{"stop_id":"U1166Z2","name":"Hrnčířská","arrival_time":"18:40:00","departure_time":"18:40:00","lat":49.21062,"lon":16.602628,"is_passed":false},{"stop_id":"U1483Z2","name":"Pionýrská","arrival_time":"18:41:00","departure_time":"18:41:00","lat":49.207904,"lon":16.604201,"is_passed":false},{"stop_id":"U1006Z2","name":"Antonínská","arrival_time":"18:42:00","departure_time":"18:42:00","lat":49.203166,"lon":16.606915,"is_passed":false},{"stop_id":"U1397Z2","name":"Moravské náměstí","arrival_time":"18:44:00","departure_time":"18:44:00","lat":49.199237,"lon":16.608067,"is_passed":false},{"stop_id":"U1357Z4","name":"Malinovského náměstí","arrival_time":"18:47:00","departure_time":"18:47:00","lat":49.195612,"lon":16.613248,"is_passed":false},{"stop_id":"U1146Z1","name":"Hlavní nádraží","arrival_time":"18:50:00","departure_time":"18:50:00","lat":49.191185,"lon":16.611879,"is_passed":false},{"stop_id":"U1436Z1","name":"Nové sady","arrival_time":"18:51:00","departure_time":"18:51:00","lat":49.190116,"lon":16.609025,"is_passed":false},{"stop_id":"U1176Z1","name":"Hybešova","arrival_time":"18:53:00","departure_time":"18:53:00","lat":49.189322,"lon":16.602863,"is_passed":false},{"stop_id":"U1721Z1","name":"Václavská","arrival_time":"18:54:00","departure_time":"18:54:00","lat":49.188681,"lon":16.597217,"is_passed":false},{"stop_id":"U1378Z1","name":"Mendlovo náměstí","arrival_time":"18:56:00","departure_time":"18:56:00","lat":49.189659,"lon":16.592283,"is_passed":false},{"stop_id":"U1768Z1","name":"Výstaviště - hlavní vstup","arrival_time":"18:58:00","departure_time":"18:58:00","lat":49.189583,"lon":16.584499,"is_passed":false},{"stop_id":"U1769Z1","name":"Výstaviště - vstup G2","arrival_time":"18:59:00","departure_time":"18:59:00","lat":49.190338,"lon":16.579837,"is_passed":false},{"stop_id":"U1343Z1","name":"ARENA BRNO","arrival_time":"19:00:00","departure_time":"19:00:00","lat":49.191523,"lon":16.576065,"is_passed":false},{"stop_id":"U1487Z3","name":"Pisárky","arrival_time":"19:02:00","departure_time":"19:02:00","lat":49.194099,"lon":16.569741,"is_passed":false},{"stop_id":"U1041Z1","name":"Bráfova","arrival_time":"19:04:00","departure_time":"19:04:00","lat":49.206955,"lon":16.570536,"is_passed":false},{"stop_id":"U1621Z1","name":"Stránského","arrival_time":"19:05:00","departure_time":"19:05:00","lat":49.211954,"lon":16.568673,"is_passed":false},{"stop_id":"U1217Z11","name":"Vozovna Komín","arrival_time":"19:06:00","departure_time":"19:06:00","lat":49.212594,"lon":16.563449,"is_passed":false},{"stop_id":"U1633Z1","name":"Svratecká","arrival_time":"19:10:00","departure_time":"19:10:00","lat":49.217898,"lon":16.553656,"is_passed":false},{"stop_id":"U1042Z1","name":"Branka","arrival_time":"19:11:00","departure_time":"19:11:00","lat":49.219419,"lon":16.54726,"is_passed":false},{"stop_id":"U1493Z1","name":"Podlesí","arrival_time":"19:12:00","departure_time":"19:12:00","lat":49.218711,"lon":16.542392,"is_passed":false},{"stop_id":"U1226Z1","name":"Kamenolom","arrival_time":"19:13:00","departure_time":"19:13:00","lat":49.221657,"lon":16.536794,"is_passed":false},{"stop_id":"U1796Z1","name":"Zoologická zahrada","arrival_time":"19:15:00","departure_time":"19:15:00","lat":49.227674,"lon":16.532002,"is_passed":false},{"stop_id":"U1527Z1","name":"Přístaviště","arrival_time":"19:16:00","departure_time":"19:16:00","lat":49.22814,"lon":16.521658,"is_passed":false},{"stop_id":"U1537Z1","name":"Rakovecká","arrival_time":"19:18:00","departure_time":"19:37:00","lat":49.225877,"lon":16.518739,"is_passed":false}],"43809":[{"stop_id":"U1537Z2","name":"Rakovecká","arrival_time":"19:37:00","departure_time":"19:37:00","lat":49.226177,"lon":16.519315,"is_passed":false},{"stop_id":"U1527Z2","name":"Přístaviště","arrival_time":"19:38:00","departure_time":"19:38:00","lat":49.228519,"lon":16.522556,"is_passed":false},{"stop_id":"U1796Z2","name":"Zoologická zahrada","arrival_time":"19:40:00","departure_time":"19:40:00","lat":49.22774,"lon":16.531898,"is_passed":false},{"stop_id":"U1226Z2","name":"Kamenolom","arrival_time":"19:41:00","departure_time":"19:41:00","lat":49.221888,"lon":16.536713,"is_passed":false},{"stop_id":"U1493Z2","name":"Podlesí","arrival_time":"19:42:00","departure_time":"19:42:00","lat":49.21871,"lon":16.542217,"is_passed":false},{"stop_id":"U1042Z2","name":"Branka","arrival_time":"19:43:00","departure_time":"19:43:00","lat":49.219368,"lon":16.548224,"is_passed":false},{"stop_id":"U1633Z2","name":"Svratecká","arrival_time":"19:44:00","departure_time":"19:44:00","lat":49.21799,"lon":16.553492,"is_passed":false},{"stop_id":"U1217Z12","name":"Vozovna Komín","arrival_time":"19:48:00","departure_time":"19:48:00","lat":49.212491,"lon":16.563754,"is_passed":false},{"stop_id":"U1621Z2","name":"Stránského","arrival_time":"19:49:00","departure_time":"19:49:00","lat":49.211937,"lon":16.568408,"is_passed":false},{"stop_id":"U1041Z2","name":"Bráfova","arrival_time":"19:50:00","departure_time":"19:50:00","lat":49.207033,"lon":16.570558,"is_passed":false},{"stop_id":"U1487Z4","name":"Pisárky","arrival_time":"19:53:00","departure_time":"19:53:00","lat":49.194163,"lon":16.569615,"is_passed":false},{"stop_id":"U1343Z2","name":"ARENA BRNO","arrival_time":"19:54:00","departure_time":"19:54:00","lat":49.191387,"lon":16.576425,"is_passed":false},{"stop_id":"U1769Z2","name":"Výstaviště - vstup G2","arrival_time":"19:55:00","departure_time":"19:55:00","lat":49.190207,"lon":16.580555,"is_passed":false},{"stop_id":"U1768Z2","name":"Výstaviště - hlavní vstup","arrival_time":"19:56:00","departure_time":"19:56:00","lat":49.189325,"lon":16.585699,"is_passed":false},{"stop_id":"U1378Z2","name":"Mendlovo náměstí","arrival_time":"19:58:00","departure_time":"19:58:00","lat":49.190034,"lon":16.593837,"is_passed":false},{"stop_id":"U1721Z2","name":"Václavská","arrival_time":"20:00:00","departure_time":"20:00:00","lat":49.188715,"lon":16.596878,"is_passed":false},{"stop_id":"U1176Z2","name":"Hybešova","arrival_time":"20:01:00","departure_time":"20:01:00","lat":49.189209,"lon":16.603364,"is_passed":false},{"stop_id":"U1436Z2","name":"Nové sady","arrival_time":"20:04:00","departure_time":"20:04:00","lat":49.190222,"lon":16.609403,"is_passed":false},{"stop_id":"U1146Z2","name":"Hlavní nádraží","arrival_time":"20:06:00","departure_time":"20:06:00","lat":49.191394,"lon":16.612548,"is_passed":false},{"stop_id":"U1357Z3","name":"Malinovského náměstí","arrival_time":"20:08:00","departure_time":"20:08:00","lat":49.196131,"lon":16.612953,"is_passed":false},{"stop_id":"U1397Z1","name":"Moravské náměstí","arrival_time":"20:10:00","departure_time":"20:10:00","lat":49.19996,"lon":16.607931,"is_passed":false},{"stop_id":"U1006Z1","name":"Antonínská","arrival_time":"20:11:00","departure_time":"20:11:00","lat":49.203685,"lon":16.606678,"is_passed":false},{"stop_id":"U1483Z1","name":"Pionýrská","arrival_time":"20:12:00","departure_time":"20:12:00","lat":49.207491,"lon":16.604472,"is_passed":false},{"stop_id":"U1166Z1","name":"Hrnčířská","arrival_time":"20:14:00","departure_time":"20:14:00","lat":49.210254,"lon":16.602868,"is_passed":false},{"stop_id":"U1652Z1","name":"Šumavská","arrival_time":"20:15:00","departure_time":"20:15:00","lat":49.213991,"lon":16.600669,"is_passed":false},{"stop_id":"U1233Z1","name":"Kartouzská","arrival_time":"20:16:00","departure_time":"20:16:00","lat":49.216998,"lon":16.598896,"is_passed":false},{"stop_id":"U1218Z1","name":"Jungmannova","arrival_time":"20:17:00","departure_time":"20:17:00","lat":49.220856,"lon":16.596583,"is_passed":false},{"stop_id":"U1171Z1","name":"Husitská","arrival_time":"20:18:00","departure_time":"20:18:00","lat":49.223125,"lon":16.59524,"is_passed":false},{"stop_id":"U1566Z1","name":"Semilasso","arrival_time":"20:20:00","departure_time":"20:20:00","lat":49.227417,"lon":16.592683,"is_passed":false},{"stop_id":"U1683Z1","name":"Tylova","arrival_time":"20:21:00","departure_time":"20:21:00","lat":49.23243,"lon":16.589321,"is_passed":false},{"stop_id":"U1167Z1","name":"Hudcova","arrival_time":"20:22:00","departure_time":"20:22:00","lat":49.235202,"lon":16.587471,"is_passed":false},{"stop_id":"U1272Z1","name":"Kořískova","arrival_time":"20:24:00","departure_time":"20:24:00","lat":49.240579,"lon":16.58388,"is_passed":false},{"stop_id":"U1108Z1","name":"Filkukova","arrival_time":"20:25:00","departure_time":"20:25:00","lat":49.244244,"lon":16.58143,"is_passed":false},{"stop_id":"U1553Z1","name":"Řečkovice","arrival_time":"20:27:00","departure_time":"20:53:00","lat":49.247295,"lon":16.578803,"is_passed":false}],"43810":[{"stop_id":"U1553Z2","name":"Řečkovice","arrival_time":"20:53:00","departure_time":"20:53:00","lat":49.246978,"lon":16.5794,"is_passed":false},{"stop_id":"U1108Z2","name":"Filkukova","arrival_time":"20:54:00","departure_time":"20:54:00","lat":49.243517,"lon":16.581881,"is_passed":false},{"stop_id":"U1272Z2","name":"Kořískova","arrival_time":"20:55:00","departure_time":"20:55:00","lat":49.238898,"lon":16.584964,"is_passed":false},{"stop_id":"U1167Z2","name":"Hudcova","arrival_time":"20:56:00","departure_time":"20:56:00","lat":49.235791,"lon":16.587041,"is_passed":false},{"stop_id":"U1683Z2","name":"Tylova","arrival_time":"20:57:00","departure_time":"20:57:00","lat":49.232055,"lon":16.589539,"is_passed":false},{"stop_id":"U1566Z2","name":"Semilasso","arrival_time":"20:58:00","departure_time":"20:58:00","lat":49.228227,"lon":16.592081,"is_passed":false},{"stop_id":"U1171Z2","name":"Husitská","arrival_time":"21:00:00","departure_time":"21:00:00","lat":49.223415,"lon":16.595016,"is_passed":false},{"stop_id":"U1218Z2","name":"Jungmannova","arrival_time":"21:01:00","departure_time":"21:01:00","lat":49.221083,"lon":16.596416,"is_passed":false},{"stop_id":"U1233Z2","name":"Kartouzská","arrival_time":"21:02:00","departure_time":"21:02:00","lat":49.21665,"lon":16.599078,"is_passed":false},{"stop_id":"U1652Z2","name":"Šumavská","arrival_time":"21:03:00","departure_time":"21:03:00","lat":49.214022,"lon":16.60062,"is_passed":false},{"stop_id":"U1166Z2","name":"Hrnčířská","arrival_time":"21:04:00","departure_time":"21:04:00","lat":49.21062,"lon":16.602628,"is_passed":false},{"stop_id":"U1483Z2","name":"Pionýrská","arrival_time":"21:05:00","departure_time":"21:05:00","lat":49.207904,"lon":16.604201,"is_passed":false},{"stop_id":"U1006Z2","name":"Antonínská","arrival_time":"21:06:00","departure_time":"21:06:00","lat":49.203166,"lon":16.606915,"is_passed":false},{"stop_id":"U1397Z2","name":"Moravské náměstí","arrival_time":"21:08:00","departure_time":"21:08:00","lat":49.199237,"lon":16.608067,"is_passed":false},{"stop_id":"U1357Z4","name":"Malinovského náměstí","arrival_time":"21:10:00","departure_time":"21:10:00","lat":49.195612,"lon":16.613248,"is_passed":false},{"stop_id":"U1146Z1","name":"Hlavní nádraží","arrival_time":"21:13:00","departure_time":"21:15:00","lat":49.191185,"lon":16.611879,"is_passed":false},{"stop_id":"U1436Z1","name":"Nové sady","arrival_time":"21:16:00","departure_time":"21:16:00","lat":49.190116,"lon":16.609025,"is_passed":false},{"stop_id":"U1176Z1","name":"Hybešova","arrival_time":"21:18:00","departure_time":"21:18:00","lat":49.189322,"lon":16.602863,"is_passed":false},{"stop_id":"U1721Z1","name":"Václavská","arrival_time":"21:19:00","departure_time":"21:19:00","lat":49.188681,"lon":16.597217,"is_passed":false},{"stop_id":"U1378Z1","name":"Mendlovo náměstí","arrival_time":"21:21:00","departure_time":"21:21:00","lat":49.189659,"lon":16.592283,"is_passed":false},{"stop_id":"U1768Z1","name":"Výstaviště - hlavní vstup","arrival_time":"21:23:00","departure_time":"21:23:00","lat":49.189583,"lon":16.584499,"is_passed":false},{"stop_id":"U1769Z1","name":"Výstaviště - vstup G2","arrival_time":"21:24:00","departure_time":"21:24:00","lat":49.190338,"lon":16.579837,"is_passed":false},{"stop_id":"U1343Z1","name":"ARENA BRNO","arrival_time":"21:25:00","departure_time":"21:25:00","lat":49.191523,"lon":16.576065,"is_passed":false},{"stop_id":"U1487Z3","name":"Pisárky","arrival_time":"21:27:00","departure_time":"21:27:00","lat":49.194099,"lon":16.569741,"is_passed":false},{"stop_id":"U1041Z1","name":"Bráfova","arrival_time":"21:29:00","departure_time":"21:29:00","lat":49.206955,"lon":16.570536,"is_passed":false},{"stop_id":"U1621Z1","name":"Stránského","arrival_time":"21:30:00","departure_time":"21:30:00","lat":49.211954,"lon":16.568673,"is_passed":false},{"stop_id":"U1217Z11","name":"Vozovna Komín","arrival_time":"21:31:00","departure_time":"21:31:00","lat":49.212594,"lon":16.563449,"is_passed":false},{"stop_id":"U1633Z1","name":"Svratecká","arrival_time":"21:35:00","departure_time":"21:35:00","lat":49.217898,"lon":16.553656,"is_passed":false},{"stop_id":"U1042Z1","name":"Branka","arrival_time":"21:36:00","departure_time":"21:36:00","lat":49.219419,"lon":16.54726,"is_passed":false},{"stop_id":"U1493Z1","name":"Podlesí","arrival_time":"21:37:00","departure_time":"21:37:00","lat":49.218711,"lon":16.542392,"is_passed":false},{"stop_id":"U1226Z1","name":"Kamenolom","arrival_time":"21:38:00","departure_time":"21:38:00","lat":49.221657,"lon":16.536794,"is_passed":false},{"stop_id":"U1796Z1","name":"Zoologická zahrada","arrival_time":"21:40:00","departure_time":"21:40:00","lat":49.227674,"lon":16.532002,"is_passed":false},{"stop_id":"U1527Z1","name":"Přístaviště","arrival_time":"21:41:00","departure_time":"21:41:00","lat":49.22814,"lon":16.521658,"is_passed":false},{"stop_id":"U1537Z1","name":"Rakovecká","arrival_time":"21:43:00","departure_time":"21:51:00","lat":49.225877,"lon":16.518739,"is_passed":false}],"43811":[{"stop_id":"U1537Z2","name":"Rakovecká","arrival_time":"21:51:00","departure_time":"21:51:00","lat":49.226177,"lon":16.519315,"is_passed":false},{"stop_id":"U1527Z2","name":"Přístaviště","arrival_time":"21:52:00","departure_time":"21:52:00","lat":49.228519,"lon":16.522556,"is_passed":false},{"stop_id":"U1796Z2","name":"Zoologická zahrada","arrival_time":"21:54:00","departure_time":"21:54:00","lat":49.22774,"lon":16.531898,"is_passed":false},{"stop_id":"U1226Z2","name":"Kamenolom","arrival_time":"21:55:00","departure_time":"21:55:00","lat":49.221888,"lon":16.536713,"is_passed":false},{"stop_id":"U1493Z2","name":"Podlesí","arrival_time":"21:56:00","departure_time":"21:56:00","lat":49.21871,"lon":16.542217,"is_passed":false},{"stop_id":"U1042Z2","name":"Branka","arrival_time":"21:57:00","departure_time":"21:57:00","lat":49.219368,"lon":16.548224,"is_passed":false},{"stop_id":"U1633Z2","name":"Svratecká","arrival_time":"21:58:00","departure_time":"21:58:00","lat":49.21799,"lon":16.553492,"is_passed":false},{"stop_id":"U1217Z12","name":"Vozovna Komín","arrival_time":"22:02:00","departure_time":"22:02:00","lat":49.212491,"lon":16.563754,"is_passed":false},{"stop_id":"U1621Z2","name":"Stránského","arrival_time":"22:03:00","departure_time":"22:03:00","lat":49.211937,"lon":16.568408,"is_passed":false},{"stop_id":"U1041Z2","name":"Bráfova","arrival_time":"22:04:00","departure_time":"22:04:00","lat":49.207033,"lon":16.570558,"is_passed":false},{"stop_id":"U1487Z4","name":"Pisárky","arrival_time":"22:07:00","departure_time":"22:07:00","lat":49.194163,"lon":16.569615,"is_passed":false},{"stop_id":"U1343Z2","name":"ARENA BRNO","arrival_time":"22:08:00","departure_time":"22:08:00","lat":49.191387,"lon":16.576425,"is_passed":false},{"stop_id":"U1769Z2","name":"Výstaviště - vstup G2","arrival_time":"22:09:00","departure_time":"22:09:00","lat":49.190207,"lon":16.580555,"is_passed":false},{"stop_id":"U1768Z2","name":"Výstaviště - hlavní vstup","arrival_time":"22:10:00","departure_time":"22:10:00","lat":49.189325,"lon":16.585699,"is_passed":false},{"stop_id":"U1378Z2","name":"Mendlovo náměstí","arrival_time":"22:12:00","departure_time":"22:12:00","lat":49.190034,"lon":16.593837,"is_passed":false},{"stop_id":"U1721Z2","name":"Václavská","arrival_time":"22:14:00","departure_time":"22:14:00","lat":49.188715,"lon":16.596878,"is_passed":false},{"stop_id":"U1176Z2","name":"Hybešova","arrival_time":"22:15:00","departure_time":"22:15:00","lat":49.189209,"lon":16.603364,"is_passed":false},{"stop_id":"U1436Z2","name":"Nové sady","arrival_time":"22:18:00","departure_time":"22:18:00","lat":49.190222,"lon":16.609403,"is_passed":false},{"stop_id":"U1146Z2","name":"Hlavní nádraží","arrival_time":"22:20:00","departure_time":"22:22:00","lat":49.191394,"lon":16.612548,"is_passed":false},{"stop_id":"U1357Z3","name":"Malinovského náměstí","arrival_time":"22:24:00","departure_time":"22:24:00","lat":49.196131,"lon":16.612953,"is_passed":false},{"stop_id":"U1397Z1","name":"Moravské náměstí","arrival_time":"22:26:00","departure_time":"22:26:00","lat":49.19996,"lon":16.607931,"is_passed":false},{"stop_id":"U1006Z1","name":"Antonínská","arrival_time":"22:27:00","departure_time":"22:27:00","lat":49.203685,"lon":16.606678,"is_passed":false},{"stop_id":"U1483Z1","name":"Pionýrská","arrival_time":"22:28:00","departure_time":"22:28:00","lat":49.207491,"lon":16.604472,"is_passed":false},{"stop_id":"U1166Z1","name":"Hrnčířská","arrival_time":"22:29:00","departure_time":"22:29:00","lat":49.210254,"lon":16.602868,"is_passed":false},{"stop_id":"U1652Z1","name":"Šumavská","arrival_time":"22:30:00","departure_time":"22:30:00","lat":49.213991,"lon":16.600669,"is_passed":false},{"stop_id":"U1233Z1","name":"Kartouzská","arrival_time":"22:31:00","departure_time":"22:31:00","lat":49.216998,"lon":16.598896,"is_passed":false},{"stop_id":"U1218Z1","name":"Jungmannova","arrival_time":"22:32:00","departure_time":"22:32:00","lat":49.220856,"lon":16.596583,"is_passed":false},{"stop_id":"U1171Z1","name":"Husitská","arrival_time":"22:33:00","departure_time":"22:33:00","lat":49.223125,"lon":16.59524,"is_passed":false},{"stop_id":"U1566Z1","name":"Semilasso","arrival_time":"22:35:00","departure_time":"22:35:00","lat":49.227417,"lon":16.592683,"is_passed":false},{"stop_id":"U1683Z1","name":"Tylova","arrival_time":"22:36:00","departure_time":"22:36:00","lat":49.23243,"lon":16.589321,"is_passed":false},{"stop_id":"U1167Z1","name":"Hudcova","arrival_time":"22:37:00","departure_time":"22:37:00","lat":49.235202,"lon":16.587471,"is_passed":false},{"stop_id":"U1272Z1","name":"Kořískova","arrival_time":"22:39:00","departure_time":"22:39:00","lat":49.240579,"lon":16.58388,"is_passed":false},{"stop_id":"U1108Z1","name":"Filkukova","arrival_time":"22:40:00","departure_time":"22:40:00","lat":49.244244,"lon":16.58143,"is_passed":false},{"stop_id":"U1553Z1","name":"Řečkovice","arrival_time":"22:42:00","departure_time":"22:45:00","lat":49.247295,"lon":16.578803,"is_passed":false}],"43812":[{"stop_id":"U1537Z2","name":"Rakovecká","arrival_time":"7:06:00","departure_time":"7:06:00","lat":49.226177,"lon":16.519315,"is_passed":false},{"stop_id":"U1527Z2","name":"Přístaviště","arrival_time":"7:07:00","departure_time":"7:07:00","lat":49.228519,"lon":16.522556,"is_passed":false},{"stop_id":"U1796Z2","name":"Zoologická zahrada","arrival_time":"7:09:00","departure_time":"7:09:00","lat":49.22774,"lon":16.531898,"is_passed":false},{"stop_id":"U1226Z2","name":"Kamenolom","arrival_time":"7:10:00","departure_time":"7:10:00","lat":49.221888,"lon":16.536713,"is_passed":false},{"stop_id":"U1493Z2","name":"Podlesí","arrival_time":"7:11:00","departure_time":"7:11:00","lat":49.21871,"lon":16.542217,"is_passed":false},{"stop_id":"U1042Z2","name":"Branka","arrival_time":"7:12:00","departure_time":"7:12:00","lat":49.219368,"lon":16.548224,"is_passed":false},{"stop_id":"U1633Z2","name":"Svratecká","arrival_time":"7:13:00","departure_time":"7:13:00","lat":49.21799,"lon":16.553492,"is_passed":false},{"stop_id":"U1217Z12","name":"Vozovna Komín","arrival_time":"7:17:00","departure_time":"7:17:00","lat":49.212491,"lon":16.563754,"is_passed":false},{"stop_id":"U1621Z2","name":"Stránského","arrival_time":"7:18:00","departure_time":"7:18:00","lat":49.211937,"lon":16.568408,"is_passed":false},{"stop_id":"U1041Z2","name":"Bráfova","arrival_time":"7:19:00","departure_time":"7:19:00","lat":49.207033,"lon":16.570558,"is_passed":false},{"stop_id":"U1487Z4","name":"Pisárky","arrival_time":"7:22:00","departure_time":"7:22:00","lat":49.194163,"lon":16.569615,"is_passed":false},{"stop_id":"U1343Z2","name":"ARENA BRNO","arrival_time":"7:23:00","departure_time":"7:23:00","lat":49.191387,"lon":16.576425,"is_passed":false},{"stop_id":"U1769Z2","name":"Výstaviště - vstup G2","arrival_time":"7:24:00","departure_time":"7:24:00","lat":49.190207,"lon":16.580555,"is_passed":false},{"stop_id":"U1768Z2","name":"Výstaviště - hlavní vstup","arrival_time":"7:25:00","departure_time":"7:25:00","lat":49.189325,"lon":16.585699,"is_passed":false},{"stop_id":"U1378Z2","name":"Mendlovo náměstí","arrival_time":"7:27:00","departure_time":"7:27:00","lat":49.190034,"lon":16.593837,"is_passed":false},{"stop_id":"U1721Z2","name":"Václavská","arrival_time":"7:29:00","departure_time":"7:29:00","lat":49.188715,"lon":16.596878,"is_passed":false},{"stop_id":"U1176Z2","name":"Hybešova","arrival_time":"7:30:00","departure_time":"7:30:00","lat":49.189209,"lon":16.603364,"is_passed":false},{"stop_id":"U1436Z2","name":"Nové sady","arrival_time":"7:33:00","departure_time":"7:33:00","lat":49.190222,"lon":16.609403,"is_passed":false},{"stop_id":"U1146Z2","name":"Hlavní nádraží","arrival_time":"7:35:00","departure_time":"7:37:00","lat":49.191394,"lon":16.612548,"is_passed":false},{"stop_id":"U1357Z3","name":"Malinovského náměstí","arrival_time":"7:39:00","departure_time":"7:39:00","lat":49.196131,"lon":16.612953,"is_passed":false},{"stop_id":"U1397Z1","name":"Moravské náměstí","arrival_time":"7:41:00","departure_time":"7:41:00","lat":49.19996,"lon":16.607931,"is_passed":false},{"stop_id":"U1006Z1","name":"Antonínská","arrival_time":"7:42:00","departure_time":"7:42:00","lat":49.203685,"lon":16.606678,"is_passed":false},{"stop_id":"U1483Z1","name":"Pionýrská","arrival_time":"7:43:00","departure_time":"7:43:00","lat":49.207491,"lon":16.604472,"is_passed":false},{"stop_id":"U1166Z1","name":"Hrnčířská","arrival_time":"7:44:00","departure_time":"7:44:00","lat":49.210254,"lon":16.602868,"is_passed":false},{"stop_id":"U1652Z1","name":"Šumavská","arrival_time":"7:45:00","departure_time":"7:45:00","lat":49.213991,"lon":16.600669,"is_passed":false},{"stop_id":"U1233Z1","name":"Kartouzská","arrival_time":"7:46:00","departure_time":"7:46:00","lat":49.216998,"lon":16.598896,"is_passed":false},{"stop_id":"U1218Z1","name":"Jungmannova","arrival_time":"7:47:00","departure_time":"7:47:00","lat":49.220856,"lon":16.596583,"is_passed":false},{"stop_id":"U1171Z1","name":"Husitská","arrival_time":"7:48:00","departure_time":"7:48:00","lat":49.223125,"lon":16.59524,"is_passed":false},{"stop_id":"U1566Z1","name":"Semilasso","arrival_time":"7:50:00","departure_time":"7:50:00","lat":49.227417,"lon":16.592683,"is_passed":false},{"stop_id":"U1683Z1","name":"Tylova","arrival_time":"7:51:00","departure_time":"7:51:00","lat":49.23243,"lon":16.589321,"is_passed":false},{"stop_id":"U1167Z1","name":"Hudcova","arrival_time":"7:52:00","departure_time":"7:52:00","lat":49.235202,"lon":16.587471,"is_passed":false},{"stop_id":"U1272Z1","name":"Kořískova","arrival_time":"7:54:00","departure_time":"7:54:00","lat":49.240579,"lon":16.58388,"is_passed":false},{"stop_id":"U1108Z1","name":"Filkukova","arrival_time":"7:55:00","departure_time":"7:55:00","lat":49.244244,"lon":16.58143,"is_passed":false},{"stop_id":"U1553Z1","name":"Řečkovice","arrival_time":"7:57:00","departure_time":"8:08:00","lat":49.247295,"lon":16.578803,"is_passed":false}],"43813":[{"stop_id":"U1553Z2","name":"Řečkovice","arrival_time":"8:08:00","departure_time":"8:08:00","lat":49.246978,"lon":16.5794,"is_passed":false},{"stop_id":"U1108Z2","name":"Filkukova","arrival_time":"8:09:00","departure_time":"8:09:00","lat":49.243517,"lon":16.581881,"is_passed":false},{"stop_id":"U1272Z2","name":"Kořískova","arrival_time":"8:10:00","departure_time":"8:10:00","lat":49.238898,"lon":16.584964,"is_passed":false},{"stop_id":"U1167Z2","name":"Hudcova","arrival_time":"8:11:00","departure_time":"8:11:00","lat":49.235791,"lon":16.587041,"is_passed":false},{"stop_id":"U1683Z2","name":"Tylova","arrival_time":"8:12:00","departure_time":"8:12:00","lat":49.232055,"lon":16.589539,"is_passed":false},{"stop_id":"U1566Z2","name":"Semilasso","arrival_time":"8:13:00","departure_time":"8:13:00","lat":49.228227,"lon":16.592081,"is_passed":false},{"stop_id":"U1171Z2","name":"Husitská","arrival_time":"8:15:00","departure_time":"8:15:00","lat":49.223415,"lon":16.595016,"is_passed":false},{"stop_id":"U1218Z2","name":"Jungmannova","arrival_time":"8:16:00","departure_time":"8:16:00","lat":49.221083,"lon":16.596416,"is_passed":false},{"stop_id":"U1233Z2","name":"Kartouzská","arrival_time":"8:17:00","departure_time":"8:17:00","lat":49.21665,"lon":16.599078,"is_passed":false},{"stop_id":"U1652Z2","name":"Šumavská","arrival_time":"8:18:00","departure_time":"8:18:00","lat":49.214022,"lon":16.60062,"is_passed":false},{"stop_id":"U1166Z2","name":"Hrnčířská","arrival_time":"8:19:00","departure_time":"8:19:00","lat":49.21062,"lon":16.602628,"is_passed":false},{"stop_id":"U1483Z2","name":"Pionýrská","arrival_time":"8:20:00","departure_time":"8:20:00","lat":49.207904,"lon":16.604201,"is_passed":false},{"stop_id":"U1006Z2","name":"Antonínská","arrival_time":"8:21:00","departure_time":"8:21:00","lat":49.203166,"lon":16.606915,"is_passed":false},{"stop_id":"U1397Z2","name":"Moravské náměstí","arrival_time":"8:23:00","departure_time":"8:23:00","lat":49.199237,"lon":16.608067,"is_passed":false},{"stop_id":"U1357Z4","name":"Malinovského náměstí","arrival_time":"8:26:00","departure_time":"8:26:00","lat":49.195612,"lon":16.613248,"is_passed":false},{"stop_id":"U1146Z1","name":"Hlavní nádraží","arrival_time":"8:29:00","departure_time":"8:30:00","lat":49.191185,"lon":16.611879,"is_passed":false},{"stop_id":"U1436Z1","name":"Nové sady","arrival_time":"8:31:00","departure_time":"8:31:00","lat":49.190116,"lon":16.609025,"is_passed":false},{"stop_id":"U1176Z1","name":"Hybešova","arrival_time":"8:33:00","departure_time":"8:33:00","lat":49.189322,"lon":16.602863,"is_passed":false},{"stop_id":"U1721Z1","name":"Václavská","arrival_time":"8:34:00","departure_time":"8:34:00","lat":49.188681,"lon":16.597217,"is_passed":false},{"stop_id":"U1378Z1","name":"Mendlovo náměstí","arrival_time":"8:36:00","departure_time":"8:36:00","lat":49.189659,"lon":16.592283,"is_passed":false},{"stop_id":"U1768Z1","name":"Výstaviště - hlavní vstup","arrival_time":"8:38:00","departure_time":"8:38:00","lat":49.189583,"lon":16.584499,"is_passed":false},{"stop_id":"U1769Z1","name":"Výstaviště - vstup G2","arrival_time":"8:39:00","departure_time":"8:39:00","lat":49.190338,"lon":16.579837,"is_passed":false},{"stop_id":"U1343Z1","name":"ARENA BRNO","arrival_time":"8:40:00","departure_time":"8:40:00","lat":49.191523,"lon":16.576065,"is_passed":false},{"stop_id":"U1487Z3","name":"Pisárky","arrival_time":"8:42:00","departure_time":"8:42:00","lat":49.194099,"lon":16.569741,"is_passed":false},{"stop_id":"U1041Z1","name":"Bráfova","arrival_time":"8:44:00","departure_time":"8:44:00","lat":49.206955,"lon":16.570536,"is_passed":false},{"stop_id":"U1621Z1","name":"Stránského","arrival_time":"8:45:00","departure_time":"8:45:00","lat":49.211954,"lon":16.568673,"is_passed":false},{"stop_id":"U1217Z11","name":"Vozovna Komín","arrival_time":"8:46:00","departure_time":"8:46:00","lat":49.212594,"lon":16.563449,"is_passed":false},{"stop_id":"U1633Z1","name":"Svratecká","arrival_time":"8:50:00","departure_time":"8:50:00","lat":49.217898,"lon":16.553656,"is_passed":false},{"stop_id":"U1042Z1","name":"Branka","arrival_time":"8:51:00","departure_time":"8:51:00","lat":49.219419,"lon":16.54726,"is_passed":false},{"stop_id":"U1493Z1","name":"Podlesí","arrival_time":"8:52:00","departure_time":"8:52:00","lat":49.218711,"lon":16.542392,"is_passed":false},{"stop_id":"U1226Z1","name":"Kamenolom","arrival_time":"8:53:00","departure_time":"8:53:00","lat":49.221657,"lon":16.536794,"is_passed":false},{"stop_id":"U1796Z1","name":"Zoologická zahrada","arrival_time":"8:55:00","departure_time":"8:55:00","lat":49.227674,"lon":16.532002,"is_passed":false},{"stop_id":"U1527Z1","name":"Přístaviště","arrival_time":"8:56:00","departure_time":"8:56:00","lat":49.22814,"lon":16.521658,"is_passed":false},{"stop_id":"U1537Z1","name":"Rakovecká","arrival_time":"8:58:00","departure_time":"9:17:00","lat":49.225877,"lon":16.518739,"is_passed":false}],"43814":[{"stop_id":"U1537Z2","name":"Rakovecká","arrival_time":"9:17:00","departure_time":"9:17:00","lat":49.226177,"lon":16.519315,"is_passed":false},{"stop_id":"U1527Z2","name":"Přístaviště","arrival_time":"9:18:00","departure_time":"9:18:00","lat":49.228519,"lon":16.522556,"is_passed":false},{"stop_id":"U1796Z2","name":"Zoologická zahrada","arrival_time":"9:20:00","departure_time":"9:20:00","lat":49.22774,"lon":16.531898,"is_passed":false},{"stop_id":"U1226Z2","name":"Kamenolom","arrival_time":"9:21:00","departure_time":"9:21:00","lat":49.221888,"lon":16.536713,"is_passed":false},{"stop_id":"U1493Z2","name":"Podlesí","arrival_time":"9:22:00","departure_time":"9:22:00","lat":49.21871,"lon":16.542217,"is_passed":false},{"stop_id":"U1042Z2","name":"Branka","arrival_time":"9:23:00","departure_time":"9:23:00","lat":49.219368,"lon":16.548224,"is_passed":false},{"stop_id":"U1633Z2","name":"Svratecká","arrival_time":"9:24:00","departure_time":"9:24:00","lat":49.21799,"lon":16.553492,"is_passed":false},{"stop_id":"U1217Z12","name":"Vozovna Komín","arrival_time":"9:28:00","departure_time":"9:28:00","lat":49.212491,"lon":16.563754,"is_passed":false},{"stop_id":"U1621Z2","name":"Stránského","arrival_time":"9:29:00","departure_time":"9:29:00","lat":49.211937,"lon":16.568408,"is_passed":false},{"stop_id":"U1041Z2","name":"Bráfova","arrival_time":"9:30:00","departure_time":"9:30:00","lat":49.207033,"lon":16.570558,"is_passed":false},{"stop_id":"U1487Z4","name":"Pisárky","arrival_time":"9:33:00","departure_time":"9:33:00","lat":49.194163,"lon":16.569615,"is_passed":false},{"stop_id":"U1343Z2","name":"ARENA BRNO","arrival_time":"9:34:00","departure_time":"9:34:00","lat":49.191387,"lon":16.576425,"is_passed":false},{"stop_id":"U1769Z2","name":"Výstaviště - vstup G2","arrival_time":"9:35:00","departure_time":"9:35:00","lat":49.190207,"lon":16.580555,"is_passed":false},{"stop_id":"U1768Z2","name":"Výstaviště - hlavní vstup","arrival_time":"9:36:00","departure_time":"9:36:00","lat":49.189325,"lon":16.585699,"is_passed":false},{"stop_id":"U1378Z2","name":"Mendlovo náměstí","arrival_time":"9:38:00","departure_time":"9:38:00","lat":49.190034,"lon":16.593837,"is_passed":false},{"stop_id":"U1721Z2","name":"Václavská","arrival_time":"9:40:00","departure_time":"9:40:00","lat":49.188715,"lon":16.596878,"is_passed":false},{"stop_id":"U1176Z2","name":"Hybešova","arrival_time":"9:41:00","departure_time":"9:41:00","lat":49.189209,"lon":16.603364,"is_passed":false},{"stop_id":"U1436Z2","name":"Nové sady","arrival_time":"9:44:00","departure_time":"9:44:00","lat":49.190222,"lon":16.609403,"is_passed":false},{"stop_id":"U1146Z2","name":"Hlavní nádraží","arrival_time":"9:46:00","departure_time":"9:46:00","lat":49.191394,"lon":16.612548,"is_passed":false},{"stop_id":"U1357Z3","name":"Malinovského náměstí","arrival_time":"9:48:00","departure_time":"9:48:00","lat":49.196131,"lon":16.612953,"is_passed":false},{"stop_id":"U1397Z1","name":"Moravské náměstí","arrival_time":"9:50:00","departure_time":"9:50:00","lat":49.19996,"lon":16.607931,"is_passed":false},{"stop_id":"U1006Z1","name":"Antonínská","arrival_time":"9:51:00","departure_time":"9:51:00","lat":49.203685,"lon":16.606678,"is_passed":false},{"stop_id":"U1483Z1","name":"Pionýrská","arrival_time":"9:52:00","departure_time":"9:52:00","lat":49.207491,"lon":16.604472,"is_passed":false},{"stop_id":"U1166Z1","name":"Hrnčířská","arrival_time":"9:54:00","departure_time":"9:54:00","lat":49.210254,"lon":16.602868,"is_passed":false},{"stop_id":"U1652Z1","name":"Šumavská","arrival_time":"9:55:00","departure_time":"9:55:00","lat":49.213991,"lon":16.600669,"is_passed":false},