[{"stop_id":"U16345Z2","name":"Klobouky u Brna, náměstí","arrival_time":"14:49:00","departure_time":"14:49:00","lat":48.99538,"lon":16.85736,"is_passed":false},{"stop_id":"U16347Z2","name":"Klobouky u Brna, rozcestí","arrival_time":"14:51:00","departure_time":"14:51:00","lat":49.000636,"lon":16.862186,"is_passed":false},{"stop_id":"U16344Z2","name":"Klobouky u Brna, Martinice, rozcestí","arrival_time":"14:54:00","departure_time":"14:54:00","lat":49.013667,"lon":16.828293,"is_passed":false},{"stop_id":"U15226Z2","name":"Těšany","arrival_time":"15:00:00","departure_time":"15:00:00","lat":49.039503,"lon":16.770935,"is_passed":false},{"stop_id":"U15227Z2","name":"Těšany, u váhy","arrival_time":"15:01:00","departure_time":"15:01:00","lat":49.041007,"lon":16.765215,"is_passed":false},{"stop_id":"U15223Z2","name":"Moutnice, střed","arrival_time":"15:04:00","departure_time":"15:04:00","lat":49.049157,"lon":16.73739,"is_passed":false},{"stop_id":"U15232Z2","name":"Moutnice, Rozařín","arrival_time":"15:06:00","departure_time":"15:06:00","lat":49.05312,"lon":16.737877,"is_passed":false},{"stop_id":"U15167Z1","name":"Měnín, rozcestí","arrival_time":"15:10:00","departure_time":"15:10:00","lat":49.087318,"lon":16.716476,"is_passed":false},{"stop_id":"U16138Z4","name":"Telnice","arrival_time":"15:12:00","departure_time":"15:12:00","lat":49.1024,"lon":16.717463,"is_passed":false},{"stop_id":"U16147Z2","name":"Sokolnice, rozvodna","arrival_time":"15:14:00","departure_time":"15:14:00","lat":49.114771,"lon":16.705095,"is_passed":false},{"stop_id":"U1681Z4","name":"Tuřany, smyčka","arrival_time":"15:18:00","departure_time":"15:18:00","lat":49.142326,"lon":16.666375,"is_passed":false},{"stop_id":"U1131Z2","name":"Hanácká","arrival_time":"15:20:00","departure_time":"15:20:00","lat":49.146706,"lon":16.667371,"is_passed":false},{"stop_id":"U1191Z2","name":"Ivanovické náměstí","arrival_time":"15:23:00","departure_time":"15:23:00","lat":49.153629,"lon":16.653755,"is_passed":false},{"stop_id":"U1533Z2","name":"Ráječek","arrival_time":"15:25:00","departure_time":"15:25:00","lat":49.161397,"lon":16.637387,"is_passed":false},{"stop_id":"U1361Z4","name":"Mariánské náměstí","arrival_time":"15:29:00","departure_time":"15:29:00","lat":49.177094,"lon":16.621935,"is_passed":false},{"stop_id":"U1266Z4","name":"Konopná","arrival_time":"15:30:00","departure_time":"15:30:00","lat":49.179332,"lon":16.621811,"is_passed":false},{"stop_id":"U1696Z21","name":"ÚAN Zvonařka","arrival_time":"15:35:00","departure_time":"15:39:00","lat":49.185364,"lon":16.616151,"is_passed":false}]