[{"stop_id":"U1716Z8","name":"Úzká","arrival_time":"13:02:00","departure_time":"13:02:00","lat":49.189068,"lon":16.613933,"is_passed":false},{"stop_id":"U1011Z1","name":"Autobusové nádraží","arrival_time":"13:04:00","departure_time":"13:04:00","lat":49.185873,"lon":16.61787,"is_passed":false},{"stop_id":"U1807Z1","name":"Železniční","arrival_time":"13:05:00","departure_time":"13:05:00","lat":49.18274,"lon":16.619609,"is_passed":false},{"stop_id":"U1266Z3","name":"Konopná","arrival_time":"13:06:00","departure_time":"13:06:00","lat":49.180126,"lon":16.621339,"is_passed":false},{"stop_id":"U1256Z3","name":"Komárov","arrival_time":"13:08:00","departure_time":"13:08:00","lat":49.17444,"lon":16.622448,"is_passed":false},{"stop_id":"U1148Z1","name":"Hněvkovského","arrival_time":"13:09:00","departure_time":"13:09:00","lat":49.169807,"lon":16.625991,"is_passed":false},{"stop_id":"U1533Z1","name":"Ráječek","arrival_time":"13:11:00","departure_time":"13:11:00","lat":49.160802,"lon":16.638242,"is_passed":false},{"stop_id":"U1781Z2","name":"Zámecká","arrival_time":"13:18:00","departure_time":"13:18:00","lat":49.132518,"lon":16.642875,"is_passed":false},{"stop_id":"U1644Z2","name":"Šromova","arrival_time":"13:20:00","departure_time":"13:20:00","lat":49.13398,"lon":16.651446,"is_passed":false},{"stop_id":"U1187Z4","name":"Chrlické náměstí","arrival_time":"13:21:00","departure_time":"13:21:00","lat":49.135767,"lon":16.653213,"is_passed":false},{"stop_id":"U1718Z2","name":"V rejích","arrival_time":"13:23:00","departure_time":"13:23:00","lat":49.138975,"lon":16.65507,"is_passed":false},{"stop_id":"U1151Z2","name":"Holásky","arrival_time":"13:24:00","departure_time":"13:24:00","lat":49.142863,"lon":16.651287,"is_passed":false},{"stop_id":"U1717Z2","name":"V aleji","arrival_time":"13:25:00","departure_time":"13:25:00","lat":49.148,"lon":16.648573,"is_passed":false},{"stop_id":"U1518Z2","name":"Prodloužená","arrival_time":"13:26:00","departure_time":"13:26:00","lat":49.152176,"lon":16.647669,"is_passed":false},{"stop_id":"U1511Z51","name":"Popelova","arrival_time":"13:27:00","departure_time":"13:27:00","lat":49.155836,"lon":16.647222,"is_passed":false},{"stop_id":"U1191Z1","name":"Ivanovické náměstí","arrival_time":"13:29:00","departure_time":"13:29:00","lat":49.153066,"lon":16.653791,"is_passed":false},{"stop_id":"U1118Z1","name":"Glocova","arrival_time":"13:30:00","departure_time":"13:30:00","lat":49.151074,"lon":16.659518,"is_passed":false},{"stop_id":"U1538Z1","name":"Revoluční","arrival_time":"13:31:00","departure_time":"13:31:00","lat":49.149426,"lon":16.663085,"is_passed":false},{"stop_id":"U1131Z1","name":"Hanácká","arrival_time":"13:32:00","departure_time":"13:32:00","lat":49.146954,"lon":16.667509,"is_passed":false},{"stop_id":"U1186Z1","name":"Chrlická","arrival_time":"13:33:00","departure_time":"13:33:00","lat":49.144276,"lon":16.66513,"is_passed":false},{"stop_id":"U1681Z1","name":"Tuřany, smyčka","arrival_time":"13:34:00","departure_time":"14:11:00","lat":49.141774,"lon":16.666531,"is_passed":false}]