[{"stop_id":"U1487Z6","name":"Pisárky","arrival_time":"6:52:00","departure_time":"6:52:00","lat":49.193537,"lon":16.570797,"is_passed":false},{"stop_id":"U1320Z2","name":"Květná","arrival_time":"6:53:00","departure_time":"6:53:00","lat":49.193384,"lon":16.576691,"is_passed":false},{"stop_id":"U1478Z4","name":"Pavlíkova","arrival_time":"6:54:00","departure_time":"6:54:00","lat":49.194603,"lon":16.584264,"is_passed":false},{"stop_id":"U1723Z4","name":"Vaňkovo náměstí","arrival_time":"6:55:00","departure_time":"6:55:00","lat":49.195446,"lon":16.585783,"is_passed":false},{"stop_id":"U1328Z2","name":"Lerchova","arrival_time":"6:56:00","departure_time":"6:56:00","lat":49.198598,"lon":16.583814,"is_passed":false},{"stop_id":"U1371Z3","name":"Náměstí Míru","arrival_time":"6:59:00","departure_time":"6:59:00","lat":49.201996,"lon":16.581664,"is_passed":false},{"stop_id":"U1279Z1","name":"Kounicovy koleje","arrival_time":"7:00:00","departure_time":"7:00:00","lat":49.207874,"lon":16.583463,"is_passed":false},{"stop_id":"U1657Z6","name":"Tábor","arrival_time":"7:02:00","departure_time":"7:02:00","lat":49.210122,"lon":16.587633,"is_passed":false},{"stop_id":"U1242Z1","name":"Klusáčkova","arrival_time":"7:05:00","departure_time":"7:05:00","lat":49.212365,"lon":16.592666,"is_passed":false},{"stop_id":"U1643Z2","name":"Štefánikova","arrival_time":"7:07:00","departure_time":"7:07:00","lat":49.21528,"lon":16.599053,"is_passed":false},{"stop_id":"U1535Z4","name":"Reissigova","arrival_time":"7:08:00","departure_time":"7:08:00","lat":49.21637,"lon":16.60365,"is_passed":false},{"stop_id":"U1415Z2","name":"NC Královo Pole","arrival_time":"7:10:00","departure_time":"7:15:00","lat":49.217553,"lon":16.607232,"is_passed":false}]