[{"stop_id":"U1415Z1","name":"NC Královo Pole","arrival_time":"14:30:00","departure_time":"14:30:00","lat":49.217588,"lon":16.606968,"is_passed":false},{"stop_id":"U1535Z1","name":"Reissigova","arrival_time":"14:31:00","departure_time":"14:31:00","lat":49.21647,"lon":16.603814,"is_passed":false},{"stop_id":"U1643Z1","name":"Štefánikova","arrival_time":"14:33:00","departure_time":"14:33:00","lat":49.215384,"lon":16.599228,"is_passed":false},{"stop_id":"U1242Z2","name":"Klusáčkova","arrival_time":"14:35:00","departure_time":"14:35:00","lat":49.211903,"lon":16.592875,"is_passed":false},{"stop_id":"U1657Z1","name":"Tábor","arrival_time":"14:38:00","departure_time":"14:38:00","lat":49.210271,"lon":16.587228,"is_passed":false},{"stop_id":"U1279Z2","name":"Kounicovy koleje","arrival_time":"14:39:00","departure_time":"14:39:00","lat":49.20763,"lon":16.582971,"is_passed":false},{"stop_id":"U1670Z2","name":"Tichého","arrival_time":"14:40:00","departure_time":"14:40:00","lat":49.204993,"lon":16.581692,"is_passed":false},{"stop_id":"U1371Z5","name":"Náměstí Míru","arrival_time":"14:42:00","departure_time":"14:42:00","lat":49.202414,"lon":16.581386,"is_passed":false},{"stop_id":"U1328Z1","name":"Lerchova","arrival_time":"14:43:00","departure_time":"14:43:00","lat":49.198847,"lon":16.583514,"is_passed":false},{"stop_id":"U1723Z3","name":"Vaňkovo náměstí","arrival_time":"14:45:00","departure_time":"14:45:00","lat":49.194723,"lon":16.585005,"is_passed":false},{"stop_id":"U1478Z3","name":"Pavlíkova","arrival_time":"14:45:00","departure_time":"14:45:00","lat":49.194545,"lon":16.583048,"is_passed":false},{"stop_id":"U1487Z5","name":"Pisárky","arrival_time":"14:48:00","departure_time":"14:48:00","lat":49.193517,"lon":16.571155,"is_passed":false},{"stop_id":"U1007Z3","name":"Anthropos","arrival_time":"14:49:00","departure_time":"14:49:00","lat":49.193146,"lon":16.565715,"is_passed":false},{"stop_id":"U1003Z2","name":"Antonína Procházky","arrival_time":"14:50:00","departure_time":"14:50:00","lat":49.194292,"lon":16.55926,"is_passed":false},{"stop_id":"U1636Z1","name":"Šárka","arrival_time":"14:52:00","departure_time":"14:52:00","lat":49.191567,"lon":16.545721,"is_passed":false},{"stop_id":"U1408Z1","name":"Myslivna","arrival_time":"14:54:00","departure_time":"15:02:00","lat":49.18747,"lon":16.552137,"is_passed":false}]