[{"stop_id":"U1336Z3","name":"Lesnická","arrival_time":"20:53:00","departure_time":"20:53:00","lat":49.213089,"lon":16.619037,"is_passed":false},{"stop_id":"U1522Z2","name":"Provazníkova","arrival_time":"20:54:00","departure_time":"20:54:00","lat":49.214473,"lon":16.624002,"is_passed":false},{"stop_id":"U1646Z3","name":"Štefánikova čtvrť","arrival_time":"20:56:00","departure_time":"20:56:00","lat":49.216958,"lon":16.627543,"is_passed":false},{"stop_id":"U1331Z1","name":"Lesná, nádraží","arrival_time":"20:57:00","departure_time":"20:57:00","lat":49.220041,"lon":16.629534,"is_passed":false},{"stop_id":"U1506Z1","name":"Poliklinika Lesná","arrival_time":"20:58:00","departure_time":"20:58:00","lat":49.222513,"lon":16.625643,"is_passed":false},{"stop_id":"U1128Z3","name":"Halasovo náměstí","arrival_time":"20:59:00","departure_time":"20:59:00","lat":49.223406,"lon":16.622237,"is_passed":false},{"stop_id":"U1582Z1","name":"Slavíčkova","arrival_time":"21:00:00","departure_time":"21:00:00","lat":49.226088,"lon":16.617914,"is_passed":false},{"stop_id":"U1111Z1","name":"Fillova","arrival_time":"21:01:00","departure_time":"21:01:00","lat":49.229105,"lon":16.616814,"is_passed":false},{"stop_id":"U1348Z1","name":"Loosova","arrival_time":"21:02:00","departure_time":"21:02:00","lat":49.232374,"lon":16.619952,"is_passed":false},{"stop_id":"U1132Z1","name":"Haškova","arrival_time":"21:03:00","departure_time":"21:03:00","lat":49.233582,"lon":16.624766,"is_passed":false},{"stop_id":"U1317Z1","name":"Kupkova","arrival_time":"21:04:00","departure_time":"21:04:00","lat":49.236519,"lon":16.627603,"is_passed":false},{"stop_id":"U1691Z1","name":"U rozvodny","arrival_time":"21:05:00","departure_time":"21:05:00","lat":49.240973,"lon":16.62736,"is_passed":false},{"stop_id":"U1479Z1","name":"Panská lícha","arrival_time":"21:05:00","departure_time":"21:05:00","lat":49.24527,"lon":16.624807,"is_passed":false},{"stop_id":"U1647Z1","name":"Štěpánkova","arrival_time":"21:06:00","departure_time":"21:06:00","lat":49.251649,"lon":16.62312,"is_passed":false},{"stop_id":"U1548Z1","name":"Rozárka","arrival_time":"21:07:00","departure_time":"21:07:00","lat":49.254486,"lon":16.622791,"is_passed":false},{"stop_id":"U1235Z1","name":"Klarisky","arrival_time":"21:09:00","departure_time":"21:09:00","lat":49.256961,"lon":16.622588,"is_passed":false},{"stop_id":"U1355Z1","name":"Malinová","arrival_time":"21:09:00","departure_time":"21:09:00","lat":49.259433,"lon":16.624027,"is_passed":false},{"stop_id":"U1333Z1","name":"Lesní školka","arrival_time":"21:10:00","departure_time":"21:10:00","lat":49.263185,"lon":16.625985,"is_passed":false},{"stop_id":"U1694Z1","name":"U jezírka","arrival_time":"21:11:00","departure_time":"21:11:00","lat":49.269695,"lon":16.6293,"is_passed":false},{"stop_id":"U1684Z1","name":"U buku","arrival_time":"21:12:00","departure_time":"21:12:00","lat":49.276348,"lon":16.630361,"is_passed":false},{"stop_id":"U1554Z1","name":"Rozcestí","arrival_time":"21:14:00","departure_time":"21:14:00","lat":49.285805,"lon":16.63179,"is_passed":false},{"stop_id":"U1707Z3","name":"Útěchov","arrival_time":"21:15:00","departure_time":"21:15:00","lat":49.289637,"lon":16.630401,"is_passed":false},{"stop_id":"U13181Z1","name":"Vranov, hřbitov","arrival_time":"21:17:00","departure_time":"21:17:00","lat":49.305827,"lon":16.622567,"is_passed":false},{"stop_id":"U13185Z1","name":"Vranov, myslivna","arrival_time":"21:18:00","departure_time":"21:18:00","lat":49.308583,"lon":16.621781,"is_passed":false},{"stop_id":"U13183Z1","name":"Vranov, křižovatka","arrival_time":"21:19:00","departure_time":"21:19:00","lat":49.31025,"lon":16.612232,"is_passed":false},{"stop_id":"U13187Z1","name":"Vranov, smyčka","arrival_time":"21:20:00","departure_time":"21:20:00","lat":49.310984,"lon":16.612105,"is_passed":false}]