[{"stop_id":"U1681Z2","name":"Tuřany, smyčka","arrival_time":"4:58:00","departure_time":"4:58:00","lat":49.141757,"lon":16.666878,"is_passed":false},{"stop_id":"U1186Z2","name":"Chrlická","arrival_time":"4:59:00","departure_time":"4:59:00","lat":49.143983,"lon":16.665097,"is_passed":false},{"stop_id":"U1131Z2","name":"Hanácká","arrival_time":"5:00:00","departure_time":"5:00:00","lat":49.146706,"lon":16.667371,"is_passed":false},{"stop_id":"U1538Z2","name":"Revoluční","arrival_time":"5:01:00","departure_time":"5:01:00","lat":49.150097,"lon":16.661811,"is_passed":false},{"stop_id":"U1154Z1","name":"Holásecká","arrival_time":"5:01:00","departure_time":"5:01:00","lat":49.147496,"lon":16.661062,"is_passed":false},{"stop_id":"U1543Z2","name":"Rolencova","arrival_time":"5:02:00","departure_time":"5:02:00","lat":49.145353,"lon":16.655599,"is_passed":false},{"stop_id":"U1151Z3","name":"Holásky","arrival_time":"5:03:00","departure_time":"5:03:00","lat":49.142474,"lon":16.651611,"is_passed":false},{"stop_id":"U1718Z1","name":"V rejích","arrival_time":"5:04:00","departure_time":"5:04:00","lat":49.139511,"lon":16.654735,"is_passed":false},{"stop_id":"U1187Z3","name":"Chrlické náměstí","arrival_time":"5:05:00","departure_time":"5:05:00","lat":49.135906,"lon":16.65314,"is_passed":false},{"stop_id":"U1644Z1","name":"Šromova","arrival_time":"5:05:00","departure_time":"5:05:00","lat":49.13376,"lon":16.650299,"is_passed":false},{"stop_id":"U1781Z1","name":"Zámecká","arrival_time":"5:05:00","departure_time":"5:05:00","lat":49.132776,"lon":16.642479,"is_passed":false},{"stop_id":"U1148Z2","name":"Hněvkovského","arrival_time":"5:09:00","departure_time":"5:09:00","lat":49.169618,"lon":16.626335,"is_passed":false},{"stop_id":"U1565Z2","name":"Sazenice","arrival_time":"5:10:00","departure_time":"5:10:00","lat":49.172877,"lon":16.623824,"is_passed":false},{"stop_id":"U1361Z4","name":"Mariánské náměstí","arrival_time":"5:11:00","departure_time":"5:11:00","lat":49.177094,"lon":16.621935,"is_passed":false},{"stop_id":"U1266Z4","name":"Konopná","arrival_time":"5:12:00","departure_time":"5:12:00","lat":49.179332,"lon":16.621811,"is_passed":false},{"stop_id":"U1807Z2","name":"Železniční","arrival_time":"5:13:00","departure_time":"5:13:00","lat":49.183322,"lon":16.619338,"is_passed":false},{"stop_id":"U1011Z2","name":"Autobusové nádraží","arrival_time":"5:14:00","departure_time":"5:14:00","lat":49.186417,"lon":16.617622,"is_passed":false},{"stop_id":"U1716Z2","name":"Úzká","arrival_time":"5:16:00","departure_time":"5:16:00","lat":49.190179,"lon":16.614625,"is_passed":false},{"stop_id":"U1146Z3","name":"Hlavní nádraží","arrival_time":"5:18:00","departure_time":"5:18:00","lat":49.191063,"lon":16.611972,"is_passed":false}]