[{"stop_id":"U15130Z2","name":"Modřice, Olympia","arrival_time":"7:11:00","departure_time":"7:11:00","lat":49.139255,"lon":16.634291,"is_passed":false},{"stop_id":"U15132Z2","name":"Modřice, Olympia jih","arrival_time":"7:12:00","departure_time":"7:12:00","lat":49.135069,"lon":16.633864,"is_passed":false},{"stop_id":"U1781Z2","name":"Zámecká","arrival_time":"7:14:00","departure_time":"7:14:00","lat":49.132518,"lon":16.642875,"is_passed":false},{"stop_id":"U1644Z2","name":"Šromova","arrival_time":"7:15:00","departure_time":"7:15:00","lat":49.13398,"lon":16.651446,"is_passed":false},{"stop_id":"U1187Z4","name":"Chrlické náměstí","arrival_time":"7:16:00","departure_time":"7:16:00","lat":49.135767,"lon":16.653213,"is_passed":false},{"stop_id":"U1693Z2","name":"U viaduktu","arrival_time":"7:17:00","departure_time":"7:17:00","lat":49.139248,"lon":16.66101,"is_passed":false},{"stop_id":"U1186Z2","name":"Chrlická","arrival_time":"7:18:00","departure_time":"7:18:00","lat":49.143983,"lon":16.665097,"is_passed":false},{"stop_id":"U1131Z2","name":"Hanácká","arrival_time":"7:19:00","departure_time":"7:19:00","lat":49.146706,"lon":16.667371,"is_passed":false},{"stop_id":"U1772Z2","name":"Za křížem","arrival_time":"7:21:00","departure_time":"7:21:00","lat":49.15905,"lon":16.670815,"is_passed":false},{"stop_id":"U1581Z2","name":"Areál Slatina","arrival_time":"7:23:00","departure_time":"7:26:00","lat":49.168677,"lon":16.678416,"is_passed":false},{"stop_id":"U1562Z3","name":"Řípská","arrival_time":"7:27:00","departure_time":"7:27:00","lat":49.172528,"lon":16.682138,"is_passed":false},{"stop_id":"U1300Z1","name":"Křehlíkova","arrival_time":"7:28:00","departure_time":"7:28:00","lat":49.174839,"lon":16.685145,"is_passed":false},{"stop_id":"U1525Z1","name":"Přemyslovo náměstí","arrival_time":"7:29:00","departure_time":"7:29:00","lat":49.176289,"lon":16.687296,"is_passed":false},{"stop_id":"U1292Z1","name":"Krejčího","arrival_time":"7:30:00","departure_time":"7:30:00","lat":49.177441,"lon":16.690968,"is_passed":false},{"stop_id":"U1576Z2","name":"Slatina, rozcestí","arrival_time":"7:32:00","departure_time":"7:33:00","lat":49.183366,"lon":16.691884,"is_passed":false},{"stop_id":"U1356Z2","name":"Malečkova","arrival_time":"7:33:00","departure_time":"7:33:00","lat":49.185667,"lon":16.692678,"is_passed":false},{"stop_id":"U1152Z2","name":"Holzova","arrival_time":"7:34:00","departure_time":"7:34:00","lat":49.194897,"lon":16.696973,"is_passed":false},{"stop_id":"U1339Z2","name":"Letecká","arrival_time":"7:35:00","departure_time":"7:35:00","lat":49.197812,"lon":16.695816,"is_passed":false},{"stop_id":"U1406Z2","name":"Muzeum dopravy","arrival_time":"7:36:00","departure_time":"7:36:00","lat":49.201777,"lon":16.694455,"is_passed":false},{"stop_id":"U1421Z1","name":"Náměstí Karla IV.","arrival_time":"7:38:00","departure_time":"7:38:00","lat":49.206363,"lon":16.694621,"is_passed":false},{"stop_id":"U1384Z3","name":"Mifkova","arrival_time":"7:38:00","departure_time":"7:38:00","lat":49.20716,"lon":16.692152,"is_passed":false},{"stop_id":"U1208Z5","name":"Jírova","arrival_time":"7:40:00","departure_time":"7:40:00","lat":49.209891,"lon":16.688265,"is_passed":false},{"stop_id":"U1392Z2","name":"Molákova","arrival_time":"7:41:00","departure_time":"7:41:00","lat":49.212602,"lon":16.687063,"is_passed":false},{"stop_id":"U1489Z2","name":"Podbělová","arrival_time":"7:42:00","departure_time":"7:42:00","lat":49.214049,"lon":16.681384,"is_passed":false},{"stop_id":"U1157Z2","name":"Horníkova","arrival_time":"7:43:00","departure_time":"7:43:00","lat":49.211809,"lon":16.67649,"is_passed":false},{"stop_id":"U1103Z2","name":"Elplova","arrival_time":"7:44:00","departure_time":"7:44:00","lat":49.210409,"lon":16.674871,"is_passed":false},{"stop_id":"U1623Z2","name":"Strnadova","arrival_time":"7:46:00","departure_time":"7:46:00","lat":49.205821,"lon":16.668465,"is_passed":false},{"stop_id":"U1551Z2","name":"Růženin dvůr","arrival_time":"7:48:00","departure_time":"7:48:00","lat":49.203263,"lon":16.666525,"is_passed":false},{"stop_id":"U1438Z4","name":"Novolíšeňská","arrival_time":"7:51:00","departure_time":"7:52:00","lat":49.201792,"lon":16.670352,"is_passed":false}]