[{"stop_id":"U15130Z2","name":"Modřice, Olympia","arrival_time":"8:36:00","departure_time":"8:36:00","lat":49.139255,"lon":16.634291,"is_passed":false},{"stop_id":"U15132Z2","name":"Modřice, Olympia jih","arrival_time":"8:37:00","departure_time":"8:37:00","lat":49.135069,"lon":16.633864,"is_passed":false},{"stop_id":"U1781Z2","name":"Zámecká","arrival_time":"8:39:00","departure_time":"8:39:00","lat":49.132518,"lon":16.642875,"is_passed":false},{"stop_id":"U1644Z2","name":"Šromova","arrival_time":"8:41:00","departure_time":"8:41:00","lat":49.13398,"lon":16.651446,"is_passed":false},{"stop_id":"U1187Z4","name":"Chrlické náměstí","arrival_time":"8:42:00","departure_time":"8:42:00","lat":49.135767,"lon":16.653213,"is_passed":false},{"stop_id":"U1693Z2","name":"U viaduktu","arrival_time":"8:43:00","departure_time":"8:43:00","lat":49.139248,"lon":16.66101,"is_passed":false},{"stop_id":"U1186Z2","name":"Chrlická","arrival_time":"8:44:00","departure_time":"8:44:00","lat":49.143983,"lon":16.665097,"is_passed":false},{"stop_id":"U1131Z2","name":"Hanácká","arrival_time":"8:45:00","departure_time":"8:45:00","lat":49.146706,"lon":16.667371,"is_passed":false},{"stop_id":"U1772Z2","name":"Za křížem","arrival_time":"8:47:00","departure_time":"8:47:00","lat":49.15905,"lon":16.670815,"is_passed":false},{"stop_id":"U1581Z2","name":"Areál Slatina","arrival_time":"8:49:00","departure_time":"8:49:00","lat":49.168677,"lon":16.678416,"is_passed":false},{"stop_id":"U1562Z3","name":"Řípská","arrival_time":"8:50:00","departure_time":"8:50:00","lat":49.172528,"lon":16.682138,"is_passed":false},{"stop_id":"U1300Z1","name":"Křehlíkova","arrival_time":"8:51:00","departure_time":"8:51:00","lat":49.174839,"lon":16.685145,"is_passed":false},{"stop_id":"U1525Z1","name":"Přemyslovo náměstí","arrival_time":"8:52:00","departure_time":"8:52:00","lat":49.176289,"lon":16.687296,"is_passed":false},{"stop_id":"U1292Z1","name":"Krejčího","arrival_time":"8:53:00","departure_time":"8:53:00","lat":49.177441,"lon":16.690968,"is_passed":false},{"stop_id":"U1577Z6","name":"Slatina, sídliště","arrival_time":"8:55:00","departure_time":"8:57:00","lat":49.18229,"lon":16.690089,"is_passed":false}]