{"448":[{"stop_id":"U31027Z1","name":"Uherské Hradiště","arrival_time":"8:31:00","departure_time":"8:31:00","lat":49.066881,"lon":17.457171,"is_passed":false},{"stop_id":"U31026Z2","name":"Kunovice","arrival_time":"8:34:00","departure_time":"8:34:00","lat":49.051914,"lon":17.470711,"is_passed":false}],"4480":[{"stop_id":"U13329Z2","name":"Tišnov, Pejškov","arrival_time":"6:10:00","departure_time":"6:10:00","lat":49.316552,"lon":16.378515,"is_passed":false},{"stop_id":"U13337Z2","name":"Vohančice","arrival_time":"6:13:00","departure_time":"6:13:00","lat":49.321643,"lon":16.394919,"is_passed":false},{"stop_id":"U13303Z1","name":"Heroltice, rozcestí","arrival_time":"6:15:00","departure_time":"6:15:00","lat":49.319203,"lon":16.416328,"is_passed":false},{"stop_id":"U13302Z2","name":"Heroltice","arrival_time":"6:18:00","departure_time":"6:18:00","lat":49.311648,"lon":16.412858,"is_passed":false},{"stop_id":"U13303Z2","name":"Heroltice, rozcestí","arrival_time":"6:20:00","departure_time":"6:20:00","lat":49.319203,"lon":16.416328,"is_passed":false},{"stop_id":"U13301Z2","name":"Březina","arrival_time":"6:22:00","departure_time":"6:22:00","lat":49.321478,"lon":16.423017,"is_passed":false},{"stop_id":"U13306Z2","name":"Hradčany, železniční stanice","arrival_time":"6:25:00","departure_time":"6:25:00","lat":49.332913,"lon":16.438387,"is_passed":false},{"stop_id":"U13332Z2","name":"Tišnov, sídliště Klucanina","arrival_time":"6:27:00","departure_time":"6:27:00","lat":49.340413,"lon":16.432969,"is_passed":false},{"stop_id":"U13351Z1","name":"Tišnov, Rybníček","arrival_time":"6:27:00","departure_time":"6:27:00","lat":49.343088,"lon":16.429751,"is_passed":false},{"stop_id":"U13327Z2","name":"Tišnov, Nádražní","arrival_time":"6:29:00","departure_time":"6:29:00","lat":49.34483,"lon":16.422519,"is_passed":false},{"stop_id":"U13334Z11","name":"Tišnov, železniční stanice","arrival_time":"6:31:00","departure_time":"6:31:00","lat":49.347123,"lon":16.419159,"is_passed":false}],"4481":[{"stop_id":"U13334Z2","name":"Tišnov, železniční stanice","arrival_time":"6:34:00","departure_time":"6:34:00","lat":49.346688,"lon":16.419487,"is_passed":false},{"stop_id":"U13327Z3","name":"Tišnov, Nádražní","arrival_time":"6:35:00","departure_time":"6:35:00","lat":49.344912,"lon":16.422058,"is_passed":false},{"stop_id":"U13351Z2","name":"Tišnov, Rybníček","arrival_time":"6:37:00","departure_time":"6:37:00","lat":49.34307,"lon":16.42949,"is_passed":false},{"stop_id":"U13332Z1","name":"Tišnov, sídliště Klucanina","arrival_time":"6:38:00","departure_time":"6:38:00","lat":49.340333,"lon":16.43276,"is_passed":false},{"stop_id":"U13333Z1","name":"Tišnov, Trnec","arrival_time":"6:39:00","departure_time":"6:39:00","lat":49.33626,"lon":16.441436,"is_passed":false},{"stop_id":"U13209Z1","name":"Drásov, náměstí","arrival_time":"6:44:00","departure_time":"6:44:00","lat":49.331664,"lon":16.478565,"is_passed":false},{"stop_id":"U13212Z2","name":"Malhostovice, rozcestí","arrival_time":"6:47:00","departure_time":"6:47:00","lat":49.33081,"lon":16.49731,"is_passed":false},{"stop_id":"U13205Z2","name":"Čebín, vápenka","arrival_time":"6:49:00","departure_time":"6:49:00","lat":49.318075,"lon":16.491617,"is_passed":false},{"stop_id":"U13202Z4","name":"Čebín, rozcestí","arrival_time":"6:51:00","departure_time":"6:51:00","lat":49.312835,"lon":16.485368,"is_passed":false},{"stop_id":"U13130Z2","name":"Kuřim, zámek","arrival_time":"6:55:00","departure_time":"6:55:00","lat":49.29709,"lon":16.524776,"is_passed":false},{"stop_id":"U13143Z6","name":"Kuřim, železniční stanice","arrival_time":"6:58:00","departure_time":"6:58:00","lat":49.300544,"lon":16.534166,"is_passed":false}],"4482":[{"stop_id":"U13143Z1","name":"Kuřim, železniční stanice","arrival_time":"7:08:00","departure_time":"7:08:00","lat":49.300546,"lon":16.533952,"is_passed":false},{"stop_id":"U13130Z1","name":"Kuřim, zámek","arrival_time":"7:10:00","departure_time":"7:10:00","lat":49.297609,"lon":16.523801,"is_passed":false},{"stop_id":"U13165Z1","name":"Kuřim, Knínická","arrival_time":"7:11:00","departure_time":"7:11:00","lat":49.29515,"lon":16.523045,"is_passed":false},{"stop_id":"U13136Z1","name":"Moravské Knínice","arrival_time":"7:14:00","departure_time":"7:14:00","lat":49.293207,"lon":16.503362,"is_passed":false},{"stop_id":"U13137Z1","name":"Moravské Knínice, Podhájí","arrival_time":"7:17:00","departure_time":"7:17:00","lat":49.29266,"lon":16.477502,"is_passed":false},{"stop_id":"U13217Z1","name":"Chudčice","arrival_time":"7:21:00","departure_time":"7:21:00","lat":49.287006,"lon":16.456019,"is_passed":false},{"stop_id":"U13219Z1","name":"Chudčice, na hrázi","arrival_time":"7:22:00","departure_time":"7:22:00","lat":49.283037,"lon":16.455598,"is_passed":false},{"stop_id":"U13224Z1","name":"Veverská Bítýška, přístav","arrival_time":"7:24:00","departure_time":"7:24:00","lat":49.27549,"lon":16.451972,"is_passed":false},{"stop_id":"U13265Z3","name":"Veverská Bítýška, náměstí","arrival_time":"7:26:00","departure_time":"7:43:00","lat":49.276085,"lon":16.43615,"is_passed":false}],"4483":[{"stop_id":"U13265Z5","name":"Veverská Bítýška, náměstí","arrival_time":"7:43:00","departure_time":"7:43:00","lat":49.276085,"lon":16.43615,"is_passed":false},{"stop_id":"U13224Z2","name":"Veverská Bítýška, přístav","arrival_time":"7:45:00","departure_time":"7:45:00","lat":49.275345,"lon":16.452362,"is_passed":false},{"stop_id":"U13219Z2","name":"Chudčice, na hrázi","arrival_time":"7:47:00","departure_time":"7:47:00","lat":49.283033,"lon":16.455593,"is_passed":false},{"stop_id":"U13217Z2","name":"Chudčice","arrival_time":"7:49:00","departure_time":"7:49:00","lat":49.288056,"lon":16.457619,"is_passed":false},{"stop_id":"U13137Z2","name":"Moravské Knínice, Podhájí","arrival_time":"7:52:00","departure_time":"7:52:00","lat":49.292658,"lon":16.477355,"is_passed":false},{"stop_id":"U13136Z2","name":"Moravské Knínice","arrival_time":"7:56:00","departure_time":"7:56:00","lat":49.293123,"lon":16.503493,"is_passed":false},{"stop_id":"U13165Z2","name":"Kuřim, Knínická","arrival_time":"7:59:00","departure_time":"7:59:00","lat":49.295339,"lon":16.523056,"is_passed":false},{"stop_id":"U13130Z2","name":"Kuřim, zámek","arrival_time":"8:00:00","departure_time":"8:00:00","lat":49.29709,"lon":16.524776,"is_passed":false},{"stop_id":"U13143Z6","name":"Kuřim, železniční stanice","arrival_time":"8:03:00","departure_time":"8:03:00","lat":49.300544,"lon":16.534166,"is_passed":false}],"4484":[{"stop_id":"U13143Z1","name":"Kuřim, železniční stanice","arrival_time":"10:23:00","departure_time":"10:23:00","lat":49.300546,"lon":16.533952,"is_passed":false},{"stop_id":"U13130Z1","name":"Kuřim, zámek","arrival_time":"10:25:00","departure_time":"10:25:00","lat":49.297609,"lon":16.523801,"is_passed":false},{"stop_id":"U13202Z3","name":"Čebín, rozcestí","arrival_time":"10:29:00","departure_time":"10:29:00","lat":49.31279,"lon":16.485415,"is_passed":false},{"stop_id":"U13205Z1","name":"Čebín, vápenka","arrival_time":"10:30:00","departure_time":"10:30:00","lat":49.318223,"lon":16.491733,"is_passed":false},{"stop_id":"U13212Z1","name":"Malhostovice, rozcestí","arrival_time":"10:33:00","departure_time":"10:33:00","lat":49.330963,"lon":16.497495,"is_passed":false},{"stop_id":"U13209Z2","name":"Drásov, náměstí","arrival_time":"10:36:00","departure_time":"10:36:00","lat":49.331749,"lon":16.478489,"is_passed":false},{"stop_id":"U13333Z2","name":"Tišnov, Trnec","arrival_time":"10:39:00","departure_time":"10:39:00","lat":49.336283,"lon":16.441153,"is_passed":false},{"stop_id":"U13332Z2","name":"Tišnov, sídliště Klucanina","arrival_time":"10:41:00","departure_time":"10:41:00","lat":49.340413,"lon":16.432969,"is_passed":false},{"stop_id":"U13351Z1","name":"Tišnov, Rybníček","arrival_time":"10:41:00","departure_time":"10:41:00","lat":49.343088,"lon":16.429751,"is_passed":false},{"stop_id":"U13327Z2","name":"Tišnov, Nádražní","arrival_time":"10:43:00","departure_time":"10:43:00","lat":49.34483,"lon":16.422519,"is_passed":false},{"stop_id":"U13334Z11","name":"Tišnov, železniční stanice","arrival_time":"10:45:00","departure_time":"13:09:00","lat":49.347123,"lon":16.419159,"is_passed":false}],"4485":[{"stop_id":"U13334Z2","name":"Tišnov, železniční stanice","arrival_time":"13:09:00","departure_time":"13:09:00","lat":49.346688,"lon":16.419487,"is_passed":false},{"stop_id":"U13327Z3","name":"Tišnov, Nádražní","arrival_time":"13:10:00","departure_time":"13:10:00","lat":49.344912,"lon":16.422058,"is_passed":false},{"stop_id":"U13351Z2","name":"Tišnov, Rybníček","arrival_time":"13:12:00","departure_time":"13:12:00","lat":49.34307,"lon":16.42949,"is_passed":false},{"stop_id":"U13332Z1","name":"Tišnov, sídliště Klucanina","arrival_time":"13:13:00","departure_time":"13:13:00","lat":49.340333,"lon":16.43276,"is_passed":false},{"stop_id":"U13333Z1","name":"Tišnov, Trnec","arrival_time":"13:14:00","departure_time":"13:14:00","lat":49.33626,"lon":16.441436,"is_passed":false},{"stop_id":"U13209Z1","name":"Drásov, náměstí","arrival_time":"13:19:00","departure_time":"13:19:00","lat":49.331664,"lon":16.478565,"is_passed":false},{"stop_id":"U13212Z2","name":"Malhostovice, rozcestí","arrival_time":"13:22:00","departure_time":"13:22:00","lat":49.33081,"lon":16.49731,"is_passed":false},{"stop_id":"U13205Z2","name":"Čebín, vápenka","arrival_time":"13:24:00","departure_time":"13:24:00","lat":49.318075,"lon":16.491617,"is_passed":false},{"stop_id":"U13202Z4","name":"Čebín, rozcestí","arrival_time":"13:26:00","departure_time":"13:26:00","lat":49.312835,"lon":16.485368,"is_passed":false},{"stop_id":"U13130Z2","name":"Kuřim, zámek","arrival_time":"13:30:00","departure_time":"13:30:00","lat":49.29709,"lon":16.524776,"is_passed":false},{"stop_id":"U13143Z3","name":"Kuřim, železniční stanice","arrival_time":"13:33:00","departure_time":"13:33:00","lat":49.300256,"lon":16.533709,"is_passed":false},{"stop_id":"U13123Z1","name":"Kuřim, kulturní dům","arrival_time":"13:36:00","departure_time":"13:36:00","lat":49.307683,"lon":16.531878,"is_passed":false},{"stop_id":"U13128Z1","name":"Kuřim, poliklinika","arrival_time":"13:37:00","departure_time":"13:37:00","lat":49.310168,"lon":16.535507,"is_passed":false},{"stop_id":"U13127Z2","name":"Kuřim, TOS","arrival_time":"13:38:00","departure_time":"13:38:00","lat":49.312411,"lon":16.539181,"is_passed":false},{"stop_id":"U13124Z52","name":"Kuřim, Prefa","arrival_time":"13:40:00","departure_time":"13:40:00","lat":49.318359,"lon":16.547102,"is_passed":false}],"4486":[{"stop_id":"U13124Z2","name":"Kuřim, Prefa","arrival_time":"14:07:00","departure_time":"14:07:00","lat":49.318358,"lon":16.546813,"is_passed":false},{"stop_id":"U13127Z1","name":"Kuřim, TOS","arrival_time":"14:10:00","departure_time":"14:10:00","lat":49.312475,"lon":16.538187,"is_passed":false},{"stop_id":"U13128Z2","name":"Kuřim, poliklinika","arrival_time":"14:11:00","departure_time":"14:11:00","lat":49.309396,"lon":16.533817,"is_passed":false},{"stop_id":"U13123Z2","name":"Kuřim, kulturní dům","arrival_time":"14:12:00","departure_time":"14:12:00","lat":49.307705,"lon":16.531739,"is_passed":false},{"stop_id":"U13130Z1","name":"Kuřim, zámek","arrival_time":"14:16:00","departure_time":"14:16:00","lat":49.297609,"lon":16.523801,"is_passed":false},{"stop_id":"U13202Z1","name":"Čebín, rozcestí","arrival_time":"14:20:00","departure_time":"14:20:00","lat":49.312808,"lon":16.484118,"is_passed":false},{"stop_id":"U13229Z1","name":"Čebín, Drásovská","arrival_time":"14:22:00","departure_time":"14:22:00","lat":49.316992,"lon":16.474595,"is_passed":false},{"stop_id":"U13207Z1","name":"Drásov, závod","arrival_time":"14:24:00","departure_time":"14:24:00","lat":49.327164,"lon":16.476914,"is_passed":false},{"stop_id":"U13307Z2","name":"Hradčany","arrival_time":"14:29:00","departure_time":"14:29:00","lat":49.32843,"lon":16.441805,"is_passed":false},{"stop_id":"U13306Z2","name":"Hradčany, železniční stanice","arrival_time":"14:30:00","departure_time":"14:30:00","lat":49.332913,"lon":16.438387,"is_passed":false},{"stop_id":"U13332Z2","name":"Tišnov, sídliště Klucanina","arrival_time":"14:32:00","departure_time":"14:32:00","lat":49.340413,"lon":16.432969,"is_passed":false},{"stop_id":"U13351Z1","name":"Tišnov, Rybníček","arrival_time":"14:32:00","departure_time":"14:32:00","lat":49.343088,"lon":16.429751,"is_passed":false},{"stop_id":"U13327Z2","name":"Tišnov, Nádražní","arrival_time":"14:34:00","departure_time":"14:34:00","lat":49.34483,"lon":16.422519,"is_passed":false},{"stop_id":"U13334Z11","name":"Tišnov, železniční stanice","arrival_time":"14:36:00","departure_time":"14:36:00","lat":49.347123,"lon":16.419159,"is_passed":false}],"4487":[{"stop_id":"U13334Z5","name":"Tišnov, železniční stanice","arrival_time":"14:37:00","departure_time":"14:37:00","lat":49.346912,"lon":16.419417,"is_passed":false},{"stop_id":"U13327Z1","name":"Tišnov, Nádražní","arrival_time":"14:38:00","departure_time":"14:38:00","lat":49.344994,"lon":16.421926,"is_passed":false},{"stop_id":"U13331Z2","name":"Tišnov, Riegrova","arrival_time":"14:42:00","departure_time":"14:42:00","lat":49.350062,"lon":16.424646,"is_passed":false},{"stop_id":"U13326Z1","name":"Tišnov, Kukýrna","arrival_time":"14:43:00","departure_time":"14:43:00","lat":49.352537,"lon":16.425543,"is_passed":false},{"stop_id":"U13350Z1","name":"Tišnov, Lomnická","arrival_time":"14:44:00","departure_time":"14:44:00","lat":49.35545,"lon":16.428823,"is_passed":false},{"stop_id":"U13308Z1","name":"Lomnička, obecní úřad","arrival_time":"14:47:00","departure_time":"14:47:00","lat":49.367987,"lon":16.430017,"is_passed":false},{"stop_id":"U13436Z1","name":"Šerkovice","arrival_time":"14:50:00","departure_time":"14:50:00","lat":49.385998,"lon":16.42972,"is_passed":false},{"stop_id":"U13404Z1","name":"Lomnice, Řepka","arrival_time":"14:53:00","departure_time":"14:53:00","lat":49.386245,"lon":16.41253,"is_passed":false},{"stop_id":"U13403Z1","name":"Lomnice, Brusná, rozcestí","arrival_time":"14:54:00","departure_time":"14:54:00","lat":49.392597,"lon":16.408803,"is_passed":false},{"stop_id":"U13420Z1","name":"Lomnice, škola","arrival_time":"14:56:00","departure_time":"14:56:00","lat":49.401102,"lon":16.408298,"is_passed":false},{"stop_id":"U13419Z10","name":"Lomnice, náměstí","arrival_time":"14:59:00","departure_time":"15:05:00","lat":49.403622,"lon":16.413817,"is_passed":false}],"4488":[{"stop_id":"U13419Z1","name":"Lomnice, náměstí","arrival_time":"15:05:00","departure_time":"15:05:00","lat":49.403322,"lon":16.414044,"is_passed":false},{"stop_id":"U13420Z2","name":"Lomnice, škola","arrival_time":"15:07:00","departure_time":"15:07:00","lat":49.400778,"lon":16.407933,"is_passed":false},{"stop_id":"U13403Z2","name":"Lomnice, Brusná, rozcestí","arrival_time":"15:08:00","departure_time":"15:08:00","lat":49.392523,"lon":16.408712,"is_passed":false},{"stop_id":"U13404Z2","name":"Lomnice, Řepka","arrival_time":"15:09:00","departure_time":"15:09:00","lat":49.386343,"lon":16.412303,"is_passed":false},{"stop_id":"U13309Z2","name":"Lomnička, u Hamru","arrival_time":"15:12:00","departure_time":"15:12:00","lat":49.365967,"lon":16.425125,"is_passed":false},{"stop_id":"U13350Z2","name":"Tišnov, Lomnická","arrival_time":"15:15:00","departure_time":"15:15:00","lat":49.355314,"lon":16.428629,"is_passed":false},{"stop_id":"U13326Z2","name":"Tišnov, Kukýrna","arrival_time":"15:16:00","departure_time":"15:16:00","lat":49.352485,"lon":16.425378,"is_passed":false},{"stop_id":"U13331Z1","name":"Tišnov, Riegrova","arrival_time":"15:17:00","departure_time":"15:17:00","lat":49.349823,"lon":16.425244,"is_passed":false},{"stop_id":"U13327Z2","name":"Tišnov, Nádražní","arrival_time":"15:20:00","departure_time":"15:20:00","lat":49.34483,"lon":16.422519,"is_passed":false},{"stop_id":"U13334Z11","name":"Tišnov, železniční stanice","arrival_time":"15:22:00","departure_time":"15:22:00","lat":49.347123,"lon":16.419159,"is_passed":false}],"4489":[{"stop_id":"U13334Z7","name":"Tišnov, železniční stanice","arrival_time":"15:36:00","departure_time":"15:36:00","lat":49.34658,"lon":16.419777,"is_passed":false},{"stop_id":"U13327Z1","name":"Tišnov, Nádražní","arrival_time":"15:37:00","departure_time":"15:37:00","lat":49.344994,"lon":16.421926,"is_passed":false},{"stop_id":"U13320Z1","name":"Tišnov, čerpací stanice","arrival_time":"15:38:00","departure_time":"15:38:00","lat":49.342082,"lon":16.419907,"is_passed":false},{"stop_id":"U13311Z1","name":"Předklášteří, papírna","arrival_time":"15:40:00","departure_time":"15:40:00","lat":49.3514,"lon":16.408187,"is_passed":false},{"stop_id":"U13310Z1","name":"Předklášteří, obecní úřad","arrival_time":"15:41:00","departure_time":"15:41:00","lat":49.352568,"lon":16.402852,"is_passed":false},{"stop_id":"U13414Z1","name":"Kaly, Zahrada, rozcestí","arrival_time":"15:46:00","departure_time":"15:46:00","lat":49.372253,"lon":16.364748,"is_passed":false},{"stop_id":"U13413Z1","name":"Kaly","arrival_time":"15:48:00","departure_time":"15:48:00","lat":49.377892,"lon":16.35269,"is_passed":false},{"stop_id":"U13423Z1","name":"Pernštejnské Jestřabí, Jilmoví, rozcestí","arrival_time":"15:51:00","departure_time":"15:51:00","lat":49.393997,"lon":16.329382,"is_passed":false},{"stop_id":"U13424Z1","name":"Pernštejnské Jestřabí, rozcestí","arrival_time":"15:52:00","departure_time":"15:52:00","lat":49.401448,"lon":16.323877,"is_passed":false},{"stop_id":"U13510Z1","name":"Olší, Litava","arrival_time":"15:54:00","departure_time":"15:54:00","lat":49.410388,"lon":16.312237,"is_passed":false},{"stop_id":"U13509Z1","name":"Olší, Klokočí, rozcestí","arrival_time":"15:55:00","departure_time":"15:55:00","lat":49.412668,"lon":16.306297,"is_passed":false},{"stop_id":"U13508Z1","name":"Olší","arrival_time":"15:57:00","departure_time":"15:57:00","lat":49.421603,"lon":16.291308,"is_passed":false},{"stop_id":"U13507Z1","name":"Drahonín","arrival_time":"16:01:00","departure_time":"16:04:00","lat":49.413092,"lon":16.277102,"is_passed":false}],"44800":[{"stop_id":"U1221Z2","name":"Kamechy","arrival_time":"15:25:00","departure_time":"15:25:00","lat":49.214794,"lon":16.49742,"is_passed":false},{"stop_id":"U1185Z2","name":"Chvalovka","arrival_time":"15:26:00","departure_time":"15:26:00","lat":49.21492,"lon":16.500086,"is_passed":false},{"stop_id":"U1230Z2","name":"Kavčí","arrival_time":"15:27:00","departure_time":"15:27:00","lat":49.216872,"lon":16.500241,"is_passed":false},{"stop_id":"U1559Z2","name":"Říčanská","arrival_time":"15:28:00","departure_time":"15:28:00","lat":49.218456,"lon":16.497582,"is_passed":false},{"stop_id":"U1550Z2","name":"Ruda","arrival_time":"15:29:00","departure_time":"15:29:00","lat":49.220473,"lon":16.502554,"is_passed":false},{"stop_id":"U1102Z4","name":"Ečerova","arrival_time":"15:32:00","departure_time":"15:32:00","lat":49.218044,"lon":16.509781,"is_passed":false},{"stop_id":"U1461Z4","name":"Ondrouškova","arrival_time":"15:33:00","departure_time":"15:33:00","lat":49.217906,"lon":16.518033,"is_passed":false},{"stop_id":"U1312Z6","name":"Kubíčkova","arrival_time":"15:34:00","departure_time":"15:34:00","lat":49.22159,"lon":16.519454,"is_passed":false},{"stop_id":"U1537Z4","name":"Rakovecká","arrival_time":"15:35:00","departure_time":"15:35:00","lat":49.226308,"lon":16.518652,"is_passed":false},{"stop_id":"U1527Z4","name":"Přístaviště","arrival_time":"15:36:00","departure_time":"15:36:00","lat":49.228127,"lon":16.522637,"is_passed":false},{"stop_id":"U1796Z6","name":"Zoologická zahrada","arrival_time":"15:38:00","departure_time":"15:38:00","lat":49.227675,"lon":16.531519,"is_passed":false}],"44801":[{"stop_id":"U1796Z7","name":"Zoologická zahrada","arrival_time":"15:59:00","departure_time":"15:59:00","lat":49.227823,"lon":16.531364,"is_passed":false},{"stop_id":"U1417Z1","name":"Náměstí 28. dubna","arrival_time":"16:00:00","departure_time":"16:00:00","lat":49.225188,"lon":16.531132,"is_passed":false},{"stop_id":"U1752Z1","name":"Vondrákova","arrival_time":"16:01:00","departure_time":"16:01:00","lat":49.221303,"lon":16.528376,"is_passed":false},{"stop_id":"U1771Z1","name":"Wollmanova","arrival_time":"16:02:00","departure_time":"16:02:00","lat":49.222275,"lon":16.522436,"is_passed":false},{"stop_id":"U1461Z3","name":"Ondrouškova","arrival_time":"16:03:00","departure_time":"16:03:00","lat":49.217721,"lon":16.517208,"is_passed":false},{"stop_id":"U1102Z3","name":"Ečerova","arrival_time":"16:05:00","departure_time":"16:05:00","lat":49.218746,"lon":16.50885,"is_passed":false},{"stop_id":"U1550Z1","name":"Ruda","arrival_time":"16:06:00","departure_time":"16:06:00","lat":49.220738,"lon":16.503998,"is_passed":false},{"stop_id":"U1559Z1","name":"Říčanská","arrival_time":"16:08:00","departure_time":"16:08:00","lat":49.218679,"lon":16.497368,"is_passed":false},{"stop_id":"U1230Z1","name":"Kavčí","arrival_time":"16:09:00","departure_time":"16:09:00","lat":49.216417,"lon":16.501128,"is_passed":false},{"stop_id":"U1185Z1","name":"Chvalovka","arrival_time":"16:10:00","departure_time":"16:10:00","lat":49.214783,"lon":16.499512,"is_passed":false},{"stop_id":"U1221Z1","name":"Kamechy","arrival_time":"16:11:00","departure_time":"16:11:00","lat":49.216243,"lon":16.493973,"is_passed":false},{"stop_id":"U1802Z1","name":"Žebětínský rybník","arrival_time":"16:12:00","departure_time":"16:12:00","lat":49.215096,"lon":16.49364,"is_passed":false},{"stop_id":"U1096Z1","name":"Drdy","arrival_time":"16:13:00","departure_time":"16:13:00","lat":49.209636,"lon":16.492567,"is_passed":false},{"stop_id":"U1302Z1","name":"Křivánkovo náměstí","arrival_time":"16:14:00","departure_time":"16:14:00","lat":49.20718,"lon":16.487513,"is_passed":false},{"stop_id":"U1540Z2","name":"Ríšova","arrival_time":"16:16:00","departure_time":"16:16:00","lat":49.206684,"lon":16.481219,"is_passed":false},{"stop_id":"U1139Z2","name":"Helenčina","arrival_time":"16:17:00","departure_time":"16:17:00","lat":49.206852,"lon":16.486036,"is_passed":false},{"stop_id":"U1800Z1","name":"Žebětín, hřbitov","arrival_time":"16:18:00","departure_time":"16:18:00","lat":49.204634,"lon":16.487304,"is_passed":false},{"stop_id":"U1015Z2","name":"Bartolomějská","arrival_time":"16:19:00","departure_time":"16:19:00","lat":49.203579,"lon":16.489347,"is_passed":false},{"stop_id":"U1302Z2","name":"Křivánkovo náměstí","arrival_time":"16:20:00","departure_time":"16:20:00","lat":49.20688,"lon":16.4876,"is_passed":false},{"stop_id":"U1803Z2","name":"Žebětín, škola","arrival_time":"16:21:00","departure_time":"16:21:00","lat":49.207347,"lon":16.49285,"is_passed":false},{"stop_id":"U1251Z2","name":"Kohoutovická","arrival_time":"16:22:00","departure_time":"16:22:00","lat":49.206969,"lon":16.498211,"is_passed":false},{"stop_id":"U1267Z2","name":"Kopce","arrival_time":"16:23:00","departure_time":"16:23:00","lat":49.20545,"lon":16.509409,"is_passed":false},{"stop_id":"U1608Z1","name":"Stará dálnice","arrival_time":"16:25:00","departure_time":"16:25:00","lat":49.198733,"lon":16.517301,"is_passed":false},{"stop_id":"U1248Z1","name":"Kohoutovice, hájenka","arrival_time":"16:28:00","departure_time":"16:28:00","lat":49.19638,"lon":16.531386,"is_passed":false},{"stop_id":"U1806Z2","name":"Žebětínská","arrival_time":"16:29:00","departure_time":"16:29:00","lat":49.195249,"lon":16.536145,"is_passed":false},{"stop_id":"U1767Z2","name":"Výletní","arrival_time":"16:30:00","departure_time":"16:30:00","lat":49.191443,"lon":16.539596,"is_passed":false},{"stop_id":"U1409Z2","name":"Myslivní","arrival_time":"16:30:00","departure_time":"16:30:00","lat":49.190415,"lon":16.543578,"is_passed":false},{"stop_id":"U1636Z2","name":"Šárka","arrival_time":"16:31:00","departure_time":"16:31:00","lat":49.19131,"lon":16.545929,"is_passed":false},{"stop_id":"U1003Z1","name":"Antonína Procházky","arrival_time":"16:33:00","departure_time":"16:33:00","lat":49.193559,"lon":16.561795,"is_passed":false},{"stop_id":"U1007Z4","name":"Anthropos","arrival_time":"16:34:00","departure_time":"16:34:00","lat":49.193356,"lon":16.56677,"is_passed":false},{"stop_id":"U1487Z6","name":"Pisárky","arrival_time":"16:35:00","departure_time":"16:35:00","lat":49.193537,"lon":16.570797,"is_passed":false},{"stop_id":"U1343Z4","name":"ARENA BRNO","arrival_time":"16:36:00","departure_time":"16:36:00","lat":49.191574,"lon":16.576353,"is_passed":false},{"stop_id":"U1768Z4","name":"Výstaviště - hlavní vstup","arrival_time":"16:38:00","departure_time":"16:38:00","lat":49.1886,"lon":16.589153,"is_passed":false},{"stop_id":"U1378Z7","name":"Mendlovo náměstí","arrival_time":"16:41:00","departure_time":"16:43:00","lat":49.189919,"lon":16.593687,"is_passed":false}],"44802":[{"stop_id":"U1073Z4","name":"Česká","arrival_time":"17:18:00","departure_time":"17:18:00","lat":49.198134,"lon":16.605041,"is_passed":false},{"stop_id":"U1121Z1","name":"Grohova","arrival_time":"17:19:00","departure_time":"17:19:00","lat":49.201153,"lon":16.599729,"is_passed":false},{"stop_id":"U1262Z1","name":"Konečného náměstí","arrival_time":"17:21:00","departure_time":"17:21:00","lat":49.204484,"lon":16.595426,"is_passed":false},{"stop_id":"U1552Z1","name":"Rybkova","arrival_time":"17:22:00","departure_time":"17:22:00","lat":49.205908,"lon":16.593602,"is_passed":false},{"stop_id":"U1657Z3","name":"Tábor","arrival_time":"17:24:00","departure_time":"17:24:00","lat":49.210683,"lon":16.587238,"is_passed":false},{"stop_id":"U1601Z1","name":"Spojovací","arrival_time":"17:25:00","departure_time":"17:25:00","lat":49.212099,"lon":16.586305,"is_passed":false},{"stop_id":"U1206Z1","name":"Jindřichova","arrival_time":"17:26:00","departure_time":"17:26:00","lat":49.21326,"lon":16.582924,"is_passed":false},{"stop_id":"U1426Z1","name":"Náměstí Svornosti","arrival_time":"17:27:00","departure_time":"17:27:00","lat":49.215585,"lon":16.582,"is_passed":false},{"stop_id":"U1352Z1","name":"Makovského náměstí","arrival_time":"17:28:00","departure_time":"17:28:00","lat":49.217922,"lon":16.576761,"is_passed":false},{"stop_id":"U1528Z5","name":"Přívrat","arrival_time":"17:29:00","departure_time":"17:29:00","lat":49.218247,"lon":16.574102,"is_passed":false},{"stop_id":"U1544Z3","name":"Rosického náměstí","arrival_time":"17:31:00","departure_time":"17:31:00","lat":49.214882,"lon":16.56907,"is_passed":false},{"stop_id":"U1143Z1","name":"Hlavní","arrival_time":"17:33:00","departure_time":"17:33:00","lat":49.216836,"lon":16.560198,"is_passed":false},{"stop_id":"U1217Z3","name":"Vozovna Komín","arrival_time":"17:34:00","departure_time":"17:36:00","lat":49.213556,"lon":16.559289,"is_passed":false}],"44803":[{"stop_id":"U1062Z2","name":"Černého","arrival_time":"4:00:00","departure_time":"4:00:00","lat":49.213885,"lon":16.523087,"is_passed":false},{"stop_id":"U1107Z2","name":"Filipova","arrival_time":"4:00:00","departure_time":"4:00:00","lat":49.217593,"lon":16.525217,"is_passed":false},{"stop_id":"U1326Z4","name":"Laštůvkova","arrival_time":"4:01:00","departure_time":"4:01:00","lat":49.220549,"lon":16.526237,"is_passed":false},{"stop_id":"U1752Z2","name":"Vondrákova","arrival_time":"4:02:00","departure_time":"4:02:00","lat":49.221445,"lon":16.528853,"is_passed":false},{"stop_id":"U1417Z2","name":"Náměstí 28. dubna","arrival_time":"4:03:00","departure_time":"4:03:00","lat":49.226314,"lon":16.53213,"is_passed":false},{"stop_id":"U1633Z6","name":"Svratecká","arrival_time":"4:06:00","departure_time":"4:06:00","lat":49.21759,"lon":16.553789,"is_passed":false},{"stop_id":"U1215Z2","name":"Jundrovská","arrival_time":"4:07:00","departure_time":"4:07:00","lat":49.211911,"lon":16.560194,"is_passed":false},{"stop_id":"U1217Z4","name":"Vozovna Komín","arrival_time":"4:08:00","departure_time":"4:08:00","lat":49.213659,"lon":16.559498,"is_passed":false},{"stop_id":"U1143Z2","name":"Hlavní","arrival_time":"4:08:00","departure_time":"4:08:00","lat":49.21715,"lon":16.560506,"is_passed":false},{"stop_id":"U1651Z2","name":"Štursova","arrival_time":"4:09:00","departure_time":"4:09:00","lat":49.215854,"lon":16.564522,"is_passed":false},{"stop_id":"U1544Z4","name":"Rosického náměstí","arrival_time":"4:10:00","departure_time":"4:10:00","lat":49.214881,"lon":16.568314,"is_passed":false},{"stop_id":"U1400Z2","name":"Mozolky","arrival_time":"4:11:00","departure_time":"4:11:00","lat":49.21352,"lon":16.575061,"is_passed":false},{"stop_id":"U1047Z2","name":"Burianovo náměstí","arrival_time":"4:12:00","departure_time":"4:12:00","lat":49.212274,"lon":16.578835,"is_passed":false},{"stop_id":"U1657Z2","name":"Tábor","arrival_time":"4:13:00","departure_time":"4:13:00","lat":49.210553,"lon":16.585882,"is_passed":false},{"stop_id":"U1552Z2","name":"Rybkova","arrival_time":"4:14:00","departure_time":"4:14:00","lat":49.206244,"lon":16.593167,"is_passed":false},{"stop_id":"U1262Z2","name":"Konečného náměstí","arrival_time":"4:16:00","departure_time":"4:16:00","lat":49.203961,"lon":16.596051,"is_passed":false},{"stop_id":"U1121Z2","name":"Grohova","arrival_time":"4:17:00","departure_time":"4:17:00","lat":49.201327,"lon":16.59934,"is_passed":false},{"stop_id":"U1073Z3","name":"Česká","arrival_time":"4:19:00","departure_time":"4:19:00","lat":49.197742,"lon":16.605147,"is_passed":false},{"stop_id":"U1637Z1","name":"Šilingrovo náměstí","arrival_time":"4:21:00","departure_time":"4:21:00","lat":49.19171,"lon":16.605355,"is_passed":false},{"stop_id":"U1146Z2","name":"Hlavní nádraží","arrival_time":"4:24:00","departure_time":"4:30:00","lat":49.191394,"lon":16.612548,"is_passed":false},{"stop_id":"U1357Z3","name":"Malinovského náměstí","arrival_time":"4:31:00","departure_time":"4:31:00","lat":49.196131,"lon":16.612953,"is_passed":false},{"stop_id":"U1397Z3","name":"Moravské náměstí","arrival_time":"4:32:00","departure_time":"4:32:00","lat":49.199309,"lon":16.609047,"is_passed":false},{"stop_id":"U1418Z1","name":"Náměstí 28. října","arrival_time":"4:33:00","departure_time":"4:33:00","lat":49.200961,"lon":16.613794,"is_passed":false},{"stop_id":"U1086Z1","name":"Dětská nemocnice","arrival_time":"4:34:00","departure_time":"4:34:00","lat":49.202836,"lon":16.618608,"is_passed":false},{"stop_id":"U1211Z3","name":"Jugoslávská","arrival_time":"4:35:00","departure_time":"4:35:00","lat":49.205084,"lon":16.624442,"is_passed":false},{"stop_id":"U1782Z1","name":"Zdráhalova","arrival_time":"4:36:00","departure_time":"4:36:00","lat":49.209297,"lon":16.623791,"is_passed":false},{"stop_id":"U1731Z1","name":"Venhudova","arrival_time":"4:37:00","departure_time":"4:37:00","lat":49.212094,"lon":16.624955,"is_passed":false},{"stop_id":"U1646Z3","name":"Štefánikova čtvrť","arrival_time":"4:38:00","departure_time":"4:38:00","lat":49.216958,"lon":16.627543,"is_passed":false},{"stop_id":"U1331Z1","name":"Lesná, nádraží","arrival_time":"4:39:00","departure_time":"4:39:00","lat":49.220041,"lon":16.629534,"is_passed":false},{"stop_id":"U1138Z1","name":"Heleny Malířové","arrival_time":"4:40:00","departure_time":"4:40:00","lat":49.223481,"lon":16.629567,"is_passed":false},{"stop_id":"U1008Z1","name":"Arbesova","arrival_time":"4:41:00","departure_time":"4:41:00","lat":49.226286,"lon":16.630842,"is_passed":false},{"stop_id":"U1028Z1","name":"Blažkova","arrival_time":"4:42:00","departure_time":"4:42:00","lat":49.230568,"lon":16.631,"is_passed":false},{"stop_id":"U1043Z1","name":"Brechtova","arrival_time":"4:43:00","departure_time":"4:43:00","lat":49.234039,"lon":16.629206,"is_passed":false},{"stop_id":"U1132Z3","name":"Haškova","arrival_time":"4:44:00","departure_time":"4:44:00","lat":49.233588,"lon":16.623836,"is_passed":false},{"stop_id":"U1348Z2","name":"Loosova","arrival_time":"4:45:00","departure_time":"4:45:00","lat":49.231571,"lon":16.618938,"is_passed":false},{"stop_id":"U1111Z2","name":"Fillova","arrival_time":"4:45:00","departure_time":"4:45:00","lat":49.229347,"lon":16.616979,"is_passed":false},{"stop_id":"U1582Z2","name":"Slavíčkova","arrival_time":"4:46:00","departure_time":"4:46:00","lat":49.225821,"lon":16.617957,"is_passed":false},{"stop_id":"U1128Z4","name":"Halasovo náměstí","arrival_time":"4:47:00","departure_time":"4:49:00","lat":49.22314,"lon":16.622438,"is_passed":false}],"44804":[{"stop_id":"U1566Z4","name":"Semilasso","arrival_time":"5:12:00","departure_time":"5:12:00","lat":49.228055,"lon":16.593438,"is_passed":false},{"stop_id":"U1286Z3","name":"Královo Pole, nádraží","arrival_time":"5:13:00","departure_time":"5:13:00","lat":49.229218,"lon":16.596271,"is_passed":false},{"stop_id":"U1388Z2","name":"Mojmírovo náměstí","arrival_time":"5:14:00","departure_time":"5:14:00","lat":49.226499,"lon":16.598423,"is_passed":false},{"stop_id":"U1246Z1","name":"Kociánka","arrival_time":"5:15:00","departure_time":"5:15:00","lat":49.225575,"lon":16.601869,"is_passed":false},{"stop_id":"U1288Z1","name":"Královopolská strojírna","arrival_time":"5:16:00","departure_time":"5:16:00","lat":49.223948,"lon":16.60736,"is_passed":false},{"stop_id":"U1087Z1","name":"Divišova čtvrť","arrival_time":"5:17:00","departure_time":"5:17:00","lat":49.223493,"lon":16.613643,"is_passed":false},{"stop_id":"U1692Z1","name":"U tunýlku","arrival_time":"5:17:00","departure_time":"5:17:00","lat":49.222688,"lon":16.617771,"is_passed":false},{"stop_id":"U1128Z4","name":"Halasovo náměstí","arrival_time":"5:19:00","departure_time":"5:19:00","lat":49.22314,"lon":16.622438,"is_passed":false},{"stop_id":"U1506Z2","name":"Poliklinika Lesná","arrival_time":"5:20:00","departure_time":"5:20:00","lat":49.222411,"lon":16.625672,"is_passed":false},{"stop_id":"U1331Z2","name":"Lesná, nádraží","arrival_time":"5:21:00","departure_time":"5:21:00","lat":49.220094,"lon":16.62942,"is_passed":false},{"stop_id":"U1646Z4","name":"Štefánikova čtvrť","arrival_time":"5:22:00","departure_time":"5:22:00","lat":49.217288,"lon":16.627693,"is_passed":false},{"stop_id":"U1381Z1","name":"Merhautova","arrival_time":"5:23:00","departure_time":"5:23:00","lat":49.21485,"lon":16.627477,"is_passed":false},{"stop_id":"U1668Z3","name":"Tomkovo náměstí","arrival_time":"5:25:00","departure_time":"5:25:00","lat":49.213205,"lon":16.636652,"is_passed":false},{"stop_id":"U1002Z1","name":"Akátky","arrival_time":"5:27:00","departure_time":"5:27:00","lat":49.208518,"lon":16.648742,"is_passed":false},{"stop_id":"U1743Z1","name":"Vlčnovská","arrival_time":"5:29:00","departure_time":"5:29:00","lat":49.210995,"lon":16.660327,"is_passed":false},{"stop_id":"U1523Z1","name":"Prušánecká","arrival_time":"5:30:00","departure_time":"5:30:00","lat":49.20827,"lon":16.663465,"is_passed":false},{"stop_id":"U1383Z1","name":"Mikulovská","arrival_time":"5:31:00","departure_time":"5:31:00","lat":49.2055,"lon":16.665833,"is_passed":false},{"stop_id":"U1551Z2","name":"Růženin dvůr","arrival_time":"5:32:00","departure_time":"5:32:00","lat":49.203263,"lon":16.666525,"is_passed":false},{"stop_id":"U1026Z4","name":"Bílá hora","arrival_time":"5:34:00","departure_time":"5:34:00","lat":49.193975,"lon":16.667677,"is_passed":false},{"stop_id":"U1501Z4","name":"Podstránská","arrival_time":"5:36:00","departure_time":"5:36:00","lat":49.186139,"lon":16.667061,"is_passed":false},{"stop_id":"U1068Z1","name":"Černovičky","arrival_time":"5:38:00","departure_time":"5:38:00","lat":49.182244,"lon":16.66894,"is_passed":false},{"stop_id":"U1741Z1","name":"Vlárská","arrival_time":"5:39:00","departure_time":"5:39:00","lat":49.180745,"lon":16.671647,"is_passed":false},{"stop_id":"U1105Z1","name":"Ericha Roučky","arrival_time":"5:41:00","departure_time":"5:41:00","lat":49.174784,"lon":16.66987,"is_passed":false},{"stop_id":"U1064Z1","name":"Černovická terasa I","arrival_time":"5:42:00","departure_time":"5:42:00","lat":49.171172,"lon":16.673495,"is_passed":false},{"stop_id":"U1065Z1","name":"Černovická terasa II","arrival_time":"5:43:00","departure_time":"5:43:00","lat":49.167108,"lon":16.67608,"is_passed":false},{"stop_id":"U1581Z3","name":"Areál Slatina","arrival_time":"5:45:00","departure_time":"6:15:00","lat":49.168533,"lon":16.678786,"is_passed":false}],"44805":[{"stop_id":"U1581Z1","name":"Areál Slatina","arrival_time":"6:15:00","departure_time":"6:15:00","lat":49.168614,"lon":16.67804,"is_passed":false},{"stop_id":"U1065Z2","name":"Černovická terasa II","arrival_time":"6:15:00","departure_time":"6:15:00","lat":49.168348,"lon":16.675307,"is_passed":false},{"stop_id":"U1064Z2","name":"Černovická terasa I","arrival_time":"6:16:00","departure_time":"6:16:00","lat":49.171843,"lon":16.673091,"is_passed":false},{"stop_id":"U1105Z2","name":"Ericha Roučky","arrival_time":"6:17:00","departure_time":"6:17:00","lat":49.175109,"lon":16.669439,"is_passed":false},{"stop_id":"U1741Z2","name":"Vlárská","arrival_time":"6:19:00","departure_time":"6:19:00","lat":49.180702,"lon":16.672017,"is_passed":false},{"stop_id":"U1068Z4","name":"Černovičky","arrival_time":"6:21:00","departure_time":"6:21:00","lat":49.183907,"lon":16.668247,"is_passed":false},{"stop_id":"U1501Z3","name":"Podstránská","arrival_time":"6:21:00","departure_time":"6:21:00","lat":49.186855,"lon":16.66649,"is_passed":false},{"stop_id":"U1026Z3","name":"Bílá hora","arrival_time":"6:24:00","departure_time":"6:24:00","lat":49.194009,"lon":16.668034,"is_passed":false},{"stop_id":"U1551Z1","name":"Růženin dvůr","arrival_time":"6:27:00","departure_time":"6:27:00","lat":49.203651,"lon":16.666867,"is_passed":false},{"stop_id":"U1383Z2","name":"Mikulovská","arrival_time":"6:28:00","departure_time":"6:28:00","lat":49.206311,"lon":16.664823,"is_passed":false},{"stop_id":"U1523Z2","name":"Prušánecká","arrival_time":"6:29:00","departure_time":"6:29:00","lat":49.209503,"lon":16.663369,"is_passed":false},{"stop_id":"U1743Z2","name":"Vlčnovská","arrival_time":"6:30:00","departure_time":"6:30:00","lat":49.211166,"lon":16.659638,"is_passed":false},{"stop_id":"U1128Z3","name":"Halasovo náměstí","arrival_time":"6:36:00","departure_time":"6:36:00","lat":49.223406,"lon":16.622237,"is_passed":false},{"stop_id":"U1692Z2","name":"U tunýlku","arrival_time":"6:37:00","departure_time":"6:37:00","lat":49.222902,"lon":16.617348,"is_passed":false},{"stop_id":"U1087Z2","name":"Divišova čtvrť","arrival_time":"6:38:00","departure_time":"6:38:00","lat":49.223685,"lon":16.612398,"is_passed":false},{"stop_id":"U1288Z2","name":"Královopolská strojírna","arrival_time":"6:39:00","departure_time":"6:39:00","lat":49.224075,"lon":16.607207,"is_passed":false},{"stop_id":"U1246Z2","name":"Kociánka","arrival_time":"6:40:00","departure_time":"6:40:00","lat":49.225972,"lon":16.601746,"is_passed":false},{"stop_id":"U1286Z4","name":"Královo Pole, nádraží","arrival_time":"6:43:00","departure_time":"6:43:00","lat":49.230229,"lon":16.595629,"is_passed":false},{"stop_id":"U1566Z6","name":"Semilasso","arrival_time":"6:44:00","departure_time":"6:44:00","lat":49.228248,"lon":16.593466,"is_passed":false},{"stop_id":"U1171Z4","name":"Husitská","arrival_time":"6:46:00","departure_time":"6:46:00","lat":49.224063,"lon":16.593994,"is_passed":false},{"stop_id":"U1586Z3","name":"Slovanské náměstí","arrival_time":"6:47:00","departure_time":"6:47:00","lat":49.223525,"lon":16.591009,"is_passed":false},{"stop_id":"U1567Z5","name":"Skácelova","arrival_time":"6:48:00","departure_time":"6:48:00","lat":49.221353,"lon":16.584711,"is_passed":false},{"stop_id":"U1777Z3","name":"Záhřebská","arrival_time":"6:50:00","departure_time":"6:50:00","lat":49.22001,"lon":16.579572,"is_passed":false},{"stop_id":"U1155Z1","name":"Horská","arrival_time":"6:50:00","departure_time":"6:50:00","lat":49.221621,"lon":16.579517,"is_passed":false},{"stop_id":"U1660Z3","name":"Technická","arrival_time":"6:52:00","departure_time":"6:52:00","lat":49.223701,"lon":16.578091,"is_passed":false},{"stop_id":"U1499Z1","name":"Podnikatelská","arrival_time":"6:53:00","departure_time":"6:53:00","lat":49.227371,"lon":16.576366,"is_passed":false},{"stop_id":"U1252Z2","name":"Kolejní","arrival_time":"6:55:00","departure_time":"6:55:00","lat":49.230641,"lon":16.57191,"is_passed":false},{"stop_id":"U1733Z1","name":"Vědeckotechnický park","arrival_time":"6:56:00","departure_time":"6:56:00","lat":49.2326,"lon":16.574806,"is_passed":false},{"stop_id":"U1659Z4","name":"Technologický park","arrival_time":"6:57:00","departure_time":"6:58:00","lat":49.231509,"lon":16.576781,"is_passed":false}],"44806":[{"stop_id":"U1659Z4","name":"Technologický park","arrival_time":"6:58:00","departure_time":"6:58:00","lat":49.231509,"lon":16.576781,"is_passed":false},{"stop_id":"U1104Z1","name":"Edisonova","arrival_time":"6:58:00","departure_time":"6:58:00","lat":49.22828,"lon":16.576461,"is_passed":false},{"stop_id":"U1499Z2","name":"Podnikatelská","arrival_time":"6:59:00","departure_time":"6:59:00","lat":49.227023,"lon":16.576248,"is_passed":false},{"stop_id":"U1660Z2","name":"Technická","arrival_time":"7:00:00","departure_time":"7:00:00","lat":49.22302,"lon":16.578608,"is_passed":false},{"stop_id":"U1155Z2","name":"Horská","arrival_time":"7:01:00","departure_time":"7:01:00","lat":49.221604,"lon":16.579463,"is_passed":false},{"stop_id":"U1777Z2","name":"Záhřebská","arrival_time":"7:03:00","departure_time":"7:03:00","lat":49.219845,"lon":16.580415,"is_passed":false},{"stop_id":"U1567Z6","name":"Skácelova","arrival_time":"7:05:00","departure_time":"7:05:00","lat":49.22163,"lon":16.585935,"is_passed":false},{"stop_id":"U1586Z4","name":"Slovanské náměstí","arrival_time":"7:06:00","departure_time":"7:06:00","lat":49.222774,"lon":16.591332,"is_passed":false},{"stop_id":"U1171Z3","name":"Husitská","arrival_time":"7:07:00","departure_time":"7:07:00","lat":49.223851,"lon":16.594116,"is_passed":false},{"stop_id":"U1566Z4","name":"Semilasso","arrival_time":"7:09:00","departure_time":"7:09:00","lat":49.228055,"lon":16.593438,"is_passed":false},{"stop_id":"U1286Z3","name":"Královo Pole, nádraží","arrival_time":"7:10:00","departure_time":"7:10:00","lat":49.229218,"lon":16.596271,"is_passed":false},{"stop_id":"U1388Z2","name":"Mojmírovo náměstí","arrival_time":"7:11:00","departure_time":"7:11:00","lat":49.226499,"lon":16.598423,"is_passed":false},{"stop_id":"U1246Z1","name":"Kociánka","arrival_time":"7:12:00","departure_time":"7:12:00","lat":49.225575,"lon":16.601869,"is_passed":false},{"stop_id":"U1288Z1","name":"Královopolská strojírna","arrival_time":"7:13:00","departure_time":"7:13:00","lat":49.223948,"lon":16.60736,"is_passed":false},{"stop_id":"U1087Z1","name":"Divišova čtvrť","arrival_time":"7:14:00","departure_time":"7:14:00","lat":49.223493,"lon":16.613643,"is_passed":false},{"stop_id":"U1692Z1","name":"U tunýlku","arrival_time":"7:15:00","departure_time":"7:15:00","lat":49.222688,"lon":16.617771,"is_passed":false},{"stop_id":"U1128Z4","name":"Halasovo náměstí","arrival_time":"7:17:00","departure_time":"7:17:00","lat":49.22314,"lon":16.622438,"is_passed":false},{"stop_id":"U1506Z2","name":"Poliklinika Lesná","arrival_time":"7:18:00","departure_time":"7:18:00","lat":49.222411,"lon":16.625672,"is_passed":false},{"stop_id":"U1331Z2","name":"Lesná, nádraží","arrival_time":"7:19:00","departure_time":"7:19:00","lat":49.220094,"lon":16.62942,"is_passed":false},{"stop_id":"U1646Z4","name":"Štefánikova čtvrť","arrival_time":"7:20:00","departure_time":"7:20:00","lat":49.217288,"lon":16.627693,"is_passed":false},{"stop_id":"U1381Z1","name":"Merhautova","arrival_time":"7:22:00","departure_time":"7:22:00","lat":49.21485,"lon":16.627477,"is_passed":false},{"stop_id":"U1668Z3","name":"Tomkovo náměstí","arrival_time":"7:24:00","departure_time":"7:24:00","lat":49.213205,"lon":16.636652,"is_passed":false},{"stop_id":"U1002Z1","name":"Akátky","arrival_time":"7:27:00","departure_time":"7:27:00","lat":49.208518,"lon":16.648742,"is_passed":false},{"stop_id":"U1743Z1","name":"Vlčnovská","arrival_time":"7:29:00","departure_time":"7:29:00","lat":49.210995,"lon":16.660327,"is_passed":false},{"stop_id":"U1523Z1","name":"Prušánecká","arrival_time":"7:30:00","departure_time":"7:30:00","lat":49.20827,"lon":16.663465,"is_passed":false},{"stop_id":"U1383Z1","name":"Mikulovská","arrival_time":"7:31:00","departure_time":"7:31:00","lat":49.2055,"lon":16.665833,"is_passed":false},{"stop_id":"U1551Z2","name":"Růženin dvůr","arrival_time":"7:32:00","departure_time":"7:32:00","lat":49.203263,"lon":16.666525,"is_passed":false},{"stop_id":"U1026Z4","name":"Bílá hora","arrival_time":"7:35:00","departure_time":"7:35:00","lat":49.193975,"lon":16.667677,"is_passed":false},{"stop_id":"U1501Z4","name":"Podstránská","arrival_time":"7:37:00","departure_time":"7:37:00","lat":49.186139,"lon":16.667061,"is_passed":false},{"stop_id":"U1068Z1","name":"Černovičky","arrival_time":"7:39:00","departure_time":"7:39:00","lat":49.182244,"lon":16.66894,"is_passed":false},{"stop_id":"U1741Z1","name":"Vlárská","arrival_time":"7:40:00","departure_time":"7:40:00","lat":49.180745,"lon":16.671647,"is_passed":false},{"stop_id":"U1105Z1","name":"Ericha Roučky","arrival_time":"7:42:00","departure_time":"7:42:00","lat":49.174784,"lon":16.66987,"is_passed":false},{"stop_id":"U1064Z1","name":"Černovická terasa I","arrival_time":"7:43:00","departure_time":"7:43:00","lat":49.171172,"lon":16.673495,"is_passed":false},{"stop_id":"U1065Z1","name":"Černovická terasa II","arrival_time":"7:44:00","departure_time":"7:44:00","lat":49.167108,"lon":16.67608,"is_passed":false},{"stop_id":"U1581Z3","name":"Areál Slatina","arrival_time":"7:46:00","departure_time":"8:05:00","lat":49.168533,"lon":16.678786,"is_passed":false}],"44807":[{"stop_id":"U1581Z1","name":"Areál Slatina","arrival_time":"8:05:00","departure_time":"8:05:00","lat":49.168614,"lon":16.67804,"is_passed":false},{"stop_id":"U1065Z2","name":"Černovická terasa II","arrival_time":"8:05:00","departure_time":"8:05:00","lat":49.168348,"lon":16.675307,"is_passed":false},{"stop_id":"U1064Z2","name":"Černovická terasa I","arrival_time":"8:06:00","departure_time":"8:06:00","lat":49.171843,"lon":16.673091,"is_passed":false},{"stop_id":"U1105Z2","name":"Ericha Roučky","arrival_time":"8:07:00","departure_time":"8:07:00","lat":49.175109,"lon":16.669439,"is_passed":false},{"stop_id":"U1741Z2","name":"Vlárská","arrival_time":"8:09:00","departure_time":"8:09:00","lat":49.180702,"lon":16.672017,"is_passed":false},{"stop_id":"U1068Z4","name":"Černovičky","arrival_time":"8:11:00","departure_time":"8:11:00","lat":49.183907,"lon":16.668247,"is_passed":false},{"stop_id":"U1501Z3","name":"Podstránská","arrival_time":"8:11:00","departure_time":"8:11:00","lat":49.186855,"lon":16.66649,"is_passed":false},{"stop_id":"U1026Z3","name":"Bílá hora","arrival_time":"8:14:00","departure_time":"8:14:00","lat":49.194009,"lon":16.668034,"is_passed":false},{"stop_id":"U1551Z1","name":"Růženin dvůr","arrival_time":"8:17:00","departure_time":"8:17:00","lat":49.203651,"lon":16.666867,"is_passed":false},{"stop_id":"U1383Z2","name":"Mikulovská","arrival_time":"8:18:00","departure_time":"8:18:00","lat":49.206311,"lon":16.664823,"is_passed":false},{"stop_id":"U1523Z2","name":"Prušánecká","arrival_time":"8:19:00","departure_time":"8:19:00","lat":49.209503,"lon":16.663369,"is_passed":false},{"stop_id":"U1743Z2","name":"Vlčnovská","arrival_time":"8:20:00","departure_time":"8:20:00","lat":49.211166,"lon":16.659638,"is_passed":false},{"stop_id":"U1128Z3","name":"Halasovo náměstí","arrival_time":"8:26:00","departure_time":"8:26:00","lat":49.223406,"lon":16.622237,"is_passed":false},{"stop_id":"U1692Z2","name":"U tunýlku","arrival_time":"8:27:00","departure_time":"8:27:00","lat":49.222902,"lon":16.617348,"is_passed":false},{"stop_id":"U1087Z2","name":"Divišova čtvrť","arrival_time":"8:28:00","departure_time":"8:28:00","lat":49.223685,"lon":16.612398,"is_passed":false},{"stop_id":"U1288Z2","name":"Královopolská strojírna","arrival_time":"8:29:00","departure_time":"8:29:00","lat":49.224075,"lon":16.607207,"is_passed":false},{"stop_id":"U1246Z2","name":"Kociánka","arrival_time":"8:30:00","departure_time":"8:30:00","lat":49.225972,"lon":16.601746,"is_passed":false},{"stop_id":"U1286Z4","name":"Královo Pole, nádraží","arrival_time":"8:33:00","departure_time":"8:33:00","lat":49.230229,"lon":16.595629,"is_passed":false},{"stop_id":"U1566Z6","name":"Semilasso","arrival_time":"8:34:00","departure_time":"8:34:00","lat":49.228248,"lon":16.593466,"is_passed":false},{"stop_id":"U1171Z4","name":"Husitská","arrival_time":"8:36:00","departure_time":"8:36:00","lat":49.224063,"lon":16.593994,"is_passed":false},{"stop_id":"U1586Z3","name":"Slovanské náměstí","arrival_time":"8:37:00","departure_time":"8:37:00","lat":49.223525,"lon":16.591009,"is_passed":false},{"stop_id":"U1567Z5","name":"Skácelova","arrival_time":"8:38:00","departure_time":"8:38:00","lat":49.221353,"lon":16.584711,"is_passed":false},{"stop_id":"U1777Z3","name":"Záhřebská","arrival_time":"8:40:00","departure_time":"8:40:00","lat":49.22001,"lon":16.579572,"is_passed":false},{"stop_id":"U1155Z1","name":"Horská","arrival_time":"8:40:00","departure_time":"8:40:00","lat":49.221621,"lon":16.579517,"is_passed":false},{"stop_id":"U1660Z3","name":"Technická","arrival_time":"8:42:00","departure_time":"8:42:00","lat":49.223701,"lon":16.578091,"is_passed":false},{"stop_id":"U1499Z1","name":"Podnikatelská","arrival_time":"8:43:00","departure_time":"8:43:00","lat":49.227371,"lon":16.576366,"is_passed":false},{"stop_id":"U1252Z2","name":"Kolejní","arrival_time":"8:45:00","departure_time":"8:45:00","lat":49.230641,"lon":16.57191,"is_passed":false},{"stop_id":"U1733Z1","name":"Vědeckotechnický park","arrival_time":"8:46:00","departure_time":"8:46:00","lat":49.2326,"lon":16.574806,"is_passed":false},{"stop_id":"U1659Z3","name":"Technologický park","arrival_time":"8:47:00","departure_time":"8:49:00","lat":49.23192,"lon":16.576848,"is_passed":false}],"44808":[{"stop_id":"U1286Z5","name":"Královo Pole, nádraží","arrival_time":"9:33:00","departure_time":"9:33:00","lat":49.229633,"lon":16.595447,"is_passed":false},{"stop_id":"U1566Z6","name":"Semilasso","arrival_time":"9:34:00","departure_time":"9:34:00","lat":49.228248,"lon":16.593466,"is_passed":false},{"stop_id":"U1171Z4","name":"Husitská","arrival_time":"9:36:00","departure_time":"9:36:00","lat":49.224063,"lon":16.593994,"is_passed":false},{"stop_id":"U1586Z3","name":"Slovanské náměstí","arrival_time":"9:37:00","departure_time":"9:37:00","lat":49.223525,"lon":16.591009,"is_passed":false},{"stop_id":"U1567Z5","name":"Skácelova","arrival_time":"9:38:00","departure_time":"9:38:00","lat":49.221353,"lon":16.584711,"is_passed":false},{"stop_id":"U1777Z3","name":"Záhřebská","arrival_time":"9:40:00","departure_time":"9:40:00","lat":49.22001,"lon":16.579572,"is_passed":false},{"stop_id":"U1155Z1","name":"Horská","arrival_time":"9:40:00","departure_time":"9:40:00","lat":49.221621,"lon":16.579517,"is_passed":false},{"stop_id":"U1660Z3","name":"Technická","arrival_time":"9:42:00","departure_time":"9:42:00","lat":49.223701,"lon":16.578091,"is_passed":false},{"stop_id":"U1499Z1","name":"Podnikatelská","arrival_time":"9:43:00","departure_time":"9:43:00","lat":49.227371,"lon":16.576366,"is_passed":false},{"stop_id":"U1252Z2","name":"Kolejní","arrival_time":"9:45:00","departure_time":"9:45:00","lat":49.230641,"lon":16.57191,"is_passed":false},{"stop_id":"U1733Z1","name":"Vědeckotechnický park","arrival_time":"9:46:00","departure_time":"9:46:00","lat":49.2326,"lon":16.574806,"is_passed":false},{"stop_id":"U1659Z3","name":"Technologický park","arrival_time":"9:47:00","departure_time":"9:49:00","lat":49.23192,"lon":16.576848,"is_passed":false}],"44809":[{"stop_id":"U1286Z5","name":"Královo Pole, nádraží","arrival_time":"10:01:00","departure_time":"10:01:00","lat":49.229633,"lon":16.595447,"is_passed":false},{"stop_id":"U1566Z6","name":"Semilasso","arrival_time":"10:02:00","departure_time":"10:02:00","lat":49.228248,"lon":16.593466,"is_passed":false},{"stop_id":"U1171Z4","name":"Husitská","arrival_time":"10:04:00","departure_time":"10:04:00","lat":49.224063,"lon":16.593994,"is_passed":false},{"stop_id":"U1586Z3","name":"Slovanské náměstí","arrival_time":"10:05:00","departure_time":"10:05:00","lat":49.223525,"lon":16.591009,"is_passed":false},{"stop_id":"U1567Z5","name":"Skácelova","arrival_time":"10:06:00","departure_time":"10:06:00","lat":49.221353,"lon":16.584711,"is_passed":false},{"stop_id":"U1777Z3","name":"Záhřebská","arrival_time":"10:08:00","departure_time":"10:08:00","lat":49.22001,"lon":16.579572,"is_passed":false},{"stop_id":"U1155Z1","name":"Horská","arrival_time":"10:08:00","departure_time":"10:08:00","lat":49.221621,"lon":16.579517,"is_passed":false},{"stop_id":"U1660Z3","name":"Technická","arrival_time":"10:10:00","departure_time":"10:10:00","lat":49.223701,"lon":16.578091,"is_passed":false},{"stop_id":"U1499Z1","name":"Podnikatelská","arrival_time":"10:11:00","departure_time":"10:11:00","lat":49.227371,"lon":16.576366,"is_passed":false},{"stop_id":"U1252Z2","name":"Kolejní","arrival_time":"10:13:00","departure_time":"10:13:00","lat":49.230641,"lon":16.57191,"is_passed":false},{"stop_id":"U1733Z1","name":"Vědeckotechnický park","arrival_time":"10:14:00","departure_time":"10:14:00","lat":49.2326,"lon":16.574806,"is_passed":false},{"stop_id":"U1659Z4","name":"Technologický park","arrival_time":"10:15:00","departure_time":"10:16:00","lat":49.231509,"lon":16.576781,"is_passed":false}],"44810":[{"stop_id":"U1659Z4","name":"Technologický park","arrival_time":"10:16:00","departure_time":"10:16:00","lat":49.231509,"lon":16.576781,"is_passed":false},{"stop_id":"U1104Z1","name":"Edisonova","arrival_time":"10:16:00","departure_time":"10:16:00","lat":49.22828,"lon":16.576461,"is_passed":false},{"stop_id":"U1499Z2","name":"Podnikatelská","arrival_time":"10:17:00","departure_time":"10:17:00","lat":49.227023,"lon":16.576248,"is_passed":false},{"stop_id":"U1660Z2","name":"Technická","arrival_time":"10:18:00","departure_time":"10:18:00","lat":49.22302,"lon":16.578608,"is_passed":false},{"stop_id":"U1155Z2","name":"Horská","arrival_time":"10:19:00","departure_time":"10:19:00","lat":49.221604,"lon":16.579463,"is_passed":false},{"stop_id":"U1777Z2","name":"Záhřebská","arrival_time":"10:21:00","departure_time":"10:21:00","lat":49.219845,"lon":16.580415,"is_passed":false},{"stop_id":"U1567Z6","name":"Skácelova","arrival_time":"10:23:00","departure_time":"10:23:00","lat":49.22163,"lon":16.585935,"is_passed":false},{"stop_id":"U1586Z4","name":"Slovanské náměstí","arrival_time":"10:24:00","departure_time":"10:24:00","lat":49.222774,"lon":16.591332,"is_passed":false},{"stop_id":"U1171Z3","name":"Husitská","arrival_time":"10:25:00","departure_time":"10:25:00","lat":49.223851,"lon":16.594116,"is_passed":false},{"stop_id":"U1566Z4","name":"Semilasso","arrival_time":"10:27:00","departure_time":"10:27:00","lat":49.228055,"lon":16.593438,"is_passed":false},{"stop_id":"U1286Z8","name":"Královo Pole, nádraží","arrival_time":"10:29:00","departure_time":"10:41:00","lat":49.230335,"lon":16.595523,"is_passed":false}],"44811":[{"stop_id":"U1286Z5","name":"Královo Pole, nádraží","arrival_time":"10:41:00","departure_time":"10:41:00","lat":49.229633,"lon":16.595447,"is_passed":false},{"stop_id":"U1566Z6","name":"Semilasso","arrival_time":"10:42:00","departure_time":"10:42:00","lat":49.228248,"lon":16.593466,"is_passed":false},{"stop_id":"U1171Z4","name":"Husitská","arrival_time":"10:44:00","departure_time":"10:44:00","lat":49.224063,"lon":16.593994,"is_passed":false},{"stop_id":"U1586Z3","name":"Slovanské náměstí","arrival_time":"10:45:00","departure_time":"10:45:00","lat":49.223525,"lon":16.591009,"is_passed":false},{"stop_id":"U1567Z5","name":"Skácelova","arrival_time":"10:46:00","departure_time":"10:46:00","lat":49.221353,"lon":16.584711,"is_passed":false},{"stop_id":"U1777Z3","name":"Záhřebská","arrival_time":"10:48:00","departure_time":"10:48:00","lat":49.22001,"lon":16.579572,"is_passed":false},{"stop_id":"U1155Z1","name":"Horská","arrival_time":"10:48:00","departure_time":"10:48:00","lat":49.221621,"lon":16.579517,"is_passed":false},{"stop_id":"U1660Z3","name":"Technická","arrival_time":"10:50:00","departure_time":"10:50:00","lat":49.223701,"lon":16.578091,"is_passed":false},{"stop_id":"U1499Z1","name":"Podnikatelská","arrival_time":"10:51:00","departure_time":"10:51:00","lat":49.227371,"lon":16.576366,"is_passed":false},{"stop_id":"U1252Z2","name":"Kolejní","arrival_time":"10:53:00","departure_time":"10:53:00","lat":49.230641,"lon":16.57191,"is_passed":false},{"stop_id":"U1733Z1","name":"Vědeckotechnický park","arrival_time":"10:54:00","departure_time":"10:54:00","lat":49.2326,"lon":16.574806,"is_passed":false},{"stop_id":"U1659Z4","name":"Technologický park","arrival_time":"10:55:00","departure_time":"10:56:00","lat":49.231509,"lon":16.576781,"is_passed":false}],"44812":[{"stop_id":"U1659Z4","name":"Technologický park","arrival_time":"10:56:00","departure_time":"10:56:00","lat":49.231509,"lon":16.576781,"is_passed":false},{"stop_id":"U1104Z1","name":"Edisonova","arrival_time":"10:56:00","departure_time":"10:56:00","lat":49.22828,"lon":16.576461,"is_passed":false},{"stop_id":"U1499Z2","name":"Podnikatelská","arrival_time":"10:57:00","departure_time":"10:57:00","lat":49.227023,"lon":16.576248,"is_passed":false},{"stop_id":"U1660Z2","name":"Technická","arrival_time":"10:58:00","departure_time":"10:58:00","lat":49.22302,"lon":16.578608,"is_passed":false},{"stop_id":"U1155Z2","name":"Horská","arrival_time":"10:59:00","departure_time":"10:59:00","lat":49.221604,"lon":16.579463,"is_passed":false},{"stop_id":"U1777Z2","name":"Záhřebská","arrival_time":"11:01:00","departure_time":"11:01:00","lat":49.219845,"lon":16.580415,"is_passed":false},{"stop_id":"U1567Z6","name":"Skácelova","arrival_time":"11:03:00","departure_time":"11:03:00","lat":49.22163,"lon":16.585935,"is_passed":false},{"stop_id":"U1586Z4","name":"Slovanské náměstí","arrival_time":"11:04:00","departure_time":"11:04:00","lat":49.222774,"lon":16.591332,"is_passed":false},{"stop_id":"U1171Z3","name":"Husitská","arrival_time":"11:05:00","departure_time":"11:05:00","lat":49.223851,"lon":16.594116,"is_passed":false},{"stop_id":"U1566Z4","name":"Semilasso","arrival_time":"11:07:00","departure_time":"11:07:00","lat":49.228055,"lon":16.593438,"is_passed":false},{"stop_id":"U1286Z8","name":"Královo Pole, nádraží","arrival_time":"11:09:00","departure_time":"11:21:00","lat":49.230335,"lon":16.595523,"is_passed":false}],"44813":[{"stop_id":"U1286Z5","name":"Královo Pole, nádraží","arrival_time":"11:21:00","departure_time":"11:21:00","lat":49.229633,"lon":16.595447,"is_passed":false},{"stop_id":"U1566Z6","name":"Semilasso","arrival_time":"11:22:00","departure_time":"11:22:00","lat":49.228248,"lon":16.593466,"is_passed":false},{"stop_id":"U1171Z4","name":"Husitská","arrival_time":"11:24:00","departure_time":"11:24:00","lat":49.224063,"lon":16.593994,"is_passed":false},{"stop_id":"U1586Z3","name":"Slovanské náměstí","arrival_time":"11:25:00","departure_time":"11:25:00","lat":49.223525,"lon":16.591009,"is_passed":false},{"stop_id":"U1567Z5","name":"Skácelova","arrival_time":"11:26:00","departure_time":"11:26:00","lat":49.221353,"lon":16.584711,"is_passed":false},{"stop_id":"U1777Z3","name":"Záhřebská","arrival_time":"11:28:00","departure_time":"11:28:00","lat":49.22001,"lon":16.579572,"is_passed":false},{"stop_id":"U1155Z1","name":"Horská","arrival_time":"11:28:00","departure_time":"11:28:00","lat":49.221621,"lon":16.579517,"is_passed":false},{"stop_id":"U1660Z3","name":"Technická","arrival_time":"11:30:00","departure_time":"11:30:00","lat":49.223701,"lon":16.578091,"is_passed":false},{"stop_id":"U1499Z1","name":"Podnikatelská","arrival_time":"11:31:00","departure_time":"11:31:00","lat":49.227371,"lon":16.576366,"is_passed":false},{"stop_id":"U1252Z2","name":"Kolejní","arrival_time":"11:33:00","departure_time":"11:33:00","lat":49.230641,"lon":16.57191,"is_passed":false},{"stop_id":"U1733Z1","name":"Vědeckotechnický park","arrival_time":"11:34:00","departure_time":"11:34:00","lat":49.2326,"lon":16.574806,"is_passed":false},{"stop_id":"U1659Z4","name":"Technologický park","arrival_time":"11:35:00","departure_time":"11:36:00","lat":49.231509,"lon":16.576781,"is_passed":false}],"44814":[{"stop_id":"U1659Z4","name":"Technologický park","arrival_time":"11:36:00","departure_time":"11:36:00","lat":49.231509,"lon":16.576781,"is_passed":false},{"stop_id":"U1104Z1","name":"Edisonova","arrival_time":"11:36:00","departure_time":"11:36:00","lat":49.22828,"lon":16.576461,"is_passed":false},{"stop_id":"U1499Z2","name":"Podnikatelská","arrival_time":"11:37:00","departure_time":"11:37:00","lat":49.227023,"lon":16.576248,"is_passed":false},{"stop_id":"U1660Z2","name":"Technická","arrival_time":"11:38:00","departure_time":"11:38:00","lat":49.22302,"lon":16.578608,"is_passed":false},{"stop_id":"U1155Z2","name":"Horská","arrival_time":"11:39:00","departure_time":"11:39:00","lat":49.221604,"lon":16.579463,"is_passed":false},{"stop_id":"U1777Z2","name":"Záhřebská","arrival_time":"11:41:00","departure_time":"11:41:00","lat":49.219845,"lon":16.580415,"is_passed":false},{"stop_id":"U1567Z6","name":"Skácelova","arrival_time":"11:43:00","departure_time":"11:43:00","lat":49.22163,"lon":16.585935,"is_passed":false},{"stop_id":"U1586Z4","name":"Slovanské náměstí","arrival_time":"11:44:00","departure_time":"11:44:00","lat":49.222774,"lon":16.591332,"is_passed":false},{"stop_id":"U1171Z3","name":"Husitská","arrival_time":"11:45:00","departure_time":"11:45:00","lat":49.223851,"lon":16.594116,"is_passed":false},{"stop_id":"U1566Z4","name":"Semilasso","arrival_time":"11:47:00","departure_time":"11:47:00","lat":49.228055,"lon":16.593438,"is_passed":false},{"stop_id":"U1286Z8","name":"Královo Pole, nádraží","arrival_time":"11:49:00","departure_time":"12:21:00","lat":49.230335,"lon":16.595523,"is_passed":false}],"44815":[{"stop_id":"U1286Z5","name":"Královo Pole, nádraží","arrival_time":"12:21:00","departure_time":"12:21:00","lat":49.229633,"lon":16.595447,"is_passed":false},{"stop_id":"U1566Z6","name":"Semilasso","arrival_time":"12:22:00","departure_time":"12:22:00","lat":49.228248,"lon":16.593466,"is_passed":false},{"stop_id":"U1171Z4","name":"Husitská","arrival_time":"12:24:00","departure_time":"12:24:00","lat":49.224063,"lon":16.593994,"is_passed":false},{"stop_id":"U1586Z3","name":"Slovanské náměstí","arrival_time":"12:25:00","departure_time":"12:25:00","lat":49.223525,"lon":16.591009,"is_passed":false},{"stop_id":"U1567Z5","name":"Skácelova","arrival_time":"12:26:00","departure_time":"12:26:00","lat":49.221353,"lon":16.584711,"is_passed":false},{"stop_id":"U1777Z3","name":"Záhřebská","arrival_time":"12:28:00","departure_time":"12:28:00","lat":49.22001,"lon":16.579572,"is_passed":false},{"stop_id":"U1155Z1","name":"Horská","arrival_time":"12:28:00","departure_time":"12:28:00","lat":49.221621,"lon":16.579517,"is_passed":false},{"stop_id":"U1660Z3","name":"Technická","arrival_time":"12:30:00","departure_time":"12:30:00","lat":49.223701,"lon":16.578091,"is_passed":false},{"stop_id":"U1499Z1","name":"Podnikatelská","arrival_time":"12:31:00","departure_time":"12:31:00","lat":49.227371,"lon":16.576366,"is_passed":false},{"stop_id":"U1252Z2","name":"Kolejní","arrival_time":"12:33:00","departure_time":"12:33:00","lat":49.230641,"lon":16.57191,"is_passed":false},{"stop_id":"U1733Z1","name":"Vědeckotechnický park","arrival_time":"12:34:00","departure_time":"12:34:00","lat":49.2326,"lon":16.574806,"is_passed":false},{"stop_id":"U1659Z4","name":"Technologický park","arrival_time":"12:35:00","departure_time":"12:36:00","lat":49.231509,"lon":16.576781,"is_passed":false}],"44816":[{"stop_id":"U1659Z4","name":"Technologický park","arrival_time":"12:36:00","departure_time":"12:36:00","lat":49.231509,"lon":16.576781,"is_passed":false},{"stop_id":"U1104Z1","name":"Edisonova","arrival_time":"12:36:00","departure_time":"12:36:00","lat":49.22828,"lon":16.576461,"is_passed":false},{"stop_id":"U1499Z2","name":"Podnikatelská","arrival_time":"12:37:00","departure_time":"12:37:00","lat":49.227023,"lon":16.576248,"is_passed":false},{"stop_id":"U1660Z2","name":"Technická","arrival_time":"12:38:00","departure_time":"12:38:00","lat":49.22302,"lon":16.578608,"is_passed":false},{"stop_id":"U1155Z2","name":"Horská","arrival_time":"12:39:00","departure_time":"12:39:00","lat":49.221604,"lon":16.579463,"is_passed":false},{"stop_id":"U1777Z2","name":"Záhřebská","arrival_time":"12:41:00","departure_time":"12:41:00","lat":49.219845,"lon":16.580415,"is_passed":false},{"stop_id":"U1567Z6","name":"Skácelova","arrival_time":"12:43:00","departure_time":"12:43:00","lat":49.22163,"lon":16.585935,"is_passed":false},{"stop_id":"U1586Z4","name":"Slovanské náměstí","arrival_time":"12:44:00","departure_time":"12:44:00","lat":49.222774,"lon":16.591332,"is_passed":false},{"stop_id":"U1171Z3","name":"Husitská","arrival_time":"12:45:00","departure_time":"12:45:00","lat":49.223851,"lon":16.594116,"is_passed":false},{"stop_id":"U1566Z4","name":"Semilasso","arrival_time":"12:47:00","departure_time":"12:47:00","lat":49.228055,"lon":16.593438,"is_passed":false},{"stop_id":"U1286Z3","name":"Královo Pole, nádraží","arrival_time":"12:48:00","departure_time":"12:48:00","lat":49.229218,"lon":16.596271,"is_passed":false},{"stop_id":"U1388Z2","name":"Mojmírovo náměstí","arrival_time":"12:49:00","departure_time":"12:49:00","lat":49.226499,"lon":16.598423,"is_passed":false},{"stop_id":"U1246Z1","name":"Kociánka","arrival_time":"12:50:00","departure_time":"12:50:00","lat":49.225575,"lon":16.601869,"is_passed":false},{"stop_id":"U1288Z1","name":"Královopolská strojírna","arrival_time":"12:51:00","departure_time":"12:51:00","lat":49.223948,"lon":16.60736,"is_passed":false},{"stop_id":"U1087Z1","name":"Divišova čtvrť","arrival_time":"12:52:00","departure_time":"12:52:00","lat":49.223493,"lon":16.613643,"is_passed":false},{"stop_id":"U1692Z1","name":"U tunýlku","arrival_time":"12:53:00","departure_time":"12:53:00","lat":49.222688,"lon":16.617771,"is_passed":false},{"stop_id":"U1128Z4","name":"Halasovo náměstí","arrival_time":"12:55:00","departure_time":"12:55:00","lat":49.22314,"lon":16.622438,"is_passed":false},{"stop_id":"U1506Z2","name":"Poliklinika Lesná","arrival_time":"12:56:00","departure_time":"12:56:00","lat":49.222411,"lon":16.625672,"is_passed":false},{"stop_id":"U1331Z2","name":"Lesná, nádraží","arrival_time":"12:57:00","departure_time":"12:57:00","lat":49.220094,"lon":16.62942,"is_passed":false},{"stop_id":"U1646Z4","name":"Štefánikova čtvrť","arrival_time":"12:58:00","departure_time":"12:58:00","lat":49.217288,"lon":16.627693,"is_passed":false},{"stop_id":"U1381Z1","name":"Merhautova","arrival_time":"13:00:00","departure_time":"13:00:00","lat":49.21485,"lon":16.627477,"is_passed":false},{"stop_id":"U1668Z3","name":"Tomkovo náměstí","arrival_time":"13:02:00","departure_time":"13:02:00","lat":49.213205,"lon":16.636652,"is_passed":false},{"stop_id":"U1002Z1","name":"Akátky","arrival_time":"13:05:00","departure_time":"13:05:00","lat":49.208518,"lon":16.648742,"is_passed":false},{"stop_id":"U1743Z1","name":"Vlčnovská","arrival_time":"13:07:00","departure_time":"13:07:00","lat":49.210995,"lon":16.660327,"is_passed":false},{"stop_id":"U1523Z1","name":"Prušánecká","arrival_time":"13:08:00","departure_time":"13:08:00","lat":49.20827,"lon":16.663465,"is_passed":false},{"stop_id":"U1383Z1","name":"Mikulovská","arrival_time":"13:09:00","departure_time":"13:09:00","lat":49.2055,"lon":16.665833,"is_passed":false},{"stop_id":"U1551Z2","name":"Růženin dvůr","arrival_time":"13:10:00","departure_time":"13:10:00","lat":49.203263,"lon":16.666525,"is_passed":false},{"stop_id":"U1026Z4","name":"Bílá hora","arrival_time":"13:13:00","departure_time":"13:13:00","lat":49.193975,"lon":16.667677,"is_passed":false},{"stop_id":"U1501Z4","name":"Podstránská","arrival_time":"13:15:00","departure_time":"13:15:00","lat":49.186139,"lon":16.667061,"is_passed":false},{"stop_id":"U1068Z1","name":"Černovičky","arrival_time":"13:17:00","departure_time":"13:17:00","lat":49.182244,"lon":16.66894,"is_passed":false},{"stop_id":"U1741Z1","name":"Vlárská","arrival_time":"13:18:00","departure_time":"13:18:00","lat":49.180745,"lon":16.671647,"is_passed":false},{"stop_id":"U1105Z1","name":"Ericha Roučky","arrival_time":"13:20:00","departure_time":"13:20:00","lat":49.174784,"lon":16.66987,"is_passed":false},{"stop_id":"U1064Z1","name":"Černovická terasa I","arrival_time":"13:21:00","departure_time":"13:21:00","lat":49.171172,"lon":16.673495,"is_passed":false},{"stop_id":"U1065Z1","name":"Černovická terasa II","arrival_time":"13:22:00","departure_time":"13:22:00","lat":49.167108,"lon":16.67608,"is_passed":false},{"stop_id":"U1581Z3","name":"Areál Slatina","arrival_time":"13:24:00","departure_time":"13:45:00","lat":49.168533,"lon":16.678786,"is_passed":false}],"44817":[{"stop_id":"U1581Z1","name":"Areál Slatina","arrival_time":"13:45:00","departure_time":"13:45:00","lat":49.168614,"lon":16.67804,"is_passed":false},{"stop_id":"U1065Z2","name":"Černovická terasa II","arrival_time":"13:45:00","departure_time":"13:45:00","lat":49.168348,"lon":16.675307,"is_passed":false},{"stop_id":"U1064Z2","name":"Černovická terasa I","arrival_time":"13:46:00","departure_time":"13:46:00","lat":49.171843,"lon":16.673091,"is_passed":false},{"stop_id":"U1105Z2","name":"Ericha Roučky","arrival_time":"13:47:00","departure_time":"13:47:00","lat":49.175109,"lon":16.669439,"is_passed":false},{"stop_id":"U1741Z2","name":"Vlárská","arrival_time":"13:49:00","departure_time":"13:49:00","lat":49.180702,"lon":16.672017,"is_passed":false},{"stop_id":"U1068Z4","name":"Černovičky","arrival_time":"13:51:00","departure_time":"13:51:00","lat":49.183907,"lon":16.668247,"is_passed":false},{"stop_id":"U1501Z3","name":"Podstránská","arrival_time":"13:51:00","departure_time":"13:51:00","lat":49.186855,"lon":16.66649,"is_passed":false},{"stop_id":"U1026Z3","name":"Bílá hora","arrival_time":"13:54:00","departure_time":"13:54:00","lat":49.194009,"lon":16.668034,"is_passed":false},{"stop_id":"U1551Z1","name":"Růženin dvůr","arrival_time":"13:57:00","departure_time":"13:57:00","lat":49.203651,"lon":16.666867,"is_passed":false},{"stop_id":"U1383Z2","name":"Mikulovská","arrival_time":"13:58:00","departure_time":"13:58:00","lat":49.206311,"lon":16.664823,"is_passed":false},{"stop_id":"U1523Z2","name":"Prušánecká","arrival_time":"13:59:00","departure_time":"13:59:00","lat":49.209503,"lon":16.663369,"is_passed":false},{"stop_id":"U1743Z2","name":"Vlčnovská","arrival_time":"14:00:00","departure_time":"14:00:00","lat":49.211166,"lon":16.659638,"is_passed":false},{"stop_id":"U1128Z3","name":"Halasovo náměstí","arrival_time":"14:06:00","departure_time":"14:06:00","lat":49.223406,"lon":16.622237,"is_passed":false},{"stop_id":"U1692Z2","name":"U tunýlku","arrival_time":"14:07:00","departure_time":"14:07:00","lat":49.222902,"lon":16.617348,"is_passed":false},{"stop_id":"U1087Z2","name":"Divišova čtvrť","arrival_time":"14:08:00","departure_time":"14:08:00","lat":49.223685,"lon":16.612398,"is_passed":false},{"stop_id":"U1288Z2","name":"Královopolská strojírna","arrival_time":"14:09:00","departure_time":"14:09:00","lat":49.224075,"lon":16.607207,"is_passed":false},{"stop_id":"U1246Z2","name":"Kociánka","arrival_time":"14:10:00","departure_time":"14:10:00","lat":49.225972,"lon":16.601746,"is_passed":false},{"stop_id":"U1286Z4","name":"Královo Pole, nádraží","arrival_time":"14:13:00","departure_time":"14:13:00","lat":49.230229,"lon":16.595629,"is_passed":false},{"stop_id":"U1566Z6","name":"Semilasso","arrival_time":"14:14:00","departure_time":"14:14:00","lat":49.228248,"lon":16.593466,"is_passed":false},{"stop_id":"U1171Z4","name":"Husitská","arrival_time":"14:16:00","departure_time":"14:16:00","lat":49.224063,"lon":16.593994,"is_passed":false},{"stop_id":"U1586Z3","name":"Slovanské náměstí","arrival_time":"14:17:00","departure_time":"14:17:00","lat":49.223525,"lon":16.591009,"is_passed":false},{"stop_id":"U1567Z5","name":"Skácelova","arrival_time":"14:18:00","departure_time":"14:18:00","lat":49.221353,"lon":16.584711,"is_passed":false},{"stop_id":"U1777Z3","name":"Záhřebská","arrival_time":"14:20:00","departure_time":"14:20:00","lat":49.22001,"lon":16.579572,"is_passed":false},{"stop_id":"U1155Z1","name":"Horská","arrival_time":"14:20:00","departure_time":"14:20:00","lat":49.221621,"lon":16.579517,"is_passed":false},{"stop_id":"U1660Z3","name":"Technická","arrival_time":"14:22:00","departure_time":"14:22:00","lat":49.223701,"lon":16.578091,"is_passed":false},{"stop_id":"U1499Z1","name":"Podnikatelská","arrival_time":"14:23:00","departure_time":"14:23:00","lat":49.227371,"lon":16.576366,"is_passed":false},{"stop_id":"U1252Z2","name":"Kolejní","arrival_time":"14:25:00","departure_time":"14:25:00","lat":49.230641,"lon":16.57191,"is_passed":false},{"stop_id":"U1733Z1","name":"Vědeckotechnický park","arrival_time":"14:26:00","departure_time":"14:26:00","lat":49.2326,"lon":16.574806,"is_passed":false},{"stop_id":"U1659Z4","name":"Technologický park","arrival_time":"14:27:00","departure_time":"14:28:00","lat":49.231509,"lon":16.576781,"is_passed":false}],"44818":[{"stop_id":"U1659Z4","name":"Technologický park","arrival_time":"14:28:00","departure_time":"14:28:00","lat":49.231509,"lon":16.576781,"is_passed":false},{"stop_id":"U1104Z1","name":"Edisonova","arrival_time":"14:28:00","departure_time":"14:28:00","lat":49.22828,"lon":16.576461,"is_passed":false},{"stop_id":"U1499Z2","name":"Podnikatelská","arrival_time":"14:29:00","departure_time":"14:29:00","lat":49.227023,"lon":16.576248,"is_passed":false},{"stop_id":"U1660Z2","name":"Technická","arrival_time":"14:30:00","departure_time":"14:30:00","lat":49.22302,"lon":16.578608,"is_passed":false},{"stop_id":"U1155Z2","name":"Horská","arrival_time":"14:31:00","departure_time":"14:31:00","lat":49.221604,"lon":16.579463,"is_passed":false},{"stop_id":"U1777Z2","name":"Záhřebská","arrival_time":"14:33:00","departure_time":"14:33:00","lat":49.219845,"lon":16.580415,"is_passed":false},{"stop_id":"U1567Z6","name":"Skácelova","arrival_time":"14:35:00","departure_time":"14:35:00","lat":49.22163,"lon":16.585935,"is_passed":false},{"stop_id":"U1586Z4","name":"Slovanské náměstí","arrival_time":"14:36:00","departure_time":"14:36:00","lat":49.222774,"lon":16.591332,"is_passed":false},{"stop_id":"U1171Z3","name":"Husitská","arrival_time":"14:37:00","departure_time":"14:37:00","lat":49.223851,"lon":16.594116,"is_passed":false},{"stop_id":"U1566Z4","name":"Semilasso","arrival_time":"14:39:00","departure_time":"14:39:00","lat":49.228055,"lon":16.593438,"is_passed":false},{"stop_id":"U1286Z3","name":"Královo Pole, nádraží","arrival_time":"14:40:00","departure_time":"14:40:00","lat":49.229218,"lon":16.596271,"is_passed":false},{"stop_id":"U1388Z2","name":"Mojmírovo náměstí","arrival_time":"14:41:00","departure_time":"14:41:00","lat":49.226499,"lon":16.598423,"is_passed":false},{"stop_id":"U1246Z1","name":"Kociánka","arrival_time":"14:42:00","departure_time":"14:42:00","lat":49.225575,"lon":16.601869,"is_passed":false},{"stop_id":"U1288Z1","name":"Královopolská strojírna","arrival_time":"14:43:00","departure_time":"14:43:00","lat":49.223948,"lon":16.60736,"is_passed":false},{"stop_id":"U1087Z1","name":"Divišova čtvrť","arrival_time":"14:44:00","departure_time":"14:44:00","lat":49.223493,"lon":16.613643,"is_passed":false},{"stop_id":"U1692Z1","name":"U tunýlku","arrival_time":"14:45:00","departure_time":"14:45:00","lat":49.222688,"lon":16.617771,"is_passed":false},{"stop_id":"U1128Z4","name":"Halasovo náměstí","arrival_time":"14:47:00","departure_time":"14:47:00","lat":49.22314,"lon":16.622438,"is_passed":false},{"stop_id":"U1506Z2","name":"Poliklinika Lesná","arrival_time":"14:48:00","departure_time":"14:48:00","lat":49.222411,"lon":16.625672,"is_passed":false},{"stop_id":"U1331Z2","name":"Lesná, nádraží","arrival_time":"14:49:00","departure_time":"14:49:00","lat":49.220094,"lon":16.62942,"is_passed":false},{"stop_id":"U1646Z4","name":"Štefánikova čtvrť","arrival_time":"14:50:00","departure_time":"14:50:00","lat":49.217288,"lon":16.627693,"is_passed":false},{"stop_id":"U1381Z1","name":"Merhautova","arrival_time":"14:52:00","departure_time":"14:52:00","lat":49.21485,"lon":16.627477,"is_passed":false},{"stop_id":"U1668Z3","name":"Tomkovo náměstí","arrival_time":"14:54:00","departure_time":"14:54:00","lat":49.213205,"lon":16.636652,"is_passed":false},{"stop_id":"U1002Z1","name":"Akátky","arrival_time":"14:57:00","departure_time":"14:57:00","lat":49.208518,"lon":16.648742,"is_passed":false},{"stop_id":"U1743Z1","name":"Vlčnovská","arrival_time":"14:59:00","departure_time":"14:59:00","lat":49.210995,"lon":16.660327,"is_passed":false},{"stop_id":"U1523Z1","name":"Prušánecká","arrival_time":"15:00:00","departure_time":"15:00:00","lat":49.20827,"lon":16.663465,"is_passed":false},{"stop_id":"U1383Z1","name":"Mikulovská","arrival_time":"15:01:00","departure_time":"15:01:00","lat":49.2055,"lon":16.665833,"is_passed":false},{"stop_id":"U1551Z2","name":"Růženin dvůr","arrival_time":"15:02:00","departure_time":"15:02:00","lat":49.203263,"lon":16.666525,"is_passed":false},{"stop_id":"U1026Z4","name":"Bílá hora","arrival_time":"15:05:00","departure_time":"15:05:00","lat":49.193975,"lon":16.667677,"is_passed":false},{"stop_id":"U1501Z4","name":"Podstránská","arrival_time":"15:07:00","departure_time":"15:07:00","lat":49.186139,"lon":16.667061,"is_passed":false},{"stop_id":"U1068Z1","name":"Černovičky","arrival_time":"15:09:00","departure_time":"15:09:00","lat":49.182244,"lon":16.66894,"is_passed":false},{"stop_id":"U1741Z1","name":"Vlárská","arrival_time":"15:10:00","departure_time":"15:10:00","lat":49.180745,"lon":16.671647,"is_passed":false},{"stop_id":"U1105Z1","name":"Ericha Roučky","arrival_time":"15:12:00","departure_time":"15:12:00","lat":49.174784,"lon":16.66987,"is_passed":false},{"stop_id":"U1064Z1","name":"Černovická terasa I","arrival_time":"15:13:00","departure_time":"15:13:00","lat":49.171172,"lon":16.673495,"is_passed":false},{"stop_id":"U1065Z1","name":"Černovická terasa II","arrival_time":"15:14:00","departure_time":"15:14:00","lat":49.167108,"lon":16.67608,"is_passed":false},{"stop_id":"U1581Z3","name":"Areál Slatina","arrival_time":"15:16:00","departure_time":"15:45:00","lat":49.168533,"lon":16.678786,"is_passed":false}],"44819":[{"stop_id":"U1581Z1","name":"Areál Slatina","arrival_time":"15:45:00","departure_time":"15:45:00","lat":49.168614,"lon":16.67804,"is_passed":false},{"stop_id":"U1065Z2","name":"Černovická terasa II","arrival_time":"15:45:00","departure_time":"15:45:00","lat":49.168348,"lon":16.675307,"is_passed":false},{"stop_id":"U1064Z2","name":"Černovická terasa I","arrival_time":"15:46:00","departure_time":"15:46:00","lat":49.171843,"lon":16.673091,"is_passed":false},{"stop_id":"U1105Z2","name":"Ericha Roučky","arrival_time":"15:47:00","departure_time":"15:47:00","lat":49.175109,"lon":16.669439,"is_passed":false},{"stop_id":"U1741Z2","name":"Vlárská","arrival_time":"15:49:00","departure_time":"15:49:00","lat":49.180702,"lon":16.672017,"is_passed":false},{"stop_id":"U1068Z4","name":"Černovičky","arrival_time":"15:51:00","departure_time":"15:51:00","lat":49.183907,"lon":16.668247,"is_passed":false},{"stop_id":"U1501Z3","name":"Podstránská","arrival_time":"15:51:00","departure_time":"15:51:00","lat":49.186855,"lon":16.66649,"is_passed":false},{"stop_id":"U1026Z3","name":"Bílá hora","arrival_time":"15:54:00","departure_time":"15:54:00","lat":49.194009,"lon":16.668034,"is_passed":false},{"stop_id":"U1551Z1","name":"Růženin dvůr","arrival_time":"15:57:00","departure_time":"15:57:00","lat":49.203651,"lon":16.666867,"is_passed":false},{"stop_id":"U1383Z2","name":"Mikulovská","arrival_time":"15:58:00","departure_time":"15:58:00","lat":49.206311,"lon":16.664823,"is_passed":false},{"stop_id":"U1523Z2","name":"Prušánecká","arrival_time":"15:59:00","departure_time":"15:59:00","lat":49.209503,"lon":16.663369,"is_passed":false},{"stop_id":"U1743Z2","name":"Vlčnovská","arrival_time":"16:00:00","departure_time":"16:00:00","lat":49.211166,"lon":16.659638,"is_passed":false},{"stop_id":"U1128Z3","name":"Halasovo náměstí","arrival_time":"16:06:00","departure_time":"16:06:00","lat":49.223406,"lon":16.622237,"is_passed":false},{"stop_id":"U1692Z2","name":"U tunýlku","arrival_time":"16:07:00","departure_time":"16:07:00","lat":49.222902,"lon":16.617348,"is_passed":false},{"stop_id":"U1087Z2","name":"Divišova čtvrť","arrival_time":"16:08:00","departure_time":"16:08:00","lat":49.223685,"lon":16.612398,"is_passed":false},{"stop_id":"U1288Z2","name":"Královopolská strojírna","arrival_time":"16:09:00","departure_time":"16:09:00","lat":49.224075,"lon":16.607207,"is_passed":false},{"stop_id":"U1246Z2","name":"Kociánka","arrival_time":"16:10:00","departure_time":"16:10:00","lat":49.225972,"lon":16.601746,"is_passed":false},{"stop_id":"U1286Z4","name":"Královo Pole, nádraží","arrival_time":"16:13:00","departure_time":"16:13:00","lat":49.230229,"lon":16.595629,"is_passed":false},{"stop_id":"U1566Z6","name":"Semilasso","arrival_time":"16:14:00","departure_time":"16:14:00","lat":49.228248,"lon":16.593466,"is_passed":false},{"stop_id":"U1171Z4","name":"Husitská","arrival_time":"16:16:00","departure_time":"16:16:00","lat":49.224063,"lon":16.593994,"is_passed":false},{"stop_id":"U1586Z3","name":"Slovanské náměstí","arrival_time":"16:17:00","departure_time":"16:17:00","lat":49.223525,"lon":16.591009,"is_passed":false},{"stop_id":"U1567Z5","name":"Skácelova","arrival_time":"16:18:00","departure_time":"16:18:00","lat":49.221353,"lon":16.584711,"is_passed":false},{"stop_id":"U1777Z3","name":"Záhřebská","arrival_time":"16:20:00","departure_time":"16:20:00","lat":49.22001,"lon":16.579572,"is_passed":false},{"stop_id":"U1155Z1","name":"Horská","arrival_time":"16:20:00","departure_time":"16:20:00","lat":49.221621,"lon":16.579517,"is_passed":false},{"stop_id":"U1660Z3","name":"Technická","arrival_time":"16:22:00","departure_time":"16:22:00","lat":49.223701,"lon":16.578091,"is_passed":false},{"stop_id":"U1499Z1","name":"Podnikatelská","arrival_time":"16:23:00","departure_time":"16:23:00","lat":49.227371,"lon":16.576366,"is_passed":false},{"stop_id":"U1252Z2","name":"Kolejní","arrival_time":"16:25:00","departure_time":"16:25:00","lat":49.230641,"lon":16.57191,"is_passed":false},{"stop_id":"U1733Z1","name":"Vědeckotechnický park","arrival_time":"16:26:00","departure_time":"16:26:00","lat":49.2326,"lon":16.574806,"is_passed":false},{"stop_id":"U1659Z4","name":"Technologický park","arrival_time":"16:27:00","departure_time":"16:28:00","lat":49.231509,"lon":16.576781,"is_passed":false}],"44820":[{"stop_id":"U1659Z4","name":"Technologický park","arrival_time":"16:28:00","departure_time":"16:28:00","lat":49.231509,"lon":16.576781,"is_passed":false},{"stop_id":"U1104Z1","name":"Edisonova","arrival_time":"16:28:00","departure_time":"16:28:00","lat":49.22828,"lon":16.576461,"is_passed":false},{"stop_id":"U1499Z2","name":"Podnikatelská","arrival_time":"16:29:00","departure_time":"16:29:00","lat":49.227023,"lon":16.576248,"is_passed":false},{"stop_id":"U1660Z2","name":"Technická","arrival_time":"16:30:00","departure_time":"16:30:00","lat":49.22302,"lon":16.578608,"is_passed":false},{"stop_id":"U1155Z2","name":"Horská","arrival_time":"16:31:00","departure_time":"16:31:00","lat":49.221604,"lon":16.579463,"is_passed":false},{"stop_id":"U1777Z2","name":"Záhřebská","arrival_time":"16:33:00","departure_time":"16:33:00","lat":49.219845,"lon":16.580415,"is_passed":false},{"stop_id":"U1567Z6","name":"Skácelova","arrival_time":"16:35:00","departure_time":"16:35:00","lat":49.22163,"lon":16.585935,"is_passed":false},{"stop_id":"U1586Z4","name":"Slovanské náměstí","arrival_time":"16:36:00","departure_time":"16:36:00","lat":49.222774,"lon":16.591332,"is_passed":false},{"stop_id":"U1171Z3","name":"Husitská","arrival_time":"16:37:00","departure_time":"16:37:00","lat":49.223851,"lon":16.594116,"is_passed":false},{"stop_id":"U1566Z4","name":"Semilasso","arrival_time":"16:39:00","departure_time":"16:39:00","lat":49.228055,"lon":16.593438,"is_passed":false},{"stop_id":"U1286Z3","name":"Královo Pole, nádraží","arrival_time":"16:40:00","departure_time":"16:40:00","lat":49.229218,"lon":16.596271,"is_passed":false},{"stop_id":"U1388Z2","name":"Mojmírovo náměstí","arrival_time":"16:41:00","departure_time":"16:41:00","lat":49.226499,"lon":16.598423,"is_passed":false},{"stop_id":"U1246Z1","name":"Kociánka","arrival_time":"16:42:00","departure_time":"16:42:00","lat":49.225575,"lon":16.601869,"is_passed":false},{"stop_id":"U1288Z1","name":"Královopolská strojírna","arrival_time":"16:43:00","departure_time":"16:43:00","lat":49.223948,"lon":16.60736,"is_passed":false},{"stop_id":"U1087Z1","name":"Divišova čtvrť","arrival_time":"16:44:00","departure_time":"16:44:00","lat":49.223493,"lon":16.613643,"is_passed":false},{"stop_id":"U1692Z1","name":"U tunýlku","arrival_time":"16:45:00","departure_time":"16:45:00","lat":49.222688,"lon":16.617771,"is_passed":false},{"stop_id":"U1128Z4","name":"Halasovo náměstí","arrival_time":"16:47:00","departure_time":"16:47:00","lat":49.22314,"lon":16.622438,"is_passed":false},{"stop_id":"U1506Z2","name":"Poliklinika Lesná","arrival_time":"16:48:00","departure_time":"16:48:00","lat":49.222411,"lon":16.625672,"is_passed":false},{"stop_id":"U1331Z2","name":"Lesná, nádraží","arrival_time":"16:49:00","departure_time":"16:49:00","lat":49.220094,"lon":16.62942,"is_passed":false},{"stop_id":"U1646Z4","name":"Štefánikova čtvrť","arrival_time":"16:50:00","departure_time":"16:50:00","lat":49.217288,"lon":16.627693,"is_passed":false},{"stop_id":"U1381Z1","name":"Merhautova","arrival_time":"16:52:00","departure_time":"16:52:00","lat":49.21485,"lon":16.627477,"is_passed":false},{"stop_id":"U1668Z3","name":"Tomkovo náměstí","arrival_time":"16:54:00","departure_time":"16:54:00","lat":49.213205,"lon":16.636652,"is_passed":false},{"stop_id":"U1002Z1","name":"Akátky","arrival_time":"16:57:00","departure_time":"16:57:00","lat":49.208518,"lon":16.648742,"is_passed":false},{"stop_id":"U1743Z1","name":"Vlčnovská","arrival_time":"16:59:00","departure_time":"16:59:00","lat":49.210995,"lon":16.660327,"is_passed":false},{"stop_id":"U1523Z1","name":"Prušánecká","arrival_time":"17:00:00","departure_time":"17:00:00","lat":49.20827,"lon":16.663465,"is_passed":false},{"stop_id":"U1383Z1","name":"Mikulovská","arrival_time":"17:01:00","departure_time":"17:01:00","lat":49.2055,"lon":16.665833,"is_passed":false},{"stop_id":"U1551Z2","name":"Růženin dvůr","arrival_time":"17:02:00","departure_time":"17:02:00","lat":49.203263,"lon":16.666525,"is_passed":false},{"stop_id":"U1026Z4","name":"Bílá hora","arrival_time":"17:05:00","departure_time":"17:05:00","lat":49.193975,"lon":16.667677,"is_passed":false},{"stop_id":"U1501Z4","name":"Podstránská","arrival_time":"17:07:00","departure_time":"17:07:00","lat":49.186139,"lon":16.667061,"is_passed":false},{"stop_id":"U1068Z1","name":"Černovičky","arrival_time":"17:09:00","departure_time":"17:09:00","lat":49.182244,"lon":16.66894,"is_passed":false},{"stop_id":"U1741Z1","name":"Vlárská","arrival_time":"17:10:00","departure_time":"17:10:00","lat":49.180745,"lon":16.671647,"is_passed":false},{"stop_id":"U1105Z1","name":"Ericha Roučky","arrival_time":"17:12:00","departure_time":"17:12:00","lat":49.174784,"lon":16.66987,"is_passed":false},{"stop_id":"U1064Z1","name":"Černovická terasa I","arrival_time":"17:13:00","departure_time":"17:13:00","lat":49.171172,"lon":16.673495,"is_passed":false},{"stop_id":"U1065Z1","name":"Černovická terasa II","arrival_time":"17:14:00","departure_time":"17:14:00","lat":49.167108,"lon":16.67608,"is_passed":false},{"stop_id":"U1581Z3","name":"Areál Slatina","arrival_time":"17:16:00","departure_time":"17:42:00","lat":49.168533,"lon":16.678786,"is_passed":false}],"44821":[{"stop_id":"U1581Z1","name":"Areál Slatina","arrival_time":"17:42:00","departure_time":"17:42:00","lat":49.168614,"lon":16.67804,"is_passed":false},{"stop_id":"U1065Z2","name":"Černovická terasa II","arrival_time":"17:42:00","departure_time":"17:42:00","lat":49.168348,"lon":16.675307,"is_passed":false},{"stop_id":"U1064Z2","name":"Černovická terasa I","arrival_time":"17:43:00","departure_time":"17:43:00","lat":49.171843,"lon":16.673091,"is_passed":false},{"stop_id":"U1105Z2","name":"Ericha Roučky","arrival_time":"17:44:00","departure_time":"17:44:00","lat":49.175109,"lon":16.669439,"is_passed":false},{"stop_id":"U1741Z2","name":"Vlárská","arrival_time":"17:46:00","departure_time":"17:46:00","lat":49.180702,"lon":16.672017,"is_passed":false},{"stop_id":"U1068Z4","name":"Černovičky","arrival_time":"17:48:00","departure_time":"17:48:00","lat":49.183907,"lon":16.668247,"is_passed":false},{"stop_id":"U1501Z3","name":"Podstránská","arrival_time":"17:48:00","departure_time":"17:48:00","lat":49.186855,"lon":16.66649,"is_passed":false},{"stop_id":"U1026Z3","name":"Bílá hora","arrival_time":"17:51:00","departure_time":"17:51:00","lat":49.194009,"lon":16.668034,"is_passed":false},{"stop_id":"U1551Z1","name":"Růženin dvůr","arrival_time":"17:54:00","departure_time":"17:54:00","lat":49.203651,"lon":16.666867,"is_passed":false},{"stop_id":"U1383Z2","name":"Mikulovská","arrival_time":"17:55:00","departure_time":"17:55:00","lat":49.206311,"lon":16.664823,"is_passed":false},{"stop_id":"U1523Z2","name":"Prušánecká","arrival_time":"17:56:00","departure_time":"17:56:00","lat":49.209503,"lon":16.663369,"is_passed":false},{"stop_id":"U1743Z2","name":"Vlčnovská","arrival_time":"17:57:00","departure_time":"17:57:00","lat":49.211166,"lon":16.659638,"is_passed":false},{"stop_id":"U1128Z3","name":"Halasovo náměstí","arrival_time":"18:03:00","departure_time":"18:03:00","lat":49.223406,"lon":16.622237,"is_passed":false},{"stop_id":"U1692Z2","name":"U tunýlku","arrival_time":"18:04:00","departure_time":"18:04:00","lat":49.222902,"lon":16.617348,"is_passed":false},{"stop_id":"U1087Z2","name":"Divišova čtvrť","arrival_time":"18:05:00","departure_time":"18:05:00","lat":49.223685,"lon":16.612398,"is_passed":false},{"stop_id":"U1288Z2","name":"Královopolská strojírna","arrival_time":"18:06:00","departure_time":"18:06:00","lat":49.224075,"lon":16.607207,"is_passed":false},{"stop_id":"U1246Z2","name":"Kociánka","arrival_time":"18:07:00","departure_time":"18:07:00","lat":49.225972,"lon":16.601746,"is_passed":false},{"stop_id":"U1286Z4","name":"Královo Pole, nádraží","arrival_time":"18:10:00","departure_time":"18:10:00","lat":49.230229,"lon":16.595629,"is_passed":false},{"stop_id":"U1566Z6","name":"Semilasso","arrival_time":"18:11:00","departure_time":"18:11:00","lat":49.228248,"lon":16.593466,"is_passed":false},{"stop_id":"U1171Z4","name":"Husitská","arrival_time":"18:13:00","departure_time":"18:13:00","lat":49.224063,"lon":16.593994,"is_passed":false},{"stop_id":"U1586Z3","name":"Slovanské náměstí","arrival_time":"18:14:00","departure_time":"18:14:00","lat":49.223525,"lon":16.591009,"is_passed":false},{"stop_id":"U1567Z5","name":"Skácelova","arrival_time":"18:15:00","departure_time":"18:15:00","lat":49.221353,"lon":16.584711,"is_passed":false},{"stop_id":"U1777Z3","name":"Záhřebská","arrival_time":"18:17:00","departure_time":"18:17:00","lat":49.22001,"lon":16.579572,"is_passed":false},{"stop_id":"U1155Z1","name":"Horská","arrival_time":"18:17:00","departure_time":"18:17:00","lat":49.221621,"lon":16.579517,"is_passed":false},{"stop_id":"U1660Z3","name":"Technická","arrival_time":"18:19:00","departure_time":"18:19:00","lat":49.223701,"lon":16.578091,"is_passed":false},{"stop_id":"U1499Z1","name":"Podnikatelská","arrival_time":"18:20:00","departure_time":"18:20:00","lat":49.227371,"lon":16.576366,"is_passed":false},{"stop_id":"U1252Z2","name":"Kolejní","arrival_time":"18:22:00","departure_time":"18:22:00","lat":49.230641,"lon":16.57191,"is_passed":false},{"stop_id":"U1733Z1","name":"Vědeckotechnický park","arrival_time":"18:23:00","departure_time":"18:23:00","lat":49.2326,"lon":16.574806,"is_passed":false},{"stop_id":"U1659Z4","name":"Technologický park","arrival_time":"18:24:00","departure_time":"18:25:00","lat":49.231509,"lon":16.576781,"is_passed":false}],"44822":[{"stop_id":"U1659Z4","name":"Technologický park","arrival_time":"18:25:00","departure_time":"18:25:00","lat":49.231509,"lon":16.576781,"is_passed":false},{"stop_id":"U1104Z1","name":"Edisonova","arrival_time":"18:25:00","departure_time":"18:25:00","lat":49.22828,"lon":16.576461,"is_passed":false},{"stop_id":"U1499Z2","name":"Podnikatelská","arrival_time":"18:26:00","departure_time":"18:26:00","lat":49.227023,"lon":16.576248,"is_passed":false},{"stop_id":"U1660Z2","name":"Technická","arrival_time":"18:27:00","departure_time":"18:27:00","lat":49.22302,"lon":16.578608,"is_passed":false},{"stop_id":"U1155Z2","name":"Horská","arrival_time":"18:28:00","departure_time":"18:28:00","lat":49.221604,"lon":16.579463,"is_passed":false},{"stop_id":"U1777Z2","name":"Záhřebská","arrival_time":"18:30:00","departure_time":"18:30:00","lat":49.219845,"lon":16.580415,"is_passed":false},{"stop_id":"U1567Z6","name":"Skácelova","arrival_time":"18:32:00","departure_time":"18:32:00","lat":49.22163,"lon":16.585935,"is_passed":false},{"stop_id":"U1586Z4","name":"Slovanské náměstí","arrival_time":"18:33:00","departure_time":"18:33:00","lat":49.222774,"lon":16.591332,"is_passed":false},{"stop_id":"U1171Z3","name":"Husitská","arrival_time":"18:34:00","departure_time":"18:34:00","lat":49.223851,"lon":16.594116,"is_passed":false},{"stop_id":"U1566Z4","name":"Semilasso","arrival_time":"18:36:00","departure_time":"18:36:00","lat":49.228055,"lon":16.593438,"is_passed":false},{"stop_id":"U1286Z8","name":"Královo Pole, nádraží","arrival_time":"18:38:00","departure_time":"18:40:00","lat":49.230335,"lon":16.595523,"is_passed":false}],"44823":[{"stop_id":"U1611Z8","name":"Stará osada","arrival_time":"19:02:00","departure_time":"19:02:00","lat":49.202294,"lon":16.642001,"is_passed":false},{"stop_id":"U1113Z1","name":"Gajdošova","arrival_time":"19:03:00","departure_time":"19:03:00","lat":49.19868,"lon":16.645552,"is_passed":false},{"stop_id":"U1473Z3","name":"Otakara Ševčíka","arrival_time":"19:04:00","departure_time":"19:04:00","lat":49.194578,"lon":16.646459,"is_passed":false},{"stop_id":"U1641Z2","name":"Škroupova","arrival_time":"19:05:00","departure_time":"19:05:00","lat":49.191985,"lon":16.647843,"is_passed":false},{"stop_id":"U1677Z2","name":"Tržní","arrival_time":"19:08:00","departure_time":"19:08:00","lat":49.189407,"lon":16.629972,"is_passed":false},{"stop_id":"U1144Z2","name":"Hladíkova","arrival_time":"19:08:00","departure_time":"19:08:00","lat":49.187865,"lon":16.625741,"is_passed":false},{"stop_id":"U1011Z3","name":"Autobusové nádraží","arrival_time":"19:10:00","departure_time":"19:10:00","lat":49.186909,"lon":16.617974,"is_passed":false},{"stop_id":"U1463Z1","name":"Opuštěná","arrival_time":"19:11:00","departure_time":"19:11:00","lat":49.185877,"lon":16.61397,"is_passed":false},{"stop_id":"U1149Z2","name":"Holandská","arrival_time":"19:14:00","departure_time":"19:14:00","lat":49.179934,"lon":16.604368,"is_passed":false},{"stop_id":"U1024Z2","name":"Bidláky","arrival_time":"19:15:00","departure_time":"19:15:00","lat":49.177915,"lon":16.606108,"is_passed":false},{"stop_id":"U1622Z1","name":"Strážní","arrival_time":"19:16:00","departure_time":"19:16:00","lat":49.178207,"lon":16.603976,"is_passed":false},{"stop_id":"U1301Z6","name":"Křídlovická","arrival_time":"19:18:00","departure_time":"19:18:00","lat":49.185396,"lon":16.600706,"is_passed":false},{"stop_id":"U1512Z2","name":"Poříčí","arrival_time":"19:20:00","departure_time":"19:20:00","lat":49.187409,"lon":16.594512,"is_passed":false},{"stop_id":"U1378Z9","name":"Mendlovo náměstí","arrival_time":"19:24:00","departure_time":"19:24:00","lat":49.190456,"lon":16.593122,"is_passed":false},{"stop_id":"U1307Z2","name":"Křížkovského","arrival_time":"19:25:00","departure_time":"19:25:00","lat":49.18713,"lon":16.58669,"is_passed":false},{"stop_id":"U1728Z2","name":"Velodrom","arrival_time":"19:26:00","departure_time":"19:26:00","lat":49.184406,"lon":16.576944,"is_passed":false},{"stop_id":"U1541Z2","name":"Riviéra","arrival_time":"19:27:00","departure_time":"19:27:00","lat":49.187764,"lon":16.572566,"is_passed":false},{"stop_id":"U1487Z7","name":"Pisárky","arrival_time":"19:29:00","departure_time":"19:29:00","lat":49.193452,"lon":16.569802,"is_passed":false},{"stop_id":"U1007Z1","name":"Anthropos","arrival_time":"19:30:00","departure_time":"19:30:00","lat":49.193461,"lon":16.565902,"is_passed":false},{"stop_id":"U1490Z1","name":"Pod Jurankou","arrival_time":"19:31:00","departure_time":"19:31:00","lat":49.199371,"lon":16.566405,"is_passed":false},{"stop_id":"U1732Z1","name":"Veslařská","arrival_time":"19:32:00","departure_time":"19:32:00","lat":49.202697,"lon":16.565265,"is_passed":false},{"stop_id":"U1216Z1","name":"Jundrov, hřiště","arrival_time":"19:33:00","departure_time":"19:33:00","lat":49.204651,"lon":16.560232,"is_passed":false},{"stop_id":"U1214Z1","name":"Jundrovský most","arrival_time":"19:35:00","departure_time":"19:35:00","lat":49.209437,"lon":16.556755,"is_passed":false},{"stop_id":"U1217Z4","name":"Vozovna Komín","arrival_time":"19:36:00","departure_time":"19:36:00","lat":49.213659,"lon":16.559498,"is_passed":false},{"stop_id":"U1143Z2","name":"Hlavní","arrival_time":"19:37:00","departure_time":"19:37:00","lat":49.21715,"lon":16.560506,"is_passed":false},{"stop_id":"U1651Z2","name":"Štursova","arrival_time":"19:38:00","departure_time":"19:38:00","lat":49.215854,"lon":16.564522,"is_passed":false},{"stop_id":"U1544Z4","name":"Rosického náměstí","arrival_time":"19:39:00","departure_time":"19:39:00","lat":49.214881,"lon":16.568314,"is_passed":false},{"stop_id":"U1528Z4","name":"Přívrat","arrival_time":"19:41:00","departure_time":"19:41:00","lat":49.218647,"lon":16.574085,"is_passed":false},{"stop_id":"U1777Z2","name":"Záhřebská","arrival_time":"19:42:00","departure_time":"19:42:00","lat":49.219845,"lon":16.580415,"is_passed":false},{"stop_id":"U1567Z6","name":"Skácelova","arrival_time":"19:44:00","departure_time":"19:44:00","lat":49.22163,"lon":16.585935,"is_passed":false},{"stop_id":"U1586Z4","name":"Slovanské náměstí","arrival_time":"19:45:00","departure_time":"19:45:00","lat":49.222774,"lon":16.591332,"is_passed":false},{"stop_id":"U1171Z3","name":"Husitská","arrival_time":"19:46:00","departure_time":"19:46:00","lat":49.223851,"lon":16.594116,"is_passed":false},{"stop_id":"U1566Z4","name":"Semilasso","arrival_time":"19:48:00","departure_time":"19:48:00","lat":49.228055,"lon":16.593438,"is_passed":false},{"stop_id":"U1286Z3","name":"Královo Pole, nádraží","arrival_time":"19:49:00","departure_time":"19:49:00","lat":49.229218,"lon":16.596271,"is_passed":false},{"stop_id":"U1388Z2","name":"Mojmírovo náměstí","arrival_time":"19:50:00","departure_time":"19:50:00","lat":49.226499,"lon":16.598423,"is_passed":false},{"stop_id":"U1246Z1","name":"Kociánka","arrival_time":"19:51:00","departure_time":"19:51:00","lat":49.225575,"lon":16.601869,"is_passed":false},{"stop_id":"U1288Z1","name":"Královopolská strojírna","arrival_time":"19:52:00","departure_time":"19:52:00","lat":49.223948,"lon":16.60736,"is_passed":false},{"stop_id":"U1087Z1","name":"Divišova čtvrť","arrival_time":"19:53:00","departure_time":"19:53:00","lat":49.223493,"lon":16.613643,"is_passed":false},{"stop_id":"U1692Z1","name":"U tunýlku","arrival_time":"19:53:00","departure_time":"19:53:00","lat":49.222688,"lon":16.617771,"is_passed":false},{"stop_id":"U1128Z4","name":"Halasovo náměstí","arrival_time":"19:55:00","departure_time":"19:55:00","lat":49.22314,"lon":16.622438,"is_passed":false},{"stop_id":"U1506Z2","name":"Poliklinika Lesná","arrival_time":"19:56:00","departure_time":"19:56:00","lat":49.222411,"lon":16.625672,"is_passed":false},{"stop_id":"U1331Z2","name":"Lesná, nádraží","arrival_time":"19:57:00","departure_time":"19:57:00","lat":49.220094,"lon":16.62942,"is_passed":false},{"stop_id":"U1646Z4","name":"Štefánikova čtvrť","arrival_time":"19:58:00","departure_time":"19:58:00","lat":49.217288,"lon":16.627693,"is_passed":false},{"stop_id":"U1381Z1","name":"Merhautova","arrival_time":"19:59:00","departure_time":"19:59:00","lat":49.21485,"lon":16.627477,"is_passed":false},{"stop_id":"U1668Z3","name":"Tomkovo náměstí","arrival_time":"20:01:00","departure_time":"20:01:00","lat":49.213205,"lon":16.636652,"is_passed":false},