[{"stop_id":"U1343Z2","name":"ARENA BRNO","arrival_time":"22:31:00","departure_time":"22:31:00","lat":49.191387,"lon":16.576425,"is_passed":false},{"stop_id":"U1769Z2","name":"Výstaviště - vstup G2","arrival_time":"22:32:00","departure_time":"22:32:00","lat":49.190207,"lon":16.580555,"is_passed":false},{"stop_id":"U1768Z2","name":"Výstaviště - hlavní vstup","arrival_time":"22:33:00","departure_time":"22:33:00","lat":49.189325,"lon":16.585699,"is_passed":false},{"stop_id":"U1378Z2","name":"Mendlovo náměstí","arrival_time":"22:35:00","departure_time":"22:35:00","lat":49.190034,"lon":16.593837,"is_passed":false},{"stop_id":"U1721Z2","name":"Václavská","arrival_time":"22:37:00","departure_time":"22:37:00","lat":49.188715,"lon":16.596878,"is_passed":false},{"stop_id":"U1176Z2","name":"Hybešova","arrival_time":"22:38:00","departure_time":"22:38:00","lat":49.189209,"lon":16.603364,"is_passed":false},{"stop_id":"U1436Z2","name":"Nové sady","arrival_time":"22:41:00","departure_time":"22:41:00","lat":49.190222,"lon":16.609403,"is_passed":false},{"stop_id":"U1146Z2","name":"Hlavní nádraží","arrival_time":"22:43:00","departure_time":"22:45:00","lat":49.191394,"lon":16.612548,"is_passed":false},{"stop_id":"U1357Z3","name":"Malinovského náměstí","arrival_time":"22:47:00","departure_time":"22:47:00","lat":49.196131,"lon":16.612953,"is_passed":false},{"stop_id":"U1397Z1","name":"Moravské náměstí","arrival_time":"22:49:00","departure_time":"22:49:00","lat":49.19996,"lon":16.607931,"is_passed":false},{"stop_id":"U1006Z1","name":"Antonínská","arrival_time":"22:50:00","departure_time":"22:50:00","lat":49.203685,"lon":16.606678,"is_passed":false},{"stop_id":"U1483Z1","name":"Pionýrská","arrival_time":"22:51:00","departure_time":"22:51:00","lat":49.207491,"lon":16.604472,"is_passed":false},{"stop_id":"U1166Z1","name":"Hrnčířská","arrival_time":"22:52:00","departure_time":"22:52:00","lat":49.210254,"lon":16.602868,"is_passed":false},{"stop_id":"U1652Z1","name":"Šumavská","arrival_time":"22:53:00","departure_time":"22:53:00","lat":49.213991,"lon":16.600669,"is_passed":false},{"stop_id":"U1233Z1","name":"Kartouzská","arrival_time":"22:54:00","departure_time":"22:54:00","lat":49.216998,"lon":16.598896,"is_passed":false},{"stop_id":"U1218Z1","name":"Jungmannova","arrival_time":"22:55:00","departure_time":"22:55:00","lat":49.220856,"lon":16.596583,"is_passed":false},{"stop_id":"U1171Z1","name":"Husitská","arrival_time":"22:56:00","departure_time":"22:56:00","lat":49.223125,"lon":16.59524,"is_passed":false},{"stop_id":"U1566Z1","name":"Semilasso","arrival_time":"22:58:00","departure_time":"22:58:00","lat":49.227417,"lon":16.592683,"is_passed":false},{"stop_id":"U1683Z1","name":"Tylova","arrival_time":"22:59:00","departure_time":"22:59:00","lat":49.23243,"lon":16.589321,"is_passed":false},{"stop_id":"U1756Z1","name":"Vozovna Medlánky","arrival_time":"23:01:00","departure_time":"23:02:00","lat":49.235402,"lon":16.586291,"is_passed":false}]