[{"stop_id":"U1756Z2","name":"Vozovna Medlánky","arrival_time":"4:50:00","departure_time":"4:50:00","lat":49.235314,"lon":16.586529,"is_passed":false},{"stop_id":"U1683Z2","name":"Tylova","arrival_time":"4:51:00","departure_time":"4:51:00","lat":49.232055,"lon":16.589539,"is_passed":false},{"stop_id":"U1566Z2","name":"Semilasso","arrival_time":"4:52:00","departure_time":"4:52:00","lat":49.228227,"lon":16.592081,"is_passed":false},{"stop_id":"U1171Z2","name":"Husitská","arrival_time":"4:54:00","departure_time":"4:54:00","lat":49.223415,"lon":16.595016,"is_passed":false},{"stop_id":"U1218Z2","name":"Jungmannova","arrival_time":"4:55:00","departure_time":"4:55:00","lat":49.221083,"lon":16.596416,"is_passed":false},{"stop_id":"U1233Z2","name":"Kartouzská","arrival_time":"4:56:00","departure_time":"4:56:00","lat":49.21665,"lon":16.599078,"is_passed":false},{"stop_id":"U1652Z2","name":"Šumavská","arrival_time":"4:57:00","departure_time":"4:57:00","lat":49.214022,"lon":16.60062,"is_passed":false},{"stop_id":"U1166Z2","name":"Hrnčířská","arrival_time":"4:58:00","departure_time":"4:58:00","lat":49.21062,"lon":16.602628,"is_passed":false},{"stop_id":"U1483Z2","name":"Pionýrská","arrival_time":"4:59:00","departure_time":"4:59:00","lat":49.207904,"lon":16.604201,"is_passed":false},{"stop_id":"U1006Z2","name":"Antonínská","arrival_time":"5:00:00","departure_time":"5:00:00","lat":49.203166,"lon":16.606915,"is_passed":false},{"stop_id":"U1397Z2","name":"Moravské náměstí","arrival_time":"5:02:00","departure_time":"5:02:00","lat":49.199237,"lon":16.608067,"is_passed":false},{"stop_id":"U1357Z4","name":"Malinovského náměstí","arrival_time":"5:04:00","departure_time":"5:04:00","lat":49.195612,"lon":16.613248,"is_passed":false}]