{"453":[{"stop_id":"U12736Z51","name":"Letovice, železniční stanice","arrival_time":"9:57:00","departure_time":"9:57:00","lat":49.555973,"lon":16.570906,"is_passed":false},{"stop_id":"U22702Z2","name":"Letovice zastávka","arrival_time":"9:59:00","departure_time":"10:00:00","lat":49.536152,"lon":16.576186,"is_passed":false},{"stop_id":"U22701Z2","name":"Zboněk","arrival_time":"10:02:00","departure_time":"10:02:00","lat":49.520482,"lon":16.584439,"is_passed":false},{"stop_id":"U22602Z2","name":"Svitávka","arrival_time":"10:05:00","departure_time":"10:05:00","lat":49.499434,"lon":16.599208,"is_passed":false},{"stop_id":"U12676Z51","name":"Skalice nad Svitavou, žel.st.","arrival_time":"10:08:00","departure_time":"10:13:00","lat":49.480123,"lon":16.609726,"is_passed":false},{"stop_id":"U12511Z51","name":"Doubravice, žel.st.","arrival_time":"10:18:00","departure_time":"10:18:00","lat":49.438707,"lon":16.621809,"is_passed":false},{"stop_id":"U12439Z51","name":"Rájec-Jestřebí, železniční stanice","arrival_time":"10:21:00","departure_time":"10:22:00","lat":49.408206,"lon":16.627711,"is_passed":false},{"stop_id":"U22301Z2","name":"Dolní Lhota","arrival_time":"10:24:00","departure_time":"10:25:00","lat":49.386917,"lon":16.633978,"is_passed":false},{"stop_id":"U22302Z2","name":"Blansko město","arrival_time":"10:27:00","departure_time":"10:28:00","lat":49.360996,"lon":16.639464,"is_passed":false},{"stop_id":"U12342Z29","name":"Blansko, aut. st.","arrival_time":"10:30:00","departure_time":"10:31:00","lat":49.352753,"lon":16.646848,"is_passed":false},{"stop_id":"U12231Z11","name":"Adamov, železniční zastávka","arrival_time":"10:36:00","departure_time":"10:37:00","lat":49.300671,"lon":16.650653,"is_passed":false},{"stop_id":"U12230Z11","name":"Adamov, železniční stanice","arrival_time":"10:38:00","departure_time":"10:39:00","lat":49.295341,"lon":16.663538,"is_passed":false},{"stop_id":"U22101Z2","name":"Babice nad Svitavou","arrival_time":"10:42:00","departure_time":"10:42:00","lat":49.276645,"lon":16.673012,"is_passed":false},{"stop_id":"U12158Z11","name":"Bílovice nad Svitavou, žel. stanice","arrival_time":"10:46:00","departure_time":"10:47:00","lat":49.242715,"lon":16.673677,"is_passed":false},{"stop_id":"U1809Z11","name":"Židenice, nádraží","arrival_time":"10:52:00","departure_time":"10:52:00","lat":49.204282,"lon":16.636042,"is_passed":false},{"stop_id":"U1146Z98","name":"Hlavní nádraží","arrival_time":"10:59:00","departure_time":"11:06:00","lat":49.19035,"lon":16.612342,"is_passed":false},{"stop_id":"U1183Z11","name":"Chrlice, nádraží","arrival_time":"11:14:00","departure_time":"11:17:00","lat":49.132031,"lon":16.657232,"is_passed":false},{"stop_id":"U16149Z11","name":"Sokolnice, železniční stanice","arrival_time":"11:23:00","departure_time":"11:24:00","lat":49.108029,"lon":16.733459,"is_passed":false},{"stop_id":"U26101Z2","name":"Újezd u Brna","arrival_time":"11:25:00","departure_time":"11:26:00","lat":49.107297,"lon":16.745564,"is_passed":false},{"stop_id":"U26102Z2","name":"Hostěrádky-Rešov","arrival_time":"11:29:00","departure_time":"11:29:00","lat":49.119822,"lon":16.782755,"is_passed":false},{"stop_id":"U26201Z2","name":"Zbýšov","arrival_time":"11:32:00","departure_time":"11:32:00","lat":49.132691,"lon":16.806859,"is_passed":false},{"stop_id":"U16212Z11","name":"Křenovice, hor. žel. st.","arrival_time":"11:35:00","departure_time":"11:58:00","lat":49.143553,"lon":16.824564,"is_passed":false}],"4530":[{"stop_id":"U14323Z2","name":"Lukovany, točna","arrival_time":"8:10:00","departure_time":"8:10:00","lat":49.163362,"lon":16.295969,"is_passed":false},{"stop_id":"U14322Z2","name":"Lukovany, na dolině","arrival_time":"8:11:00","departure_time":"8:11:00","lat":49.162876,"lon":16.299755,"is_passed":false},{"stop_id":"U14324Z2","name":"Lukovany, u kapličky","arrival_time":"8:12:00","departure_time":"8:12:00","lat":49.163265,"lon":16.302909,"is_passed":false},{"stop_id":"U14332Z2","name":"Zakřany, ZD","arrival_time":"8:14:00","departure_time":"8:14:00","lat":49.169187,"lon":16.319818,"is_passed":false},{"stop_id":"U14331Z2","name":"Zakřany, obecní úřad","arrival_time":"8:16:00","departure_time":"8:16:00","lat":49.170265,"lon":16.325898,"is_passed":false},{"stop_id":"U14330Z2","name":"Zakřany, Jednota","arrival_time":"8:18:00","departure_time":"8:18:00","lat":49.168722,"lon":16.331437,"is_passed":false},{"stop_id":"U14334Z2","name":"Zbýšov, internát","arrival_time":"8:22:00","departure_time":"8:22:00","lat":49.161832,"lon":16.34416,"is_passed":false},{"stop_id":"U14338Z2","name":"Zbýšov, Sička","arrival_time":"8:24:00","departure_time":"8:24:00","lat":49.16693,"lon":16.353128,"is_passed":false},{"stop_id":"U14224Z2","name":"Babice u Rosic","arrival_time":"8:26:00","departure_time":"8:26:00","lat":49.171089,"lon":16.359275,"is_passed":false},{"stop_id":"U14242Z10","name":"Zastávka, železniční stanice","arrival_time":"8:32:00","departure_time":"10:19:00","lat":49.187164,"lon":16.360086,"is_passed":false}],"4531":[{"stop_id":"U14242Z4","name":"Zastávka, železniční stanice","arrival_time":"10:19:00","departure_time":"10:19:00","lat":49.187553,"lon":16.359243,"is_passed":false},{"stop_id":"U14224Z1","name":"Babice u Rosic","arrival_time":"10:22:00","departure_time":"10:22:00","lat":49.171094,"lon":16.359022,"is_passed":false},{"stop_id":"U14338Z1","name":"Zbýšov, Sička","arrival_time":"10:24:00","departure_time":"10:24:00","lat":49.166783,"lon":16.353281,"is_passed":false},{"stop_id":"U14334Z1","name":"Zbýšov, internát","arrival_time":"10:26:00","departure_time":"10:26:00","lat":49.161984,"lon":16.344287,"is_passed":false},{"stop_id":"U14330Z1","name":"Zakřany, Jednota","arrival_time":"10:30:00","departure_time":"10:30:00","lat":49.168713,"lon":16.331422,"is_passed":false},{"stop_id":"U14331Z1","name":"Zakřany, obecní úřad","arrival_time":"10:31:00","departure_time":"10:31:00","lat":49.170393,"lon":16.325588,"is_passed":false},{"stop_id":"U14332Z1","name":"Zakřany, ZD","arrival_time":"10:32:00","departure_time":"10:32:00","lat":49.169187,"lon":16.319818,"is_passed":false},{"stop_id":"U14324Z1","name":"Lukovany, u kapličky","arrival_time":"10:34:00","departure_time":"10:34:00","lat":49.163321,"lon":16.3027,"is_passed":false},{"stop_id":"U14322Z1","name":"Lukovany, na dolině","arrival_time":"10:35:00","departure_time":"10:35:00","lat":49.162995,"lon":16.299642,"is_passed":false},{"stop_id":"U14323Z1","name":"Lukovany, točna","arrival_time":"10:36:00","departure_time":"11:10:00","lat":49.163362,"lon":16.295969,"is_passed":false}],"4532":[{"stop_id":"U14323Z2","name":"Lukovany, točna","arrival_time":"11:10:00","departure_time":"11:10:00","lat":49.163362,"lon":16.295969,"is_passed":false},{"stop_id":"U14322Z2","name":"Lukovany, na dolině","arrival_time":"11:11:00","departure_time":"11:11:00","lat":49.162876,"lon":16.299755,"is_passed":false},{"stop_id":"U14324Z2","name":"Lukovany, u kapličky","arrival_time":"11:12:00","departure_time":"11:12:00","lat":49.163265,"lon":16.302909,"is_passed":false},{"stop_id":"U14332Z2","name":"Zakřany, ZD","arrival_time":"11:14:00","departure_time":"11:14:00","lat":49.169187,"lon":16.319818,"is_passed":false},{"stop_id":"U14331Z2","name":"Zakřany, obecní úřad","arrival_time":"11:16:00","departure_time":"11:16:00","lat":49.170265,"lon":16.325898,"is_passed":false},{"stop_id":"U14330Z2","name":"Zakřany, Jednota","arrival_time":"11:18:00","departure_time":"11:18:00","lat":49.168722,"lon":16.331437,"is_passed":false},{"stop_id":"U14334Z2","name":"Zbýšov, internát","arrival_time":"11:22:00","departure_time":"11:22:00","lat":49.161832,"lon":16.34416,"is_passed":false},{"stop_id":"U14338Z2","name":"Zbýšov, Sička","arrival_time":"11:24:00","departure_time":"11:24:00","lat":49.16693,"lon":16.353128,"is_passed":false},{"stop_id":"U14224Z2","name":"Babice u Rosic","arrival_time":"11:26:00","departure_time":"11:26:00","lat":49.171089,"lon":16.359275,"is_passed":false},{"stop_id":"U14242Z10","name":"Zastávka, železniční stanice","arrival_time":"11:32:00","departure_time":"12:19:00","lat":49.187164,"lon":16.360086,"is_passed":false}],"4533":[{"stop_id":"U14242Z4","name":"Zastávka, železniční stanice","arrival_time":"12:19:00","departure_time":"12:19:00","lat":49.187553,"lon":16.359243,"is_passed":false},{"stop_id":"U14224Z1","name":"Babice u Rosic","arrival_time":"12:22:00","departure_time":"12:22:00","lat":49.171094,"lon":16.359022,"is_passed":false},{"stop_id":"U14338Z1","name":"Zbýšov, Sička","arrival_time":"12:24:00","departure_time":"12:24:00","lat":49.166783,"lon":16.353281,"is_passed":false},{"stop_id":"U14334Z1","name":"Zbýšov, internát","arrival_time":"12:26:00","departure_time":"12:26:00","lat":49.161984,"lon":16.344287,"is_passed":false},{"stop_id":"U14330Z1","name":"Zakřany, Jednota","arrival_time":"12:30:00","departure_time":"12:30:00","lat":49.168713,"lon":16.331422,"is_passed":false},{"stop_id":"U14331Z1","name":"Zakřany, obecní úřad","arrival_time":"12:31:00","departure_time":"12:31:00","lat":49.170393,"lon":16.325588,"is_passed":false},{"stop_id":"U14332Z1","name":"Zakřany, ZD","arrival_time":"12:32:00","departure_time":"12:32:00","lat":49.169187,"lon":16.319818,"is_passed":false},{"stop_id":"U14324Z1","name":"Lukovany, u kapličky","arrival_time":"12:34:00","departure_time":"12:34:00","lat":49.163321,"lon":16.3027,"is_passed":false},{"stop_id":"U14322Z1","name":"Lukovany, na dolině","arrival_time":"12:35:00","departure_time":"12:35:00","lat":49.162995,"lon":16.299642,"is_passed":false},{"stop_id":"U14323Z1","name":"Lukovany, točna","arrival_time":"12:36:00","departure_time":"13:10:00","lat":49.163362,"lon":16.295969,"is_passed":false}],"4534":[{"stop_id":"U14323Z2","name":"Lukovany, točna","arrival_time":"13:10:00","departure_time":"13:10:00","lat":49.163362,"lon":16.295969,"is_passed":false},{"stop_id":"U14322Z2","name":"Lukovany, na dolině","arrival_time":"13:11:00","departure_time":"13:11:00","lat":49.162876,"lon":16.299755,"is_passed":false},{"stop_id":"U14324Z2","name":"Lukovany, u kapličky","arrival_time":"13:12:00","departure_time":"13:12:00","lat":49.163265,"lon":16.302909,"is_passed":false},{"stop_id":"U14332Z2","name":"Zakřany, ZD","arrival_time":"13:14:00","departure_time":"13:14:00","lat":49.169187,"lon":16.319818,"is_passed":false},{"stop_id":"U14331Z2","name":"Zakřany, obecní úřad","arrival_time":"13:16:00","departure_time":"13:16:00","lat":49.170265,"lon":16.325898,"is_passed":false},{"stop_id":"U14330Z2","name":"Zakřany, Jednota","arrival_time":"13:18:00","departure_time":"13:18:00","lat":49.168722,"lon":16.331437,"is_passed":false},{"stop_id":"U14334Z2","name":"Zbýšov, internát","arrival_time":"13:22:00","departure_time":"13:22:00","lat":49.161832,"lon":16.34416,"is_passed":false},{"stop_id":"U14338Z2","name":"Zbýšov, Sička","arrival_time":"13:24:00","departure_time":"13:24:00","lat":49.16693,"lon":16.353128,"is_passed":false},{"stop_id":"U14224Z2","name":"Babice u Rosic","arrival_time":"13:26:00","departure_time":"13:26:00","lat":49.171089,"lon":16.359275,"is_passed":false},{"stop_id":"U14242Z10","name":"Zastávka, železniční stanice","arrival_time":"13:32:00","departure_time":"14:19:00","lat":49.187164,"lon":16.360086,"is_passed":false}],"4535":[{"stop_id":"U14242Z4","name":"Zastávka, železniční stanice","arrival_time":"14:19:00","departure_time":"14:19:00","lat":49.187553,"lon":16.359243,"is_passed":false},{"stop_id":"U14224Z1","name":"Babice u Rosic","arrival_time":"14:22:00","departure_time":"14:22:00","lat":49.171094,"lon":16.359022,"is_passed":false},{"stop_id":"U14338Z1","name":"Zbýšov, Sička","arrival_time":"14:24:00","departure_time":"14:24:00","lat":49.166783,"lon":16.353281,"is_passed":false},{"stop_id":"U14334Z1","name":"Zbýšov, internát","arrival_time":"14:26:00","departure_time":"14:26:00","lat":49.161984,"lon":16.344287,"is_passed":false},{"stop_id":"U14330Z1","name":"Zakřany, Jednota","arrival_time":"14:30:00","departure_time":"14:30:00","lat":49.168713,"lon":16.331422,"is_passed":false},{"stop_id":"U14331Z1","name":"Zakřany, obecní úřad","arrival_time":"14:31:00","departure_time":"14:31:00","lat":49.170393,"lon":16.325588,"is_passed":false},{"stop_id":"U14332Z1","name":"Zakřany, ZD","arrival_time":"14:32:00","departure_time":"14:32:00","lat":49.169187,"lon":16.319818,"is_passed":false},{"stop_id":"U14324Z1","name":"Lukovany, u kapličky","arrival_time":"14:34:00","departure_time":"14:34:00","lat":49.163321,"lon":16.3027,"is_passed":false},{"stop_id":"U14322Z1","name":"Lukovany, na dolině","arrival_time":"14:35:00","departure_time":"14:35:00","lat":49.162995,"lon":16.299642,"is_passed":false},{"stop_id":"U14323Z1","name":"Lukovany, točna","arrival_time":"14:36:00","departure_time":"14:40:00","lat":49.163362,"lon":16.295969,"is_passed":false}],"4536":[{"stop_id":"U14323Z2","name":"Lukovany, točna","arrival_time":"14:40:00","departure_time":"14:40:00","lat":49.163362,"lon":16.295969,"is_passed":false},{"stop_id":"U14322Z2","name":"Lukovany, na dolině","arrival_time":"14:41:00","departure_time":"14:41:00","lat":49.162876,"lon":16.299755,"is_passed":false},{"stop_id":"U14324Z2","name":"Lukovany, u kapličky","arrival_time":"14:42:00","departure_time":"14:42:00","lat":49.163265,"lon":16.302909,"is_passed":false},{"stop_id":"U14332Z2","name":"Zakřany, ZD","arrival_time":"14:44:00","departure_time":"14:44:00","lat":49.169187,"lon":16.319818,"is_passed":false},{"stop_id":"U14331Z2","name":"Zakřany, obecní úřad","arrival_time":"14:46:00","departure_time":"14:46:00","lat":49.170265,"lon":16.325898,"is_passed":false},{"stop_id":"U14330Z2","name":"Zakřany, Jednota","arrival_time":"14:48:00","departure_time":"14:48:00","lat":49.168722,"lon":16.331437,"is_passed":false},{"stop_id":"U14334Z2","name":"Zbýšov, internát","arrival_time":"14:52:00","departure_time":"14:52:00","lat":49.161832,"lon":16.34416,"is_passed":false},{"stop_id":"U14338Z2","name":"Zbýšov, Sička","arrival_time":"14:54:00","departure_time":"14:54:00","lat":49.16693,"lon":16.353128,"is_passed":false},{"stop_id":"U14224Z2","name":"Babice u Rosic","arrival_time":"14:56:00","departure_time":"14:56:00","lat":49.171089,"lon":16.359275,"is_passed":false},{"stop_id":"U14242Z10","name":"Zastávka, železniční stanice","arrival_time":"15:02:00","departure_time":"15:19:00","lat":49.187164,"lon":16.360086,"is_passed":false}],"4537":[{"stop_id":"U14242Z4","name":"Zastávka, železniční stanice","arrival_time":"15:19:00","departure_time":"15:19:00","lat":49.187553,"lon":16.359243,"is_passed":false},{"stop_id":"U14224Z1","name":"Babice u Rosic","arrival_time":"15:22:00","departure_time":"15:22:00","lat":49.171094,"lon":16.359022,"is_passed":false},{"stop_id":"U14338Z1","name":"Zbýšov, Sička","arrival_time":"15:24:00","departure_time":"15:24:00","lat":49.166783,"lon":16.353281,"is_passed":false},{"stop_id":"U14334Z1","name":"Zbýšov, internát","arrival_time":"15:26:00","departure_time":"15:26:00","lat":49.161984,"lon":16.344287,"is_passed":false},{"stop_id":"U14330Z1","name":"Zakřany, Jednota","arrival_time":"15:30:00","departure_time":"15:30:00","lat":49.168713,"lon":16.331422,"is_passed":false},{"stop_id":"U14331Z1","name":"Zakřany, obecní úřad","arrival_time":"15:31:00","departure_time":"15:31:00","lat":49.170393,"lon":16.325588,"is_passed":false},{"stop_id":"U14332Z1","name":"Zakřany, ZD","arrival_time":"15:32:00","departure_time":"15:32:00","lat":49.169187,"lon":16.319818,"is_passed":false},{"stop_id":"U14324Z1","name":"Lukovany, u kapličky","arrival_time":"15:34:00","departure_time":"15:34:00","lat":49.163321,"lon":16.3027,"is_passed":false},{"stop_id":"U14322Z1","name":"Lukovany, na dolině","arrival_time":"15:35:00","departure_time":"15:35:00","lat":49.162995,"lon":16.299642,"is_passed":false},{"stop_id":"U14323Z1","name":"Lukovany, točna","arrival_time":"15:36:00","departure_time":"16:10:00","lat":49.163362,"lon":16.295969,"is_passed":false}],"4538":[{"stop_id":"U14323Z2","name":"Lukovany, točna","arrival_time":"16:10:00","departure_time":"16:10:00","lat":49.163362,"lon":16.295969,"is_passed":false},{"stop_id":"U14322Z2","name":"Lukovany, na dolině","arrival_time":"16:11:00","departure_time":"16:11:00","lat":49.162876,"lon":16.299755,"is_passed":false},{"stop_id":"U14324Z2","name":"Lukovany, u kapličky","arrival_time":"16:12:00","departure_time":"16:12:00","lat":49.163265,"lon":16.302909,"is_passed":false},{"stop_id":"U14332Z2","name":"Zakřany, ZD","arrival_time":"16:14:00","departure_time":"16:14:00","lat":49.169187,"lon":16.319818,"is_passed":false},{"stop_id":"U14331Z2","name":"Zakřany, obecní úřad","arrival_time":"16:16:00","departure_time":"16:16:00","lat":49.170265,"lon":16.325898,"is_passed":false},{"stop_id":"U14330Z2","name":"Zakřany, Jednota","arrival_time":"16:18:00","departure_time":"16:18:00","lat":49.168722,"lon":16.331437,"is_passed":false},{"stop_id":"U14334Z2","name":"Zbýšov, internát","arrival_time":"16:22:00","departure_time":"16:22:00","lat":49.161832,"lon":16.34416,"is_passed":false},{"stop_id":"U14338Z2","name":"Zbýšov, Sička","arrival_time":"16:24:00","departure_time":"16:24:00","lat":49.16693,"lon":16.353128,"is_passed":false},{"stop_id":"U14224Z2","name":"Babice u Rosic","arrival_time":"16:26:00","departure_time":"16:26:00","lat":49.171089,"lon":16.359275,"is_passed":false},{"stop_id":"U14242Z10","name":"Zastávka, železniční stanice","arrival_time":"16:32:00","departure_time":"16:49:00","lat":49.187164,"lon":16.360086,"is_passed":false}],"4539":[{"stop_id":"U14242Z4","name":"Zastávka, železniční stanice","arrival_time":"16:49:00","departure_time":"16:49:00","lat":49.187553,"lon":16.359243,"is_passed":false},{"stop_id":"U14224Z1","name":"Babice u Rosic","arrival_time":"16:52:00","departure_time":"16:52:00","lat":49.171094,"lon":16.359022,"is_passed":false},{"stop_id":"U14338Z1","name":"Zbýšov, Sička","arrival_time":"16:54:00","departure_time":"16:54:00","lat":49.166783,"lon":16.353281,"is_passed":false},{"stop_id":"U14334Z1","name":"Zbýšov, internát","arrival_time":"16:56:00","departure_time":"16:56:00","lat":49.161984,"lon":16.344287,"is_passed":false},{"stop_id":"U14330Z1","name":"Zakřany, Jednota","arrival_time":"17:00:00","departure_time":"17:00:00","lat":49.168713,"lon":16.331422,"is_passed":false},{"stop_id":"U14331Z1","name":"Zakřany, obecní úřad","arrival_time":"17:01:00","departure_time":"17:01:00","lat":49.170393,"lon":16.325588,"is_passed":false},{"stop_id":"U14332Z1","name":"Zakřany, ZD","arrival_time":"17:02:00","departure_time":"17:02:00","lat":49.169187,"lon":16.319818,"is_passed":false},{"stop_id":"U14324Z1","name":"Lukovany, u kapličky","arrival_time":"17:04:00","departure_time":"17:04:00","lat":49.163321,"lon":16.3027,"is_passed":false},{"stop_id":"U14322Z1","name":"Lukovany, na dolině","arrival_time":"17:05:00","departure_time":"17:05:00","lat":49.162995,"lon":16.299642,"is_passed":false},{"stop_id":"U14323Z1","name":"Lukovany, točna","arrival_time":"17:06:00","departure_time":"17:22:00","lat":49.163362,"lon":16.295969,"is_passed":false}],"45300":[{"stop_id":"U1143Z2","name":"Hlavní","arrival_time":"8:53:00","departure_time":"8:53:00","lat":49.21715,"lon":16.560506,"is_passed":false},{"stop_id":"U1502Z1","name":"Podveská","arrival_time":"8:54:00","departure_time":"8:54:00","lat":49.217623,"lon":16.559017,"is_passed":false},{"stop_id":"U1633Z3","name":"Svratecká","arrival_time":"8:55:00","departure_time":"8:55:00","lat":49.219008,"lon":16.554451,"is_passed":false},{"stop_id":"U1345Z1","name":"Lísky","arrival_time":"8:56:00","departure_time":"8:56:00","lat":49.219825,"lon":16.548868,"is_passed":false},{"stop_id":"U1493Z3","name":"Podlesí","arrival_time":"8:57:00","departure_time":"8:57:00","lat":49.218861,"lon":16.542049,"is_passed":false},{"stop_id":"U1226Z3","name":"Kamenolom","arrival_time":"8:58:00","departure_time":"8:58:00","lat":49.222506,"lon":16.537085,"is_passed":false},{"stop_id":"U1796Z7","name":"Zoologická zahrada","arrival_time":"9:01:00","departure_time":"9:01:00","lat":49.227823,"lon":16.531364,"is_passed":false},{"stop_id":"U1417Z1","name":"Náměstí 28. dubna","arrival_time":"9:02:00","departure_time":"9:02:00","lat":49.225188,"lon":16.531132,"is_passed":false},{"stop_id":"U1752Z1","name":"Vondrákova","arrival_time":"9:03:00","departure_time":"9:03:00","lat":49.221303,"lon":16.528376,"is_passed":false},{"stop_id":"U1326Z1","name":"Laštůvkova","arrival_time":"9:04:00","departure_time":"9:04:00","lat":49.220185,"lon":16.525212,"is_passed":false},{"stop_id":"U1107Z1","name":"Filipova","arrival_time":"9:05:00","departure_time":"9:05:00","lat":49.217684,"lon":16.525123,"is_passed":false},{"stop_id":"U1062Z1","name":"Černého","arrival_time":"9:07:00","departure_time":"9:16:00","lat":49.214083,"lon":16.522812,"is_passed":false}],"45301":[{"stop_id":"U1062Z2","name":"Černého","arrival_time":"9:16:00","departure_time":"9:16:00","lat":49.213885,"lon":16.523087,"is_passed":false},{"stop_id":"U1107Z2","name":"Filipova","arrival_time":"9:17:00","departure_time":"9:17:00","lat":49.217593,"lon":16.525217,"is_passed":false},{"stop_id":"U1326Z4","name":"Laštůvkova","arrival_time":"9:18:00","departure_time":"9:18:00","lat":49.220549,"lon":16.526237,"is_passed":false},{"stop_id":"U1752Z2","name":"Vondrákova","arrival_time":"9:19:00","departure_time":"9:19:00","lat":49.221445,"lon":16.528853,"is_passed":false},{"stop_id":"U1417Z2","name":"Náměstí 28. dubna","arrival_time":"9:20:00","departure_time":"9:20:00","lat":49.226314,"lon":16.53213,"is_passed":false},{"stop_id":"U1226Z4","name":"Kamenolom","arrival_time":"9:22:00","departure_time":"9:22:00","lat":49.221655,"lon":16.536983,"is_passed":false},{"stop_id":"U1493Z4","name":"Podlesí","arrival_time":"9:23:00","departure_time":"9:23:00","lat":49.218759,"lon":16.542623,"is_passed":false},{"stop_id":"U1345Z2","name":"Lísky","arrival_time":"9:24:00","departure_time":"9:24:00","lat":49.219967,"lon":16.549281,"is_passed":false},{"stop_id":"U1633Z4","name":"Svratecká","arrival_time":"9:26:00","departure_time":"9:26:00","lat":49.218696,"lon":16.554399,"is_passed":false},{"stop_id":"U1502Z2","name":"Podveská","arrival_time":"9:27:00","departure_time":"9:27:00","lat":49.217607,"lon":16.558178,"is_passed":false},{"stop_id":"U1651Z2","name":"Štursova","arrival_time":"9:28:00","departure_time":"9:28:00","lat":49.215854,"lon":16.564522,"is_passed":false},{"stop_id":"U1758Z2","name":"Vrázova","arrival_time":"9:29:00","departure_time":"9:29:00","lat":49.216977,"lon":16.568646,"is_passed":false},{"stop_id":"U1528Z4","name":"Přívrat","arrival_time":"9:31:00","departure_time":"9:31:00","lat":49.218647,"lon":16.574085,"is_passed":false},{"stop_id":"U1777Z2","name":"Záhřebská","arrival_time":"9:32:00","departure_time":"9:32:00","lat":49.219845,"lon":16.580415,"is_passed":false},{"stop_id":"U1567Z6","name":"Skácelova","arrival_time":"9:34:00","departure_time":"9:34:00","lat":49.22163,"lon":16.585935,"is_passed":false},{"stop_id":"U1586Z4","name":"Slovanské náměstí","arrival_time":"9:35:00","departure_time":"9:35:00","lat":49.222774,"lon":16.591332,"is_passed":false},{"stop_id":"U1171Z3","name":"Husitská","arrival_time":"9:36:00","departure_time":"9:36:00","lat":49.223851,"lon":16.594116,"is_passed":false},{"stop_id":"U1566Z4","name":"Semilasso","arrival_time":"9:38:00","departure_time":"9:38:00","lat":49.228055,"lon":16.593438,"is_passed":false},{"stop_id":"U1286Z3","name":"Královo Pole, nádraží","arrival_time":"9:39:00","departure_time":"9:39:00","lat":49.229218,"lon":16.596271,"is_passed":false},{"stop_id":"U1388Z2","name":"Mojmírovo náměstí","arrival_time":"9:40:00","departure_time":"9:40:00","lat":49.226499,"lon":16.598423,"is_passed":false},{"stop_id":"U1150Z1","name":"Högrova","arrival_time":"9:42:00","departure_time":"9:42:00","lat":49.228296,"lon":16.604528,"is_passed":false},{"stop_id":"U1195Z1","name":"Jarmily Kurandové","arrival_time":"9:42:00","departure_time":"9:42:00","lat":49.230235,"lon":16.604438,"is_passed":false},{"stop_id":"U1399Z1","name":"Moskalykova","arrival_time":"9:43:00","departure_time":"9:43:00","lat":49.231252,"lon":16.607921,"is_passed":false},{"stop_id":"U1564Z1","name":"Sadová","arrival_time":"9:44:00","departure_time":"9:44:00","lat":49.234166,"lon":16.603978,"is_passed":false},{"stop_id":"U1130Z2","name":"Hamerláky","arrival_time":"9:45:00","departure_time":"9:45:00","lat":49.237225,"lon":16.60407,"is_passed":false},{"stop_id":"U1407Z1","name":"Myslivecký stadion","arrival_time":"9:46:00","departure_time":"9:46:00","lat":49.241317,"lon":16.609929,"is_passed":false},{"stop_id":"U1711Z1","name":"Útěchovská","arrival_time":"9:47:00","departure_time":"9:47:00","lat":49.2475,"lon":16.616402,"is_passed":false},{"stop_id":"U1091Z1","name":"Dohnalova","arrival_time":"9:48:00","departure_time":"9:48:00","lat":49.251124,"lon":16.618901,"is_passed":false},{"stop_id":"U1412Z1","name":"Na kovárně","arrival_time":"9:49:00","departure_time":"9:49:00","lat":49.253213,"lon":16.620275,"is_passed":false},{"stop_id":"U1548Z1","name":"Rozárka","arrival_time":"9:50:00","departure_time":"9:50:00","lat":49.254486,"lon":16.622791,"is_passed":false},{"stop_id":"U1235Z3","name":"Klarisky","arrival_time":"9:52:00","departure_time":"9:56:00","lat":49.256942,"lon":16.622725,"is_passed":false}],"45302":[{"stop_id":"U1235Z4","name":"Klarisky","arrival_time":"9:56:00","departure_time":"9:56:00","lat":49.257063,"lon":16.622604,"is_passed":false},{"stop_id":"U1412Z2","name":"Na kovárně","arrival_time":"9:57:00","departure_time":"9:57:00","lat":49.254426,"lon":16.620777,"is_passed":false},{"stop_id":"U1091Z2","name":"Dohnalova","arrival_time":"9:58:00","departure_time":"9:58:00","lat":49.249657,"lon":16.617775,"is_passed":false},{"stop_id":"U1711Z2","name":"Útěchovská","arrival_time":"9:59:00","departure_time":"9:59:00","lat":49.246974,"lon":16.61581,"is_passed":false},{"stop_id":"U1407Z2","name":"Myslivecký stadion","arrival_time":"10:00:00","departure_time":"10:00:00","lat":49.241075,"lon":16.609359,"is_passed":false},{"stop_id":"U1130Z1","name":"Hamerláky","arrival_time":"10:01:00","departure_time":"10:01:00","lat":49.237082,"lon":16.603873,"is_passed":false},{"stop_id":"U1564Z2","name":"Sadová","arrival_time":"10:02:00","departure_time":"10:02:00","lat":49.233904,"lon":16.604679,"is_passed":false},{"stop_id":"U1399Z2","name":"Moskalykova","arrival_time":"10:03:00","departure_time":"10:03:00","lat":49.23163,"lon":16.608178,"is_passed":false},{"stop_id":"U1150Z2","name":"Högrova","arrival_time":"10:04:00","departure_time":"10:04:00","lat":49.229128,"lon":16.604259,"is_passed":false},{"stop_id":"U1388Z1","name":"Mojmírovo náměstí","arrival_time":"10:06:00","departure_time":"10:06:00","lat":49.226134,"lon":16.597399,"is_passed":false},{"stop_id":"U1286Z5","name":"Královo Pole, nádraží","arrival_time":"10:09:00","departure_time":"10:09:00","lat":49.229633,"lon":16.595447,"is_passed":false},{"stop_id":"U1566Z6","name":"Semilasso","arrival_time":"10:10:00","departure_time":"10:10:00","lat":49.228248,"lon":16.593466,"is_passed":false},{"stop_id":"U1171Z4","name":"Husitská","arrival_time":"10:12:00","departure_time":"10:12:00","lat":49.224063,"lon":16.593994,"is_passed":false},{"stop_id":"U1586Z3","name":"Slovanské náměstí","arrival_time":"10:13:00","departure_time":"10:13:00","lat":49.223525,"lon":16.591009,"is_passed":false},{"stop_id":"U1567Z5","name":"Skácelova","arrival_time":"10:14:00","departure_time":"10:14:00","lat":49.221353,"lon":16.584711,"is_passed":false},{"stop_id":"U1777Z1","name":"Záhřebská","arrival_time":"10:16:00","departure_time":"10:16:00","lat":49.219602,"lon":16.579157,"is_passed":false},{"stop_id":"U1528Z3","name":"Přívrat","arrival_time":"10:17:00","departure_time":"10:17:00","lat":49.218788,"lon":16.574147,"is_passed":false},{"stop_id":"U1758Z1","name":"Vrázova","arrival_time":"10:18:00","departure_time":"10:18:00","lat":49.216968,"lon":16.568321,"is_passed":false},{"stop_id":"U1651Z1","name":"Štursova","arrival_time":"10:19:00","departure_time":"10:19:00","lat":49.216462,"lon":16.563614,"is_passed":false},{"stop_id":"U1502Z1","name":"Podveská","arrival_time":"10:20:00","departure_time":"10:20:00","lat":49.217623,"lon":16.559017,"is_passed":false},{"stop_id":"U1633Z3","name":"Svratecká","arrival_time":"10:21:00","departure_time":"10:21:00","lat":49.219008,"lon":16.554451,"is_passed":false},{"stop_id":"U1345Z1","name":"Lísky","arrival_time":"10:22:00","departure_time":"10:22:00","lat":49.219825,"lon":16.548868,"is_passed":false},{"stop_id":"U1493Z3","name":"Podlesí","arrival_time":"10:23:00","departure_time":"10:23:00","lat":49.218861,"lon":16.542049,"is_passed":false},{"stop_id":"U1226Z3","name":"Kamenolom","arrival_time":"10:24:00","departure_time":"10:24:00","lat":49.222506,"lon":16.537085,"is_passed":false},{"stop_id":"U1796Z7","name":"Zoologická zahrada","arrival_time":"10:28:00","departure_time":"10:28:00","lat":49.227823,"lon":16.531364,"is_passed":false},{"stop_id":"U1417Z1","name":"Náměstí 28. dubna","arrival_time":"10:29:00","departure_time":"10:29:00","lat":49.225188,"lon":16.531132,"is_passed":false},{"stop_id":"U1752Z1","name":"Vondrákova","arrival_time":"10:30:00","departure_time":"10:30:00","lat":49.221303,"lon":16.528376,"is_passed":false},{"stop_id":"U1326Z1","name":"Laštůvkova","arrival_time":"10:31:00","departure_time":"10:31:00","lat":49.220185,"lon":16.525212,"is_passed":false},{"stop_id":"U1107Z1","name":"Filipova","arrival_time":"10:32:00","departure_time":"10:32:00","lat":49.217684,"lon":16.525123,"is_passed":false},{"stop_id":"U1062Z1","name":"Černého","arrival_time":"10:34:00","departure_time":"11:01:00","lat":49.214083,"lon":16.522812,"is_passed":false}],"45303":[{"stop_id":"U1062Z2","name":"Černého","arrival_time":"11:01:00","departure_time":"11:01:00","lat":49.213885,"lon":16.523087,"is_passed":false},{"stop_id":"U1107Z2","name":"Filipova","arrival_time":"11:02:00","departure_time":"11:02:00","lat":49.217593,"lon":16.525217,"is_passed":false},{"stop_id":"U1326Z4","name":"Laštůvkova","arrival_time":"11:03:00","departure_time":"11:03:00","lat":49.220549,"lon":16.526237,"is_passed":false},{"stop_id":"U1752Z2","name":"Vondrákova","arrival_time":"11:04:00","departure_time":"11:04:00","lat":49.221445,"lon":16.528853,"is_passed":false},{"stop_id":"U1417Z2","name":"Náměstí 28. dubna","arrival_time":"11:05:00","departure_time":"11:05:00","lat":49.226314,"lon":16.53213,"is_passed":false},{"stop_id":"U1226Z4","name":"Kamenolom","arrival_time":"11:07:00","departure_time":"11:07:00","lat":49.221655,"lon":16.536983,"is_passed":false},{"stop_id":"U1493Z4","name":"Podlesí","arrival_time":"11:08:00","departure_time":"11:08:00","lat":49.218759,"lon":16.542623,"is_passed":false},{"stop_id":"U1345Z2","name":"Lísky","arrival_time":"11:09:00","departure_time":"11:09:00","lat":49.219967,"lon":16.549281,"is_passed":false},{"stop_id":"U1633Z4","name":"Svratecká","arrival_time":"11:11:00","departure_time":"11:11:00","lat":49.218696,"lon":16.554399,"is_passed":false},{"stop_id":"U1502Z2","name":"Podveská","arrival_time":"11:12:00","departure_time":"11:12:00","lat":49.217607,"lon":16.558178,"is_passed":false},{"stop_id":"U1651Z2","name":"Štursova","arrival_time":"11:13:00","departure_time":"11:13:00","lat":49.215854,"lon":16.564522,"is_passed":false},{"stop_id":"U1758Z2","name":"Vrázova","arrival_time":"11:14:00","departure_time":"11:14:00","lat":49.216977,"lon":16.568646,"is_passed":false},{"stop_id":"U1528Z4","name":"Přívrat","arrival_time":"11:16:00","departure_time":"11:16:00","lat":49.218647,"lon":16.574085,"is_passed":false},{"stop_id":"U1777Z2","name":"Záhřebská","arrival_time":"11:17:00","departure_time":"11:17:00","lat":49.219845,"lon":16.580415,"is_passed":false},{"stop_id":"U1567Z6","name":"Skácelova","arrival_time":"11:19:00","departure_time":"11:19:00","lat":49.22163,"lon":16.585935,"is_passed":false},{"stop_id":"U1586Z4","name":"Slovanské náměstí","arrival_time":"11:20:00","departure_time":"11:20:00","lat":49.222774,"lon":16.591332,"is_passed":false},{"stop_id":"U1171Z3","name":"Husitská","arrival_time":"11:21:00","departure_time":"11:21:00","lat":49.223851,"lon":16.594116,"is_passed":false},{"stop_id":"U1566Z4","name":"Semilasso","arrival_time":"11:23:00","departure_time":"11:23:00","lat":49.228055,"lon":16.593438,"is_passed":false},{"stop_id":"U1286Z3","name":"Královo Pole, nádraží","arrival_time":"11:24:00","departure_time":"11:24:00","lat":49.229218,"lon":16.596271,"is_passed":false},{"stop_id":"U1388Z2","name":"Mojmírovo náměstí","arrival_time":"11:25:00","departure_time":"11:25:00","lat":49.226499,"lon":16.598423,"is_passed":false},{"stop_id":"U1150Z1","name":"Högrova","arrival_time":"11:27:00","departure_time":"11:27:00","lat":49.228296,"lon":16.604528,"is_passed":false},{"stop_id":"U1195Z1","name":"Jarmily Kurandové","arrival_time":"11:27:00","departure_time":"11:27:00","lat":49.230235,"lon":16.604438,"is_passed":false},{"stop_id":"U1399Z1","name":"Moskalykova","arrival_time":"11:28:00","departure_time":"11:28:00","lat":49.231252,"lon":16.607921,"is_passed":false},{"stop_id":"U1564Z1","name":"Sadová","arrival_time":"11:29:00","departure_time":"11:29:00","lat":49.234166,"lon":16.603978,"is_passed":false},{"stop_id":"U1130Z2","name":"Hamerláky","arrival_time":"11:30:00","departure_time":"11:30:00","lat":49.237225,"lon":16.60407,"is_passed":false},{"stop_id":"U1407Z1","name":"Myslivecký stadion","arrival_time":"11:31:00","departure_time":"11:31:00","lat":49.241317,"lon":16.609929,"is_passed":false},{"stop_id":"U1711Z1","name":"Útěchovská","arrival_time":"11:32:00","departure_time":"11:32:00","lat":49.2475,"lon":16.616402,"is_passed":false},{"stop_id":"U1091Z1","name":"Dohnalova","arrival_time":"11:33:00","departure_time":"11:33:00","lat":49.251124,"lon":16.618901,"is_passed":false},{"stop_id":"U1412Z1","name":"Na kovárně","arrival_time":"11:34:00","departure_time":"11:34:00","lat":49.253213,"lon":16.620275,"is_passed":false},{"stop_id":"U1548Z1","name":"Rozárka","arrival_time":"11:35:00","departure_time":"11:35:00","lat":49.254486,"lon":16.622791,"is_passed":false},{"stop_id":"U1235Z3","name":"Klarisky","arrival_time":"11:37:00","departure_time":"11:41:00","lat":49.256942,"lon":16.622725,"is_passed":false}],"45304":[{"stop_id":"U1235Z4","name":"Klarisky","arrival_time":"11:41:00","departure_time":"11:41:00","lat":49.257063,"lon":16.622604,"is_passed":false},{"stop_id":"U1412Z2","name":"Na kovárně","arrival_time":"11:42:00","departure_time":"11:42:00","lat":49.254426,"lon":16.620777,"is_passed":false},{"stop_id":"U1091Z2","name":"Dohnalova","arrival_time":"11:43:00","departure_time":"11:43:00","lat":49.249657,"lon":16.617775,"is_passed":false},{"stop_id":"U1711Z2","name":"Útěchovská","arrival_time":"11:44:00","departure_time":"11:44:00","lat":49.246974,"lon":16.61581,"is_passed":false},{"stop_id":"U1407Z2","name":"Myslivecký stadion","arrival_time":"11:45:00","departure_time":"11:45:00","lat":49.241075,"lon":16.609359,"is_passed":false},{"stop_id":"U1130Z1","name":"Hamerláky","arrival_time":"11:46:00","departure_time":"11:46:00","lat":49.237082,"lon":16.603873,"is_passed":false},{"stop_id":"U1564Z2","name":"Sadová","arrival_time":"11:47:00","departure_time":"11:47:00","lat":49.233904,"lon":16.604679,"is_passed":false},{"stop_id":"U1399Z2","name":"Moskalykova","arrival_time":"11:48:00","departure_time":"11:48:00","lat":49.23163,"lon":16.608178,"is_passed":false},{"stop_id":"U1150Z2","name":"Högrova","arrival_time":"11:49:00","departure_time":"11:49:00","lat":49.229128,"lon":16.604259,"is_passed":false},{"stop_id":"U1388Z1","name":"Mojmírovo náměstí","arrival_time":"11:51:00","departure_time":"11:51:00","lat":49.226134,"lon":16.597399,"is_passed":false},{"stop_id":"U1286Z5","name":"Královo Pole, nádraží","arrival_time":"11:54:00","departure_time":"11:54:00","lat":49.229633,"lon":16.595447,"is_passed":false},{"stop_id":"U1566Z6","name":"Semilasso","arrival_time":"11:55:00","departure_time":"11:55:00","lat":49.228248,"lon":16.593466,"is_passed":false},{"stop_id":"U1171Z4","name":"Husitská","arrival_time":"11:57:00","departure_time":"11:57:00","lat":49.224063,"lon":16.593994,"is_passed":false},{"stop_id":"U1586Z3","name":"Slovanské náměstí","arrival_time":"11:58:00","departure_time":"11:58:00","lat":49.223525,"lon":16.591009,"is_passed":false},{"stop_id":"U1567Z5","name":"Skácelova","arrival_time":"11:59:00","departure_time":"11:59:00","lat":49.221353,"lon":16.584711,"is_passed":false},{"stop_id":"U1777Z1","name":"Záhřebská","arrival_time":"12:01:00","departure_time":"12:01:00","lat":49.219602,"lon":16.579157,"is_passed":false},{"stop_id":"U1528Z3","name":"Přívrat","arrival_time":"12:02:00","departure_time":"12:02:00","lat":49.218788,"lon":16.574147,"is_passed":false},{"stop_id":"U1758Z1","name":"Vrázova","arrival_time":"12:03:00","departure_time":"12:03:00","lat":49.216968,"lon":16.568321,"is_passed":false},{"stop_id":"U1651Z1","name":"Štursova","arrival_time":"12:04:00","departure_time":"12:04:00","lat":49.216462,"lon":16.563614,"is_passed":false},{"stop_id":"U1502Z1","name":"Podveská","arrival_time":"12:05:00","departure_time":"12:05:00","lat":49.217623,"lon":16.559017,"is_passed":false},{"stop_id":"U1633Z3","name":"Svratecká","arrival_time":"12:06:00","departure_time":"12:06:00","lat":49.219008,"lon":16.554451,"is_passed":false},{"stop_id":"U1345Z1","name":"Lísky","arrival_time":"12:07:00","departure_time":"12:07:00","lat":49.219825,"lon":16.548868,"is_passed":false},{"stop_id":"U1493Z3","name":"Podlesí","arrival_time":"12:08:00","departure_time":"12:08:00","lat":49.218861,"lon":16.542049,"is_passed":false},{"stop_id":"U1226Z3","name":"Kamenolom","arrival_time":"12:09:00","departure_time":"12:09:00","lat":49.222506,"lon":16.537085,"is_passed":false},{"stop_id":"U1796Z7","name":"Zoologická zahrada","arrival_time":"12:13:00","departure_time":"12:13:00","lat":49.227823,"lon":16.531364,"is_passed":false},{"stop_id":"U1417Z1","name":"Náměstí 28. dubna","arrival_time":"12:14:00","departure_time":"12:14:00","lat":49.225188,"lon":16.531132,"is_passed":false},{"stop_id":"U1752Z1","name":"Vondrákova","arrival_time":"12:15:00","departure_time":"12:15:00","lat":49.221303,"lon":16.528376,"is_passed":false},{"stop_id":"U1326Z1","name":"Laštůvkova","arrival_time":"12:16:00","departure_time":"12:16:00","lat":49.220185,"lon":16.525212,"is_passed":false},{"stop_id":"U1107Z1","name":"Filipova","arrival_time":"12:17:00","departure_time":"12:17:00","lat":49.217684,"lon":16.525123,"is_passed":false},{"stop_id":"U1062Z1","name":"Černého","arrival_time":"12:19:00","departure_time":"13:01:00","lat":49.214083,"lon":16.522812,"is_passed":false}],"45305":[{"stop_id":"U1062Z2","name":"Černého","arrival_time":"13:01:00","departure_time":"13:01:00","lat":49.213885,"lon":16.523087,"is_passed":false},{"stop_id":"U1107Z2","name":"Filipova","arrival_time":"13:02:00","departure_time":"13:02:00","lat":49.217593,"lon":16.525217,"is_passed":false},{"stop_id":"U1326Z4","name":"Laštůvkova","arrival_time":"13:03:00","departure_time":"13:03:00","lat":49.220549,"lon":16.526237,"is_passed":false},{"stop_id":"U1752Z2","name":"Vondrákova","arrival_time":"13:04:00","departure_time":"13:04:00","lat":49.221445,"lon":16.528853,"is_passed":false},{"stop_id":"U1417Z2","name":"Náměstí 28. dubna","arrival_time":"13:05:00","departure_time":"13:05:00","lat":49.226314,"lon":16.53213,"is_passed":false},{"stop_id":"U1226Z4","name":"Kamenolom","arrival_time":"13:07:00","departure_time":"13:07:00","lat":49.221655,"lon":16.536983,"is_passed":false},{"stop_id":"U1493Z4","name":"Podlesí","arrival_time":"13:08:00","departure_time":"13:08:00","lat":49.218759,"lon":16.542623,"is_passed":false},{"stop_id":"U1345Z2","name":"Lísky","arrival_time":"13:09:00","departure_time":"13:09:00","lat":49.219967,"lon":16.549281,"is_passed":false},{"stop_id":"U1633Z4","name":"Svratecká","arrival_time":"13:11:00","departure_time":"13:11:00","lat":49.218696,"lon":16.554399,"is_passed":false},{"stop_id":"U1502Z2","name":"Podveská","arrival_time":"13:12:00","departure_time":"13:12:00","lat":49.217607,"lon":16.558178,"is_passed":false},{"stop_id":"U1651Z2","name":"Štursova","arrival_time":"13:13:00","departure_time":"13:13:00","lat":49.215854,"lon":16.564522,"is_passed":false},{"stop_id":"U1758Z2","name":"Vrázova","arrival_time":"13:14:00","departure_time":"13:14:00","lat":49.216977,"lon":16.568646,"is_passed":false},{"stop_id":"U1528Z4","name":"Přívrat","arrival_time":"13:16:00","departure_time":"13:16:00","lat":49.218647,"lon":16.574085,"is_passed":false},{"stop_id":"U1777Z2","name":"Záhřebská","arrival_time":"13:17:00","departure_time":"13:17:00","lat":49.219845,"lon":16.580415,"is_passed":false},{"stop_id":"U1567Z6","name":"Skácelova","arrival_time":"13:19:00","departure_time":"13:19:00","lat":49.22163,"lon":16.585935,"is_passed":false},{"stop_id":"U1586Z4","name":"Slovanské náměstí","arrival_time":"13:20:00","departure_time":"13:20:00","lat":49.222774,"lon":16.591332,"is_passed":false},{"stop_id":"U1171Z3","name":"Husitská","arrival_time":"13:21:00","departure_time":"13:21:00","lat":49.223851,"lon":16.594116,"is_passed":false},{"stop_id":"U1566Z4","name":"Semilasso","arrival_time":"13:23:00","departure_time":"13:23:00","lat":49.228055,"lon":16.593438,"is_passed":false},{"stop_id":"U1286Z3","name":"Královo Pole, nádraží","arrival_time":"13:24:00","departure_time":"13:24:00","lat":49.229218,"lon":16.596271,"is_passed":false},{"stop_id":"U1388Z2","name":"Mojmírovo náměstí","arrival_time":"13:25:00","departure_time":"13:25:00","lat":49.226499,"lon":16.598423,"is_passed":false},{"stop_id":"U1150Z1","name":"Högrova","arrival_time":"13:27:00","departure_time":"13:27:00","lat":49.228296,"lon":16.604528,"is_passed":false},{"stop_id":"U1195Z1","name":"Jarmily Kurandové","arrival_time":"13:27:00","departure_time":"13:27:00","lat":49.230235,"lon":16.604438,"is_passed":false},{"stop_id":"U1399Z1","name":"Moskalykova","arrival_time":"13:28:00","departure_time":"13:28:00","lat":49.231252,"lon":16.607921,"is_passed":false},{"stop_id":"U1564Z1","name":"Sadová","arrival_time":"13:29:00","departure_time":"13:29:00","lat":49.234166,"lon":16.603978,"is_passed":false},{"stop_id":"U1130Z2","name":"Hamerláky","arrival_time":"13:30:00","departure_time":"13:30:00","lat":49.237225,"lon":16.60407,"is_passed":false},{"stop_id":"U1407Z1","name":"Myslivecký stadion","arrival_time":"13:31:00","departure_time":"13:31:00","lat":49.241317,"lon":16.609929,"is_passed":false},{"stop_id":"U1711Z1","name":"Útěchovská","arrival_time":"13:32:00","departure_time":"13:32:00","lat":49.2475,"lon":16.616402,"is_passed":false},{"stop_id":"U1091Z1","name":"Dohnalova","arrival_time":"13:33:00","departure_time":"13:33:00","lat":49.251124,"lon":16.618901,"is_passed":false},{"stop_id":"U1412Z1","name":"Na kovárně","arrival_time":"13:34:00","departure_time":"13:34:00","lat":49.253213,"lon":16.620275,"is_passed":false},{"stop_id":"U1548Z1","name":"Rozárka","arrival_time":"13:35:00","departure_time":"13:35:00","lat":49.254486,"lon":16.622791,"is_passed":false},{"stop_id":"U1235Z3","name":"Klarisky","arrival_time":"13:37:00","departure_time":"13:41:00","lat":49.256942,"lon":16.622725,"is_passed":false}],"45306":[{"stop_id":"U1235Z4","name":"Klarisky","arrival_time":"13:41:00","departure_time":"13:41:00","lat":49.257063,"lon":16.622604,"is_passed":false},{"stop_id":"U1412Z2","name":"Na kovárně","arrival_time":"13:42:00","departure_time":"13:42:00","lat":49.254426,"lon":16.620777,"is_passed":false},{"stop_id":"U1091Z2","name":"Dohnalova","arrival_time":"13:43:00","departure_time":"13:43:00","lat":49.249657,"lon":16.617775,"is_passed":false},{"stop_id":"U1711Z2","name":"Útěchovská","arrival_time":"13:44:00","departure_time":"13:44:00","lat":49.246974,"lon":16.61581,"is_passed":false},{"stop_id":"U1407Z2","name":"Myslivecký stadion","arrival_time":"13:45:00","departure_time":"13:45:00","lat":49.241075,"lon":16.609359,"is_passed":false},{"stop_id":"U1130Z1","name":"Hamerláky","arrival_time":"13:46:00","departure_time":"13:46:00","lat":49.237082,"lon":16.603873,"is_passed":false},{"stop_id":"U1564Z2","name":"Sadová","arrival_time":"13:47:00","departure_time":"13:47:00","lat":49.233904,"lon":16.604679,"is_passed":false},{"stop_id":"U1399Z2","name":"Moskalykova","arrival_time":"13:48:00","departure_time":"13:48:00","lat":49.23163,"lon":16.608178,"is_passed":false},{"stop_id":"U1150Z2","name":"Högrova","arrival_time":"13:49:00","departure_time":"13:49:00","lat":49.229128,"lon":16.604259,"is_passed":false},{"stop_id":"U1388Z1","name":"Mojmírovo náměstí","arrival_time":"13:51:00","departure_time":"13:51:00","lat":49.226134,"lon":16.597399,"is_passed":false},{"stop_id":"U1286Z5","name":"Královo Pole, nádraží","arrival_time":"13:54:00","departure_time":"13:54:00","lat":49.229633,"lon":16.595447,"is_passed":false},{"stop_id":"U1566Z6","name":"Semilasso","arrival_time":"13:55:00","departure_time":"13:55:00","lat":49.228248,"lon":16.593466,"is_passed":false},{"stop_id":"U1171Z4","name":"Husitská","arrival_time":"13:57:00","departure_time":"13:57:00","lat":49.224063,"lon":16.593994,"is_passed":false},{"stop_id":"U1586Z3","name":"Slovanské náměstí","arrival_time":"13:58:00","departure_time":"13:58:00","lat":49.223525,"lon":16.591009,"is_passed":false},{"stop_id":"U1567Z5","name":"Skácelova","arrival_time":"13:59:00","departure_time":"13:59:00","lat":49.221353,"lon":16.584711,"is_passed":false},{"stop_id":"U1777Z1","name":"Záhřebská","arrival_time":"14:01:00","departure_time":"14:01:00","lat":49.219602,"lon":16.579157,"is_passed":false},{"stop_id":"U1528Z3","name":"Přívrat","arrival_time":"14:02:00","departure_time":"14:02:00","lat":49.218788,"lon":16.574147,"is_passed":false},{"stop_id":"U1758Z1","name":"Vrázova","arrival_time":"14:03:00","departure_time":"14:03:00","lat":49.216968,"lon":16.568321,"is_passed":false},{"stop_id":"U1651Z1","name":"Štursova","arrival_time":"14:04:00","departure_time":"14:04:00","lat":49.216462,"lon":16.563614,"is_passed":false},{"stop_id":"U1502Z1","name":"Podveská","arrival_time":"14:05:00","departure_time":"14:05:00","lat":49.217623,"lon":16.559017,"is_passed":false},{"stop_id":"U1633Z3","name":"Svratecká","arrival_time":"14:06:00","departure_time":"14:06:00","lat":49.219008,"lon":16.554451,"is_passed":false},{"stop_id":"U1345Z1","name":"Lísky","arrival_time":"14:07:00","departure_time":"14:07:00","lat":49.219825,"lon":16.548868,"is_passed":false},{"stop_id":"U1493Z3","name":"Podlesí","arrival_time":"14:08:00","departure_time":"14:08:00","lat":49.218861,"lon":16.542049,"is_passed":false},{"stop_id":"U1226Z3","name":"Kamenolom","arrival_time":"14:09:00","departure_time":"14:09:00","lat":49.222506,"lon":16.537085,"is_passed":false},{"stop_id":"U1796Z7","name":"Zoologická zahrada","arrival_time":"14:13:00","departure_time":"14:13:00","lat":49.227823,"lon":16.531364,"is_passed":false},{"stop_id":"U1417Z1","name":"Náměstí 28. dubna","arrival_time":"14:14:00","departure_time":"14:14:00","lat":49.225188,"lon":16.531132,"is_passed":false},{"stop_id":"U1752Z1","name":"Vondrákova","arrival_time":"14:15:00","departure_time":"14:15:00","lat":49.221303,"lon":16.528376,"is_passed":false},{"stop_id":"U1326Z1","name":"Laštůvkova","arrival_time":"14:16:00","departure_time":"14:16:00","lat":49.220185,"lon":16.525212,"is_passed":false},{"stop_id":"U1107Z1","name":"Filipova","arrival_time":"14:17:00","departure_time":"14:17:00","lat":49.217684,"lon":16.525123,"is_passed":false},{"stop_id":"U1062Z1","name":"Černého","arrival_time":"14:19:00","departure_time":"15:16:00","lat":49.214083,"lon":16.522812,"is_passed":false}],"45307":[{"stop_id":"U1062Z2","name":"Černého","arrival_time":"15:16:00","departure_time":"15:16:00","lat":49.213885,"lon":16.523087,"is_passed":false},{"stop_id":"U1107Z2","name":"Filipova","arrival_time":"15:17:00","departure_time":"15:17:00","lat":49.217593,"lon":16.525217,"is_passed":false},{"stop_id":"U1326Z4","name":"Laštůvkova","arrival_time":"15:18:00","departure_time":"15:18:00","lat":49.220549,"lon":16.526237,"is_passed":false},{"stop_id":"U1752Z2","name":"Vondrákova","arrival_time":"15:19:00","departure_time":"15:19:00","lat":49.221445,"lon":16.528853,"is_passed":false},{"stop_id":"U1417Z2","name":"Náměstí 28. dubna","arrival_time":"15:20:00","departure_time":"15:20:00","lat":49.226314,"lon":16.53213,"is_passed":false},{"stop_id":"U1226Z4","name":"Kamenolom","arrival_time":"15:22:00","departure_time":"15:22:00","lat":49.221655,"lon":16.536983,"is_passed":false},{"stop_id":"U1493Z4","name":"Podlesí","arrival_time":"15:23:00","departure_time":"15:23:00","lat":49.218759,"lon":16.542623,"is_passed":false},{"stop_id":"U1345Z2","name":"Lísky","arrival_time":"15:24:00","departure_time":"15:24:00","lat":49.219967,"lon":16.549281,"is_passed":false},{"stop_id":"U1633Z4","name":"Svratecká","arrival_time":"15:26:00","departure_time":"15:26:00","lat":49.218696,"lon":16.554399,"is_passed":false},{"stop_id":"U1502Z2","name":"Podveská","arrival_time":"15:27:00","departure_time":"15:27:00","lat":49.217607,"lon":16.558178,"is_passed":false},{"stop_id":"U1651Z2","name":"Štursova","arrival_time":"15:28:00","departure_time":"15:28:00","lat":49.215854,"lon":16.564522,"is_passed":false},{"stop_id":"U1758Z2","name":"Vrázova","arrival_time":"15:29:00","departure_time":"15:29:00","lat":49.216977,"lon":16.568646,"is_passed":false},{"stop_id":"U1528Z4","name":"Přívrat","arrival_time":"15:31:00","departure_time":"15:31:00","lat":49.218647,"lon":16.574085,"is_passed":false},{"stop_id":"U1777Z2","name":"Záhřebská","arrival_time":"15:32:00","departure_time":"15:32:00","lat":49.219845,"lon":16.580415,"is_passed":false},{"stop_id":"U1567Z6","name":"Skácelova","arrival_time":"15:34:00","departure_time":"15:34:00","lat":49.22163,"lon":16.585935,"is_passed":false},{"stop_id":"U1586Z4","name":"Slovanské náměstí","arrival_time":"15:35:00","departure_time":"15:35:00","lat":49.222774,"lon":16.591332,"is_passed":false},{"stop_id":"U1171Z3","name":"Husitská","arrival_time":"15:36:00","departure_time":"15:36:00","lat":49.223851,"lon":16.594116,"is_passed":false},{"stop_id":"U1566Z4","name":"Semilasso","arrival_time":"15:38:00","departure_time":"15:38:00","lat":49.228055,"lon":16.593438,"is_passed":false},{"stop_id":"U1286Z3","name":"Královo Pole, nádraží","arrival_time":"15:39:00","departure_time":"15:39:00","lat":49.229218,"lon":16.596271,"is_passed":false},{"stop_id":"U1388Z2","name":"Mojmírovo náměstí","arrival_time":"15:40:00","departure_time":"15:40:00","lat":49.226499,"lon":16.598423,"is_passed":false},{"stop_id":"U1150Z1","name":"Högrova","arrival_time":"15:42:00","departure_time":"15:42:00","lat":49.228296,"lon":16.604528,"is_passed":false},{"stop_id":"U1195Z1","name":"Jarmily Kurandové","arrival_time":"15:42:00","departure_time":"15:42:00","lat":49.230235,"lon":16.604438,"is_passed":false},{"stop_id":"U1399Z1","name":"Moskalykova","arrival_time":"15:43:00","departure_time":"15:43:00","lat":49.231252,"lon":16.607921,"is_passed":false},{"stop_id":"U1564Z1","name":"Sadová","arrival_time":"15:44:00","departure_time":"15:44:00","lat":49.234166,"lon":16.603978,"is_passed":false},{"stop_id":"U1130Z2","name":"Hamerláky","arrival_time":"15:45:00","departure_time":"15:45:00","lat":49.237225,"lon":16.60407,"is_passed":false},{"stop_id":"U1407Z1","name":"Myslivecký stadion","arrival_time":"15:46:00","departure_time":"15:46:00","lat":49.241317,"lon":16.609929,"is_passed":false},{"stop_id":"U1711Z1","name":"Útěchovská","arrival_time":"15:47:00","departure_time":"15:47:00","lat":49.2475,"lon":16.616402,"is_passed":false},{"stop_id":"U1091Z1","name":"Dohnalova","arrival_time":"15:48:00","departure_time":"15:48:00","lat":49.251124,"lon":16.618901,"is_passed":false},{"stop_id":"U1412Z1","name":"Na kovárně","arrival_time":"15:49:00","departure_time":"15:49:00","lat":49.253213,"lon":16.620275,"is_passed":false},{"stop_id":"U1548Z1","name":"Rozárka","arrival_time":"15:50:00","departure_time":"15:50:00","lat":49.254486,"lon":16.622791,"is_passed":false},{"stop_id":"U1235Z3","name":"Klarisky","arrival_time":"15:52:00","departure_time":"15:56:00","lat":49.256942,"lon":16.622725,"is_passed":false}],"45308":[{"stop_id":"U1235Z4","name":"Klarisky","arrival_time":"15:56:00","departure_time":"15:56:00","lat":49.257063,"lon":16.622604,"is_passed":false},{"stop_id":"U1412Z2","name":"Na kovárně","arrival_time":"15:57:00","departure_time":"15:57:00","lat":49.254426,"lon":16.620777,"is_passed":false},{"stop_id":"U1091Z2","name":"Dohnalova","arrival_time":"15:58:00","departure_time":"15:58:00","lat":49.249657,"lon":16.617775,"is_passed":false},{"stop_id":"U1711Z2","name":"Útěchovská","arrival_time":"15:59:00","departure_time":"15:59:00","lat":49.246974,"lon":16.61581,"is_passed":false},{"stop_id":"U1407Z2","name":"Myslivecký stadion","arrival_time":"16:00:00","departure_time":"16:00:00","lat":49.241075,"lon":16.609359,"is_passed":false},{"stop_id":"U1130Z1","name":"Hamerláky","arrival_time":"16:01:00","departure_time":"16:01:00","lat":49.237082,"lon":16.603873,"is_passed":false},{"stop_id":"U1564Z2","name":"Sadová","arrival_time":"16:02:00","departure_time":"16:02:00","lat":49.233904,"lon":16.604679,"is_passed":false},{"stop_id":"U1399Z2","name":"Moskalykova","arrival_time":"16:03:00","departure_time":"16:03:00","lat":49.23163,"lon":16.608178,"is_passed":false},{"stop_id":"U1150Z2","name":"Högrova","arrival_time":"16:04:00","departure_time":"16:04:00","lat":49.229128,"lon":16.604259,"is_passed":false},{"stop_id":"U1388Z1","name":"Mojmírovo náměstí","arrival_time":"16:06:00","departure_time":"16:06:00","lat":49.226134,"lon":16.597399,"is_passed":false},{"stop_id":"U1286Z5","name":"Královo Pole, nádraží","arrival_time":"16:09:00","departure_time":"16:09:00","lat":49.229633,"lon":16.595447,"is_passed":false},{"stop_id":"U1566Z6","name":"Semilasso","arrival_time":"16:10:00","departure_time":"16:10:00","lat":49.228248,"lon":16.593466,"is_passed":false},{"stop_id":"U1171Z4","name":"Husitská","arrival_time":"16:12:00","departure_time":"16:12:00","lat":49.224063,"lon":16.593994,"is_passed":false},{"stop_id":"U1586Z3","name":"Slovanské náměstí","arrival_time":"16:13:00","departure_time":"16:13:00","lat":49.223525,"lon":16.591009,"is_passed":false},{"stop_id":"U1567Z5","name":"Skácelova","arrival_time":"16:14:00","departure_time":"16:14:00","lat":49.221353,"lon":16.584711,"is_passed":false},{"stop_id":"U1777Z1","name":"Záhřebská","arrival_time":"16:16:00","departure_time":"16:16:00","lat":49.219602,"lon":16.579157,"is_passed":false},{"stop_id":"U1528Z3","name":"Přívrat","arrival_time":"16:17:00","departure_time":"16:17:00","lat":49.218788,"lon":16.574147,"is_passed":false},{"stop_id":"U1758Z1","name":"Vrázova","arrival_time":"16:18:00","departure_time":"16:18:00","lat":49.216968,"lon":16.568321,"is_passed":false},{"stop_id":"U1651Z1","name":"Štursova","arrival_time":"16:19:00","departure_time":"16:19:00","lat":49.216462,"lon":16.563614,"is_passed":false},{"stop_id":"U1502Z1","name":"Podveská","arrival_time":"16:20:00","departure_time":"16:20:00","lat":49.217623,"lon":16.559017,"is_passed":false},{"stop_id":"U1633Z3","name":"Svratecká","arrival_time":"16:21:00","departure_time":"16:21:00","lat":49.219008,"lon":16.554451,"is_passed":false},{"stop_id":"U1345Z1","name":"Lísky","arrival_time":"16:22:00","departure_time":"16:22:00","lat":49.219825,"lon":16.548868,"is_passed":false},{"stop_id":"U1493Z3","name":"Podlesí","arrival_time":"16:23:00","departure_time":"16:23:00","lat":49.218861,"lon":16.542049,"is_passed":false},{"stop_id":"U1226Z3","name":"Kamenolom","arrival_time":"16:24:00","departure_time":"16:24:00","lat":49.222506,"lon":16.537085,"is_passed":false},{"stop_id":"U1796Z7","name":"Zoologická zahrada","arrival_time":"16:28:00","departure_time":"16:28:00","lat":49.227823,"lon":16.531364,"is_passed":false},{"stop_id":"U1417Z1","name":"Náměstí 28. dubna","arrival_time":"16:29:00","departure_time":"16:29:00","lat":49.225188,"lon":16.531132,"is_passed":false},{"stop_id":"U1752Z1","name":"Vondrákova","arrival_time":"16:30:00","departure_time":"16:30:00","lat":49.221303,"lon":16.528376,"is_passed":false},{"stop_id":"U1326Z1","name":"Laštůvkova","arrival_time":"16:31:00","departure_time":"16:31:00","lat":49.220185,"lon":16.525212,"is_passed":false},{"stop_id":"U1107Z1","name":"Filipova","arrival_time":"16:32:00","departure_time":"16:32:00","lat":49.217684,"lon":16.525123,"is_passed":false},{"stop_id":"U1062Z1","name":"Černého","arrival_time":"16:34:00","departure_time":"16:46:00","lat":49.214083,"lon":16.522812,"is_passed":false}],"45309":[{"stop_id":"U1062Z2","name":"Černého","arrival_time":"16:46:00","departure_time":"16:46:00","lat":49.213885,"lon":16.523087,"is_passed":false},{"stop_id":"U1107Z2","name":"Filipova","arrival_time":"16:47:00","departure_time":"16:47:00","lat":49.217593,"lon":16.525217,"is_passed":false},{"stop_id":"U1326Z4","name":"Laštůvkova","arrival_time":"16:48:00","departure_time":"16:48:00","lat":49.220549,"lon":16.526237,"is_passed":false},{"stop_id":"U1752Z2","name":"Vondrákova","arrival_time":"16:49:00","departure_time":"16:49:00","lat":49.221445,"lon":16.528853,"is_passed":false},{"stop_id":"U1417Z2","name":"Náměstí 28. dubna","arrival_time":"16:50:00","departure_time":"16:50:00","lat":49.226314,"lon":16.53213,"is_passed":false},{"stop_id":"U1226Z4","name":"Kamenolom","arrival_time":"16:52:00","departure_time":"16:52:00","lat":49.221655,"lon":16.536983,"is_passed":false},{"stop_id":"U1493Z4","name":"Podlesí","arrival_time":"16:53:00","departure_time":"16:53:00","lat":49.218759,"lon":16.542623,"is_passed":false},{"stop_id":"U1345Z2","name":"Lísky","arrival_time":"16:54:00","departure_time":"16:54:00","lat":49.219967,"lon":16.549281,"is_passed":false},{"stop_id":"U1633Z4","name":"Svratecká","arrival_time":"16:56:00","departure_time":"16:56:00","lat":49.218696,"lon":16.554399,"is_passed":false},{"stop_id":"U1502Z2","name":"Podveská","arrival_time":"16:57:00","departure_time":"16:57:00","lat":49.217607,"lon":16.558178,"is_passed":false},{"stop_id":"U1651Z2","name":"Štursova","arrival_time":"16:58:00","departure_time":"16:58:00","lat":49.215854,"lon":16.564522,"is_passed":false},{"stop_id":"U1758Z2","name":"Vrázova","arrival_time":"16:59:00","departure_time":"16:59:00","lat":49.216977,"lon":16.568646,"is_passed":false},{"stop_id":"U1528Z4","name":"Přívrat","arrival_time":"17:01:00","departure_time":"17:01:00","lat":49.218647,"lon":16.574085,"is_passed":false},{"stop_id":"U1777Z2","name":"Záhřebská","arrival_time":"17:02:00","departure_time":"17:02:00","lat":49.219845,"lon":16.580415,"is_passed":false},{"stop_id":"U1567Z6","name":"Skácelova","arrival_time":"17:04:00","departure_time":"17:04:00","lat":49.22163,"lon":16.585935,"is_passed":false},{"stop_id":"U1586Z4","name":"Slovanské náměstí","arrival_time":"17:05:00","departure_time":"17:05:00","lat":49.222774,"lon":16.591332,"is_passed":false},{"stop_id":"U1171Z3","name":"Husitská","arrival_time":"17:06:00","departure_time":"17:06:00","lat":49.223851,"lon":16.594116,"is_passed":false},{"stop_id":"U1566Z4","name":"Semilasso","arrival_time":"17:08:00","departure_time":"17:08:00","lat":49.228055,"lon":16.593438,"is_passed":false},{"stop_id":"U1286Z3","name":"Královo Pole, nádraží","arrival_time":"17:09:00","departure_time":"17:09:00","lat":49.229218,"lon":16.596271,"is_passed":false},{"stop_id":"U1388Z2","name":"Mojmírovo náměstí","arrival_time":"17:10:00","departure_time":"17:10:00","lat":49.226499,"lon":16.598423,"is_passed":false},{"stop_id":"U1150Z1","name":"Högrova","arrival_time":"17:12:00","departure_time":"17:12:00","lat":49.228296,"lon":16.604528,"is_passed":false},{"stop_id":"U1195Z1","name":"Jarmily Kurandové","arrival_time":"17:12:00","departure_time":"17:12:00","lat":49.230235,"lon":16.604438,"is_passed":false},{"stop_id":"U1399Z1","name":"Moskalykova","arrival_time":"17:13:00","departure_time":"17:13:00","lat":49.231252,"lon":16.607921,"is_passed":false},{"stop_id":"U1564Z1","name":"Sadová","arrival_time":"17:14:00","departure_time":"17:14:00","lat":49.234166,"lon":16.603978,"is_passed":false},{"stop_id":"U1130Z2","name":"Hamerláky","arrival_time":"17:15:00","departure_time":"17:15:00","lat":49.237225,"lon":16.60407,"is_passed":false},{"stop_id":"U1407Z1","name":"Myslivecký stadion","arrival_time":"17:16:00","departure_time":"17:16:00","lat":49.241317,"lon":16.609929,"is_passed":false},{"stop_id":"U1711Z1","name":"Útěchovská","arrival_time":"17:17:00","departure_time":"17:17:00","lat":49.2475,"lon":16.616402,"is_passed":false},{"stop_id":"U1091Z1","name":"Dohnalova","arrival_time":"17:18:00","departure_time":"17:18:00","lat":49.251124,"lon":16.618901,"is_passed":false},{"stop_id":"U1412Z1","name":"Na kovárně","arrival_time":"17:19:00","departure_time":"17:19:00","lat":49.253213,"lon":16.620275,"is_passed":false},{"stop_id":"U1548Z1","name":"Rozárka","arrival_time":"17:20:00","departure_time":"17:20:00","lat":49.254486,"lon":16.622791,"is_passed":false},{"stop_id":"U1235Z3","name":"Klarisky","arrival_time":"17:22:00","departure_time":"17:26:00","lat":49.256942,"lon":16.622725,"is_passed":false}],"45310":[{"stop_id":"U1235Z4","name":"Klarisky","arrival_time":"17:26:00","departure_time":"17:26:00","lat":49.257063,"lon":16.622604,"is_passed":false},{"stop_id":"U1412Z2","name":"Na kovárně","arrival_time":"17:27:00","departure_time":"17:27:00","lat":49.254426,"lon":16.620777,"is_passed":false},{"stop_id":"U1091Z2","name":"Dohnalova","arrival_time":"17:28:00","departure_time":"17:28:00","lat":49.249657,"lon":16.617775,"is_passed":false},{"stop_id":"U1711Z2","name":"Útěchovská","arrival_time":"17:29:00","departure_time":"17:29:00","lat":49.246974,"lon":16.61581,"is_passed":false},{"stop_id":"U1407Z2","name":"Myslivecký stadion","arrival_time":"17:30:00","departure_time":"17:30:00","lat":49.241075,"lon":16.609359,"is_passed":false},{"stop_id":"U1130Z1","name":"Hamerláky","arrival_time":"17:31:00","departure_time":"17:31:00","lat":49.237082,"lon":16.603873,"is_passed":false},{"stop_id":"U1564Z2","name":"Sadová","arrival_time":"17:32:00","departure_time":"17:32:00","lat":49.233904,"lon":16.604679,"is_passed":false},{"stop_id":"U1399Z2","name":"Moskalykova","arrival_time":"17:33:00","departure_time":"17:33:00","lat":49.23163,"lon":16.608178,"is_passed":false},{"stop_id":"U1150Z2","name":"Högrova","arrival_time":"17:34:00","departure_time":"17:34:00","lat":49.229128,"lon":16.604259,"is_passed":false},{"stop_id":"U1388Z1","name":"Mojmírovo náměstí","arrival_time":"17:36:00","departure_time":"17:36:00","lat":49.226134,"lon":16.597399,"is_passed":false},{"stop_id":"U1286Z5","name":"Královo Pole, nádraží","arrival_time":"17:39:00","departure_time":"17:39:00","lat":49.229633,"lon":16.595447,"is_passed":false},{"stop_id":"U1566Z6","name":"Semilasso","arrival_time":"17:40:00","departure_time":"17:40:00","lat":49.228248,"lon":16.593466,"is_passed":false},{"stop_id":"U1171Z4","name":"Husitská","arrival_time":"17:42:00","departure_time":"17:42:00","lat":49.224063,"lon":16.593994,"is_passed":false},{"stop_id":"U1586Z3","name":"Slovanské náměstí","arrival_time":"17:43:00","departure_time":"17:43:00","lat":49.223525,"lon":16.591009,"is_passed":false},{"stop_id":"U1567Z5","name":"Skácelova","arrival_time":"17:44:00","departure_time":"17:44:00","lat":49.221353,"lon":16.584711,"is_passed":false},{"stop_id":"U1777Z1","name":"Záhřebská","arrival_time":"17:46:00","departure_time":"17:46:00","lat":49.219602,"lon":16.579157,"is_passed":false},{"stop_id":"U1528Z3","name":"Přívrat","arrival_time":"17:47:00","departure_time":"17:47:00","lat":49.218788,"lon":16.574147,"is_passed":false},{"stop_id":"U1758Z1","name":"Vrázova","arrival_time":"17:48:00","departure_time":"17:48:00","lat":49.216968,"lon":16.568321,"is_passed":false},{"stop_id":"U1651Z1","name":"Štursova","arrival_time":"17:49:00","departure_time":"17:49:00","lat":49.216462,"lon":16.563614,"is_passed":false},{"stop_id":"U1502Z1","name":"Podveská","arrival_time":"17:50:00","departure_time":"17:50:00","lat":49.217623,"lon":16.559017,"is_passed":false},{"stop_id":"U1633Z3","name":"Svratecká","arrival_time":"17:51:00","departure_time":"17:51:00","lat":49.219008,"lon":16.554451,"is_passed":false},{"stop_id":"U1345Z1","name":"Lísky","arrival_time":"17:52:00","departure_time":"17:52:00","lat":49.219825,"lon":16.548868,"is_passed":false},{"stop_id":"U1493Z3","name":"Podlesí","arrival_time":"17:53:00","departure_time":"17:53:00","lat":49.218861,"lon":16.542049,"is_passed":false},{"stop_id":"U1226Z3","name":"Kamenolom","arrival_time":"17:54:00","departure_time":"17:54:00","lat":49.222506,"lon":16.537085,"is_passed":false},{"stop_id":"U1796Z7","name":"Zoologická zahrada","arrival_time":"17:58:00","departure_time":"17:58:00","lat":49.227823,"lon":16.531364,"is_passed":false},{"stop_id":"U1417Z1","name":"Náměstí 28. dubna","arrival_time":"17:59:00","departure_time":"17:59:00","lat":49.225188,"lon":16.531132,"is_passed":false},{"stop_id":"U1752Z1","name":"Vondrákova","arrival_time":"18:00:00","departure_time":"18:00:00","lat":49.221303,"lon":16.528376,"is_passed":false},{"stop_id":"U1326Z1","name":"Laštůvkova","arrival_time":"18:01:00","departure_time":"18:01:00","lat":49.220185,"lon":16.525212,"is_passed":false},{"stop_id":"U1107Z1","name":"Filipova","arrival_time":"18:02:00","departure_time":"18:02:00","lat":49.217684,"lon":16.525123,"is_passed":false},{"stop_id":"U1062Z1","name":"Černého","arrival_time":"18:04:00","departure_time":"18:46:00","lat":49.214083,"lon":16.522812,"is_passed":false}],"45311":[{"stop_id":"U1062Z2","name":"Černého","arrival_time":"18:46:00","departure_time":"18:46:00","lat":49.213885,"lon":16.523087,"is_passed":false},{"stop_id":"U1107Z2","name":"Filipova","arrival_time":"18:47:00","departure_time":"18:47:00","lat":49.217593,"lon":16.525217,"is_passed":false},{"stop_id":"U1326Z4","name":"Laštůvkova","arrival_time":"18:48:00","departure_time":"18:48:00","lat":49.220549,"lon":16.526237,"is_passed":false},{"stop_id":"U1752Z2","name":"Vondrákova","arrival_time":"18:49:00","departure_time":"18:49:00","lat":49.221445,"lon":16.528853,"is_passed":false},{"stop_id":"U1417Z2","name":"Náměstí 28. dubna","arrival_time":"18:50:00","departure_time":"18:50:00","lat":49.226314,"lon":16.53213,"is_passed":false},{"stop_id":"U1226Z4","name":"Kamenolom","arrival_time":"18:52:00","departure_time":"18:52:00","lat":49.221655,"lon":16.536983,"is_passed":false},{"stop_id":"U1493Z4","name":"Podlesí","arrival_time":"18:53:00","departure_time":"18:53:00","lat":49.218759,"lon":16.542623,"is_passed":false},{"stop_id":"U1345Z2","name":"Lísky","arrival_time":"18:54:00","departure_time":"18:54:00","lat":49.219967,"lon":16.549281,"is_passed":false},{"stop_id":"U1633Z4","name":"Svratecká","arrival_time":"18:56:00","departure_time":"18:56:00","lat":49.218696,"lon":16.554399,"is_passed":false},{"stop_id":"U1502Z2","name":"Podveská","arrival_time":"18:57:00","departure_time":"18:57:00","lat":49.217607,"lon":16.558178,"is_passed":false},{"stop_id":"U1651Z2","name":"Štursova","arrival_time":"18:58:00","departure_time":"18:58:00","lat":49.215854,"lon":16.564522,"is_passed":false},{"stop_id":"U1758Z2","name":"Vrázova","arrival_time":"18:59:00","departure_time":"18:59:00","lat":49.216977,"lon":16.568646,"is_passed":false},{"stop_id":"U1528Z4","name":"Přívrat","arrival_time":"19:01:00","departure_time":"19:01:00","lat":49.218647,"lon":16.574085,"is_passed":false},{"stop_id":"U1777Z2","name":"Záhřebská","arrival_time":"19:02:00","departure_time":"19:02:00","lat":49.219845,"lon":16.580415,"is_passed":false},{"stop_id":"U1567Z6","name":"Skácelova","arrival_time":"19:04:00","departure_time":"19:04:00","lat":49.22163,"lon":16.585935,"is_passed":false},{"stop_id":"U1586Z4","name":"Slovanské náměstí","arrival_time":"19:05:00","departure_time":"19:05:00","lat":49.222774,"lon":16.591332,"is_passed":false},{"stop_id":"U1171Z3","name":"Husitská","arrival_time":"19:06:00","departure_time":"19:06:00","lat":49.223851,"lon":16.594116,"is_passed":false},{"stop_id":"U1566Z4","name":"Semilasso","arrival_time":"19:08:00","departure_time":"19:08:00","lat":49.228055,"lon":16.593438,"is_passed":false},{"stop_id":"U1286Z3","name":"Královo Pole, nádraží","arrival_time":"19:09:00","departure_time":"19:09:00","lat":49.229218,"lon":16.596271,"is_passed":false},{"stop_id":"U1388Z2","name":"Mojmírovo náměstí","arrival_time":"19:10:00","departure_time":"19:10:00","lat":49.226499,"lon":16.598423,"is_passed":false},{"stop_id":"U1150Z1","name":"Högrova","arrival_time":"19:12:00","departure_time":"19:12:00","lat":49.228296,"lon":16.604528,"is_passed":false},{"stop_id":"U1195Z1","name":"Jarmily Kurandové","arrival_time":"19:12:00","departure_time":"19:12:00","lat":49.230235,"lon":16.604438,"is_passed":false},{"stop_id":"U1399Z1","name":"Moskalykova","arrival_time":"19:13:00","departure_time":"19:13:00","lat":49.231252,"lon":16.607921,"is_passed":false},{"stop_id":"U1564Z1","name":"Sadová","arrival_time":"19:14:00","departure_time":"19:14:00","lat":49.234166,"lon":16.603978,"is_passed":false},{"stop_id":"U1130Z2","name":"Hamerláky","arrival_time":"19:15:00","departure_time":"19:15:00","lat":49.237225,"lon":16.60407,"is_passed":false},{"stop_id":"U1407Z1","name":"Myslivecký stadion","arrival_time":"19:16:00","departure_time":"19:16:00","lat":49.241317,"lon":16.609929,"is_passed":false},{"stop_id":"U1711Z1","name":"Útěchovská","arrival_time":"19:17:00","departure_time":"19:17:00","lat":49.2475,"lon":16.616402,"is_passed":false},{"stop_id":"U1091Z1","name":"Dohnalova","arrival_time":"19:18:00","departure_time":"19:18:00","lat":49.251124,"lon":16.618901,"is_passed":false},{"stop_id":"U1412Z1","name":"Na kovárně","arrival_time":"19:19:00","departure_time":"19:19:00","lat":49.253213,"lon":16.620275,"is_passed":false},{"stop_id":"U1548Z1","name":"Rozárka","arrival_time":"19:20:00","departure_time":"19:20:00","lat":49.254486,"lon":16.622791,"is_passed":false},{"stop_id":"U1235Z3","name":"Klarisky","arrival_time":"19:22:00","departure_time":"19:26:00","lat":49.256942,"lon":16.622725,"is_passed":false}],"45312":[{"stop_id":"U1235Z4","name":"Klarisky","arrival_time":"19:26:00","departure_time":"19:26:00","lat":49.257063,"lon":16.622604,"is_passed":false},{"stop_id":"U1412Z2","name":"Na kovárně","arrival_time":"19:27:00","departure_time":"19:27:00","lat":49.254426,"lon":16.620777,"is_passed":false},{"stop_id":"U1091Z2","name":"Dohnalova","arrival_time":"19:28:00","departure_time":"19:28:00","lat":49.249657,"lon":16.617775,"is_passed":false},{"stop_id":"U1711Z2","name":"Útěchovská","arrival_time":"19:29:00","departure_time":"19:29:00","lat":49.246974,"lon":16.61581,"is_passed":false},{"stop_id":"U1407Z2","name":"Myslivecký stadion","arrival_time":"19:30:00","departure_time":"19:30:00","lat":49.241075,"lon":16.609359,"is_passed":false},{"stop_id":"U1130Z1","name":"Hamerláky","arrival_time":"19:31:00","departure_time":"19:31:00","lat":49.237082,"lon":16.603873,"is_passed":false},{"stop_id":"U1564Z2","name":"Sadová","arrival_time":"19:32:00","departure_time":"19:32:00","lat":49.233904,"lon":16.604679,"is_passed":false},{"stop_id":"U1399Z2","name":"Moskalykova","arrival_time":"19:33:00","departure_time":"19:33:00","lat":49.23163,"lon":16.608178,"is_passed":false},{"stop_id":"U1150Z2","name":"Högrova","arrival_time":"19:34:00","departure_time":"19:34:00","lat":49.229128,"lon":16.604259,"is_passed":false},{"stop_id":"U1388Z1","name":"Mojmírovo náměstí","arrival_time":"19:36:00","departure_time":"19:36:00","lat":49.226134,"lon":16.597399,"is_passed":false},{"stop_id":"U1286Z5","name":"Královo Pole, nádraží","arrival_time":"19:39:00","departure_time":"19:42:00","lat":49.229633,"lon":16.595447,"is_passed":false},{"stop_id":"U1566Z6","name":"Semilasso","arrival_time":"19:43:00","departure_time":"19:43:00","lat":49.228248,"lon":16.593466,"is_passed":false},{"stop_id":"U1171Z4","name":"Husitská","arrival_time":"19:45:00","departure_time":"19:45:00","lat":49.224063,"lon":16.593994,"is_passed":false},{"stop_id":"U1586Z3","name":"Slovanské náměstí","arrival_time":"19:46:00","departure_time":"19:46:00","lat":49.223525,"lon":16.591009,"is_passed":false},{"stop_id":"U1567Z5","name":"Skácelova","arrival_time":"19:47:00","departure_time":"19:47:00","lat":49.221353,"lon":16.584711,"is_passed":false},{"stop_id":"U1777Z1","name":"Záhřebská","arrival_time":"19:49:00","departure_time":"19:49:00","lat":49.219602,"lon":16.579157,"is_passed":false},{"stop_id":"U1528Z3","name":"Přívrat","arrival_time":"19:50:00","departure_time":"19:50:00","lat":49.218788,"lon":16.574147,"is_passed":false},{"stop_id":"U1758Z1","name":"Vrázova","arrival_time":"19:51:00","departure_time":"19:51:00","lat":49.216968,"lon":16.568321,"is_passed":false},{"stop_id":"U1651Z1","name":"Štursova","arrival_time":"19:52:00","departure_time":"19:52:00","lat":49.216462,"lon":16.563614,"is_passed":false},{"stop_id":"U1502Z1","name":"Podveská","arrival_time":"19:53:00","departure_time":"19:53:00","lat":49.217623,"lon":16.559017,"is_passed":false},{"stop_id":"U1633Z3","name":"Svratecká","arrival_time":"19:54:00","departure_time":"19:54:00","lat":49.219008,"lon":16.554451,"is_passed":false},{"stop_id":"U1345Z1","name":"Lísky","arrival_time":"19:55:00","departure_time":"19:55:00","lat":49.219825,"lon":16.548868,"is_passed":false},{"stop_id":"U1493Z3","name":"Podlesí","arrival_time":"19:56:00","departure_time":"19:56:00","lat":49.218861,"lon":16.542049,"is_passed":false},{"stop_id":"U1226Z3","name":"Kamenolom","arrival_time":"19:57:00","departure_time":"19:57:00","lat":49.222506,"lon":16.537085,"is_passed":false},{"stop_id":"U1796Z7","name":"Zoologická zahrada","arrival_time":"20:01:00","departure_time":"20:01:00","lat":49.227823,"lon":16.531364,"is_passed":false},{"stop_id":"U1417Z1","name":"Náměstí 28. dubna","arrival_time":"20:02:00","departure_time":"20:02:00","lat":49.225188,"lon":16.531132,"is_passed":false},{"stop_id":"U1752Z1","name":"Vondrákova","arrival_time":"20:03:00","departure_time":"20:03:00","lat":49.221303,"lon":16.528376,"is_passed":false},{"stop_id":"U1326Z1","name":"Laštůvkova","arrival_time":"20:04:00","departure_time":"20:04:00","lat":49.220185,"lon":16.525212,"is_passed":false},{"stop_id":"U1107Z1","name":"Filipova","arrival_time":"20:05:00","departure_time":"20:05:00","lat":49.217684,"lon":16.525123,"is_passed":false},{"stop_id":"U1062Z1","name":"Černého","arrival_time":"20:07:00","departure_time":"20:33:00","lat":49.214083,"lon":16.522812,"is_passed":false}],"45313":[{"stop_id":"U1062Z2","name":"Černého","arrival_time":"20:33:00","departure_time":"20:33:00","lat":49.213885,"lon":16.523087,"is_passed":false},{"stop_id":"U1107Z2","name":"Filipova","arrival_time":"20:34:00","departure_time":"20:34:00","lat":49.217593,"lon":16.525217,"is_passed":false},{"stop_id":"U1326Z4","name":"Laštůvkova","arrival_time":"20:35:00","departure_time":"20:35:00","lat":49.220549,"lon":16.526237,"is_passed":false},{"stop_id":"U1752Z2","name":"Vondrákova","arrival_time":"20:36:00","departure_time":"20:36:00","lat":49.221445,"lon":16.528853,"is_passed":false},{"stop_id":"U1417Z2","name":"Náměstí 28. dubna","arrival_time":"20:37:00","departure_time":"20:37:00","lat":49.226314,"lon":16.53213,"is_passed":false},{"stop_id":"U1226Z4","name":"Kamenolom","arrival_time":"20:39:00","departure_time":"20:39:00","lat":49.221655,"lon":16.536983,"is_passed":false},{"stop_id":"U1493Z4","name":"Podlesí","arrival_time":"20:40:00","departure_time":"20:40:00","lat":49.218759,"lon":16.542623,"is_passed":false},{"stop_id":"U1345Z2","name":"Lísky","arrival_time":"20:41:00","departure_time":"20:41:00","lat":49.219967,"lon":16.549281,"is_passed":false},{"stop_id":"U1633Z4","name":"Svratecká","arrival_time":"20:42:00","departure_time":"20:42:00","lat":49.218696,"lon":16.554399,"is_passed":false},{"stop_id":"U1502Z2","name":"Podveská","arrival_time":"20:43:00","departure_time":"20:43:00","lat":49.217607,"lon":16.558178,"is_passed":false},{"stop_id":"U1651Z2","name":"Štursova","arrival_time":"20:44:00","departure_time":"20:44:00","lat":49.215854,"lon":16.564522,"is_passed":false},{"stop_id":"U1758Z2","name":"Vrázova","arrival_time":"20:45:00","departure_time":"20:45:00","lat":49.216977,"lon":16.568646,"is_passed":false},{"stop_id":"U1528Z4","name":"Přívrat","arrival_time":"20:47:00","departure_time":"20:47:00","lat":49.218647,"lon":16.574085,"is_passed":false},{"stop_id":"U1777Z2","name":"Záhřebská","arrival_time":"20:48:00","departure_time":"20:48:00","lat":49.219845,"lon":16.580415,"is_passed":false},{"stop_id":"U1567Z6","name":"Skácelova","arrival_time":"20:50:00","departure_time":"20:50:00","lat":49.22163,"lon":16.585935,"is_passed":false},{"stop_id":"U1586Z4","name":"Slovanské náměstí","arrival_time":"20:51:00","departure_time":"20:51:00","lat":49.222774,"lon":16.591332,"is_passed":false},{"stop_id":"U1171Z3","name":"Husitská","arrival_time":"20:52:00","departure_time":"20:52:00","lat":49.223851,"lon":16.594116,"is_passed":false},{"stop_id":"U1566Z4","name":"Semilasso","arrival_time":"20:54:00","departure_time":"20:54:00","lat":49.228055,"lon":16.593438,"is_passed":false},{"stop_id":"U1286Z3","name":"Královo Pole, nádraží","arrival_time":"20:55:00","departure_time":"20:55:00","lat":49.229218,"lon":16.596271,"is_passed":false},{"stop_id":"U1388Z2","name":"Mojmírovo náměstí","arrival_time":"20:56:00","departure_time":"20:56:00","lat":49.226499,"lon":16.598423,"is_passed":false},{"stop_id":"U1150Z1","name":"Högrova","arrival_time":"20:58:00","departure_time":"20:58:00","lat":49.228296,"lon":16.604528,"is_passed":false},{"stop_id":"U1195Z1","name":"Jarmily Kurandové","arrival_time":"20:58:00","departure_time":"20:58:00","lat":49.230235,"lon":16.604438,"is_passed":false},{"stop_id":"U1399Z1","name":"Moskalykova","arrival_time":"20:59:00","departure_time":"20:59:00","lat":49.231252,"lon":16.607921,"is_passed":false},{"stop_id":"U1564Z1","name":"Sadová","arrival_time":"21:00:00","departure_time":"21:00:00","lat":49.234166,"lon":16.603978,"is_passed":false},{"stop_id":"U1130Z2","name":"Hamerláky","arrival_time":"21:01:00","departure_time":"21:01:00","lat":49.237225,"lon":16.60407,"is_passed":false},{"stop_id":"U1407Z1","name":"Myslivecký stadion","arrival_time":"21:02:00","departure_time":"21:02:00","lat":49.241317,"lon":16.609929,"is_passed":false},{"stop_id":"U1711Z1","name":"Útěchovská","arrival_time":"21:03:00","departure_time":"21:03:00","lat":49.2475,"lon":16.616402,"is_passed":false},{"stop_id":"U1091Z1","name":"Dohnalova","arrival_time":"21:04:00","departure_time":"21:04:00","lat":49.251124,"lon":16.618901,"is_passed":false},{"stop_id":"U1412Z1","name":"Na kovárně","arrival_time":"21:05:00","departure_time":"21:05:00","lat":49.253213,"lon":16.620275,"is_passed":false},{"stop_id":"U1548Z1","name":"Rozárka","arrival_time":"21:06:00","departure_time":"21:06:00","lat":49.254486,"lon":16.622791,"is_passed":false},{"stop_id":"U1235Z3","name":"Klarisky","arrival_time":"21:08:00","departure_time":"21:10:00","lat":49.256942,"lon":16.622725,"is_passed":false}],"45314":[{"stop_id":"U1235Z4","name":"Klarisky","arrival_time":"21:10:00","departure_time":"21:10:00","lat":49.257063,"lon":16.622604,"is_passed":false},{"stop_id":"U1412Z2","name":"Na kovárně","arrival_time":"21:10:00","departure_time":"21:10:00","lat":49.254426,"lon":16.620777,"is_passed":false},{"stop_id":"U1091Z2","name":"Dohnalova","arrival_time":"21:11:00","departure_time":"21:11:00","lat":49.249657,"lon":16.617775,"is_passed":false},{"stop_id":"U1711Z2","name":"Útěchovská","arrival_time":"21:12:00","departure_time":"21:12:00","lat":49.246974,"lon":16.61581,"is_passed":false},{"stop_id":"U1407Z2","name":"Myslivecký stadion","arrival_time":"21:13:00","departure_time":"21:13:00","lat":49.241075,"lon":16.609359,"is_passed":false},{"stop_id":"U1130Z1","name":"Hamerláky","arrival_time":"21:14:00","departure_time":"21:14:00","lat":49.237082,"lon":16.603873,"is_passed":false},{"stop_id":"U1564Z2","name":"Sadová","arrival_time":"21:15:00","departure_time":"21:15:00","lat":49.233904,"lon":16.604679,"is_passed":false},{"stop_id":"U1399Z2","name":"Moskalykova","arrival_time":"21:16:00","departure_time":"21:16:00","lat":49.23163,"lon":16.608178,"is_passed":false},{"stop_id":"U1150Z2","name":"Högrova","arrival_time":"21:17:00","departure_time":"21:17:00","lat":49.229128,"lon":16.604259,"is_passed":false},{"stop_id":"U1388Z1","name":"Mojmírovo náměstí","arrival_time":"21:19:00","departure_time":"21:19:00","lat":49.226134,"lon":16.597399,"is_passed":false},{"stop_id":"U1286Z5","name":"Královo Pole, nádraží","arrival_time":"21:22:00","departure_time":"21:22:00","lat":49.229633,"lon":16.595447,"is_passed":false},{"stop_id":"U1566Z6","name":"Semilasso","arrival_time":"21:23:00","departure_time":"21:23:00","lat":49.228248,"lon":16.593466,"is_passed":false},{"stop_id":"U1171Z4","name":"Husitská","arrival_time":"21:25:00","departure_time":"21:25:00","lat":49.224063,"lon":16.593994,"is_passed":false},{"stop_id":"U1586Z3","name":"Slovanské náměstí","arrival_time":"21:26:00","departure_time":"21:26:00","lat":49.223525,"lon":16.591009,"is_passed":false},{"stop_id":"U1567Z5","name":"Skácelova","arrival_time":"21:27:00","departure_time":"21:27:00","lat":49.221353,"lon":16.584711,"is_passed":false},{"stop_id":"U1777Z1","name":"Záhřebská","arrival_time":"21:29:00","departure_time":"21:29:00","lat":49.219602,"lon":16.579157,"is_passed":false},{"stop_id":"U1528Z3","name":"Přívrat","arrival_time":"21:30:00","departure_time":"21:30:00","lat":49.218788,"lon":16.574147,"is_passed":false},{"stop_id":"U1758Z1","name":"Vrázova","arrival_time":"21:31:00","departure_time":"21:31:00","lat":49.216968,"lon":16.568321,"is_passed":false},{"stop_id":"U1651Z1","name":"Štursova","arrival_time":"21:32:00","departure_time":"21:32:00","lat":49.216462,"lon":16.563614,"is_passed":false},{"stop_id":"U1502Z1","name":"Podveská","arrival_time":"21:33:00","departure_time":"21:34:00","lat":49.217623,"lon":16.559017,"is_passed":false},{"stop_id":"U1633Z3","name":"Svratecká","arrival_time":"21:35:00","departure_time":"21:35:00","lat":49.219008,"lon":16.554451,"is_passed":false},{"stop_id":"U1345Z1","name":"Lísky","arrival_time":"21:36:00","departure_time":"21:36:00","lat":49.219825,"lon":16.548868,"is_passed":false},{"stop_id":"U1493Z3","name":"Podlesí","arrival_time":"21:37:00","departure_time":"21:37:00","lat":49.218861,"lon":16.542049,"is_passed":false},{"stop_id":"U1226Z3","name":"Kamenolom","arrival_time":"21:38:00","departure_time":"21:38:00","lat":49.222506,"lon":16.537085,"is_passed":false},{"stop_id":"U1796Z7","name":"Zoologická zahrada","arrival_time":"21:41:00","departure_time":"21:41:00","lat":49.227823,"lon":16.531364,"is_passed":false},{"stop_id":"U1417Z1","name":"Náměstí 28. dubna","arrival_time":"21:42:00","departure_time":"21:42:00","lat":49.225188,"lon":16.531132,"is_passed":false},{"stop_id":"U1752Z1","name":"Vondrákova","arrival_time":"21:43:00","departure_time":"21:43:00","lat":49.221303,"lon":16.528376,"is_passed":false},{"stop_id":"U1326Z1","name":"Laštůvkova","arrival_time":"21:44:00","departure_time":"21:44:00","lat":49.220185,"lon":16.525212,"is_passed":false},{"stop_id":"U1107Z1","name":"Filipova","arrival_time":"21:45:00","departure_time":"21:45:00","lat":49.217684,"lon":16.525123,"is_passed":false},{"stop_id":"U1062Z1","name":"Černého","arrival_time":"21:47:00","departure_time":"22:03:00","lat":49.214083,"lon":16.522812,"is_passed":false}],"45315":[{"stop_id":"U1062Z2","name":"Černého","arrival_time":"22:03:00","departure_time":"22:03:00","lat":49.213885,"lon":16.523087,"is_passed":false},{"stop_id":"U1107Z2","name":"Filipova","arrival_time":"22:04:00","departure_time":"22:04:00","lat":49.217593,"lon":16.525217,"is_passed":false},{"stop_id":"U1326Z4","name":"Laštůvkova","arrival_time":"22:05:00","departure_time":"22:05:00","lat":49.220549,"lon":16.526237,"is_passed":false},{"stop_id":"U1752Z2","name":"Vondrákova","arrival_time":"22:06:00","departure_time":"22:06:00","lat":49.221445,"lon":16.528853,"is_passed":false},{"stop_id":"U1417Z2","name":"Náměstí 28. dubna","arrival_time":"22:07:00","departure_time":"22:07:00","lat":49.226314,"lon":16.53213,"is_passed":false},{"stop_id":"U1226Z4","name":"Kamenolom","arrival_time":"22:09:00","departure_time":"22:09:00","lat":49.221655,"lon":16.536983,"is_passed":false},{"stop_id":"U1493Z4","name":"Podlesí","arrival_time":"22:10:00","departure_time":"22:10:00","lat":49.218759,"lon":16.542623,"is_passed":false},{"stop_id":"U1345Z2","name":"Lísky","arrival_time":"22:11:00","departure_time":"22:11:00","lat":49.219967,"lon":16.549281,"is_passed":false},{"stop_id":"U1633Z4","name":"Svratecká","arrival_time":"22:12:00","departure_time":"22:12:00","lat":49.218696,"lon":16.554399,"is_passed":false},{"stop_id":"U1502Z2","name":"Podveská","arrival_time":"22:13:00","departure_time":"22:13:00","lat":49.217607,"lon":16.558178,"is_passed":false},{"stop_id":"U1651Z2","name":"Štursova","arrival_time":"22:14:00","departure_time":"22:14:00","lat":49.215854,"lon":16.564522,"is_passed":false},{"stop_id":"U1758Z2","name":"Vrázova","arrival_time":"22:15:00","departure_time":"22:15:00","lat":49.216977,"lon":16.568646,"is_passed":false},{"stop_id":"U1528Z4","name":"Přívrat","arrival_time":"22:17:00","departure_time":"22:17:00","lat":49.218647,"lon":16.574085,"is_passed":false},{"stop_id":"U1777Z2","name":"Záhřebská","arrival_time":"22:18:00","departure_time":"22:18:00","lat":49.219845,"lon":16.580415,"is_passed":false},{"stop_id":"U1567Z6","name":"Skácelova","arrival_time":"22:20:00","departure_time":"22:20:00","lat":49.22163,"lon":16.585935,"is_passed":false},{"stop_id":"U1586Z4","name":"Slovanské náměstí","arrival_time":"22:21:00","departure_time":"22:21:00","lat":49.222774,"lon":16.591332,"is_passed":false},{"stop_id":"U1171Z3","name":"Husitská","arrival_time":"22:22:00","departure_time":"22:22:00","lat":49.223851,"lon":16.594116,"is_passed":false},{"stop_id":"U1566Z4","name":"Semilasso","arrival_time":"22:24:00","departure_time":"22:24:00","lat":49.228055,"lon":16.593438,"is_passed":false},{"stop_id":"U1286Z3","name":"Královo Pole, nádraží","arrival_time":"22:25:00","departure_time":"22:25:00","lat":49.229218,"lon":16.596271,"is_passed":false},{"stop_id":"U1388Z2","name":"Mojmírovo náměstí","arrival_time":"22:26:00","departure_time":"22:26:00","lat":49.226499,"lon":16.598423,"is_passed":false},{"stop_id":"U1150Z1","name":"Högrova","arrival_time":"22:28:00","departure_time":"22:28:00","lat":49.228296,"lon":16.604528,"is_passed":false},{"stop_id":"U1195Z1","name":"Jarmily Kurandové","arrival_time":"22:28:00","departure_time":"22:28:00","lat":49.230235,"lon":16.604438,"is_passed":false},{"stop_id":"U1399Z1","name":"Moskalykova","arrival_time":"22:29:00","departure_time":"22:29:00","lat":49.231252,"lon":16.607921,"is_passed":false},{"stop_id":"U1564Z1","name":"Sadová","arrival_time":"22:30:00","departure_time":"22:30:00","lat":49.234166,"lon":16.603978,"is_passed":false},{"stop_id":"U1130Z2","name":"Hamerláky","arrival_time":"22:31:00","departure_time":"22:31:00","lat":49.237225,"lon":16.60407,"is_passed":false},{"stop_id":"U1407Z1","name":"Myslivecký stadion","arrival_time":"22:32:00","departure_time":"22:32:00","lat":49.241317,"lon":16.609929,"is_passed":false},{"stop_id":"U1711Z1","name":"Útěchovská","arrival_time":"22:33:00","departure_time":"22:33:00","lat":49.2475,"lon":16.616402,"is_passed":false},{"stop_id":"U1091Z1","name":"Dohnalova","arrival_time":"22:34:00","departure_time":"22:34:00","lat":49.251124,"lon":16.618901,"is_passed":false},{"stop_id":"U1412Z1","name":"Na kovárně","arrival_time":"22:35:00","departure_time":"22:35:00","lat":49.253213,"lon":16.620275,"is_passed":false},{"stop_id":"U1548Z1","name":"Rozárka","arrival_time":"22:36:00","departure_time":"22:36:00","lat":49.254486,"lon":16.622791,"is_passed":false},{"stop_id":"U1235Z3","name":"Klarisky","arrival_time":"22:38:00","departure_time":"22:40:00","lat":49.256942,"lon":16.622725,"is_passed":false}],"45316":[{"stop_id":"U1235Z4","name":"Klarisky","arrival_time":"22:40:00","departure_time":"22:40:00","lat":49.257063,"lon":16.622604,"is_passed":false},{"stop_id":"U1412Z2","name":"Na kovárně","arrival_time":"22:40:00","departure_time":"22:40:00","lat":49.254426,"lon":16.620777,"is_passed":false},{"stop_id":"U1091Z2","name":"Dohnalova","arrival_time":"22:41:00","departure_time":"22:41:00","lat":49.249657,"lon":16.617775,"is_passed":false},{"stop_id":"U1711Z2","name":"Útěchovská","arrival_time":"22:42:00","departure_time":"22:42:00","lat":49.246974,"lon":16.61581,"is_passed":false},{"stop_id":"U1407Z2","name":"Myslivecký stadion","arrival_time":"22:43:00","departure_time":"22:43:00","lat":49.241075,"lon":16.609359,"is_passed":false},{"stop_id":"U1130Z1","name":"Hamerláky","arrival_time":"22:44:00","departure_time":"22:44:00","lat":49.237082,"lon":16.603873,"is_passed":false},{"stop_id":"U1564Z2","name":"Sadová","arrival_time":"22:45:00","departure_time":"22:45:00","lat":49.233904,"lon":16.604679,"is_passed":false},{"stop_id":"U1399Z2","name":"Moskalykova","arrival_time":"22:46:00","departure_time":"22:46:00","lat":49.23163,"lon":16.608178,"is_passed":false},{"stop_id":"U1150Z2","name":"Högrova","arrival_time":"22:47:00","departure_time":"22:47:00","lat":49.229128,"lon":16.604259,"is_passed":false},{"stop_id":"U1388Z1","name":"Mojmírovo náměstí","arrival_time":"22:49:00","departure_time":"22:49:00","lat":49.226134,"lon":16.597399,"is_passed":false},{"stop_id":"U1286Z5","name":"Královo Pole, nádraží","arrival_time":"22:52:00","departure_time":"22:52:00","lat":49.229633,"lon":16.595447,"is_passed":false},{"stop_id":"U1566Z6","name":"Semilasso","arrival_time":"22:53:00","departure_time":"22:53:00","lat":49.228248,"lon":16.593466,"is_passed":false},{"stop_id":"U1171Z4","name":"Husitská","arrival_time":"22:55:00","departure_time":"22:55:00","lat":49.224063,"lon":16.593994,"is_passed":false},{"stop_id":"U1586Z3","name":"Slovanské náměstí","arrival_time":"22:56:00","departure_time":"22:56:00","lat":49.223525,"lon":16.591009,"is_passed":false},{"stop_id":"U1567Z5","name":"Skácelova","arrival_time":"22:57:00","departure_time":"22:57:00","lat":49.221353,"lon":16.584711,"is_passed":false},{"stop_id":"U1777Z1","name":"Záhřebská","arrival_time":"22:59:00","departure_time":"22:59:00","lat":49.219602,"lon":16.579157,"is_passed":false},{"stop_id":"U1528Z3","name":"Přívrat","arrival_time":"23:00:00","departure_time":"23:00:00","lat":49.218788,"lon":16.574147,"is_passed":false},{"stop_id":"U1758Z1","name":"Vrázova","arrival_time":"23:01:00","departure_time":"23:01:00","lat":49.216968,"lon":16.568321,"is_passed":false},{"stop_id":"U1651Z1","name":"Štursova","arrival_time":"23:02:00","departure_time":"23:02:00","lat":49.216462,"lon":16.563614,"is_passed":false},{"stop_id":"U1502Z1","name":"Podveská","arrival_time":"23:03:00","departure_time":"23:04:00","lat":49.217623,"lon":16.559017,"is_passed":false},{"stop_id":"U1633Z3","name":"Svratecká","arrival_time":"23:05:00","departure_time":"23:05:00","lat":49.219008,"lon":16.554451,"is_passed":false},{"stop_id":"U1345Z1","name":"Lísky","arrival_time":"23:06:00","departure_time":"23:06:00","lat":49.219825,"lon":16.548868,"is_passed":false},{"stop_id":"U1796Z7","name":"Zoologická zahrada","arrival_time":"23:11:00","departure_time":"23:11:00","lat":49.227823,"lon":16.531364,"is_passed":false},{"stop_id":"U1417Z1","name":"Náměstí 28. dubna","arrival_time":"23:12:00","departure_time":"23:12:00","lat":49.225188,"lon":16.531132,"is_passed":false},{"stop_id":"U1752Z1","name":"Vondrákova","arrival_time":"23:13:00","departure_time":"23:13:00","lat":49.221303,"lon":16.528376,"is_passed":false},{"stop_id":"U1326Z1","name":"Laštůvkova","arrival_time":"23:14:00","departure_time":"23:14:00","lat":49.220185,"lon":16.525212,"is_passed":false},{"stop_id":"U1107Z1","name":"Filipova","arrival_time":"23:15:00","departure_time":"23:15:00","lat":49.217684,"lon":16.525123,"is_passed":false},{"stop_id":"U1062Z1","name":"Černého","arrival_time":"23:17:00","departure_time":"23:33:00","lat":49.214083,"lon":16.522812,"is_passed":false}],"45317":[{"stop_id":"U1062Z2","name":"Černého","arrival_time":"23:33:00","departure_time":"23:33:00","lat":49.213885,"lon":16.523087,"is_passed":false},{"stop_id":"U1107Z2","name":"Filipova","arrival_time":"23:34:00","departure_time":"23:34:00","lat":49.217593,"lon":16.525217,"is_passed":false},{"stop_id":"U1326Z4","name":"Laštůvkova","arrival_time":"23:35:00","departure_time":"23:35:00","lat":49.220549,"lon":16.526237,"is_passed":false},{"stop_id":"U1752Z2","name":"Vondrákova","arrival_time":"23:36:00","departure_time":"23:36:00","lat":49.221445,"lon":16.528853,"is_passed":false},{"stop_id":"U1417Z2","name":"Náměstí 28. dubna","arrival_time":"23:37:00","departure_time":"23:37:00","lat":49.226314,"lon":16.53213,"is_passed":false},{"stop_id":"U1345Z2","name":"Lísky","arrival_time":"23:41:00","departure_time":"23:41:00","lat":49.219967,"lon":16.549281,"is_passed":false},{"stop_id":"U1633Z4","name":"Svratecká","arrival_time":"23:42:00","departure_time":"23:42:00","lat":49.218696,"lon":16.554399,"is_passed":false},{"stop_id":"U1502Z2","name":"Podveská","arrival_time":"23:43:00","departure_time":"23:43:00","lat":49.217607,"lon":16.558178,"is_passed":false},{"stop_id":"U1651Z2","name":"Štursova","arrival_time":"23:44:00","departure_time":"23:44:00","lat":49.215854,"lon":16.564522,"is_passed":false},{"stop_id":"U1758Z2","name":"Vrázova","arrival_time":"23:45:00","departure_time":"23:45:00","lat":49.216977,"lon":16.568646,"is_passed":false},{"stop_id":"U1528Z4","name":"Přívrat","arrival_time":"23:47:00","departure_time":"23:47:00","lat":49.218647,"lon":16.574085,"is_passed":false},{"stop_id":"U1777Z2","name":"Záhřebská","arrival_time":"23:48:00","departure_time":"23:48:00","lat":49.219845,"lon":16.580415,"is_passed":false},{"stop_id":"U1567Z6","name":"Skácelova","arrival_time":"23:50:00","departure_time":"23:50:00","lat":49.22163,"lon":16.585935,"is_passed":false},{"stop_id":"U1586Z4","name":"Slovanské náměstí","arrival_time":"23:51:00","departure_time":"23:51:00","lat":49.222774,"lon":16.591332,"is_passed":false},{"stop_id":"U1171Z3","name":"Husitská","arrival_time":"23:52:00","departure_time":"23:52:00","lat":49.223851,"lon":16.594116,"is_passed":false},{"stop_id":"U1566Z4","name":"Semilasso","arrival_time":"23:54:00","departure_time":"23:54:00","lat":49.228055,"lon":16.593438,"is_passed":false},{"stop_id":"U1286Z9","name":"Královo Pole, nádraží","arrival_time":"23:56:00","departure_time":"23:59:00","lat":49.229881,"lon":16.595274,"is_passed":false}],"45318":[{"stop_id":"U1766Z2","name":"Vychodilova","arrival_time":"6:49:00","departure_time":"6:49:00","lat":49.220204,"lon":16.571445,"is_passed":false},{"stop_id":"U1528Z6","name":"Přívrat","arrival_time":"6:50:00","departure_time":"6:50:00","lat":49.218109,"lon":16.574404,"is_passed":false},{"stop_id":"U1352Z2","name":"Makovského náměstí","arrival_time":"6:50:00","departure_time":"6:50:00","lat":49.217881,"lon":16.576657,"is_passed":false},{"stop_id":"U1426Z2","name":"Náměstí Svornosti","arrival_time":"6:52:00","departure_time":"6:52:00","lat":49.215179,"lon":16.58299,"is_passed":false},{"stop_id":"U1206Z2","name":"Jindřichova","arrival_time":"6:53:00","departure_time":"6:53:00","lat":49.213132,"lon":16.583163,"is_passed":false},{"stop_id":"U1601Z2","name":"Spojovací","arrival_time":"6:54:00","departure_time":"6:54:00","lat":49.211772,"lon":16.58703,"is_passed":false},{"stop_id":"U1242Z2","name":"Klusáčkova","arrival_time":"6:56:00","departure_time":"6:56:00","lat":49.211903,"lon":16.592875,"is_passed":false},{"stop_id":"U1785Z2","name":"Zemská knihovna","arrival_time":"6:57:00","departure_time":"6:57:00","lat":49.208799,"lon":16.594624,"is_passed":false},{"stop_id":"U1626Z2","name":"Sušilova","arrival_time":"6:59:00","departure_time":"6:59:00","lat":49.204397,"lon":16.598621,"is_passed":false},{"stop_id":"U1587Z2","name":"Smetanova","arrival_time":"7:00:00","departure_time":"7:00:00","lat":49.201271,"lon":16.602293,"is_passed":false},{"stop_id":"U1073Z7","name":"Česká","arrival_time":"7:02:00","departure_time":"7:04:00","lat":49.198331,"lon":16.605663,"is_passed":false}],"45319":[{"stop_id":"U1073Z6","name":"Česká","arrival_time":"7:04:00","departure_time":"7:04:00","lat":49.198291,"lon":16.605232,"is_passed":false},{"stop_id":"U1587Z1","name":"Smetanova","arrival_time":"7:06:00","departure_time":"7:06:00","lat":49.201909,"lon":16.601644,"is_passed":false},{"stop_id":"U1626Z1","name":"Sušilova","arrival_time":"7:07:00","departure_time":"7:07:00","lat":49.204346,"lon":16.598828,"is_passed":false},{"stop_id":"U1785Z1","name":"Zemská knihovna","arrival_time":"7:08:00","departure_time":"7:08:00","lat":49.208934,"lon":16.594822,"is_passed":false},{"stop_id":"U1242Z1","name":"Klusáčkova","arrival_time":"7:09:00","departure_time":"7:09:00","lat":49.212365,"lon":16.592666,"is_passed":false},{"stop_id":"U1601Z1","name":"Spojovací","arrival_time":"7:12:00","departure_time":"7:12:00","lat":49.212099,"lon":16.586305,"is_passed":false},{"stop_id":"U1206Z1","name":"Jindřichova","arrival_time":"7:13:00","departure_time":"7:13:00","lat":49.21326,"lon":16.582924,"is_passed":false},{"stop_id":"U1426Z1","name":"Náměstí Svornosti","arrival_time":"7:14:00","departure_time":"7:14:00","lat":49.215585,"lon":16.582,"is_passed":false},{"stop_id":"U1352Z1","name":"Makovského náměstí","arrival_time":"7:15:00","departure_time":"7:15:00","lat":49.217922,"lon":16.576761,"is_passed":false},{"stop_id":"U1528Z5","name":"Přívrat","arrival_time":"7:16:00","departure_time":"7:16:00","lat":49.218247,"lon":16.574102,"is_passed":false},{"stop_id":"U1766Z2","name":"Vychodilova","arrival_time":"7:17:00","departure_time":"7:20:00","lat":49.220204,"lon":16.571445,"is_passed":false}],"45320":[{"stop_id":"U1766Z2","name":"Vychodilova","arrival_time":"7:20:00","departure_time":"7:20:00","lat":49.220204,"lon":16.571445,"is_passed":false},{"stop_id":"U1528Z8","name":"Přívrat","arrival_time":"7:21:00","departure_time":"7:21:00","lat":49.218899,"lon":16.573139,"is_passed":false},{"stop_id":"U1758Z1","name":"Vrázova","arrival_time":"7:23:00","departure_time":"7:23:00","lat":49.216968,"lon":16.568321,"is_passed":false},{"stop_id":"U1651Z1","name":"Štursova","arrival_time":"7:24:00","departure_time":"7:24:00","lat":49.216462,"lon":16.563614,"is_passed":false},{"stop_id":"U1502Z1","name":"Podveská","arrival_time":"7:25:00","departure_time":"7:25:00","lat":49.217623,"lon":16.559017,"is_passed":false},{"stop_id":"U1633Z3","name":"Svratecká","arrival_time":"7:26:00","departure_time":"7:26:00","lat":49.219008,"lon":16.554451,"is_passed":false},{"stop_id":"U1345Z1","name":"Lísky","arrival_time":"7:27:00","departure_time":"7:27:00","lat":49.219825,"lon":16.548868,"is_passed":false},{"stop_id":"U1493Z3","name":"Podlesí","arrival_time":"7:28:00","departure_time":"7:28:00","lat":49.218861,"lon":16.542049,"is_passed":false},{"stop_id":"U1226Z3","name":"Kamenolom","arrival_time":"7:29:00","departure_time":"7:29:00","lat":49.222506,"lon":16.537085,"is_passed":false},{"stop_id":"U1796Z7","name":"Zoologická zahrada","arrival_time":"7:32:00","departure_time":"7:32:00","lat":49.227823,"lon":16.531364,"is_passed":false},{"stop_id":"U1417Z1","name":"Náměstí 28. dubna","arrival_time":"7:33:00","departure_time":"7:33:00","lat":49.225188,"lon":16.531132,"is_passed":false},{"stop_id":"U1752Z1","name":"Vondrákova","arrival_time":"7:34:00","departure_time":"7:34:00","lat":49.221303,"lon":16.528376,"is_passed":false},{"stop_id":"U1326Z1","name":"Laštůvkova","arrival_time":"7:35:00","departure_time":"7:35:00","lat":49.220185,"lon":16.525212,"is_passed":false},{"stop_id":"U1107Z1","name":"Filipova","arrival_time":"7:36:00","departure_time":"7:36:00","lat":49.217684,"lon":16.525123,"is_passed":false},{"stop_id":"U1062Z1","name":"Černého","arrival_time":"7:38:00","departure_time":"7:38:00","lat":49.214083,"lon":16.522812,"is_passed":false}],"45321":[{"stop_id":"U1062Z2","name":"Černého","arrival_time":"8:01:00","departure_time":"8:01:00","lat":49.213885,"lon":16.523087,"is_passed":false},{"stop_id":"U1107Z2","name":"Filipova","arrival_time":"8:02:00","departure_time":"8:02:00","lat":49.217593,"lon":16.525217,"is_passed":false},