[{"stop_id":"U1343Z2","name":"ARENA BRNO","arrival_time":"7:14:00","departure_time":"7:14:00","lat":49.191387,"lon":16.576425,"is_passed":false},{"stop_id":"U1769Z2","name":"Výstaviště - vstup G2","arrival_time":"7:15:00","departure_time":"7:15:00","lat":49.190207,"lon":16.580555,"is_passed":false},{"stop_id":"U1768Z2","name":"Výstaviště - hlavní vstup","arrival_time":"7:16:00","departure_time":"7:16:00","lat":49.189325,"lon":16.585699,"is_passed":false},{"stop_id":"U1378Z3","name":"Mendlovo náměstí","arrival_time":"7:18:00","departure_time":"7:18:00","lat":49.190293,"lon":16.594781,"is_passed":false},{"stop_id":"U1428Z1","name":"Nemocnice u sv. Anny","arrival_time":"7:20:00","departure_time":"7:20:00","lat":49.191471,"lon":16.599302,"is_passed":false},{"stop_id":"U1637Z4","name":"Šilingrovo náměstí","arrival_time":"7:21:00","departure_time":"7:21:00","lat":49.192271,"lon":16.604367,"is_passed":false},{"stop_id":"U1073Z2","name":"Česká","arrival_time":"7:24:00","departure_time":"7:24:00","lat":49.197702,"lon":16.606463,"is_passed":false},{"stop_id":"U1397Z3","name":"Moravské náměstí","arrival_time":"7:25:00","departure_time":"7:25:00","lat":49.199309,"lon":16.609047,"is_passed":false},{"stop_id":"U1418Z1","name":"Náměstí 28. října","arrival_time":"7:26:00","departure_time":"7:26:00","lat":49.200961,"lon":16.613794,"is_passed":false},{"stop_id":"U1086Z1","name":"Dětská nemocnice","arrival_time":"7:27:00","departure_time":"7:27:00","lat":49.202836,"lon":16.618608,"is_passed":false},{"stop_id":"U1211Z3","name":"Jugoslávská","arrival_time":"7:29:00","departure_time":"7:29:00","lat":49.205084,"lon":16.624442,"is_passed":false},{"stop_id":"U1782Z1","name":"Zdráhalova","arrival_time":"7:30:00","departure_time":"7:30:00","lat":49.209297,"lon":16.623791,"is_passed":false},{"stop_id":"U1731Z1","name":"Venhudova","arrival_time":"7:31:00","departure_time":"7:31:00","lat":49.212094,"lon":16.624955,"is_passed":false},{"stop_id":"U1646Z1","name":"Štefánikova čtvrť","arrival_time":"7:33:00","departure_time":"7:33:00","lat":49.216769,"lon":16.627834,"is_passed":false}]