{"467":[{"stop_id":"U14479Z20","name":"Moravský Krumlov, železniční stanice","arrival_time":"10:19:00","departure_time":"10:19:00","lat":49.04619,"lon":16.338163,"is_passed":false},{"stop_id":"U1141Z2","name":"Heršpická","arrival_time":"10:58:00","departure_time":"10:58:00","lat":49.170473,"lon":16.599896,"is_passed":false},{"stop_id":"U1596Z36","name":"Soukenická","arrival_time":"11:06:00","departure_time":"11:06:00","lat":49.188987,"lon":16.608514,"is_passed":false}],"4670":[{"stop_id":"U14242Z2","name":"Zastávka, železniční stanice","arrival_time":"7:47:00","departure_time":"7:47:00","lat":49.187449,"lon":16.359445,"is_passed":false},{"stop_id":"U14239Z2","name":"Zastávka, Dům zdraví","arrival_time":"7:48:00","departure_time":"7:48:00","lat":49.186967,"lon":16.361933,"is_passed":false},{"stop_id":"U14225Z2","name":"Rosice, ADOSA","arrival_time":"7:50:00","departure_time":"7:50:00","lat":49.183986,"lon":16.370956,"is_passed":false},{"stop_id":"U14229Z2","name":"Rosice, Kamínky","arrival_time":"7:52:00","departure_time":"7:52:00","lat":49.184668,"lon":16.382321,"is_passed":false},{"stop_id":"U14235Z2","name":"Rosice, Trávníky","arrival_time":"7:54:00","departure_time":"7:54:00","lat":49.183467,"lon":16.390594,"is_passed":false},{"stop_id":"U14226Z2","name":"Rosice, Brněnská","arrival_time":"7:56:00","departure_time":"7:56:00","lat":49.182913,"lon":16.39836,"is_passed":false},{"stop_id":"U14233Z2","name":"Rosice, STK","arrival_time":"7:57:00","departure_time":"7:57:00","lat":49.184703,"lon":16.405114,"is_passed":false},{"stop_id":"U14111Z2","name":"Omice, Kývalka","arrival_time":"8:01:00","departure_time":"8:01:00","lat":49.189889,"lon":16.452549,"is_passed":false},{"stop_id":"U14133Z2","name":"Popůvky, Vintrovna","arrival_time":"8:04:00","departure_time":"8:04:00","lat":49.181645,"lon":16.49075,"is_passed":false},{"stop_id":"U14160Z2","name":"Troubsko, Veselka","arrival_time":"8:06:00","departure_time":"8:06:00","lat":49.176834,"lon":16.503674,"is_passed":false},{"stop_id":"U14107Z2","name":"Troubsko, Kovopodnik","arrival_time":"8:07:00","departure_time":"8:07:00","lat":49.175782,"lon":16.511673,"is_passed":false},{"stop_id":"U1672Z2","name":"Tranzitní plynovod","arrival_time":"8:08:00","departure_time":"8:08:00","lat":49.174004,"lon":16.523133,"is_passed":false},{"stop_id":"U1516Z1","name":"Pražská","arrival_time":"8:09:00","departure_time":"8:09:00","lat":49.173478,"lon":16.531543,"is_passed":false},{"stop_id":"U1568Z2","name":"Skalní","arrival_time":"8:10:00","departure_time":"8:10:00","lat":49.174201,"lon":16.537903,"is_passed":false},{"stop_id":"U1202Z2","name":"Jemelkova","arrival_time":"8:11:00","departure_time":"8:11:00","lat":49.173163,"lon":16.54872,"is_passed":false},{"stop_id":"U1632Z2","name":"Svážná","arrival_time":"8:12:00","departure_time":"8:12:00","lat":49.173409,"lon":16.553508,"is_passed":false},{"stop_id":"U1429Z7","name":"Nemocnice Bohunice","arrival_time":"8:15:00","departure_time":"8:15:00","lat":49.176176,"lon":16.567045,"is_passed":false}],"4671":[{"stop_id":"U14319Z11","name":"Hlína","arrival_time":"4:17:00","departure_time":"4:17:00","lat":49.114511,"lon":16.427406,"is_passed":false},{"stop_id":"U14320Z2","name":"Hlína, samota","arrival_time":"4:19:00","departure_time":"4:19:00","lat":49.123189,"lon":16.421014,"is_passed":false},{"stop_id":"U14325Z2","name":"Neslovice","arrival_time":"4:25:00","departure_time":"4:25:00","lat":49.142605,"lon":16.387307,"is_passed":false},{"stop_id":"U14326Z2","name":"Neslovice, škola","arrival_time":"4:26:00","departure_time":"4:26:00","lat":49.145858,"lon":16.387305,"is_passed":false},{"stop_id":"U14321Z2","name":"Kratochvilka","arrival_time":"4:29:00","departure_time":"4:29:00","lat":49.157147,"lon":16.376968,"is_passed":false},{"stop_id":"U14224Z2","name":"Babice u Rosic","arrival_time":"4:33:00","departure_time":"4:33:00","lat":49.171089,"lon":16.359275,"is_passed":false},{"stop_id":"U14242Z10","name":"Zastávka, železniční stanice","arrival_time":"4:37:00","departure_time":"4:49:00","lat":49.187164,"lon":16.360086,"is_passed":false}],"4672":[{"stop_id":"U14242Z5","name":"Zastávka, železniční stanice","arrival_time":"4:49:00","departure_time":"4:49:00","lat":49.187645,"lon":16.359103,"is_passed":false},{"stop_id":"U14224Z1","name":"Babice u Rosic","arrival_time":"4:52:00","departure_time":"4:52:00","lat":49.171094,"lon":16.359022,"is_passed":false},{"stop_id":"U14321Z1","name":"Kratochvilka","arrival_time":"4:55:00","departure_time":"4:55:00","lat":49.15696,"lon":16.37693,"is_passed":false},{"stop_id":"U14326Z1","name":"Neslovice, škola","arrival_time":"4:57:00","departure_time":"4:57:00","lat":49.145957,"lon":16.387267,"is_passed":false},{"stop_id":"U14325Z1","name":"Neslovice","arrival_time":"4:59:00","departure_time":"5:02:00","lat":49.14255,"lon":16.387508,"is_passed":false},{"stop_id":"U14320Z1","name":"Hlína, samota","arrival_time":"5:07:00","departure_time":"5:07:00","lat":49.123094,"lon":16.421006,"is_passed":false},{"stop_id":"U14319Z1","name":"Hlína","arrival_time":"5:09:00","departure_time":"5:09:00","lat":49.114511,"lon":16.427406,"is_passed":false}],"4673":[{"stop_id":"U14319Z11","name":"Hlína","arrival_time":"5:09:00","departure_time":"5:09:00","lat":49.114511,"lon":16.427406,"is_passed":false},{"stop_id":"U14320Z2","name":"Hlína, samota","arrival_time":"5:11:00","departure_time":"5:11:00","lat":49.123189,"lon":16.421014,"is_passed":false},{"stop_id":"U14325Z2","name":"Neslovice","arrival_time":"5:17:00","departure_time":"5:25:00","lat":49.142605,"lon":16.387307,"is_passed":false},{"stop_id":"U14326Z2","name":"Neslovice, škola","arrival_time":"5:26:00","departure_time":"5:26:00","lat":49.145858,"lon":16.387305,"is_passed":false},{"stop_id":"U14321Z2","name":"Kratochvilka","arrival_time":"5:29:00","departure_time":"5:29:00","lat":49.157147,"lon":16.376968,"is_passed":false},{"stop_id":"U14224Z2","name":"Babice u Rosic","arrival_time":"5:33:00","departure_time":"5:33:00","lat":49.171089,"lon":16.359275,"is_passed":false},{"stop_id":"U14242Z10","name":"Zastávka, železniční stanice","arrival_time":"5:37:00","departure_time":"5:49:00","lat":49.187164,"lon":16.360086,"is_passed":false}],"4674":[{"stop_id":"U14242Z5","name":"Zastávka, železniční stanice","arrival_time":"5:49:00","departure_time":"5:49:00","lat":49.187645,"lon":16.359103,"is_passed":false},{"stop_id":"U14224Z1","name":"Babice u Rosic","arrival_time":"5:52:00","departure_time":"5:52:00","lat":49.171094,"lon":16.359022,"is_passed":false},{"stop_id":"U14321Z1","name":"Kratochvilka","arrival_time":"5:55:00","departure_time":"5:55:00","lat":49.15696,"lon":16.37693,"is_passed":false},{"stop_id":"U14326Z1","name":"Neslovice, škola","arrival_time":"5:57:00","departure_time":"5:57:00","lat":49.145957,"lon":16.387267,"is_passed":false},{"stop_id":"U14325Z1","name":"Neslovice","arrival_time":"5:59:00","departure_time":"6:00:00","lat":49.14255,"lon":16.387508,"is_passed":false},{"stop_id":"U14320Z1","name":"Hlína, samota","arrival_time":"6:05:00","departure_time":"6:05:00","lat":49.123094,"lon":16.421006,"is_passed":false},{"stop_id":"U14319Z1","name":"Hlína","arrival_time":"6:07:00","departure_time":"6:09:00","lat":49.114511,"lon":16.427406,"is_passed":false}],"4675":[{"stop_id":"U14319Z11","name":"Hlína","arrival_time":"6:09:00","departure_time":"6:09:00","lat":49.114511,"lon":16.427406,"is_passed":false},{"stop_id":"U14320Z2","name":"Hlína, samota","arrival_time":"6:11:00","departure_time":"6:11:00","lat":49.123189,"lon":16.421014,"is_passed":false},{"stop_id":"U14325Z2","name":"Neslovice","arrival_time":"6:17:00","departure_time":"6:25:00","lat":49.142605,"lon":16.387307,"is_passed":false},{"stop_id":"U14326Z2","name":"Neslovice, škola","arrival_time":"6:26:00","departure_time":"6:26:00","lat":49.145858,"lon":16.387305,"is_passed":false},{"stop_id":"U14321Z2","name":"Kratochvilka","arrival_time":"6:29:00","departure_time":"6:29:00","lat":49.157147,"lon":16.376968,"is_passed":false},{"stop_id":"U14224Z2","name":"Babice u Rosic","arrival_time":"6:33:00","departure_time":"6:33:00","lat":49.171089,"lon":16.359275,"is_passed":false},{"stop_id":"U14242Z10","name":"Zastávka, železniční stanice","arrival_time":"6:37:00","departure_time":"6:49:00","lat":49.187164,"lon":16.360086,"is_passed":false}],"4676":[{"stop_id":"U14242Z5","name":"Zastávka, železniční stanice","arrival_time":"6:49:00","departure_time":"6:49:00","lat":49.187645,"lon":16.359103,"is_passed":false},{"stop_id":"U14224Z1","name":"Babice u Rosic","arrival_time":"6:52:00","departure_time":"6:52:00","lat":49.171094,"lon":16.359022,"is_passed":false},{"stop_id":"U14321Z1","name":"Kratochvilka","arrival_time":"6:55:00","departure_time":"6:55:00","lat":49.15696,"lon":16.37693,"is_passed":false},{"stop_id":"U14326Z1","name":"Neslovice, škola","arrival_time":"6:57:00","departure_time":"6:57:00","lat":49.145957,"lon":16.387267,"is_passed":false},{"stop_id":"U14325Z1","name":"Neslovice","arrival_time":"6:59:00","departure_time":"6:59:00","lat":49.14255,"lon":16.387508,"is_passed":false},{"stop_id":"U14320Z1","name":"Hlína, samota","arrival_time":"7:04:00","departure_time":"7:04:00","lat":49.123094,"lon":16.421006,"is_passed":false},{"stop_id":"U14319Z1","name":"Hlína","arrival_time":"7:06:00","departure_time":"7:06:00","lat":49.114511,"lon":16.427406,"is_passed":false}],"4677":[{"stop_id":"U14319Z11","name":"Hlína","arrival_time":"7:06:00","departure_time":"7:06:00","lat":49.114511,"lon":16.427406,"is_passed":false},{"stop_id":"U14320Z2","name":"Hlína, samota","arrival_time":"7:08:00","departure_time":"7:08:00","lat":49.123189,"lon":16.421014,"is_passed":false},{"stop_id":"U14325Z2","name":"Neslovice","arrival_time":"7:14:00","departure_time":"7:25:00","lat":49.142605,"lon":16.387307,"is_passed":false},{"stop_id":"U14326Z2","name":"Neslovice, škola","arrival_time":"7:26:00","departure_time":"7:26:00","lat":49.145858,"lon":16.387305,"is_passed":false},{"stop_id":"U14321Z2","name":"Kratochvilka","arrival_time":"7:29:00","departure_time":"7:29:00","lat":49.157147,"lon":16.376968,"is_passed":false},{"stop_id":"U14224Z2","name":"Babice u Rosic","arrival_time":"7:33:00","departure_time":"7:33:00","lat":49.171089,"lon":16.359275,"is_passed":false},{"stop_id":"U14242Z10","name":"Zastávka, železniční stanice","arrival_time":"7:37:00","departure_time":"7:49:00","lat":49.187164,"lon":16.360086,"is_passed":false}],"4678":[{"stop_id":"U14242Z5","name":"Zastávka, železniční stanice","arrival_time":"7:49:00","departure_time":"7:49:00","lat":49.187645,"lon":16.359103,"is_passed":false},{"stop_id":"U14224Z1","name":"Babice u Rosic","arrival_time":"7:52:00","departure_time":"7:52:00","lat":49.171094,"lon":16.359022,"is_passed":false},{"stop_id":"U14321Z1","name":"Kratochvilka","arrival_time":"7:55:00","departure_time":"7:55:00","lat":49.15696,"lon":16.37693,"is_passed":false},{"stop_id":"U14326Z1","name":"Neslovice, škola","arrival_time":"7:57:00","departure_time":"7:57:00","lat":49.145957,"lon":16.387267,"is_passed":false},{"stop_id":"U14325Z1","name":"Neslovice","arrival_time":"7:59:00","departure_time":"8:00:00","lat":49.14255,"lon":16.387508,"is_passed":false},{"stop_id":"U14320Z1","name":"Hlína, samota","arrival_time":"8:05:00","departure_time":"8:05:00","lat":49.123094,"lon":16.421006,"is_passed":false},{"stop_id":"U14319Z1","name":"Hlína","arrival_time":"8:07:00","departure_time":"8:09:00","lat":49.114511,"lon":16.427406,"is_passed":false}],"4679":[{"stop_id":"U14319Z11","name":"Hlína","arrival_time":"8:09:00","departure_time":"8:09:00","lat":49.114511,"lon":16.427406,"is_passed":false},{"stop_id":"U14320Z2","name":"Hlína, samota","arrival_time":"8:11:00","departure_time":"8:11:00","lat":49.123189,"lon":16.421014,"is_passed":false},{"stop_id":"U14325Z2","name":"Neslovice","arrival_time":"8:17:00","departure_time":"8:25:00","lat":49.142605,"lon":16.387307,"is_passed":false},{"stop_id":"U14326Z2","name":"Neslovice, škola","arrival_time":"8:26:00","departure_time":"8:26:00","lat":49.145858,"lon":16.387305,"is_passed":false},{"stop_id":"U14321Z2","name":"Kratochvilka","arrival_time":"8:29:00","departure_time":"8:29:00","lat":49.157147,"lon":16.376968,"is_passed":false},{"stop_id":"U14224Z2","name":"Babice u Rosic","arrival_time":"8:33:00","departure_time":"8:33:00","lat":49.171089,"lon":16.359275,"is_passed":false},{"stop_id":"U14242Z10","name":"Zastávka, železniční stanice","arrival_time":"8:37:00","departure_time":"10:19:00","lat":49.187164,"lon":16.360086,"is_passed":false}],"46700":[{"stop_id":"U1716Z4","name":"Úzká","arrival_time":"12:28:00","departure_time":"12:28:00","lat":49.189107,"lon":16.613266,"is_passed":false},{"stop_id":"U1463Z2","name":"Opuštěná","arrival_time":"12:31:00","departure_time":"12:31:00","lat":49.185245,"lon":16.613024,"is_passed":false},{"stop_id":"U1011Z4","name":"Autobusové nádraží","arrival_time":"12:33:00","departure_time":"12:33:00","lat":49.186887,"lon":16.618479,"is_passed":false},{"stop_id":"U1144Z1","name":"Hladíkova","arrival_time":"12:34:00","departure_time":"12:34:00","lat":49.187682,"lon":16.625353,"is_passed":false},{"stop_id":"U1677Z1","name":"Tržní","arrival_time":"12:36:00","departure_time":"12:36:00","lat":49.189973,"lon":16.632193,"is_passed":false},{"stop_id":"U1598Z1","name":"Spáčilova","arrival_time":"12:37:00","departure_time":"12:37:00","lat":49.188674,"lon":16.640942,"is_passed":false},{"stop_id":"U1455Z1","name":"Olomoucká - u školy","arrival_time":"12:39:00","departure_time":"12:39:00","lat":49.186169,"lon":16.652958,"is_passed":false},{"stop_id":"U1665Z1","name":"Těžební","arrival_time":"12:41:00","departure_time":"12:41:00","lat":49.181966,"lon":16.657236,"is_passed":false},{"stop_id":"U1739Z1","name":"Vlastimila Pecha","arrival_time":"12:42:00","departure_time":"12:42:00","lat":49.179379,"lon":16.662741,"is_passed":false},{"stop_id":"U1105Z1","name":"Ericha Roučky","arrival_time":"12:44:00","departure_time":"12:44:00","lat":49.174784,"lon":16.66987,"is_passed":false},{"stop_id":"U1064Z1","name":"Černovická terasa I","arrival_time":"12:45:00","departure_time":"12:45:00","lat":49.171172,"lon":16.673495,"is_passed":false},{"stop_id":"U1065Z1","name":"Černovická terasa II","arrival_time":"12:46:00","departure_time":"12:46:00","lat":49.167108,"lon":16.67608,"is_passed":false},{"stop_id":"U1581Z3","name":"Areál Slatina","arrival_time":"12:48:00","departure_time":"13:16:00","lat":49.168533,"lon":16.678786,"is_passed":false}],"46701":[{"stop_id":"U1581Z1","name":"Areál Slatina","arrival_time":"13:16:00","departure_time":"13:16:00","lat":49.168614,"lon":16.67804,"is_passed":false},{"stop_id":"U1065Z2","name":"Černovická terasa II","arrival_time":"13:16:00","departure_time":"13:16:00","lat":49.168348,"lon":16.675307,"is_passed":false},{"stop_id":"U1064Z2","name":"Černovická terasa I","arrival_time":"13:17:00","departure_time":"13:17:00","lat":49.171843,"lon":16.673091,"is_passed":false},{"stop_id":"U1105Z4","name":"Ericha Roučky","arrival_time":"13:19:00","departure_time":"13:19:00","lat":49.175789,"lon":16.668403,"is_passed":false},{"stop_id":"U1739Z2","name":"Vlastimila Pecha","arrival_time":"13:20:00","departure_time":"13:20:00","lat":49.179751,"lon":16.662407,"is_passed":false},{"stop_id":"U1665Z2","name":"Těžební","arrival_time":"13:21:00","departure_time":"13:21:00","lat":49.182639,"lon":16.656437,"is_passed":false},{"stop_id":"U1455Z2","name":"Olomoucká - u školy","arrival_time":"13:23:00","departure_time":"13:23:00","lat":49.186437,"lon":16.652477,"is_passed":false},{"stop_id":"U1598Z2","name":"Spáčilova","arrival_time":"13:24:00","departure_time":"13:24:00","lat":49.188617,"lon":16.641569,"is_passed":false},{"stop_id":"U1677Z2","name":"Tržní","arrival_time":"13:27:00","departure_time":"13:27:00","lat":49.189407,"lon":16.629972,"is_passed":false},{"stop_id":"U1144Z2","name":"Hladíkova","arrival_time":"13:27:00","departure_time":"13:27:00","lat":49.187865,"lon":16.625741,"is_passed":false},{"stop_id":"U1011Z3","name":"Autobusové nádraží","arrival_time":"13:29:00","departure_time":"13:29:00","lat":49.186909,"lon":16.617974,"is_passed":false},{"stop_id":"U1716Z3","name":"Úzká","arrival_time":"13:32:00","departure_time":"13:38:00","lat":49.189244,"lon":16.613733,"is_passed":false}],"46702":[{"stop_id":"U1716Z4","name":"Úzká","arrival_time":"13:38:00","departure_time":"13:38:00","lat":49.189107,"lon":16.613266,"is_passed":false},{"stop_id":"U1463Z2","name":"Opuštěná","arrival_time":"13:41:00","departure_time":"13:41:00","lat":49.185245,"lon":16.613024,"is_passed":false},{"stop_id":"U1011Z4","name":"Autobusové nádraží","arrival_time":"13:43:00","departure_time":"13:43:00","lat":49.186887,"lon":16.618479,"is_passed":false},{"stop_id":"U1144Z1","name":"Hladíkova","arrival_time":"13:44:00","departure_time":"13:44:00","lat":49.187682,"lon":16.625353,"is_passed":false},{"stop_id":"U1677Z1","name":"Tržní","arrival_time":"13:46:00","departure_time":"13:46:00","lat":49.189973,"lon":16.632193,"is_passed":false},{"stop_id":"U1598Z1","name":"Spáčilova","arrival_time":"13:47:00","departure_time":"13:47:00","lat":49.188674,"lon":16.640942,"is_passed":false},{"stop_id":"U1455Z1","name":"Olomoucká - u školy","arrival_time":"13:49:00","departure_time":"13:49:00","lat":49.186169,"lon":16.652958,"is_passed":false},{"stop_id":"U1665Z1","name":"Těžební","arrival_time":"13:51:00","departure_time":"13:51:00","lat":49.181966,"lon":16.657236,"is_passed":false},{"stop_id":"U1739Z1","name":"Vlastimila Pecha","arrival_time":"13:52:00","departure_time":"13:52:00","lat":49.179379,"lon":16.662741,"is_passed":false},{"stop_id":"U1105Z1","name":"Ericha Roučky","arrival_time":"13:54:00","departure_time":"13:54:00","lat":49.174784,"lon":16.66987,"is_passed":false},{"stop_id":"U1064Z1","name":"Černovická terasa I","arrival_time":"13:55:00","departure_time":"13:55:00","lat":49.171172,"lon":16.673495,"is_passed":false},{"stop_id":"U1065Z1","name":"Černovická terasa II","arrival_time":"13:56:00","departure_time":"13:56:00","lat":49.167108,"lon":16.67608,"is_passed":false},{"stop_id":"U1581Z2","name":"Areál Slatina","arrival_time":"13:58:00","departure_time":"13:58:00","lat":49.168677,"lon":16.678416,"is_passed":false},{"stop_id":"U1010Z1","name":"Airport Park","arrival_time":"14:01:00","departure_time":"14:01:00","lat":49.158218,"lon":16.684538,"is_passed":false},{"stop_id":"U7502Z2","name":"CTPark Brno South","arrival_time":"14:04:00","departure_time":"14:04:00","lat":49.160548,"lon":16.700716,"is_passed":false},{"stop_id":"U1334Z1","name":"Letiště - logistický areál","arrival_time":"14:06:00","departure_time":"14:06:00","lat":49.15627,"lon":16.698196,"is_passed":false},{"stop_id":"U1335Z1","name":"Letiště - služební vstup","arrival_time":"14:07:00","departure_time":"14:07:00","lat":49.155635,"lon":16.691132,"is_passed":false},{"stop_id":"U1337Z1","name":"Letiště Tuřany - terminál","arrival_time":"14:09:00","departure_time":"14:42:00","lat":49.154815,"lon":16.692296,"is_passed":false}],"46703":[{"stop_id":"U1337Z2","name":"Letiště Tuřany - terminál","arrival_time":"14:42:00","departure_time":"14:42:00","lat":49.154845,"lon":16.692583,"is_passed":false},{"stop_id":"U1334Z2","name":"Letiště - logistický areál","arrival_time":"14:44:00","departure_time":"14:44:00","lat":49.156979,"lon":16.699058,"is_passed":false},{"stop_id":"U7502Z2","name":"CTPark Brno South","arrival_time":"14:45:00","departure_time":"14:45:00","lat":49.160548,"lon":16.700716,"is_passed":false},{"stop_id":"U1010Z2","name":"Airport Park","arrival_time":"14:48:00","departure_time":"14:48:00","lat":49.158031,"lon":16.683199,"is_passed":false},{"stop_id":"U1581Z1","name":"Areál Slatina","arrival_time":"14:52:00","departure_time":"14:52:00","lat":49.168614,"lon":16.67804,"is_passed":false},{"stop_id":"U1065Z2","name":"Černovická terasa II","arrival_time":"14:52:00","departure_time":"14:52:00","lat":49.168348,"lon":16.675307,"is_passed":false},{"stop_id":"U1064Z2","name":"Černovická terasa I","arrival_time":"14:53:00","departure_time":"14:53:00","lat":49.171843,"lon":16.673091,"is_passed":false},{"stop_id":"U1105Z4","name":"Ericha Roučky","arrival_time":"14:55:00","departure_time":"14:55:00","lat":49.175789,"lon":16.668403,"is_passed":false},{"stop_id":"U1739Z2","name":"Vlastimila Pecha","arrival_time":"14:56:00","departure_time":"14:56:00","lat":49.179751,"lon":16.662407,"is_passed":false},{"stop_id":"U1665Z2","name":"Těžební","arrival_time":"14:57:00","departure_time":"14:57:00","lat":49.182639,"lon":16.656437,"is_passed":false},{"stop_id":"U1455Z2","name":"Olomoucká - u školy","arrival_time":"14:59:00","departure_time":"14:59:00","lat":49.186437,"lon":16.652477,"is_passed":false},{"stop_id":"U1598Z2","name":"Spáčilova","arrival_time":"15:00:00","departure_time":"15:00:00","lat":49.188617,"lon":16.641569,"is_passed":false},{"stop_id":"U1677Z2","name":"Tržní","arrival_time":"15:03:00","departure_time":"15:03:00","lat":49.189407,"lon":16.629972,"is_passed":false},{"stop_id":"U1144Z2","name":"Hladíkova","arrival_time":"15:03:00","departure_time":"15:03:00","lat":49.187865,"lon":16.625741,"is_passed":false},{"stop_id":"U1011Z3","name":"Autobusové nádraží","arrival_time":"15:05:00","departure_time":"15:05:00","lat":49.186909,"lon":16.617974,"is_passed":false},{"stop_id":"U1716Z3","name":"Úzká","arrival_time":"15:08:00","departure_time":"15:23:00","lat":49.189244,"lon":16.613733,"is_passed":false}],"46704":[{"stop_id":"U1716Z4","name":"Úzká","arrival_time":"15:23:00","departure_time":"15:23:00","lat":49.189107,"lon":16.613266,"is_passed":false},{"stop_id":"U1463Z2","name":"Opuštěná","arrival_time":"15:26:00","departure_time":"15:26:00","lat":49.185245,"lon":16.613024,"is_passed":false},{"stop_id":"U1011Z4","name":"Autobusové nádraží","arrival_time":"15:28:00","departure_time":"15:28:00","lat":49.186887,"lon":16.618479,"is_passed":false},{"stop_id":"U1144Z1","name":"Hladíkova","arrival_time":"15:29:00","departure_time":"15:29:00","lat":49.187682,"lon":16.625353,"is_passed":false},{"stop_id":"U1677Z1","name":"Tržní","arrival_time":"15:31:00","departure_time":"15:31:00","lat":49.189973,"lon":16.632193,"is_passed":false},{"stop_id":"U1598Z1","name":"Spáčilova","arrival_time":"15:32:00","departure_time":"15:32:00","lat":49.188674,"lon":16.640942,"is_passed":false},{"stop_id":"U1455Z1","name":"Olomoucká - u školy","arrival_time":"15:34:00","departure_time":"15:34:00","lat":49.186169,"lon":16.652958,"is_passed":false},{"stop_id":"U1665Z1","name":"Těžební","arrival_time":"15:36:00","departure_time":"15:36:00","lat":49.181966,"lon":16.657236,"is_passed":false},{"stop_id":"U1739Z1","name":"Vlastimila Pecha","arrival_time":"15:37:00","departure_time":"15:37:00","lat":49.179379,"lon":16.662741,"is_passed":false},{"stop_id":"U1105Z1","name":"Ericha Roučky","arrival_time":"15:39:00","departure_time":"15:39:00","lat":49.174784,"lon":16.66987,"is_passed":false},{"stop_id":"U1064Z1","name":"Černovická terasa I","arrival_time":"15:40:00","departure_time":"15:40:00","lat":49.171172,"lon":16.673495,"is_passed":false},{"stop_id":"U1065Z1","name":"Černovická terasa II","arrival_time":"15:41:00","departure_time":"15:41:00","lat":49.167108,"lon":16.67608,"is_passed":false},{"stop_id":"U1581Z2","name":"Areál Slatina","arrival_time":"15:43:00","departure_time":"15:43:00","lat":49.168677,"lon":16.678416,"is_passed":false},{"stop_id":"U1562Z3","name":"Řípská","arrival_time":"15:44:00","departure_time":"15:44:00","lat":49.172528,"lon":16.682138,"is_passed":false},{"stop_id":"U1573Z3","name":"Slatina, nádraží","arrival_time":"15:46:00","departure_time":"15:46:00","lat":49.169777,"lon":16.682481,"is_passed":false},{"stop_id":"U1095Z1","name":"Drážní","arrival_time":"15:46:00","departure_time":"15:46:00","lat":49.167303,"lon":16.685492,"is_passed":false},{"stop_id":"U1580Z1","name":"Slatinka","arrival_time":"15:47:00","departure_time":"16:11:00","lat":49.164877,"lon":16.688945,"is_passed":false}],"46705":[{"stop_id":"U1580Z2","name":"Slatinka","arrival_time":"16:11:00","departure_time":"16:11:00","lat":49.164971,"lon":16.688835,"is_passed":false},{"stop_id":"U1095Z2","name":"Drážní","arrival_time":"16:11:00","departure_time":"16:11:00","lat":49.167481,"lon":16.685416,"is_passed":false},{"stop_id":"U1573Z4","name":"Slatina, nádraží","arrival_time":"16:12:00","departure_time":"16:12:00","lat":49.169756,"lon":16.682633,"is_passed":false},{"stop_id":"U1640Z2","name":"Šmahova","arrival_time":"16:13:00","departure_time":"16:13:00","lat":49.172157,"lon":16.684373,"is_passed":false},{"stop_id":"U1562Z4","name":"Řípská","arrival_time":"16:15:00","departure_time":"16:15:00","lat":49.172829,"lon":16.682244,"is_passed":false},{"stop_id":"U1581Z1","name":"Areál Slatina","arrival_time":"16:16:00","departure_time":"16:16:00","lat":49.168614,"lon":16.67804,"is_passed":false},{"stop_id":"U1065Z2","name":"Černovická terasa II","arrival_time":"16:16:00","departure_time":"16:16:00","lat":49.168348,"lon":16.675307,"is_passed":false},{"stop_id":"U1064Z2","name":"Černovická terasa I","arrival_time":"16:17:00","departure_time":"16:17:00","lat":49.171843,"lon":16.673091,"is_passed":false},{"stop_id":"U1105Z4","name":"Ericha Roučky","arrival_time":"16:19:00","departure_time":"16:19:00","lat":49.175789,"lon":16.668403,"is_passed":false},{"stop_id":"U1739Z2","name":"Vlastimila Pecha","arrival_time":"16:20:00","departure_time":"16:20:00","lat":49.179751,"lon":16.662407,"is_passed":false},{"stop_id":"U1665Z2","name":"Těžební","arrival_time":"16:21:00","departure_time":"16:21:00","lat":49.182639,"lon":16.656437,"is_passed":false},{"stop_id":"U1455Z2","name":"Olomoucká - u školy","arrival_time":"16:23:00","departure_time":"16:23:00","lat":49.186437,"lon":16.652477,"is_passed":false},{"stop_id":"U1598Z2","name":"Spáčilova","arrival_time":"16:24:00","departure_time":"16:24:00","lat":49.188617,"lon":16.641569,"is_passed":false},{"stop_id":"U1677Z2","name":"Tržní","arrival_time":"16:27:00","departure_time":"16:27:00","lat":49.189407,"lon":16.629972,"is_passed":false},{"stop_id":"U1144Z2","name":"Hladíkova","arrival_time":"16:27:00","departure_time":"16:27:00","lat":49.187865,"lon":16.625741,"is_passed":false},{"stop_id":"U1011Z3","name":"Autobusové nádraží","arrival_time":"16:29:00","departure_time":"16:29:00","lat":49.186909,"lon":16.617974,"is_passed":false},{"stop_id":"U1716Z3","name":"Úzká","arrival_time":"16:32:00","departure_time":"16:38:00","lat":49.189244,"lon":16.613733,"is_passed":false}],"46706":[{"stop_id":"U1716Z4","name":"Úzká","arrival_time":"16:38:00","departure_time":"16:38:00","lat":49.189107,"lon":16.613266,"is_passed":false},{"stop_id":"U1463Z2","name":"Opuštěná","arrival_time":"16:41:00","departure_time":"16:41:00","lat":49.185245,"lon":16.613024,"is_passed":false},{"stop_id":"U1011Z4","name":"Autobusové nádraží","arrival_time":"16:43:00","departure_time":"16:43:00","lat":49.186887,"lon":16.618479,"is_passed":false},{"stop_id":"U1144Z1","name":"Hladíkova","arrival_time":"16:44:00","departure_time":"16:44:00","lat":49.187682,"lon":16.625353,"is_passed":false},{"stop_id":"U1677Z1","name":"Tržní","arrival_time":"16:46:00","departure_time":"16:46:00","lat":49.189973,"lon":16.632193,"is_passed":false},{"stop_id":"U1598Z1","name":"Spáčilova","arrival_time":"16:47:00","departure_time":"16:47:00","lat":49.188674,"lon":16.640942,"is_passed":false},{"stop_id":"U1455Z1","name":"Olomoucká - u školy","arrival_time":"16:49:00","departure_time":"16:49:00","lat":49.186169,"lon":16.652958,"is_passed":false},{"stop_id":"U1665Z1","name":"Těžební","arrival_time":"16:51:00","departure_time":"16:51:00","lat":49.181966,"lon":16.657236,"is_passed":false},{"stop_id":"U1739Z1","name":"Vlastimila Pecha","arrival_time":"16:52:00","departure_time":"16:52:00","lat":49.179379,"lon":16.662741,"is_passed":false},{"stop_id":"U1105Z1","name":"Ericha Roučky","arrival_time":"16:54:00","departure_time":"16:54:00","lat":49.174784,"lon":16.66987,"is_passed":false},{"stop_id":"U1064Z1","name":"Černovická terasa I","arrival_time":"16:55:00","departure_time":"16:55:00","lat":49.171172,"lon":16.673495,"is_passed":false},{"stop_id":"U1065Z1","name":"Černovická terasa II","arrival_time":"16:56:00","departure_time":"16:56:00","lat":49.167108,"lon":16.67608,"is_passed":false},{"stop_id":"U1581Z3","name":"Areál Slatina","arrival_time":"16:58:00","departure_time":"16:58:00","lat":49.168533,"lon":16.678786,"is_passed":false}],"46707":[{"stop_id":"U1581Z1","name":"Areál Slatina","arrival_time":"17:13:00","departure_time":"17:13:00","lat":49.168614,"lon":16.67804,"is_passed":false},{"stop_id":"U1065Z2","name":"Černovická terasa II","arrival_time":"17:13:00","departure_time":"17:13:00","lat":49.168348,"lon":16.675307,"is_passed":false},{"stop_id":"U1064Z2","name":"Černovická terasa I","arrival_time":"17:14:00","departure_time":"17:14:00","lat":49.171843,"lon":16.673091,"is_passed":false},{"stop_id":"U1105Z4","name":"Ericha Roučky","arrival_time":"17:16:00","departure_time":"17:16:00","lat":49.175789,"lon":16.668403,"is_passed":false},{"stop_id":"U1739Z2","name":"Vlastimila Pecha","arrival_time":"17:17:00","departure_time":"17:17:00","lat":49.179751,"lon":16.662407,"is_passed":false},{"stop_id":"U1665Z2","name":"Těžební","arrival_time":"17:18:00","departure_time":"17:18:00","lat":49.182639,"lon":16.656437,"is_passed":false},{"stop_id":"U1641Z1","name":"Škroupova","arrival_time":"17:23:00","departure_time":"17:23:00","lat":49.192022,"lon":16.648112,"is_passed":false},{"stop_id":"U1473Z4","name":"Otakara Ševčíka","arrival_time":"17:24:00","departure_time":"17:24:00","lat":49.194988,"lon":16.646643,"is_passed":false},{"stop_id":"U1611Z6","name":"Stará osada","arrival_time":"17:27:00","departure_time":"17:27:00","lat":49.201731,"lon":16.642184,"is_passed":false},{"stop_id":"U1809Z1","name":"Židenice, nádraží","arrival_time":"17:30:00","departure_time":"17:32:00","lat":49.20162,"lon":16.635716,"is_passed":false}],"46708":[{"stop_id":"U1581Z1","name":"Areál Slatina","arrival_time":"13:31:00","departure_time":"13:31:00","lat":49.168614,"lon":16.67804,"is_passed":false},{"stop_id":"U1065Z2","name":"Černovická terasa II","arrival_time":"13:31:00","departure_time":"13:31:00","lat":49.168348,"lon":16.675307,"is_passed":false},{"stop_id":"U1064Z2","name":"Černovická terasa I","arrival_time":"13:32:00","departure_time":"13:32:00","lat":49.171843,"lon":16.673091,"is_passed":false},{"stop_id":"U1105Z4","name":"Ericha Roučky","arrival_time":"13:34:00","departure_time":"13:34:00","lat":49.175789,"lon":16.668403,"is_passed":false},{"stop_id":"U1739Z2","name":"Vlastimila Pecha","arrival_time":"13:35:00","departure_time":"13:35:00","lat":49.179751,"lon":16.662407,"is_passed":false},{"stop_id":"U1665Z2","name":"Těžební","arrival_time":"13:36:00","departure_time":"13:36:00","lat":49.182639,"lon":16.656437,"is_passed":false},{"stop_id":"U1455Z2","name":"Olomoucká - u školy","arrival_time":"13:38:00","departure_time":"13:38:00","lat":49.186437,"lon":16.652477,"is_passed":false},{"stop_id":"U1598Z2","name":"Spáčilova","arrival_time":"13:39:00","departure_time":"13:39:00","lat":49.188617,"lon":16.641569,"is_passed":false},{"stop_id":"U1677Z2","name":"Tržní","arrival_time":"13:42:00","departure_time":"13:42:00","lat":49.189407,"lon":16.629972,"is_passed":false},{"stop_id":"U1144Z2","name":"Hladíkova","arrival_time":"13:42:00","departure_time":"13:42:00","lat":49.187865,"lon":16.625741,"is_passed":false},{"stop_id":"U1011Z3","name":"Autobusové nádraží","arrival_time":"13:44:00","departure_time":"13:44:00","lat":49.186909,"lon":16.617974,"is_passed":false},{"stop_id":"U1716Z3","name":"Úzká","arrival_time":"13:47:00","departure_time":"13:53:00","lat":49.189244,"lon":16.613733,"is_passed":false}],"46709":[{"stop_id":"U1716Z4","name":"Úzká","arrival_time":"13:53:00","departure_time":"13:53:00","lat":49.189107,"lon":16.613266,"is_passed":false},{"stop_id":"U1463Z2","name":"Opuštěná","arrival_time":"13:56:00","departure_time":"13:56:00","lat":49.185245,"lon":16.613024,"is_passed":false},{"stop_id":"U1011Z4","name":"Autobusové nádraží","arrival_time":"13:58:00","departure_time":"13:58:00","lat":49.186887,"lon":16.618479,"is_passed":false},{"stop_id":"U1144Z1","name":"Hladíkova","arrival_time":"13:59:00","departure_time":"13:59:00","lat":49.187682,"lon":16.625353,"is_passed":false},{"stop_id":"U1677Z1","name":"Tržní","arrival_time":"14:01:00","departure_time":"14:01:00","lat":49.189973,"lon":16.632193,"is_passed":false},{"stop_id":"U1598Z1","name":"Spáčilova","arrival_time":"14:02:00","departure_time":"14:02:00","lat":49.188674,"lon":16.640942,"is_passed":false},{"stop_id":"U1455Z1","name":"Olomoucká - u školy","arrival_time":"14:04:00","departure_time":"14:04:00","lat":49.186169,"lon":16.652958,"is_passed":false},{"stop_id":"U1665Z1","name":"Těžební","arrival_time":"14:06:00","departure_time":"14:06:00","lat":49.181966,"lon":16.657236,"is_passed":false},{"stop_id":"U1739Z1","name":"Vlastimila Pecha","arrival_time":"14:07:00","departure_time":"14:07:00","lat":49.179379,"lon":16.662741,"is_passed":false},{"stop_id":"U1105Z1","name":"Ericha Roučky","arrival_time":"14:09:00","departure_time":"14:09:00","lat":49.174784,"lon":16.66987,"is_passed":false},{"stop_id":"U1064Z1","name":"Černovická terasa I","arrival_time":"14:10:00","departure_time":"14:10:00","lat":49.171172,"lon":16.673495,"is_passed":false},{"stop_id":"U1065Z1","name":"Černovická terasa II","arrival_time":"14:11:00","departure_time":"14:11:00","lat":49.167108,"lon":16.67608,"is_passed":false},{"stop_id":"U1581Z2","name":"Areál Slatina","arrival_time":"14:13:00","departure_time":"14:13:00","lat":49.168677,"lon":16.678416,"is_passed":false},{"stop_id":"U1562Z3","name":"Řípská","arrival_time":"14:14:00","departure_time":"14:14:00","lat":49.172528,"lon":16.682138,"is_passed":false},{"stop_id":"U1573Z3","name":"Slatina, nádraží","arrival_time":"14:16:00","departure_time":"14:16:00","lat":49.169777,"lon":16.682481,"is_passed":false},{"stop_id":"U1095Z1","name":"Drážní","arrival_time":"14:16:00","departure_time":"14:16:00","lat":49.167303,"lon":16.685492,"is_passed":false},{"stop_id":"U1580Z1","name":"Slatinka","arrival_time":"14:17:00","departure_time":"14:41:00","lat":49.164877,"lon":16.688945,"is_passed":false}],"46710":[{"stop_id":"U1580Z2","name":"Slatinka","arrival_time":"14:41:00","departure_time":"14:41:00","lat":49.164971,"lon":16.688835,"is_passed":false},{"stop_id":"U1095Z2","name":"Drážní","arrival_time":"14:41:00","departure_time":"14:41:00","lat":49.167481,"lon":16.685416,"is_passed":false},{"stop_id":"U1573Z4","name":"Slatina, nádraží","arrival_time":"14:42:00","departure_time":"14:42:00","lat":49.169756,"lon":16.682633,"is_passed":false},{"stop_id":"U1640Z2","name":"Šmahova","arrival_time":"14:43:00","departure_time":"14:43:00","lat":49.172157,"lon":16.684373,"is_passed":false},{"stop_id":"U1562Z4","name":"Řípská","arrival_time":"14:45:00","departure_time":"14:45:00","lat":49.172829,"lon":16.682244,"is_passed":false},{"stop_id":"U1581Z1","name":"Areál Slatina","arrival_time":"14:46:00","departure_time":"14:46:00","lat":49.168614,"lon":16.67804,"is_passed":false},{"stop_id":"U1065Z2","name":"Černovická terasa II","arrival_time":"14:46:00","departure_time":"14:46:00","lat":49.168348,"lon":16.675307,"is_passed":false},{"stop_id":"U1064Z2","name":"Černovická terasa I","arrival_time":"14:47:00","departure_time":"14:47:00","lat":49.171843,"lon":16.673091,"is_passed":false},{"stop_id":"U1105Z4","name":"Ericha Roučky","arrival_time":"14:49:00","departure_time":"14:49:00","lat":49.175789,"lon":16.668403,"is_passed":false},{"stop_id":"U1739Z2","name":"Vlastimila Pecha","arrival_time":"14:50:00","departure_time":"14:50:00","lat":49.179751,"lon":16.662407,"is_passed":false},{"stop_id":"U1665Z2","name":"Těžební","arrival_time":"14:51:00","departure_time":"14:51:00","lat":49.182639,"lon":16.656437,"is_passed":false},{"stop_id":"U1455Z2","name":"Olomoucká - u školy","arrival_time":"14:53:00","departure_time":"14:53:00","lat":49.186437,"lon":16.652477,"is_passed":false},{"stop_id":"U1598Z2","name":"Spáčilova","arrival_time":"14:54:00","departure_time":"14:54:00","lat":49.188617,"lon":16.641569,"is_passed":false},{"stop_id":"U1677Z2","name":"Tržní","arrival_time":"14:57:00","departure_time":"14:57:00","lat":49.189407,"lon":16.629972,"is_passed":false},{"stop_id":"U1144Z2","name":"Hladíkova","arrival_time":"14:57:00","departure_time":"14:57:00","lat":49.187865,"lon":16.625741,"is_passed":false},{"stop_id":"U1011Z3","name":"Autobusové nádraží","arrival_time":"14:59:00","departure_time":"14:59:00","lat":49.186909,"lon":16.617974,"is_passed":false},{"stop_id":"U1716Z3","name":"Úzká","arrival_time":"15:02:00","departure_time":"15:08:00","lat":49.189244,"lon":16.613733,"is_passed":false}],"46711":[{"stop_id":"U1716Z4","name":"Úzká","arrival_time":"15:08:00","departure_time":"15:08:00","lat":49.189107,"lon":16.613266,"is_passed":false},{"stop_id":"U1463Z2","name":"Opuštěná","arrival_time":"15:11:00","departure_time":"15:11:00","lat":49.185245,"lon":16.613024,"is_passed":false},{"stop_id":"U1011Z4","name":"Autobusové nádraží","arrival_time":"15:13:00","departure_time":"15:13:00","lat":49.186887,"lon":16.618479,"is_passed":false},{"stop_id":"U1144Z1","name":"Hladíkova","arrival_time":"15:14:00","departure_time":"15:14:00","lat":49.187682,"lon":16.625353,"is_passed":false},{"stop_id":"U1677Z1","name":"Tržní","arrival_time":"15:16:00","departure_time":"15:16:00","lat":49.189973,"lon":16.632193,"is_passed":false},{"stop_id":"U1598Z1","name":"Spáčilova","arrival_time":"15:17:00","departure_time":"15:17:00","lat":49.188674,"lon":16.640942,"is_passed":false},{"stop_id":"U1455Z1","name":"Olomoucká - u školy","arrival_time":"15:19:00","departure_time":"15:19:00","lat":49.186169,"lon":16.652958,"is_passed":false},{"stop_id":"U1665Z1","name":"Těžební","arrival_time":"15:21:00","departure_time":"15:21:00","lat":49.181966,"lon":16.657236,"is_passed":false},{"stop_id":"U1739Z1","name":"Vlastimila Pecha","arrival_time":"15:22:00","departure_time":"15:22:00","lat":49.179379,"lon":16.662741,"is_passed":false},{"stop_id":"U1105Z1","name":"Ericha Roučky","arrival_time":"15:24:00","departure_time":"15:24:00","lat":49.174784,"lon":16.66987,"is_passed":false},{"stop_id":"U1064Z1","name":"Černovická terasa I","arrival_time":"15:25:00","departure_time":"15:25:00","lat":49.171172,"lon":16.673495,"is_passed":false},{"stop_id":"U1065Z1","name":"Černovická terasa II","arrival_time":"15:26:00","departure_time":"15:26:00","lat":49.167108,"lon":16.67608,"is_passed":false},{"stop_id":"U1581Z2","name":"Areál Slatina","arrival_time":"15:28:00","departure_time":"15:28:00","lat":49.168677,"lon":16.678416,"is_passed":false},{"stop_id":"U1010Z1","name":"Airport Park","arrival_time":"15:31:00","departure_time":"15:31:00","lat":49.158218,"lon":16.684538,"is_passed":false},{"stop_id":"U7502Z2","name":"CTPark Brno South","arrival_time":"15:34:00","departure_time":"15:34:00","lat":49.160548,"lon":16.700716,"is_passed":false},{"stop_id":"U1334Z1","name":"Letiště - logistický areál","arrival_time":"15:36:00","departure_time":"15:36:00","lat":49.15627,"lon":16.698196,"is_passed":false},{"stop_id":"U1335Z1","name":"Letiště - služební vstup","arrival_time":"15:37:00","departure_time":"15:37:00","lat":49.155635,"lon":16.691132,"is_passed":false},{"stop_id":"U1337Z1","name":"Letiště Tuřany - terminál","arrival_time":"15:39:00","departure_time":"16:12:00","lat":49.154815,"lon":16.692296,"is_passed":false}],"46712":[{"stop_id":"U1337Z2","name":"Letiště Tuřany - terminál","arrival_time":"16:12:00","departure_time":"16:12:00","lat":49.154845,"lon":16.692583,"is_passed":false},{"stop_id":"U1334Z2","name":"Letiště - logistický areál","arrival_time":"16:14:00","departure_time":"16:14:00","lat":49.156979,"lon":16.699058,"is_passed":false},{"stop_id":"U7502Z2","name":"CTPark Brno South","arrival_time":"16:15:00","departure_time":"16:15:00","lat":49.160548,"lon":16.700716,"is_passed":false},{"stop_id":"U1010Z2","name":"Airport Park","arrival_time":"16:18:00","departure_time":"16:18:00","lat":49.158031,"lon":16.683199,"is_passed":false},{"stop_id":"U1581Z1","name":"Areál Slatina","arrival_time":"16:22:00","departure_time":"16:22:00","lat":49.168614,"lon":16.67804,"is_passed":false},{"stop_id":"U1065Z2","name":"Černovická terasa II","arrival_time":"16:22:00","departure_time":"16:22:00","lat":49.168348,"lon":16.675307,"is_passed":false},{"stop_id":"U1064Z2","name":"Černovická terasa I","arrival_time":"16:23:00","departure_time":"16:23:00","lat":49.171843,"lon":16.673091,"is_passed":false},{"stop_id":"U1105Z4","name":"Ericha Roučky","arrival_time":"16:25:00","departure_time":"16:25:00","lat":49.175789,"lon":16.668403,"is_passed":false},{"stop_id":"U1739Z2","name":"Vlastimila Pecha","arrival_time":"16:26:00","departure_time":"16:26:00","lat":49.179751,"lon":16.662407,"is_passed":false},{"stop_id":"U1665Z2","name":"Těžební","arrival_time":"16:27:00","departure_time":"16:27:00","lat":49.182639,"lon":16.656437,"is_passed":false},{"stop_id":"U1455Z2","name":"Olomoucká - u školy","arrival_time":"16:29:00","departure_time":"16:29:00","lat":49.186437,"lon":16.652477,"is_passed":false},{"stop_id":"U1598Z2","name":"Spáčilova","arrival_time":"16:30:00","departure_time":"16:30:00","lat":49.188617,"lon":16.641569,"is_passed":false},{"stop_id":"U1677Z2","name":"Tržní","arrival_time":"16:33:00","departure_time":"16:33:00","lat":49.189407,"lon":16.629972,"is_passed":false},{"stop_id":"U1144Z2","name":"Hladíkova","arrival_time":"16:33:00","departure_time":"16:33:00","lat":49.187865,"lon":16.625741,"is_passed":false},{"stop_id":"U1011Z3","name":"Autobusové nádraží","arrival_time":"16:35:00","departure_time":"16:35:00","lat":49.186909,"lon":16.617974,"is_passed":false},{"stop_id":"U1716Z3","name":"Úzká","arrival_time":"16:38:00","departure_time":"16:53:00","lat":49.189244,"lon":16.613733,"is_passed":false}],"46713":[{"stop_id":"U1716Z4","name":"Úzká","arrival_time":"16:53:00","departure_time":"16:53:00","lat":49.189107,"lon":16.613266,"is_passed":false},{"stop_id":"U1463Z2","name":"Opuštěná","arrival_time":"16:56:00","departure_time":"16:56:00","lat":49.185245,"lon":16.613024,"is_passed":false},{"stop_id":"U1011Z4","name":"Autobusové nádraží","arrival_time":"16:58:00","departure_time":"16:58:00","lat":49.186887,"lon":16.618479,"is_passed":false},{"stop_id":"U1144Z1","name":"Hladíkova","arrival_time":"16:59:00","departure_time":"16:59:00","lat":49.187682,"lon":16.625353,"is_passed":false},{"stop_id":"U1677Z1","name":"Tržní","arrival_time":"17:01:00","departure_time":"17:01:00","lat":49.189973,"lon":16.632193,"is_passed":false},{"stop_id":"U1598Z1","name":"Spáčilova","arrival_time":"17:02:00","departure_time":"17:02:00","lat":49.188674,"lon":16.640942,"is_passed":false},{"stop_id":"U1455Z1","name":"Olomoucká - u školy","arrival_time":"17:04:00","departure_time":"17:04:00","lat":49.186169,"lon":16.652958,"is_passed":false},{"stop_id":"U1665Z1","name":"Těžební","arrival_time":"17:06:00","departure_time":"17:06:00","lat":49.181966,"lon":16.657236,"is_passed":false},{"stop_id":"U1739Z1","name":"Vlastimila Pecha","arrival_time":"17:07:00","departure_time":"17:07:00","lat":49.179379,"lon":16.662741,"is_passed":false},{"stop_id":"U1105Z1","name":"Ericha Roučky","arrival_time":"17:09:00","departure_time":"17:09:00","lat":49.174784,"lon":16.66987,"is_passed":false},{"stop_id":"U1064Z1","name":"Černovická terasa I","arrival_time":"17:10:00","departure_time":"17:10:00","lat":49.171172,"lon":16.673495,"is_passed":false},{"stop_id":"U1065Z1","name":"Černovická terasa II","arrival_time":"17:11:00","departure_time":"17:11:00","lat":49.167108,"lon":16.67608,"is_passed":false},{"stop_id":"U1581Z2","name":"Areál Slatina","arrival_time":"17:13:00","departure_time":"17:13:00","lat":49.168677,"lon":16.678416,"is_passed":false},{"stop_id":"U1562Z3","name":"Řípská","arrival_time":"17:14:00","departure_time":"17:14:00","lat":49.172528,"lon":16.682138,"is_passed":false},{"stop_id":"U1573Z3","name":"Slatina, nádraží","arrival_time":"17:16:00","departure_time":"17:16:00","lat":49.169777,"lon":16.682481,"is_passed":false},{"stop_id":"U1095Z1","name":"Drážní","arrival_time":"17:16:00","departure_time":"17:16:00","lat":49.167303,"lon":16.685492,"is_passed":false},{"stop_id":"U1580Z1","name":"Slatinka","arrival_time":"17:17:00","departure_time":"17:41:00","lat":49.164877,"lon":16.688945,"is_passed":false}],"46714":[{"stop_id":"U1580Z2","name":"Slatinka","arrival_time":"17:41:00","departure_time":"17:41:00","lat":49.164971,"lon":16.688835,"is_passed":false},{"stop_id":"U1095Z2","name":"Drážní","arrival_time":"17:41:00","departure_time":"17:41:00","lat":49.167481,"lon":16.685416,"is_passed":false},{"stop_id":"U1573Z4","name":"Slatina, nádraží","arrival_time":"17:42:00","departure_time":"17:42:00","lat":49.169756,"lon":16.682633,"is_passed":false},{"stop_id":"U1640Z2","name":"Šmahova","arrival_time":"17:43:00","departure_time":"17:43:00","lat":49.172157,"lon":16.684373,"is_passed":false},{"stop_id":"U1562Z4","name":"Řípská","arrival_time":"17:45:00","departure_time":"17:45:00","lat":49.172829,"lon":16.682244,"is_passed":false},{"stop_id":"U1581Z1","name":"Areál Slatina","arrival_time":"17:46:00","departure_time":"17:46:00","lat":49.168614,"lon":16.67804,"is_passed":false},{"stop_id":"U1065Z2","name":"Černovická terasa II","arrival_time":"17:46:00","departure_time":"17:46:00","lat":49.168348,"lon":16.675307,"is_passed":false},{"stop_id":"U1064Z2","name":"Černovická terasa I","arrival_time":"17:47:00","departure_time":"17:47:00","lat":49.171843,"lon":16.673091,"is_passed":false},{"stop_id":"U1105Z4","name":"Ericha Roučky","arrival_time":"17:49:00","departure_time":"17:49:00","lat":49.175789,"lon":16.668403,"is_passed":false},{"stop_id":"U1739Z2","name":"Vlastimila Pecha","arrival_time":"17:50:00","departure_time":"17:50:00","lat":49.179751,"lon":16.662407,"is_passed":false},{"stop_id":"U1665Z2","name":"Těžební","arrival_time":"17:51:00","departure_time":"17:51:00","lat":49.182639,"lon":16.656437,"is_passed":false},{"stop_id":"U1455Z2","name":"Olomoucká - u školy","arrival_time":"17:53:00","departure_time":"17:53:00","lat":49.186437,"lon":16.652477,"is_passed":false},{"stop_id":"U1598Z2","name":"Spáčilova","arrival_time":"17:54:00","departure_time":"17:54:00","lat":49.188617,"lon":16.641569,"is_passed":false},{"stop_id":"U1677Z2","name":"Tržní","arrival_time":"17:57:00","departure_time":"17:57:00","lat":49.189407,"lon":16.629972,"is_passed":false},{"stop_id":"U1144Z2","name":"Hladíkova","arrival_time":"17:57:00","departure_time":"17:57:00","lat":49.187865,"lon":16.625741,"is_passed":false},{"stop_id":"U1011Z3","name":"Autobusové nádraží","arrival_time":"17:59:00","departure_time":"17:59:00","lat":49.186909,"lon":16.617974,"is_passed":false},{"stop_id":"U1716Z3","name":"Úzká","arrival_time":"18:02:00","departure_time":"18:20:00","lat":49.189244,"lon":16.613733,"is_passed":false}],"46715":[{"stop_id":"U1716Z4","name":"Úzká","arrival_time":"18:20:00","departure_time":"18:20:00","lat":49.189107,"lon":16.613266,"is_passed":false},{"stop_id":"U1463Z2","name":"Opuštěná","arrival_time":"18:22:00","departure_time":"18:22:00","lat":49.185245,"lon":16.613024,"is_passed":false},{"stop_id":"U1011Z4","name":"Autobusové nádraží","arrival_time":"18:23:00","departure_time":"18:23:00","lat":49.186887,"lon":16.618479,"is_passed":false},{"stop_id":"U1144Z1","name":"Hladíkova","arrival_time":"18:24:00","departure_time":"18:24:00","lat":49.187682,"lon":16.625353,"is_passed":false},{"stop_id":"U1677Z1","name":"Tržní","arrival_time":"18:26:00","departure_time":"18:26:00","lat":49.189973,"lon":16.632193,"is_passed":false},{"stop_id":"U1598Z1","name":"Spáčilova","arrival_time":"18:27:00","departure_time":"18:27:00","lat":49.188674,"lon":16.640942,"is_passed":false},{"stop_id":"U1455Z1","name":"Olomoucká - u školy","arrival_time":"18:28:00","departure_time":"18:28:00","lat":49.186169,"lon":16.652958,"is_passed":false},{"stop_id":"U1665Z1","name":"Těžební","arrival_time":"18:30:00","departure_time":"18:30:00","lat":49.181966,"lon":16.657236,"is_passed":false},{"stop_id":"U1739Z1","name":"Vlastimila Pecha","arrival_time":"18:31:00","departure_time":"18:31:00","lat":49.179379,"lon":16.662741,"is_passed":false},{"stop_id":"U1105Z1","name":"Ericha Roučky","arrival_time":"18:33:00","departure_time":"18:33:00","lat":49.174784,"lon":16.66987,"is_passed":false},{"stop_id":"U1064Z1","name":"Černovická terasa I","arrival_time":"18:34:00","departure_time":"18:34:00","lat":49.171172,"lon":16.673495,"is_passed":false},{"stop_id":"U1065Z1","name":"Černovická terasa II","arrival_time":"18:35:00","departure_time":"18:35:00","lat":49.167108,"lon":16.67608,"is_passed":false},{"stop_id":"U1581Z2","name":"Areál Slatina","arrival_time":"18:36:00","departure_time":"18:36:00","lat":49.168677,"lon":16.678416,"is_passed":false},{"stop_id":"U1010Z1","name":"Airport Park","arrival_time":"18:39:00","departure_time":"18:39:00","lat":49.158218,"lon":16.684538,"is_passed":false},{"stop_id":"U7502Z2","name":"CTPark Brno South","arrival_time":"18:42:00","departure_time":"18:42:00","lat":49.160548,"lon":16.700716,"is_passed":false},{"stop_id":"U1334Z1","name":"Letiště - logistický areál","arrival_time":"18:44:00","departure_time":"18:44:00","lat":49.15627,"lon":16.698196,"is_passed":false},{"stop_id":"U1335Z1","name":"Letiště - služební vstup","arrival_time":"18:45:00","departure_time":"18:45:00","lat":49.155635,"lon":16.691132,"is_passed":false},{"stop_id":"U1337Z1","name":"Letiště Tuřany - terminál","arrival_time":"18:47:00","departure_time":"19:06:00","lat":49.154815,"lon":16.692296,"is_passed":false}],"46716":[{"stop_id":"U1337Z2","name":"Letiště Tuřany - terminál","arrival_time":"19:06:00","departure_time":"19:06:00","lat":49.154845,"lon":16.692583,"is_passed":false},{"stop_id":"U1334Z2","name":"Letiště - logistický areál","arrival_time":"19:08:00","departure_time":"19:08:00","lat":49.156979,"lon":16.699058,"is_passed":false},{"stop_id":"U7502Z2","name":"CTPark Brno South","arrival_time":"19:09:00","departure_time":"19:09:00","lat":49.160548,"lon":16.700716,"is_passed":false},{"stop_id":"U1010Z2","name":"Airport Park","arrival_time":"19:12:00","departure_time":"19:12:00","lat":49.158031,"lon":16.683199,"is_passed":false},{"stop_id":"U1581Z1","name":"Areál Slatina","arrival_time":"19:15:00","departure_time":"19:15:00","lat":49.168614,"lon":16.67804,"is_passed":false},{"stop_id":"U1065Z2","name":"Černovická terasa II","arrival_time":"19:15:00","departure_time":"19:15:00","lat":49.168348,"lon":16.675307,"is_passed":false},{"stop_id":"U1064Z2","name":"Černovická terasa I","arrival_time":"19:16:00","departure_time":"19:16:00","lat":49.171843,"lon":16.673091,"is_passed":false},{"stop_id":"U1105Z4","name":"Ericha Roučky","arrival_time":"19:18:00","departure_time":"19:18:00","lat":49.175789,"lon":16.668403,"is_passed":false},{"stop_id":"U1739Z2","name":"Vlastimila Pecha","arrival_time":"19:19:00","departure_time":"19:19:00","lat":49.179751,"lon":16.662407,"is_passed":false},{"stop_id":"U1665Z2","name":"Těžební","arrival_time":"19:20:00","departure_time":"19:20:00","lat":49.182639,"lon":16.656437,"is_passed":false},{"stop_id":"U1455Z2","name":"Olomoucká - u školy","arrival_time":"19:21:00","departure_time":"19:21:00","lat":49.186437,"lon":16.652477,"is_passed":false},{"stop_id":"U1598Z2","name":"Spáčilova","arrival_time":"19:22:00","departure_time":"19:22:00","lat":49.188617,"lon":16.641569,"is_passed":false},{"stop_id":"U1677Z2","name":"Tržní","arrival_time":"19:25:00","departure_time":"19:25:00","lat":49.189407,"lon":16.629972,"is_passed":false},{"stop_id":"U1144Z2","name":"Hladíkova","arrival_time":"19:25:00","departure_time":"19:25:00","lat":49.187865,"lon":16.625741,"is_passed":false},{"stop_id":"U1011Z3","name":"Autobusové nádraží","arrival_time":"19:27:00","departure_time":"19:27:00","lat":49.186909,"lon":16.617974,"is_passed":false},{"stop_id":"U1716Z3","name":"Úzká","arrival_time":"19:30:00","departure_time":"20:01:00","lat":49.189244,"lon":16.613733,"is_passed":false}],"46717":[{"stop_id":"U1716Z4","name":"Úzká","arrival_time":"20:01:00","departure_time":"20:01:00","lat":49.189107,"lon":16.613266,"is_passed":false},{"stop_id":"U1463Z2","name":"Opuštěná","arrival_time":"20:03:00","departure_time":"20:03:00","lat":49.185245,"lon":16.613024,"is_passed":false},{"stop_id":"U1011Z4","name":"Autobusové nádraží","arrival_time":"20:04:00","departure_time":"20:04:00","lat":49.186887,"lon":16.618479,"is_passed":false},{"stop_id":"U1144Z1","name":"Hladíkova","arrival_time":"20:05:00","departure_time":"20:05:00","lat":49.187682,"lon":16.625353,"is_passed":false},{"stop_id":"U1677Z1","name":"Tržní","arrival_time":"20:07:00","departure_time":"20:07:00","lat":49.189973,"lon":16.632193,"is_passed":false},{"stop_id":"U1598Z1","name":"Spáčilova","arrival_time":"20:08:00","departure_time":"20:08:00","lat":49.188674,"lon":16.640942,"is_passed":false},{"stop_id":"U1455Z1","name":"Olomoucká - u školy","arrival_time":"20:09:00","departure_time":"20:09:00","lat":49.186169,"lon":16.652958,"is_passed":false},{"stop_id":"U1665Z1","name":"Těžební","arrival_time":"20:11:00","departure_time":"20:11:00","lat":49.181966,"lon":16.657236,"is_passed":false},{"stop_id":"U1739Z1","name":"Vlastimila Pecha","arrival_time":"20:12:00","departure_time":"20:12:00","lat":49.179379,"lon":16.662741,"is_passed":false},{"stop_id":"U1105Z1","name":"Ericha Roučky","arrival_time":"20:14:00","departure_time":"20:14:00","lat":49.174784,"lon":16.66987,"is_passed":false},{"stop_id":"U1064Z1","name":"Černovická terasa I","arrival_time":"20:15:00","departure_time":"20:15:00","lat":49.171172,"lon":16.673495,"is_passed":false},{"stop_id":"U1065Z1","name":"Černovická terasa II","arrival_time":"20:16:00","departure_time":"20:16:00","lat":49.167108,"lon":16.67608,"is_passed":false},{"stop_id":"U1581Z3","name":"Areál Slatina","arrival_time":"20:18:00","departure_time":"20:45:00","lat":49.168533,"lon":16.678786,"is_passed":false}],"46718":[{"stop_id":"U1581Z1","name":"Areál Slatina","arrival_time":"20:45:00","departure_time":"20:45:00","lat":49.168614,"lon":16.67804,"is_passed":false},{"stop_id":"U1065Z2","name":"Černovická terasa II","arrival_time":"20:45:00","departure_time":"20:45:00","lat":49.168348,"lon":16.675307,"is_passed":false},{"stop_id":"U1064Z2","name":"Černovická terasa I","arrival_time":"20:46:00","departure_time":"20:46:00","lat":49.171843,"lon":16.673091,"is_passed":false},{"stop_id":"U1105Z4","name":"Ericha Roučky","arrival_time":"20:48:00","departure_time":"20:48:00","lat":49.175789,"lon":16.668403,"is_passed":false},{"stop_id":"U1739Z2","name":"Vlastimila Pecha","arrival_time":"20:49:00","departure_time":"20:49:00","lat":49.179751,"lon":16.662407,"is_passed":false},{"stop_id":"U1665Z2","name":"Těžební","arrival_time":"20:50:00","departure_time":"20:50:00","lat":49.182639,"lon":16.656437,"is_passed":false},{"stop_id":"U1455Z2","name":"Olomoucká - u školy","arrival_time":"20:51:00","departure_time":"20:51:00","lat":49.186437,"lon":16.652477,"is_passed":false},{"stop_id":"U1598Z2","name":"Spáčilova","arrival_time":"20:52:00","departure_time":"20:52:00","lat":49.188617,"lon":16.641569,"is_passed":false},{"stop_id":"U1677Z2","name":"Tržní","arrival_time":"20:55:00","departure_time":"20:55:00","lat":49.189407,"lon":16.629972,"is_passed":false},{"stop_id":"U1144Z2","name":"Hladíkova","arrival_time":"20:55:00","departure_time":"20:55:00","lat":49.187865,"lon":16.625741,"is_passed":false},{"stop_id":"U1011Z3","name":"Autobusové nádraží","arrival_time":"20:57:00","departure_time":"20:57:00","lat":49.186909,"lon":16.617974,"is_passed":false},{"stop_id":"U1716Z3","name":"Úzká","arrival_time":"20:59:00","departure_time":"21:01:00","lat":49.189244,"lon":16.613733,"is_passed":false}],"46719":[{"stop_id":"U1716Z4","name":"Úzká","arrival_time":"21:01:00","departure_time":"21:01:00","lat":49.189107,"lon":16.613266,"is_passed":false},{"stop_id":"U1463Z2","name":"Opuštěná","arrival_time":"21:03:00","departure_time":"21:03:00","lat":49.185245,"lon":16.613024,"is_passed":false},{"stop_id":"U1011Z4","name":"Autobusové nádraží","arrival_time":"21:04:00","departure_time":"21:04:00","lat":49.186887,"lon":16.618479,"is_passed":false},{"stop_id":"U1144Z1","name":"Hladíkova","arrival_time":"21:05:00","departure_time":"21:05:00","lat":49.187682,"lon":16.625353,"is_passed":false},{"stop_id":"U1677Z1","name":"Tržní","arrival_time":"21:07:00","departure_time":"21:07:00","lat":49.189973,"lon":16.632193,"is_passed":false},{"stop_id":"U1598Z1","name":"Spáčilova","arrival_time":"21:08:00","departure_time":"21:08:00","lat":49.188674,"lon":16.640942,"is_passed":false},{"stop_id":"U1455Z1","name":"Olomoucká - u školy","arrival_time":"21:09:00","departure_time":"21:09:00","lat":49.186169,"lon":16.652958,"is_passed":false},{"stop_id":"U1665Z1","name":"Těžební","arrival_time":"21:11:00","departure_time":"21:11:00","lat":49.181966,"lon":16.657236,"is_passed":false},{"stop_id":"U1739Z1","name":"Vlastimila Pecha","arrival_time":"21:12:00","departure_time":"21:12:00","lat":49.179379,"lon":16.662741,"is_passed":false},{"stop_id":"U1105Z1","name":"Ericha Roučky","arrival_time":"21:13:00","departure_time":"21:13:00","lat":49.174784,"lon":16.66987,"is_passed":false},{"stop_id":"U1064Z1","name":"Černovická terasa I","arrival_time":"21:14:00","departure_time":"21:14:00","lat":49.171172,"lon":16.673495,"is_passed":false},{"stop_id":"U1065Z1","name":"Černovická terasa II","arrival_time":"21:15:00","departure_time":"21:15:00","lat":49.167108,"lon":16.67608,"is_passed":false},{"stop_id":"U1581Z2","name":"Areál Slatina","arrival_time":"21:16:00","departure_time":"21:16:00","lat":49.168677,"lon":16.678416,"is_passed":false},{"stop_id":"U1562Z3","name":"Řípská","arrival_time":"21:17:00","departure_time":"21:17:00","lat":49.172528,"lon":16.682138,"is_passed":false},{"stop_id":"U1573Z3","name":"Slatina, nádraží","arrival_time":"21:19:00","departure_time":"21:19:00","lat":49.169777,"lon":16.682481,"is_passed":false},{"stop_id":"U1095Z1","name":"Drážní","arrival_time":"21:19:00","departure_time":"21:19:00","lat":49.167303,"lon":16.685492,"is_passed":false},{"stop_id":"U1580Z1","name":"Slatinka","arrival_time":"21:20:00","departure_time":"21:41:00","lat":49.164877,"lon":16.688945,"is_passed":false}],"46720":[{"stop_id":"U1580Z2","name":"Slatinka","arrival_time":"21:41:00","departure_time":"21:41:00","lat":49.164971,"lon":16.688835,"is_passed":false},{"stop_id":"U1095Z2","name":"Drážní","arrival_time":"21:41:00","departure_time":"21:41:00","lat":49.167481,"lon":16.685416,"is_passed":false},{"stop_id":"U1573Z4","name":"Slatina, nádraží","arrival_time":"21:42:00","departure_time":"21:42:00","lat":49.169756,"lon":16.682633,"is_passed":false},{"stop_id":"U1640Z2","name":"Šmahova","arrival_time":"21:43:00","departure_time":"21:43:00","lat":49.172157,"lon":16.684373,"is_passed":false},{"stop_id":"U1562Z4","name":"Řípská","arrival_time":"21:44:00","departure_time":"21:44:00","lat":49.172829,"lon":16.682244,"is_passed":false},{"stop_id":"U1581Z1","name":"Areál Slatina","arrival_time":"21:45:00","departure_time":"21:45:00","lat":49.168614,"lon":16.67804,"is_passed":false},{"stop_id":"U1065Z2","name":"Černovická terasa II","arrival_time":"21:45:00","departure_time":"21:45:00","lat":49.168348,"lon":16.675307,"is_passed":false},{"stop_id":"U1064Z2","name":"Černovická terasa I","arrival_time":"21:46:00","departure_time":"21:46:00","lat":49.171843,"lon":16.673091,"is_passed":false},{"stop_id":"U1105Z4","name":"Ericha Roučky","arrival_time":"21:48:00","departure_time":"21:48:00","lat":49.175789,"lon":16.668403,"is_passed":false},{"stop_id":"U1739Z2","name":"Vlastimila Pecha","arrival_time":"21:49:00","departure_time":"21:49:00","lat":49.179751,"lon":16.662407,"is_passed":false},{"stop_id":"U1665Z2","name":"Těžební","arrival_time":"21:50:00","departure_time":"21:50:00","lat":49.182639,"lon":16.656437,"is_passed":false},{"stop_id":"U1455Z2","name":"Olomoucká - u školy","arrival_time":"21:51:00","departure_time":"21:51:00","lat":49.186437,"lon":16.652477,"is_passed":false},{"stop_id":"U1598Z2","name":"Spáčilova","arrival_time":"21:52:00","departure_time":"21:52:00","lat":49.188617,"lon":16.641569,"is_passed":false},{"stop_id":"U1677Z2","name":"Tržní","arrival_time":"21:55:00","departure_time":"21:55:00","lat":49.189407,"lon":16.629972,"is_passed":false},{"stop_id":"U1144Z2","name":"Hladíkova","arrival_time":"21:55:00","departure_time":"21:55:00","lat":49.187865,"lon":16.625741,"is_passed":false},{"stop_id":"U1011Z3","name":"Autobusové nádraží","arrival_time":"21:57:00","departure_time":"21:57:00","lat":49.186909,"lon":16.617974,"is_passed":false},{"stop_id":"U1716Z3","name":"Úzká","arrival_time":"21:59:00","departure_time":"22:31:00","lat":49.189244,"lon":16.613733,"is_passed":false}],"46721":[{"stop_id":"U1716Z4","name":"Úzká","arrival_time":"22:31:00","departure_time":"22:31:00","lat":49.189107,"lon":16.613266,"is_passed":false},{"stop_id":"U1463Z2","name":"Opuštěná","arrival_time":"22:33:00","departure_time":"22:33:00","lat":49.185245,"lon":16.613024,"is_passed":false},{"stop_id":"U1011Z4","name":"Autobusové nádraží","arrival_time":"22:34:00","departure_time":"22:34:00","lat":49.186887,"lon":16.618479,"is_passed":false},{"stop_id":"U1144Z1","name":"Hladíkova","arrival_time":"22:35:00","departure_time":"22:35:00","lat":49.187682,"lon":16.625353,"is_passed":false},{"stop_id":"U1677Z1","name":"Tržní","arrival_time":"22:37:00","departure_time":"22:37:00","lat":49.189973,"lon":16.632193,"is_passed":false},{"stop_id":"U1598Z1","name":"Spáčilova","arrival_time":"22:38:00","departure_time":"22:38:00","lat":49.188674,"lon":16.640942,"is_passed":false},{"stop_id":"U1455Z1","name":"Olomoucká - u školy","arrival_time":"22:39:00","departure_time":"22:39:00","lat":49.186169,"lon":16.652958,"is_passed":false},{"stop_id":"U1665Z1","name":"Těžební","arrival_time":"22:41:00","departure_time":"22:41:00","lat":49.181966,"lon":16.657236,"is_passed":false},{"stop_id":"U1739Z1","name":"Vlastimila Pecha","arrival_time":"22:42:00","departure_time":"22:42:00","lat":49.179379,"lon":16.662741,"is_passed":false},{"stop_id":"U1105Z1","name":"Ericha Roučky","arrival_time":"22:43:00","departure_time":"22:43:00","lat":49.174784,"lon":16.66987,"is_passed":false},{"stop_id":"U1064Z1","name":"Černovická terasa I","arrival_time":"22:44:00","departure_time":"22:44:00","lat":49.171172,"lon":16.673495,"is_passed":false},{"stop_id":"U1065Z1","name":"Černovická terasa II","arrival_time":"22:45:00","departure_time":"22:45:00","lat":49.167108,"lon":16.67608,"is_passed":false},{"stop_id":"U1581Z3","name":"Areál Slatina","arrival_time":"22:47:00","departure_time":"22:49:00","lat":49.168533,"lon":16.678786,"is_passed":false}],"46722":[{"stop_id":"U1716Z4","name":"Úzká","arrival_time":"5:03:00","departure_time":"5:03:00","lat":49.189107,"lon":16.613266,"is_passed":false},{"stop_id":"U1463Z2","name":"Opuštěná","arrival_time":"5:05:00","departure_time":"5:05:00","lat":49.185245,"lon":16.613024,"is_passed":false},{"stop_id":"U1011Z4","name":"Autobusové nádraží","arrival_time":"5:06:00","departure_time":"5:06:00","lat":49.186887,"lon":16.618479,"is_passed":false},{"stop_id":"U1144Z1","name":"Hladíkova","arrival_time":"5:07:00","departure_time":"5:07:00","lat":49.187682,"lon":16.625353,"is_passed":false},{"stop_id":"U1677Z1","name":"Tržní","arrival_time":"5:09:00","departure_time":"5:09:00","lat":49.189973,"lon":16.632193,"is_passed":false},{"stop_id":"U1598Z1","name":"Spáčilova","arrival_time":"5:10:00","departure_time":"5:10:00","lat":49.188674,"lon":16.640942,"is_passed":false},{"stop_id":"U1455Z1","name":"Olomoucká - u školy","arrival_time":"5:11:00","departure_time":"5:11:00","lat":49.186169,"lon":16.652958,"is_passed":false},{"stop_id":"U1665Z1","name":"Těžební","arrival_time":"5:13:00","departure_time":"5:13:00","lat":49.181966,"lon":16.657236,"is_passed":false},{"stop_id":"U1739Z1","name":"Vlastimila Pecha","arrival_time":"5:14:00","departure_time":"5:14:00","lat":49.179379,"lon":16.662741,"is_passed":false},{"stop_id":"U1105Z1","name":"Ericha Roučky","arrival_time":"5:16:00","departure_time":"5:16:00","lat":49.174784,"lon":16.66987,"is_passed":false},{"stop_id":"U1064Z1","name":"Černovická terasa I","arrival_time":"5:17:00","departure_time":"5:17:00","lat":49.171172,"lon":16.673495,"is_passed":false},{"stop_id":"U1065Z1","name":"Černovická terasa II","arrival_time":"5:18:00","departure_time":"5:18:00","lat":49.167108,"lon":16.67608,"is_passed":false},{"stop_id":"U1581Z2","name":"Areál Slatina","arrival_time":"5:19:00","departure_time":"5:20:00","lat":49.168677,"lon":16.678416,"is_passed":false},{"stop_id":"U1562Z3","name":"Řípská","arrival_time":"5:21:00","departure_time":"5:21:00","lat":49.172528,"lon":16.682138,"is_passed":false},{"stop_id":"U1573Z3","name":"Slatina, nádraží","arrival_time":"5:23:00","departure_time":"5:23:00","lat":49.169777,"lon":16.682481,"is_passed":false},{"stop_id":"U1095Z1","name":"Drážní","arrival_time":"5:23:00","departure_time":"5:23:00","lat":49.167303,"lon":16.685492,"is_passed":false},{"stop_id":"U1580Z1","name":"Slatinka","arrival_time":"5:24:00","departure_time":"5:41:00","lat":49.164877,"lon":16.688945,"is_passed":false}],"46723":[{"stop_id":"U1580Z2","name":"Slatinka","arrival_time":"5:41:00","departure_time":"5:41:00","lat":49.164971,"lon":16.688835,"is_passed":false},{"stop_id":"U1095Z2","name":"Drážní","arrival_time":"5:41:00","departure_time":"5:41:00","lat":49.167481,"lon":16.685416,"is_passed":false},{"stop_id":"U1573Z4","name":"Slatina, nádraží","arrival_time":"5:42:00","departure_time":"5:42:00","lat":49.169756,"lon":16.682633,"is_passed":false},{"stop_id":"U1640Z2","name":"Šmahova","arrival_time":"5:43:00","departure_time":"5:43:00","lat":49.172157,"lon":16.684373,"is_passed":false},{"stop_id":"U1562Z4","name":"Řípská","arrival_time":"5:45:00","departure_time":"5:45:00","lat":49.172829,"lon":16.682244,"is_passed":false},{"stop_id":"U1581Z1","name":"Areál Slatina","arrival_time":"5:46:00","departure_time":"5:46:00","lat":49.168614,"lon":16.67804,"is_passed":false},{"stop_id":"U1065Z2","name":"Černovická terasa II","arrival_time":"5:46:00","departure_time":"5:46:00","lat":49.168348,"lon":16.675307,"is_passed":false},{"stop_id":"U1064Z2","name":"Černovická terasa I","arrival_time":"5:47:00","departure_time":"5:47:00","lat":49.171843,"lon":16.673091,"is_passed":false},{"stop_id":"U1105Z4","name":"Ericha Roučky","arrival_time":"5:49:00","departure_time":"5:49:00","lat":49.175789,"lon":16.668403,"is_passed":false},{"stop_id":"U1739Z2","name":"Vlastimila Pecha","arrival_time":"5:50:00","departure_time":"5:50:00","lat":49.179751,"lon":16.662407,"is_passed":false},{"stop_id":"U1665Z2","name":"Těžební","arrival_time":"5:51:00","departure_time":"5:51:00","lat":49.182639,"lon":16.656437,"is_passed":false},{"stop_id":"U1455Z2","name":"Olomoucká - u školy","arrival_time":"5:52:00","departure_time":"5:52:00","lat":49.186437,"lon":16.652477,"is_passed":false},{"stop_id":"U1598Z2","name":"Spáčilova","arrival_time":"5:53:00","departure_time":"5:53:00","lat":49.188617,"lon":16.641569,"is_passed":false},{"stop_id":"U1677Z2","name":"Tržní","arrival_time":"5:56:00","departure_time":"5:56:00","lat":49.189407,"lon":16.629972,"is_passed":false},{"stop_id":"U1144Z2","name":"Hladíkova","arrival_time":"5:56:00","departure_time":"5:56:00","lat":49.187865,"lon":16.625741,"is_passed":false},{"stop_id":"U1011Z3","name":"Autobusové nádraží","arrival_time":"5:58:00","departure_time":"5:58:00","lat":49.186909,"lon":16.617974,"is_passed":false},{"stop_id":"U1716Z3","name":"Úzká","arrival_time":"6:01:00","departure_time":"6:23:00","lat":49.189244,"lon":16.613733,"is_passed":false}],"46724":[{"stop_id":"U1716Z4","name":"Úzká","arrival_time":"6:23:00","departure_time":"6:23:00","lat":49.189107,"lon":16.613266,"is_passed":false},{"stop_id":"U1463Z2","name":"Opuštěná","arrival_time":"6:26:00","departure_time":"6:26:00","lat":49.185245,"lon":16.613024,"is_passed":false},{"stop_id":"U1011Z4","name":"Autobusové nádraží","arrival_time":"6:28:00","departure_time":"6:28:00","lat":49.186887,"lon":16.618479,"is_passed":false},{"stop_id":"U1144Z1","name":"Hladíkova","arrival_time":"6:29:00","departure_time":"6:29:00","lat":49.187682,"lon":16.625353,"is_passed":false},{"stop_id":"U1677Z1","name":"Tržní","arrival_time":"6:31:00","departure_time":"6:31:00","lat":49.189973,"lon":16.632193,"is_passed":false},{"stop_id":"U1598Z1","name":"Spáčilova","arrival_time":"6:32:00","departure_time":"6:32:00","lat":49.188674,"lon":16.640942,"is_passed":false},{"stop_id":"U1455Z1","name":"Olomoucká - u školy","arrival_time":"6:34:00","departure_time":"6:34:00","lat":49.186169,"lon":16.652958,"is_passed":false},{"stop_id":"U1665Z1","name":"Těžební","arrival_time":"6:36:00","departure_time":"6:36:00","lat":49.181966,"lon":16.657236,"is_passed":false},{"stop_id":"U1739Z1","name":"Vlastimila Pecha","arrival_time":"6:37:00","departure_time":"6:37:00","lat":49.179379,"lon":16.662741,"is_passed":false},{"stop_id":"U1105Z1","name":"Ericha Roučky","arrival_time":"6:39:00","departure_time":"6:39:00","lat":49.174784,"lon":16.66987,"is_passed":false},{"stop_id":"U1064Z1","name":"Černovická terasa I","arrival_time":"6:40:00","departure_time":"6:40:00","lat":49.171172,"lon":16.673495,"is_passed":false},{"stop_id":"U1065Z1","name":"Černovická terasa II","arrival_time":"6:41:00","departure_time":"6:41:00","lat":49.167108,"lon":16.67608,"is_passed":false},{"stop_id":"U1581Z2","name":"Areál Slatina","arrival_time":"6:43:00","departure_time":"6:43:00","lat":49.168677,"lon":16.678416,"is_passed":false},{"stop_id":"U1562Z3","name":"Řípská","arrival_time":"6:44:00","departure_time":"6:44:00","lat":49.172528,"lon":16.682138,"is_passed":false},{"stop_id":"U1573Z3","name":"Slatina, nádraží","arrival_time":"6:46:00","departure_time":"6:46:00","lat":49.169777,"lon":16.682481,"is_passed":false},{"stop_id":"U1095Z1","name":"Drážní","arrival_time":"6:46:00","departure_time":"6:46:00","lat":49.167303,"lon":16.685492,"is_passed":false},{"stop_id":"U1580Z1","name":"Slatinka","arrival_time":"6:47:00","departure_time":"7:10:00","lat":49.164877,"lon":16.688945,"is_passed":false}],"46725":[{"stop_id":"U1580Z2","name":"Slatinka","arrival_time":"7:10:00","departure_time":"7:10:00","lat":49.164971,"lon":16.688835,"is_passed":false},{"stop_id":"U1095Z2","name":"Drážní","arrival_time":"7:10:00","departure_time":"7:10:00","lat":49.167481,"lon":16.685416,"is_passed":false},{"stop_id":"U1573Z4","name":"Slatina, nádraží","arrival_time":"7:11:00","departure_time":"7:11:00","lat":49.169756,"lon":16.682633,"is_passed":false},{"stop_id":"U1640Z2","name":"Šmahova","arrival_time":"7:12:00","departure_time":"7:12:00","lat":49.172157,"lon":16.684373,"is_passed":false},{"stop_id":"U1562Z4","name":"Řípská","arrival_time":"7:14:00","departure_time":"7:15:00","lat":49.172829,"lon":16.682244,"is_passed":false},{"stop_id":"U1581Z1","name":"Areál Slatina","arrival_time":"7:16:00","departure_time":"7:16:00","lat":49.168614,"lon":16.67804,"is_passed":false},{"stop_id":"U1065Z2","name":"Černovická terasa II","arrival_time":"7:16:00","departure_time":"7:16:00","lat":49.168348,"lon":16.675307,"is_passed":false},{"stop_id":"U1064Z2","name":"Černovická terasa I","arrival_time":"7:17:00","departure_time":"7:17:00","lat":49.171843,"lon":16.673091,"is_passed":false},{"stop_id":"U1105Z4","name":"Ericha Roučky","arrival_time":"7:19:00","departure_time":"7:19:00","lat":49.175789,"lon":16.668403,"is_passed":false},{"stop_id":"U1739Z2","name":"Vlastimila Pecha","arrival_time":"7:20:00","departure_time":"7:20:00","lat":49.179751,"lon":16.662407,"is_passed":false},{"stop_id":"U1665Z2","name":"Těžební","arrival_time":"7:21:00","departure_time":"7:21:00","lat":49.182639,"lon":16.656437,"is_passed":false},{"stop_id":"U1455Z2","name":"Olomoucká - u školy","arrival_time":"7:23:00","departure_time":"7:23:00","lat":49.186437,"lon":16.652477,"is_passed":false},{"stop_id":"U1598Z2","name":"Spáčilova","arrival_time":"7:24:00","departure_time":"7:24:00","lat":49.188617,"lon":16.641569,"is_passed":false},{"stop_id":"U1677Z2","name":"Tržní","arrival_time":"7:27:00","departure_time":"7:27:00","lat":49.189407,"lon":16.629972,"is_passed":false},{"stop_id":"U1144Z2","name":"Hladíkova","arrival_time":"7:27:00","departure_time":"7:27:00","lat":49.187865,"lon":16.625741,"is_passed":false},{"stop_id":"U1011Z3","name":"Autobusové nádraží","arrival_time":"7:29:00","departure_time":"7:29:00","lat":49.186909,"lon":16.617974,"is_passed":false},{"stop_id":"U1716Z3","name":"Úzká","arrival_time":"7:32:00","departure_time":"7:38:00","lat":49.189244,"lon":16.613733,"is_passed":false}],"46726":[{"stop_id":"U1716Z4","name":"Úzká","arrival_time":"7:38:00","departure_time":"7:38:00","lat":49.189107,"lon":16.613266,"is_passed":false},{"stop_id":"U1463Z2","name":"Opuštěná","arrival_time":"7:41:00","departure_time":"7:41:00","lat":49.185245,"lon":16.613024,"is_passed":false},{"stop_id":"U1011Z4","name":"Autobusové nádraží","arrival_time":"7:43:00","departure_time":"7:43:00","lat":49.186887,"lon":16.618479,"is_passed":false},{"stop_id":"U1144Z1","name":"Hladíkova","arrival_time":"7:44:00","departure_time":"7:44:00","lat":49.187682,"lon":16.625353,"is_passed":false},{"stop_id":"U1677Z1","name":"Tržní","arrival_time":"7:46:00","departure_time":"7:46:00","lat":49.189973,"lon":16.632193,"is_passed":false},{"stop_id":"U1598Z1","name":"Spáčilova","arrival_time":"7:47:00","departure_time":"7:47:00","lat":49.188674,"lon":16.640942,"is_passed":false},{"stop_id":"U1455Z1","name":"Olomoucká - u školy","arrival_time":"7:49:00","departure_time":"7:49:00","lat":49.186169,"lon":16.652958,"is_passed":false},{"stop_id":"U1665Z1","name":"Těžební","arrival_time":"7:51:00","departure_time":"7:51:00","lat":49.181966,"lon":16.657236,"is_passed":false},{"stop_id":"U1739Z1","name":"Vlastimila Pecha","arrival_time":"7:52:00","departure_time":"7:52:00","lat":49.179379,"lon":16.662741,"is_passed":false},{"stop_id":"U1105Z1","name":"Ericha Roučky","arrival_time":"7:54:00","departure_time":"7:54:00","lat":49.174784,"lon":16.66987,"is_passed":false},{"stop_id":"U1064Z1","name":"Černovická terasa I","arrival_time":"7:55:00","departure_time":"7:55:00","lat":49.171172,"lon":16.673495,"is_passed":false},{"stop_id":"U1065Z1","name":"Černovická terasa II","arrival_time":"7:56:00","departure_time":"7:56:00","lat":49.167108,"lon":16.67608,"is_passed":false},{"stop_id":"U1581Z2","name":"Areál Slatina","arrival_time":"7:58:00","departure_time":"7:58:00","lat":49.168677,"lon":16.678416,"is_passed":false},{"stop_id":"U1010Z1","name":"Airport Park","arrival_time":"8:01:00","departure_time":"8:01:00","lat":49.158218,"lon":16.684538,"is_passed":false},{"stop_id":"U7502Z2","name":"CTPark Brno South","arrival_time":"8:04:00","departure_time":"8:04:00","lat":49.160548,"lon":16.700716,"is_passed":false},{"stop_id":"U1334Z1","name":"Letiště - logistický areál","arrival_time":"8:06:00","departure_time":"8:06:00","lat":49.15627,"lon":16.698196,"is_passed":false},{"stop_id":"U1335Z1","name":"Letiště - služební vstup","arrival_time":"8:07:00","departure_time":"8:07:00","lat":49.155635,"lon":16.691132,"is_passed":false},{"stop_id":"U1337Z1","name":"Letiště Tuřany - terminál","arrival_time":"8:09:00","departure_time":"8:21:00","lat":49.154815,"lon":16.692296,"is_passed":false}],"46727":[{"stop_id":"U1337Z2","name":"Letiště Tuřany - terminál","arrival_time":"8:21:00","departure_time":"8:21:00","lat":49.154845,"lon":16.692583,"is_passed":false},{"stop_id":"U1334Z2","name":"Letiště - logistický areál","arrival_time":"8:23:00","departure_time":"8:23:00","lat":49.156979,"lon":16.699058,"is_passed":false},{"stop_id":"U7502Z2","name":"CTPark Brno South","arrival_time":"8:24:00","departure_time":"8:24:00","lat":49.160548,"lon":16.700716,"is_passed":false},{"stop_id":"U1010Z2","name":"Airport Park","arrival_time":"8:27:00","departure_time":"8:27:00","lat":49.158031,"lon":16.683199,"is_passed":false},{"stop_id":"U1581Z1","name":"Areál Slatina","arrival_time":"8:31:00","departure_time":"8:31:00","lat":49.168614,"lon":16.67804,"is_passed":false},{"stop_id":"U1065Z2","name":"Černovická terasa II","arrival_time":"8:31:00","departure_time":"8:31:00","lat":49.168348,"lon":16.675307,"is_passed":false},{"stop_id":"U1064Z2","name":"Černovická terasa I","arrival_time":"8:32:00","departure_time":"8:32:00","lat":49.171843,"lon":16.673091,"is_passed":false},{"stop_id":"U1105Z4","name":"Ericha Roučky","arrival_time":"8:34:00","departure_time":"8:34:00","lat":49.175789,"lon":16.668403,"is_passed":false},{"stop_id":"U1739Z2","name":"Vlastimila Pecha","arrival_time":"8:35:00","departure_time":"8:35:00","lat":49.179751,"lon":16.662407,"is_passed":false},{"stop_id":"U1665Z2","name":"Těžební","arrival_time":"8:36:00","departure_time":"8:36:00","lat":49.182639,"lon":16.656437,"is_passed":false},{"stop_id":"U1455Z2","name":"Olomoucká - u školy","arrival_time":"8:38:00","departure_time":"8:38:00","lat":49.186437,"lon":16.652477,"is_passed":false},{"stop_id":"U1598Z2","name":"Spáčilova","arrival_time":"8:39:00","departure_time":"8:39:00","lat":49.188617,"lon":16.641569,"is_passed":false},{"stop_id":"U1677Z2","name":"Tržní","arrival_time":"8:42:00","departure_time":"8:42:00","lat":49.189407,"lon":16.629972,"is_passed":false},{"stop_id":"U1144Z2","name":"Hladíkova","arrival_time":"8:42:00","departure_time":"8:42:00","lat":49.187865,"lon":16.625741,"is_passed":false},{"stop_id":"U1011Z3","name":"Autobusové nádraží","arrival_time":"8:44:00","departure_time":"8:44:00","lat":49.186909,"lon":16.617974,"is_passed":false},{"stop_id":"U1716Z3","name":"Úzká","arrival_time":"8:47:00","departure_time":"8:58:00","lat":49.189244,"lon":16.613733,"is_passed":false}],"46728":[{"stop_id":"U1716Z4","name":"Úzká","arrival_time":"8:58:00","departure_time":"8:58:00","lat":49.189107,"lon":16.613266,"is_passed":false},{"stop_id":"U1463Z2","name":"Opuštěná","arrival_time":"9:01:00","departure_time":"9:01:00","lat":49.185245,"lon":16.613024,"is_passed":false},{"stop_id":"U1011Z4","name":"Autobusové nádraží","arrival_time":"9:03:00","departure_time":"9:03:00","lat":49.186887,"lon":16.618479,"is_passed":false},{"stop_id":"U1144Z1","name":"Hladíkova","arrival_time":"9:04:00","departure_time":"9:04:00","lat":49.187682,"lon":16.625353,"is_passed":false},{"stop_id":"U1677Z1","name":"Tržní","arrival_time":"9:06:00","departure_time":"9:06:00","lat":49.189973,"lon":16.632193,"is_passed":false},{"stop_id":"U1598Z1","name":"Spáčilova","arrival_time":"9:07:00","departure_time":"9:07:00","lat":49.188674,"lon":16.640942,"is_passed":false},{"stop_id":"U1455Z1","name":"Olomoucká - u školy","arrival_time":"9:09:00","departure_time":"9:09:00","lat":49.186169,"lon":16.652958,"is_passed":false},{"stop_id":"U1665Z1","name":"Těžební","arrival_time":"9:11:00","departure_time":"9:11:00","lat":49.181966,"lon":16.657236,"is_passed":false},{"stop_id":"U1739Z1","name":"Vlastimila Pecha","arrival_time":"9:12:00","departure_time":"9:12:00","lat":49.179379,"lon":16.662741,"is_passed":false},{"stop_id":"U1105Z1","name":"Ericha Roučky","arrival_time":"9:14:00","departure_time":"9:14:00","lat":49.174784,"lon":16.66987,"is_passed":false},{"stop_id":"U1064Z1","name":"Černovická terasa I","arrival_time":"9:15:00","departure_time":"9:15:00","lat":49.171172,"lon":16.673495,"is_passed":false},{"stop_id":"U1065Z1","name":"Černovická terasa II","arrival_time":"9:16:00","departure_time":"9:16:00","lat":49.167108,"lon":16.67608,"is_passed":false},{"stop_id":"U1581Z2","name":"Areál Slatina","arrival_time":"9:18:00","departure_time":"9:18:00","lat":49.168677,"lon":16.678416,"is_passed":false},{"stop_id":"U1562Z3","name":"Řípská","arrival_time":"9:19:00","departure_time":"9:19:00","lat":49.172528,"lon":16.682138,"is_passed":false},{"stop_id":"U1573Z3","name":"Slatina, nádraží","arrival_time":"9:21:00","departure_time":"9:21:00","lat":49.169777,"lon":16.682481,"is_passed":false},{"stop_id":"U1095Z1","name":"Drážní","arrival_time":"9:21:00","departure_time":"9:21:00","lat":49.167303,"lon":16.685492,"is_passed":false},{"stop_id":"U1580Z1","name":"Slatinka","arrival_time":"9:22:00","departure_time":"9:41:00","lat":49.164877,"lon":16.688945,"is_passed":false}],"46729":[{"stop_id":"U1580Z2","name":"Slatinka","arrival_time":"9:41:00","departure_time":"9:41:00","lat":49.164971,"lon":16.688835,"is_passed":false},{"stop_id":"U1095Z2","name":"Drážní","arrival_time":"9:41:00","departure_time":"9:41:00","lat":49.167481,"lon":16.685416,"is_passed":false},{"stop_id":"U1573Z4","name":"Slatina, nádraží","arrival_time":"9:42:00","departure_time":"9:42:00","lat":49.169756,"lon":16.682633,"is_passed":false},{"stop_id":"U1640Z2","name":"Šmahova","arrival_time":"9:43:00","departure_time":"9:43:00","lat":49.172157,"lon":16.684373,"is_passed":false},{"stop_id":"U1562Z4","name":"Řípská","arrival_time":"9:45:00","departure_time":"9:45:00","lat":49.172829,"lon":16.682244,"is_passed":false},{"stop_id":"U1581Z1","name":"Areál Slatina","arrival_time":"9:46:00","departure_time":"9:46:00","lat":49.168614,"lon":16.67804,"is_passed":false},{"stop_id":"U1065Z2","name":"Černovická terasa II","arrival_time":"9:46:00","departure_time":"9:46:00","lat":49.168348,"lon":16.675307,"is_passed":false},{"stop_id":"U1064Z2","name":"Černovická terasa I","arrival_time":"9:47:00","departure_time":"9:47:00","lat":49.171843,"lon":16.673091,"is_passed":false},{"stop_id":"U1105Z4","name":"Ericha Roučky","arrival_time":"9:49:00","departure_time":"9:49:00","lat":49.175789,"lon":16.668403,"is_passed":false},{"stop_id":"U1739Z2","name":"Vlastimila Pecha","arrival_time":"9:50:00","departure_time":"9:50:00","lat":49.179751,"lon":16.662407,"is_passed":false},{"stop_id":"U1665Z2","name":"Těžební","arrival_time":"9:51:00","departure_time":"9:51:00","lat":49.182639,"lon":16.656437,"is_passed":false},{"stop_id":"U1455Z2","name":"Olomoucká - u školy","arrival_time":"9:53:00","departure_time":"9:53:00","lat":49.186437,"lon":16.652477,"is_passed":false},{"stop_id":"U1598Z2","name":"Spáčilova","arrival_time":"9:54:00","departure_time":"9:54:00","lat":49.188617,"lon":16.641569,"is_passed":false},{"stop_id":"U1677Z2","name":"Tržní","arrival_time":"9:57:00","departure_time":"9:57:00","lat":49.189407,"lon":16.629972,"is_passed":false},{"stop_id":"U1144Z2","name":"Hladíkova","arrival_time":"9:57:00","departure_time":"9:57:00","lat":49.187865,"lon":16.625741,"is_passed":false},{"stop_id":"U1011Z3","name":"Autobusové nádraží","arrival_time":"9:59:00","departure_time":"9:59:00","lat":49.186909,"lon":16.617974,"is_passed":false},{"stop_id":"U1716Z3","name":"Úzká","arrival_time":"10:02:00","departure_time":"10:08:00","lat":49.189244,"lon":16.613733,"is_passed":false}],"46730":[{"stop_id":"U1716Z4","name":"Úzká","arrival_time":"10:08:00","departure_time":"10:08:00","lat":49.189107,"lon":16.613266,"is_passed":false},{"stop_id":"U1463Z2","name":"Opuštěná","arrival_time":"10:11:00","departure_time":"10:11:00","lat":49.185245,"lon":16.613024,"is_passed":false},{"stop_id":"U1011Z4","name":"Autobusové nádraží","arrival_time":"10:13:00","departure_time":"10:13:00","lat":49.186887,"lon":16.618479,"is_passed":false},{"stop_id":"U1144Z1","name":"Hladíkova","arrival_time":"10:14:00","departure_time":"10:14:00","lat":49.187682,"lon":16.625353,"is_passed":false},{"stop_id":"U1677Z1","name":"Tržní","arrival_time":"10:16:00","departure_time":"10:16:00","lat":49.189973,"lon":16.632193,"is_passed":false},{"stop_id":"U1598Z1","name":"Spáčilova","arrival_time":"10:17:00","departure_time":"10:17:00","lat":49.188674,"lon":16.640942,"is_passed":false},{"stop_id":"U1455Z1","name":"Olomoucká - u školy","arrival_time":"10:19:00","departure_time":"10:19:00","lat":49.186169,"lon":16.652958,"is_passed":false},{"stop_id":"U1665Z1","name":"Těžební","arrival_time":"10:21:00","departure_time":"10:21:00","lat":49.181966,"lon":16.657236,"is_passed":false},{"stop_id":"U1739Z1","name":"Vlastimila Pecha","arrival_time":"10:22:00","departure_time":"10:22:00","lat":49.179379,"lon":16.662741,"is_passed":false},{"stop_id":"U1105Z1","name":"Ericha Roučky","arrival_time":"10:24:00","departure_time":"10:24:00","lat":49.174784,"lon":16.66987,"is_passed":false},{"stop_id":"U1064Z1","name":"Černovická terasa I","arrival_time":"10:25:00","departure_time":"10:25:00","lat":49.171172,"lon":16.673495,"is_passed":false},{"stop_id":"U1065Z1","name":"Černovická terasa II","arrival_time":"10:26:00","departure_time":"10:26:00","lat":49.167108,"lon":16.67608,"is_passed":false},{"stop_id":"U1581Z3","name":"Areál Slatina","arrival_time":"10:28:00","departure_time":"11:06:00","lat":49.168533,"lon":16.678786,"is_passed":false}],"46731":[{"stop_id":"U1581Z1","name":"Areál Slatina","arrival_time":"11:06:00","departure_time":"11:06:00","lat":49.168614,"lon":16.67804,"is_passed":false},{"stop_id":"U1065Z2","name":"Černovická terasa II","arrival_time":"11:06:00","departure_time":"11:06:00","lat":49.168348,"lon":16.675307,"is_passed":false},{"stop_id":"U1064Z2","name":"Černovická terasa I","arrival_time":"11:07:00","departure_time":"11:07:00","lat":49.171843,"lon":16.673091,"is_passed":false},{"stop_id":"U1105Z4","name":"Ericha Roučky","arrival_time":"11:09:00","departure_time":"11:09:00","lat":49.175789,"lon":16.668403,"is_passed":false},{"stop_id":"U1739Z2","name":"Vlastimila Pecha","arrival_time":"11:10:00","departure_time":"11:10:00","lat":49.179751,"lon":16.662407,"is_passed":false},{"stop_id":"U1665Z2","name":"Těžební","arrival_time":"11:11:00","departure_time":"11:11:00","lat":49.182639,"lon":16.656437,"is_passed":false},{"stop_id":"U1455Z2","name":"Olomoucká - u školy","arrival_time":"11:13:00","departure_time":"11:13:00","lat":49.186437,"lon":16.652477,"is_passed":false},{"stop_id":"U1598Z2","name":"Spáčilova","arrival_time":"11:14:00","departure_time":"11:14:00","lat":49.188617,"lon":16.641569,"is_passed":false},{"stop_id":"U1677Z2","name":"Tržní","arrival_time":"11:17:00","departure_time":"11:17:00","lat":49.189407,"lon":16.629972,"is_passed":false},{"stop_id":"U1144Z2","name":"Hladíkova","arrival_time":"11:17:00","departure_time":"11:17:00","lat":49.187865,"lon":16.625741,"is_passed":false},{"stop_id":"U1011Z3","name":"Autobusové nádraží","arrival_time":"11:19:00","departure_time":"11:19:00","lat":49.186909,"lon":16.617974,"is_passed":false},{"stop_id":"U1716Z3","name":"Úzká","arrival_time":"11:22:00","departure_time":"11:28:00","lat":49.189244,"lon":16.613733,"is_passed":false}],"46732":[{"stop_id":"U1716Z4","name":"Úzká","arrival_time":"11:28:00","departure_time":"11:28:00","lat":49.189107,"lon":16.613266,"is_passed":false},{"stop_id":"U1463Z2","name":"Opuštěná","arrival_time":"11:31:00","departure_time":"11:31:00","lat":49.185245,"lon":16.613024,"is_passed":false},{"stop_id":"U1011Z4","name":"Autobusové nádraží","arrival_time":"11:33:00","departure_time":"11:33:00","lat":49.186887,"lon":16.618479,"is_passed":false},{"stop_id":"U1144Z1","name":"Hladíkova","arrival_time":"11:34:00","departure_time":"11:34:00","lat":49.187682,"lon":16.625353,"is_passed":false},{"stop_id":"U1677Z1","name":"Tržní","arrival_time":"11:36:00","departure_time":"11:36:00","lat":49.189973,"lon":16.632193,"is_passed":false},{"stop_id":"U1598Z1","name":"Spáčilova","arrival_time":"11:37:00","departure_time":"11:37:00","lat":49.188674,"lon":16.640942,"is_passed":false},{"stop_id":"U1455Z1","name":"Olomoucká - u školy","arrival_time":"11:39:00","departure_time":"11:39:00","lat":49.186169,"lon":16.652958,"is_passed":false},{"stop_id":"U1665Z1","name":"Těžební","arrival_time":"11:41:00","departure_time":"11:41:00","lat":49.181966,"lon":16.657236,"is_passed":false},{"stop_id":"U1739Z1","name":"Vlastimila Pecha","arrival_time":"11:42:00","departure_time":"11:42:00","lat":49.179379,"lon":16.662741,"is_passed":false},{"stop_id":"U1105Z1","name":"Ericha Roučky","arrival_time":"11:44:00","departure_time":"11:44:00","lat":49.174784,"lon":16.66987,"is_passed":false},{"stop_id":"U1064Z1","name":"Černovická terasa I","arrival_time":"11:45:00","departure_time":"11:45:00","lat":49.171172,"lon":16.673495,"is_passed":false},{"stop_id":"U1065Z1","name":"Černovická terasa II","arrival_time":"11:46:00","departure_time":"11:46:00","lat":49.167108,"lon":16.67608,"is_passed":false},{"stop_id":"U1581Z3","name":"Areál Slatina","arrival_time":"11:48:00","departure_time":"12:26:00","lat":49.168533,"lon":16.678786,"is_passed":false}],"46733":[{"stop_id":"U1581Z1","name":"Areál Slatina","arrival_time":"12:26:00","departure_time":"12:26:00","lat":49.168614,"lon":16.67804,"is_passed":false},{"stop_id":"U1065Z2","name":"Černovická terasa II","arrival_time":"12:26:00","departure_time":"12:26:00","lat":49.168348,"lon":16.675307,"is_passed":false},{"stop_id":"U1064Z2","name":"Černovická terasa I","arrival_time":"12:27:00","departure_time":"12:27:00","lat":49.171843,"lon":16.673091,"is_passed":false},{"stop_id":"U1105Z4","name":"Ericha Roučky","arrival_time":"12:29:00","departure_time":"12:29:00","lat":49.175789,"lon":16.668403,"is_passed":false},{"stop_id":"U1739Z2","name":"Vlastimila Pecha","arrival_time":"12:30:00","departure_time":"12:30:00","lat":49.179751,"lon":16.662407,"is_passed":false},{"stop_id":"U1665Z2","name":"Těžební","arrival_time":"12:31:00","departure_time":"12:31:00","lat":49.182639,"lon":16.656437,"is_passed":false},{"stop_id":"U1455Z2","name":"Olomoucká - u školy","arrival_time":"12:33:00","departure_time":"12:33:00","lat":49.186437,"lon":16.652477,"is_passed":false},{"stop_id":"U1598Z2","name":"Spáčilova","arrival_time":"12:34:00","departure_time":"12:34:00","lat":49.188617,"lon":16.641569,"is_passed":false},{"stop_id":"U1677Z2","name":"Tržní","arrival_time":"12:37:00","departure_time":"12:37:00","lat":49.189407,"lon":16.629972,"is_passed":false},{"stop_id":"U1144Z2","name":"Hladíkova","arrival_time":"12:37:00","departure_time":"12:37:00","lat":49.187865,"lon":16.625741,"is_passed":false},{"stop_id":"U1011Z3","name":"Autobusové nádraží","arrival_time":"12:39:00","departure_time":"12:39:00","lat":49.186909,"lon":16.617974,"is_passed":false},{"stop_id":"U1716Z3","name":"Úzká","arrival_time":"12:42:00","departure_time":"12:48:00","lat":49.189244,"lon":16.613733,"is_passed":false}],"46734":[{"stop_id":"U1716Z4","name":"Úzká","arrival_time":"12:48:00","departure_time":"12:48:00","lat":49.189107,"lon":16.613266,"is_passed":false},{"stop_id":"U1463Z2","name":"Opuštěná","arrival_time":"12:51:00","departure_time":"12:51:00","lat":49.185245,"lon":16.613024,"is_passed":false},{"stop_id":"U1011Z4","name":"Autobusové nádraží","arrival_time":"12:53:00","departure_time":"12:53:00","lat":49.186887,"lon":16.618479,"is_passed":false},{"stop_id":"U1144Z1","name":"Hladíkova","arrival_time":"12:54:00","departure_time":"12:54:00","lat":49.187682,"lon":16.625353,"is_passed":false},{"stop_id":"U1677Z1","name":"Tržní","arrival_time":"12:56:00","departure_time":"12:56:00","lat":49.189973,"lon":16.632193,"is_passed":false},{"stop_id":"U1598Z1","name":"Spáčilova","arrival_time":"12:57:00","departure_time":"12:57:00","lat":49.188674,"lon":16.640942,"is_passed":false},{"stop_id":"U1455Z1","name":"Olomoucká - u školy","arrival_time":"12:59:00","departure_time":"12:59:00","lat":49.186169,"lon":16.652958,"is_passed":false},{"stop_id":"U1665Z1","name":"Těžební","arrival_time":"13:01:00","departure_time":"13:01:00","lat":49.181966,"lon":16.657236,"is_passed":false},{"stop_id":"U1739Z1","name":"Vlastimila Pecha","arrival_time":"13:02:00","departure_time":"13:02:00","lat":49.179379,"lon":16.662741,"is_passed":false},{"stop_id":"U1105Z1","name":"Ericha Roučky","arrival_time":"13:04:00","departure_time":"13:04:00","lat":49.174784,"lon":16.66987,"is_passed":false},{"stop_id":"U1064Z1","name":"Černovická terasa I","arrival_time":"13:05:00","departure_time":"13:05:00","lat":49.171172,"lon":16.673495,"is_passed":false},{"stop_id":"U1065Z1","name":"Černovická terasa II","arrival_time":"13:06:00","departure_time":"13:06:00","lat":49.167108,"lon":16.67608,"is_passed":false},{"stop_id":"U1581Z2","name":"Areál Slatina","arrival_time":"13:08:00","departure_time":"13:08:00","lat":49.168677,"lon":16.678416,"is_passed":false},{"stop_id":"U1562Z3","name":"Řípská","arrival_time":"13:09:00","departure_time":"13:09:00","lat":49.172528,"lon":16.682138,"is_passed":false},{"stop_id":"U1573Z3","name":"Slatina, nádraží","arrival_time":"13:11:00","departure_time":"13:11:00","lat":49.169777,"lon":16.682481,"is_passed":false},{"stop_id":"U1095Z1","name":"Drážní","arrival_time":"13:11:00","departure_time":"13:11:00","lat":49.167303,"lon":16.685492,"is_passed":false},{"stop_id":"U1580Z1","name":"Slatinka","arrival_time":"13:12:00","departure_time":"13:41:00","lat":49.164877,"lon":16.688945,"is_passed":false}],"46735":[{"stop_id":"U1580Z2","name":"Slatinka","arrival_time":"13:41:00","departure_time":"13:41:00","lat":49.164971,"lon":16.688835,"is_passed":false},{"stop_id":"U1095Z2","name":"Drážní","arrival_time":"13:41:00","departure_time":"13:41:00","lat":49.167481,"lon":16.685416,"is_passed":false},{"stop_id":"U1573Z4","name":"Slatina, nádraží","arrival_time":"13:42:00","departure_time":"13:42:00","lat":49.169756,"lon":16.682633,"is_passed":false},{"stop_id":"U1640Z2","name":"Šmahova","arrival_time":"13:43:00","departure_time":"13:43:00","lat":49.172157,"lon":16.684373,"is_passed":false},{"stop_id":"U1562Z4","name":"Řípská","arrival_time":"13:45:00","departure_time":"13:45:00","lat":49.172829,"lon":16.682244,"is_passed":false},{"stop_id":"U1581Z1","name":"Areál Slatina","arrival_time":"13:46:00","departure_time":"13:46:00","lat":49.168614,"lon":16.67804,"is_passed":false},{"stop_id":"U1065Z2","name":"Černovická terasa II","arrival_time":"13:46:00","departure_time":"13:46:00","lat":49.168348,"lon":16.675307,"is_passed":false},{"stop_id":"U1064Z2","name":"Černovická terasa I","arrival_time":"13:47:00","departure_time":"13:47:00","lat":49.171843,"lon":16.673091,"is_passed":false},{"stop_id":"U1105Z4","name":"Ericha Roučky","arrival_time":"13:49:00","departure_time":"13:49:00","lat":49.175789,"lon":16.668403,"is_passed":false},{"stop_id":"U1739Z2","name":"Vlastimila Pecha","arrival_time":"13:50:00","departure_time":"13:50:00","lat":49.179751,"lon":16.662407,"is_passed":false},{"stop_id":"U1665Z2","name":"Těžební","arrival_time":"13:51:00","departure_time":"13:51:00","lat":49.182639,"lon":16.656437,"is_passed":false},{"stop_id":"U1455Z2","name":"Olomoucká - u školy","arrival_time":"13:53:00","departure_time":"13:53:00","lat":49.186437,"lon":16.652477,"is_passed":false},{"stop_id":"U1598Z2","name":"Spáčilova","arrival_time":"13:54:00","departure_time":"13:54:00","lat":49.188617,"lon":16.641569,"is_passed":false},{"stop_id":"U1677Z2","name":"Tržní","arrival_time":"13:57:00","departure_time":"13:57:00","lat":49.189407,"lon":16.629972,"is_passed":false},{"stop_id":"U1144Z2","name":"Hladíkova","arrival_time":"13:57:00","departure_time":"13:57:00","lat":49.187865,"lon":16.625741,"is_passed":false},{"stop_id":"U1011Z3","name":"Autobusové nádraží","arrival_time":"13:59:00","departure_time":"13:59:00","lat":49.186909,"lon":16.617974,"is_passed":false},{"stop_id":"U1716Z3","name":"Úzká","arrival_time":"14:02:00","departure_time":"14:08:00","lat":49.189244,"lon":16.613733,"is_passed":false}],"46736":[{"stop_id":"U1716Z4","name":"Úzká","arrival_time":"14:08:00","departure_time":"14:08:00","lat":49.189107,"lon":16.613266,"is_passed":false},{"stop_id":"U1463Z2","name":"Opuštěná","arrival_time":"14:11:00","departure_time":"14:11:00","lat":49.185245,"lon":16.613024,"is_passed":false},{"stop_id":"U1011Z4","name":"Autobusové nádraží","arrival_time":"14:13:00","departure_time":"14:13:00","lat":49.186887,"lon":16.618479,"is_passed":false},{"stop_id":"U1144Z1","name":"Hladíkova","arrival_time":"14:14:00","departure_time":"14:14:00","lat":49.187682,"lon":16.625353,"is_passed":false},{"stop_id":"U1677Z1","name":"Tržní","arrival_time":"14:16:00","departure_time":"14:16:00","lat":49.189973,"lon":16.632193,"is_passed":false},{"stop_id":"U1598Z1","name":"Spáčilova","arrival_time":"14:17:00","departure_time":"14:17:00","lat":49.188674,"lon":16.640942,"is_passed":false},{"stop_id":"U1455Z1","name":"Olomoucká - u školy","arrival_time":"14:19:00","departure_time":"14:19:00","lat":49.186169,"lon":16.652958,"is_passed":false},{"stop_id":"U1665Z1","name":"Těžební","arrival_time":"14:21:00","departure_time":"14:21:00","lat":49.181966,"lon":16.657236,"is_passed":false},{"stop_id":"U1739Z1","name":"Vlastimila Pecha","arrival_time":"14:22:00","departure_time":"14:22:00","lat":49.179379,"lon":16.662741,"is_passed":false},{"stop_id":"U1105Z1","name":"Ericha Roučky","arrival_time":"14:24:00","departure_time":"14:24:00","lat":49.174784,"lon":16.66987,"is_passed":false},{"stop_id":"U1064Z1","name":"Černovická terasa I","arrival_time":"14:25:00","departure_time":"14:25:00","lat":49.171172,"lon":16.673495,"is_passed":false},{"stop_id":"U1065Z1","name":"Černovická terasa II","arrival_time":"14:26:00","departure_time":"14:26:00","lat":49.167108,"lon":16.67608,"is_passed":false},{"stop_id":"U1581Z2","name":"Areál Slatina","arrival_time":"14:28:00","departure_time":"14:28:00","lat":49.168677,"lon":16.678416,"is_passed":false},{"stop_id":"U1010Z1","name":"Airport Park","arrival_time":"14:31:00","departure_time":"14:31:00","lat":49.158218,"lon":16.684538,"is_passed":false},{"stop_id":"U7502Z2","name":"CTPark Brno South","arrival_time":"14:34:00","departure_time":"14:34:00","lat":49.160548,"lon":16.700716,"is_passed":false},{"stop_id":"U1334Z1","name":"Letiště - logistický areál","arrival_time":"14:36:00","departure_time":"14:36:00","lat":49.15627,"lon":16.698196,"is_passed":false},{"stop_id":"U1335Z1","name":"Letiště - služební vstup","arrival_time":"14:37:00","departure_time":"14:37:00","lat":49.155635,"lon":16.691132,"is_passed":false},{"stop_id":"U1337Z1","name":"Letiště Tuřany - terminál","arrival_time":"14:39:00","departure_time":"15:12:00","lat":49.154815,"lon":16.692296,"is_passed":false}],"46737":[{"stop_id":"U1337Z2","name":"Letiště Tuřany - terminál","arrival_time":"15:12:00","departure_time":"15:12:00","lat":49.154845,"lon":16.692583,"is_passed":false},{"stop_id":"U1334Z2","name":"Letiště - logistický areál","arrival_time":"15:14:00","departure_time":"15:14:00","lat":49.156979,"lon":16.699058,"is_passed":false},{"stop_id":"U7502Z2","name":"CTPark Brno South","arrival_time":"15:15:00","departure_time":"15:15:00","lat":49.160548,"lon":16.700716,"is_passed":false},{"stop_id":"U1010Z2","name":"Airport Park","arrival_time":"15:18:00","departure_time":"15:18:00","lat":49.158031,"lon":16.683199,"is_passed":false},{"stop_id":"U1581Z1","name":"Areál Slatina","arrival_time":"15:22:00","departure_time":"15:22:00","lat":49.168614,"lon":16.67804,"is_passed":false},{"stop_id":"U1065Z2","name":"Černovická terasa II","arrival_time":"15:22:00","departure_time":"15:22:00","lat":49.168348,"lon":16.675307,"is_passed":false},{"stop_id":"U1064Z2","name":"Černovická terasa I","arrival_time":"15:23:00","departure_time":"15:23:00","lat":49.171843,"lon":16.673091,"is_passed":false},{"stop_id":"U1105Z4","name":"Ericha Roučky","arrival_time":"15:25:00","departure_time":"15:25:00","lat":49.175789,"lon":16.668403,"is_passed":false},{"stop_id":"U1739Z2","name":"Vlastimila Pecha","arrival_time":"15:26:00","departure_time":"15:26:00","lat":49.179751,"lon":16.662407,"is_passed":false},{"stop_id":"U1665Z2","name":"Těžební","arrival_time":"15:27:00","departure_time":"15:27:00","lat":49.182639,"lon":16.656437,"is_passed":false},{"stop_id":"U1455Z2","name":"Olomoucká - u školy","arrival_time":"15:29:00","departure_time":"15:29:00","lat":49.186437,"lon":16.652477,"is_passed":false},{"stop_id":"U1598Z2","name":"Spáčilova","arrival_time":"15:30:00","departure_time":"15:30:00","lat":49.188617,"lon":16.641569,"is_passed":false},{"stop_id":"U1677Z2","name":"Tržní","arrival_time":"15:33:00","departure_time":"15:33:00","lat":49.189407,"lon":16.629972,"is_passed":false},{"stop_id":"U1144Z2","name":"Hladíkova","arrival_time":"15:33:00","departure_time":"15:33:00","lat":49.187865,"lon":16.625741,"is_passed":false},