[{"stop_id":"U1371Z2","name":"Náměstí Míru","arrival_time":"8:36:00","departure_time":"8:36:00","lat":49.201971,"lon":16.581885,"is_passed":false},{"stop_id":"U1137Z1","name":"Heinrichova","arrival_time":"8:36:00","departure_time":"8:36:00","lat":49.200413,"lon":16.584511,"is_passed":false},{"stop_id":"U1762Z2","name":"Všetičkova","arrival_time":"8:37:00","departure_time":"8:37:00","lat":49.198648,"lon":16.589335,"is_passed":false},{"stop_id":"U1712Z2","name":"Úvoz","arrival_time":"8:38:00","departure_time":"8:38:00","lat":49.198275,"lon":16.593189,"is_passed":false},{"stop_id":"U1442Z2","name":"Obilní trh","arrival_time":"8:39:00","departure_time":"8:39:00","lat":49.198022,"lon":16.598215,"is_passed":false},{"stop_id":"U1257Z2","name":"Komenského náměstí","arrival_time":"8:41:00","departure_time":"8:41:00","lat":49.197135,"lon":16.602612,"is_passed":false},{"stop_id":"U1637Z1","name":"Šilingrovo náměstí","arrival_time":"8:44:00","departure_time":"8:44:00","lat":49.19171,"lon":16.605355,"is_passed":false},{"stop_id":"U1436Z2","name":"Nové sady","arrival_time":"8:46:00","departure_time":"8:46:00","lat":49.190222,"lon":16.609403,"is_passed":false},{"stop_id":"U1146Z2","name":"Hlavní nádraží","arrival_time":"8:48:00","departure_time":"8:48:00","lat":49.191394,"lon":16.612548,"is_passed":false},{"stop_id":"U1357Z2","name":"Malinovského náměstí","arrival_time":"8:50:00","departure_time":"8:50:00","lat":49.195034,"lon":16.614825,"is_passed":false},{"stop_id":"U1271Z1","name":"Körnerova","arrival_time":"8:52:00","departure_time":"8:52:00","lat":49.19828,"lon":16.619945,"is_passed":false},{"stop_id":"U1663Z1","name":"Tkalcovská","arrival_time":"8:54:00","departure_time":"8:54:00","lat":49.200261,"lon":16.626109,"is_passed":false},{"stop_id":"U1676Z1","name":"Trávníčkova","arrival_time":"8:56:00","departure_time":"8:56:00","lat":49.204439,"lon":16.625679,"is_passed":false},{"stop_id":"U1398Z1","name":"Mostecká","arrival_time":"8:57:00","departure_time":"8:57:00","lat":49.20703,"lon":16.627792,"is_passed":false},{"stop_id":"U1434Z1","name":"Vozovna Husovice","arrival_time":"8:58:00","departure_time":"8:58:00","lat":49.208331,"lon":16.629789,"is_passed":false},{"stop_id":"U1422Z1","name":"Náměstí Republiky","arrival_time":"8:59:00","departure_time":"8:59:00","lat":49.210591,"lon":16.633523,"is_passed":false},{"stop_id":"U1668Z1","name":"Tomkovo náměstí","arrival_time":"9:01:00","departure_time":"9:01:00","lat":49.214035,"lon":16.636587,"is_passed":false},{"stop_id":"U1358Z2","name":"Maloměřický most","arrival_time":"9:02:00","departure_time":"9:02:00","lat":49.215518,"lon":16.642987,"is_passed":false},{"stop_id":"U1521Z1","name":"Proškovo náměstí","arrival_time":"9:03:00","departure_time":"9:03:00","lat":49.220207,"lon":16.643397,"is_passed":false},{"stop_id":"U1447Z1","name":"Obřanská - u školy","arrival_time":"9:04:00","departure_time":"9:04:00","lat":49.222872,"lon":16.644811,"is_passed":false},{"stop_id":"U1077Z1","name":"Čtvery hony","arrival_time":"9:05:00","departure_time":"9:05:00","lat":49.226227,"lon":16.645584,"is_passed":false},{"stop_id":"U1448Z1","name":"Obřanský most","arrival_time":"9:06:00","departure_time":"9:06:00","lat":49.227602,"lon":16.650226,"is_passed":false},{"stop_id":"U1014Z1","name":"Babická","arrival_time":"9:08:00","departure_time":"9:12:00","lat":49.228004,"lon":16.652555,"is_passed":false}]