[{"stop_id":"U1472Z8","name":"Osová","arrival_time":"0:18:00","departure_time":"0:18:00","lat":49.168617,"lon":16.566306,"is_passed":false},{"stop_id":"U1273Z2","name":"Kosmonautů","arrival_time":"0:18:00","departure_time":"0:18:00","lat":49.167124,"lon":16.56745,"is_passed":false},{"stop_id":"U1627Z1","name":"Svah","arrival_time":"0:19:00","departure_time":"0:19:00","lat":49.165199,"lon":16.567969,"is_passed":false},{"stop_id":"U1061Z1","name":"Čermákova","arrival_time":"0:19:00","departure_time":"0:19:00","lat":49.164336,"lon":16.565516,"is_passed":false},{"stop_id":"U1666Z1","name":"Točná","arrival_time":"0:20:00","departure_time":"0:20:00","lat":49.16476,"lon":16.561692,"is_passed":false},{"stop_id":"U1488Z1","name":"Pod dálnicí","arrival_time":"0:21:00","departure_time":"0:21:00","lat":49.163512,"lon":16.555152,"is_passed":false},{"stop_id":"U14101Z1","name":"Ostopovice, Branky","arrival_time":"0:22:00","departure_time":"0:22:00","lat":49.159937,"lon":16.548801,"is_passed":false},{"stop_id":"U14103Z1","name":"Ostopovice, U Kaple","arrival_time":"0:23:00","departure_time":"0:23:00","lat":49.161083,"lon":16.545743,"is_passed":false},{"stop_id":"U14104Z1","name":"Ostopovice, rozcestí","arrival_time":"0:23:00","departure_time":"0:23:00","lat":49.163046,"lon":16.542924,"is_passed":false},{"stop_id":"U14105Z1","name":"Ostopovice, smyčka","arrival_time":"0:24:00","departure_time":"0:24:00","lat":49.164457,"lon":16.540725,"is_passed":false}]