[{"stop_id":"U14109Z3","name":"Troubsko, obecní úřad","arrival_time":"15:04:00","departure_time":"15:04:00","lat":49.170364,"lon":16.505743,"is_passed":false},{"stop_id":"U14106Z2","name":"Troubsko, kaplička","arrival_time":"15:05:00","departure_time":"15:05:00","lat":49.168923,"lon":16.511588,"is_passed":false},{"stop_id":"U14126Z4","name":"Troubsko, Nová","arrival_time":"15:06:00","departure_time":"15:06:00","lat":49.166839,"lon":16.518385,"is_passed":false},{"stop_id":"U1516Z1","name":"Pražská","arrival_time":"15:08:00","departure_time":"15:08:00","lat":49.173478,"lon":16.531543,"is_passed":false},{"stop_id":"U1568Z2","name":"Skalní","arrival_time":"15:09:00","departure_time":"15:09:00","lat":49.174201,"lon":16.537903,"is_passed":false},{"stop_id":"U1202Z2","name":"Jemelkova","arrival_time":"15:10:00","departure_time":"15:10:00","lat":49.173163,"lon":16.54872,"is_passed":false},{"stop_id":"U1632Z2","name":"Svážná","arrival_time":"15:11:00","departure_time":"15:11:00","lat":49.173409,"lon":16.553508,"is_passed":false},{"stop_id":"U1429Z7","name":"Nemocnice Bohunice","arrival_time":"15:14:00","departure_time":"15:14:00","lat":49.176176,"lon":16.567045,"is_passed":false}]