[{"stop_id":"U1258Z2","name":"Komín, sídliště","arrival_time":"9:29:00","departure_time":"9:29:00","lat":49.226847,"lon":16.5535,"is_passed":false},{"stop_id":"U1561Z2","name":"Řezáčova","arrival_time":"9:29:00","departure_time":"9:29:00","lat":49.225979,"lon":16.555563,"is_passed":false},{"stop_id":"U1453Z2","name":"Olbrachtovo náměstí","arrival_time":"9:30:00","departure_time":"9:30:00","lat":49.224292,"lon":16.558568,"is_passed":false},{"stop_id":"U1178Z2","name":"Chaloupky","arrival_time":"9:31:00","departure_time":"9:31:00","lat":49.223106,"lon":16.557048,"is_passed":false},{"stop_id":"U1296Z2","name":"Kristenova","arrival_time":"9:32:00","departure_time":"9:32:00","lat":49.221078,"lon":16.554278,"is_passed":false},{"stop_id":"U1633Z4","name":"Svratecká","arrival_time":"9:33:00","departure_time":"9:33:00","lat":49.218696,"lon":16.554399,"is_passed":false},{"stop_id":"U1502Z2","name":"Podveská","arrival_time":"9:34:00","departure_time":"9:34:00","lat":49.217607,"lon":16.558178,"is_passed":false},{"stop_id":"U1651Z2","name":"Štursova","arrival_time":"9:35:00","departure_time":"9:35:00","lat":49.215854,"lon":16.564522,"is_passed":false},{"stop_id":"U1758Z2","name":"Vrázova","arrival_time":"9:36:00","departure_time":"9:36:00","lat":49.216977,"lon":16.568646,"is_passed":false},{"stop_id":"U1528Z7","name":"Přívrat","arrival_time":"9:37:00","departure_time":"9:37:00","lat":49.21889,"lon":16.573206,"is_passed":false},{"stop_id":"U1766Z2","name":"Vychodilova","arrival_time":"9:38:00","departure_time":"9:38:00","lat":49.220204,"lon":16.571445,"is_passed":false},{"stop_id":"U1528Z6","name":"Přívrat","arrival_time":"9:40:00","departure_time":"9:40:00","lat":49.218109,"lon":16.574404,"is_passed":false},{"stop_id":"U1352Z2","name":"Makovského náměstí","arrival_time":"9:40:00","departure_time":"9:40:00","lat":49.217881,"lon":16.576657,"is_passed":false},{"stop_id":"U1426Z2","name":"Náměstí Svornosti","arrival_time":"9:42:00","departure_time":"9:42:00","lat":49.215179,"lon":16.58299,"is_passed":false},{"stop_id":"U1206Z2","name":"Jindřichova","arrival_time":"9:43:00","departure_time":"9:43:00","lat":49.213132,"lon":16.583163,"is_passed":false},{"stop_id":"U1601Z2","name":"Spojovací","arrival_time":"9:44:00","departure_time":"9:44:00","lat":49.211772,"lon":16.58703,"is_passed":false},{"stop_id":"U1242Z2","name":"Klusáčkova","arrival_time":"9:46:00","departure_time":"9:46:00","lat":49.211903,"lon":16.592875,"is_passed":false},{"stop_id":"U1785Z2","name":"Zemská knihovna","arrival_time":"9:47:00","departure_time":"9:47:00","lat":49.208799,"lon":16.594624,"is_passed":false},{"stop_id":"U1626Z2","name":"Sušilova","arrival_time":"9:49:00","departure_time":"9:49:00","lat":49.204397,"lon":16.598621,"is_passed":false},{"stop_id":"U1587Z2","name":"Smetanova","arrival_time":"9:50:00","departure_time":"9:50:00","lat":49.201271,"lon":16.602293,"is_passed":false},{"stop_id":"U1073Z5","name":"Česká","arrival_time":"9:52:00","departure_time":"9:55:00","lat":49.198374,"lon":16.605647,"is_passed":false}]