[{"stop_id":"U1429Z4","name":"Nemocnice Bohunice","arrival_time":"22:45:00","departure_time":"22:45:00","lat":49.176125,"lon":16.567246,"is_passed":false},{"stop_id":"U1699Z1","name":"Univerzitní kampus","arrival_time":"22:46:00","departure_time":"22:46:00","lat":49.178062,"lon":16.566488,"is_passed":false},{"stop_id":"U1078Z2","name":"Čtvrtě","arrival_time":"22:47:00","departure_time":"22:47:00","lat":49.177932,"lon":16.561546,"is_passed":false},{"stop_id":"U1263Z1","name":"Koniklecová","arrival_time":"22:48:00","departure_time":"22:48:00","lat":49.176634,"lon":16.558219,"is_passed":false},{"stop_id":"U1443Z1","name":"Oblá","arrival_time":"22:49:00","departure_time":"22:49:00","lat":49.177573,"lon":16.552766,"is_passed":false},{"stop_id":"U1223Z1","name":"Kamenný vrch","arrival_time":"22:50:00","departure_time":"22:50:00","lat":49.179914,"lon":16.547756,"is_passed":false},{"stop_id":"U1209Z2","name":"Jírovcova","arrival_time":"22:53:00","departure_time":"22:53:00","lat":49.188255,"lon":16.533803,"is_passed":false},{"stop_id":"U1481Z1","name":"Pavlovská","arrival_time":"22:53:00","departure_time":"22:53:00","lat":49.189952,"lon":16.531006,"is_passed":false},{"stop_id":"U1658Z1","name":"Talichova","arrival_time":"22:54:00","departure_time":"22:54:00","lat":49.191443,"lon":16.52996,"is_passed":false},{"stop_id":"U1017Z1","name":"Bellova","arrival_time":"22:55:00","departure_time":"22:55:00","lat":49.194186,"lon":16.531513,"is_passed":false},{"stop_id":"U1753Z1","name":"Voříškova","arrival_time":"22:56:00","departure_time":"22:56:00","lat":49.196515,"lon":16.535962,"is_passed":false},{"stop_id":"U1607Z1","name":"Stamicova","arrival_time":"22:57:00","departure_time":"22:57:00","lat":49.194694,"lon":16.539692,"is_passed":false},{"stop_id":"U1117Z1","name":"Glinkova","arrival_time":"22:58:00","departure_time":"22:58:00","lat":49.193863,"lon":16.544288,"is_passed":false},{"stop_id":"U1033Z1","name":"Borodinova","arrival_time":"22:58:00","departure_time":"22:58:00","lat":49.195947,"lon":16.545527,"is_passed":false},{"stop_id":"U1341Z1","name":"Libušina třída","arrival_time":"22:59:00","departure_time":"22:59:00","lat":49.197615,"lon":16.549164,"is_passed":false},{"stop_id":"U1342Z1","name":"Libušino údolí","arrival_time":"22:59:00","departure_time":"22:59:00","lat":49.195495,"lon":16.55543,"is_passed":false},{"stop_id":"U1003Z1","name":"Antonína Procházky","arrival_time":"23:00:00","departure_time":"23:00:00","lat":49.193559,"lon":16.561795,"is_passed":false},{"stop_id":"U1007Z1","name":"Anthropos","arrival_time":"23:01:00","departure_time":"23:01:00","lat":49.193461,"lon":16.565902,"is_passed":false},{"stop_id":"U1490Z1","name":"Pod Jurankou","arrival_time":"23:02:00","departure_time":"23:02:00","lat":49.199371,"lon":16.566405,"is_passed":false},{"stop_id":"U1732Z1","name":"Veslařská","arrival_time":"23:03:00","departure_time":"23:03:00","lat":49.202697,"lon":16.565265,"is_passed":false},{"stop_id":"U1216Z1","name":"Jundrov, hřiště","arrival_time":"23:04:00","departure_time":"23:04:00","lat":49.204651,"lon":16.560232,"is_passed":false},{"stop_id":"U1214Z1","name":"Jundrovský most","arrival_time":"23:05:00","departure_time":"23:05:00","lat":49.209437,"lon":16.556755,"is_passed":false},{"stop_id":"U1217Z4","name":"Vozovna Komín","arrival_time":"23:06:00","departure_time":"23:06:00","lat":49.213659,"lon":16.559498,"is_passed":false}]