[{"stop_id":"U1378Z10","name":"Mendlovo náměstí","arrival_time":"11:19:00","departure_time":"11:19:00","lat":49.190361,"lon":16.593096,"is_passed":false},{"stop_id":"U1768Z3","name":"Výstaviště - hlavní vstup","arrival_time":"11:20:00","departure_time":"11:20:00","lat":49.18958,"lon":16.586471,"is_passed":false},{"stop_id":"U1343Z3","name":"ARENA BRNO","arrival_time":"11:21:00","departure_time":"11:21:00","lat":49.191696,"lon":16.576091,"is_passed":false},{"stop_id":"U1487Z5","name":"Pisárky","arrival_time":"11:22:00","departure_time":"11:22:00","lat":49.193517,"lon":16.571155,"is_passed":false},{"stop_id":"U1007Z3","name":"Anthropos","arrival_time":"11:23:00","departure_time":"11:23:00","lat":49.193146,"lon":16.565715,"is_passed":false},{"stop_id":"U1003Z2","name":"Antonína Procházky","arrival_time":"11:24:00","departure_time":"11:24:00","lat":49.194292,"lon":16.55926,"is_passed":false},{"stop_id":"U1342Z2","name":"Libušino údolí","arrival_time":"11:25:00","departure_time":"11:25:00","lat":49.195913,"lon":16.555199,"is_passed":false},{"stop_id":"U1341Z2","name":"Libušina třída","arrival_time":"11:26:00","departure_time":"11:26:00","lat":49.19798,"lon":16.548135,"is_passed":false},{"stop_id":"U1033Z2","name":"Borodinova","arrival_time":"11:27:00","departure_time":"11:27:00","lat":49.19654,"lon":16.545458,"is_passed":false},{"stop_id":"U1117Z2","name":"Glinkova","arrival_time":"11:28:00","departure_time":"11:28:00","lat":49.193963,"lon":16.544268,"is_passed":false},{"stop_id":"U1607Z2","name":"Stamicova","arrival_time":"11:29:00","departure_time":"11:29:00","lat":49.194966,"lon":16.539634,"is_passed":false},{"stop_id":"U1753Z2","name":"Voříškova","arrival_time":"11:31:00","departure_time":"11:31:00","lat":49.196442,"lon":16.534213,"is_passed":false},{"stop_id":"U1017Z2","name":"Bellova","arrival_time":"11:32:00","departure_time":"11:32:00","lat":49.193898,"lon":16.53095,"is_passed":false},{"stop_id":"U1658Z2","name":"Talichova","arrival_time":"11:32:00","departure_time":"11:32:00","lat":49.191695,"lon":16.529784,"is_passed":false},{"stop_id":"U1481Z2","name":"Pavlovská","arrival_time":"11:33:00","departure_time":"11:33:00","lat":49.189569,"lon":16.531348,"is_passed":false},{"stop_id":"U1209Z1","name":"Jírovcova","arrival_time":"11:35:00","departure_time":"11:50:00","lat":49.188308,"lon":16.534106,"is_passed":false}]