{"481":[{"stop_id":"U1146Z99","name":"Hlavní nádraží","arrival_time":"13:58:00","departure_time":"13:58:00","lat":49.19035,"lon":16.612342,"is_passed":false},{"stop_id":"U1809Z10","name":"Židenice, nádraží","arrival_time":"14:01:00","departure_time":"14:04:00","lat":49.204282,"lon":16.636042,"is_passed":false},{"stop_id":"U12158Z10","name":"Bílovice nad Svitavou, žel. stanice","arrival_time":"14:09:00","departure_time":"14:09:00","lat":49.242715,"lon":16.673677,"is_passed":false},{"stop_id":"U22101Z1","name":"Babice nad Svitavou","arrival_time":"14:13:00","departure_time":"14:13:00","lat":49.276645,"lon":16.673012,"is_passed":false},{"stop_id":"U12230Z10","name":"Adamov, železniční stanice","arrival_time":"14:16:00","departure_time":"14:17:00","lat":49.295341,"lon":16.663538,"is_passed":false},{"stop_id":"U12231Z10","name":"Adamov, železniční zastávka","arrival_time":"14:18:00","departure_time":"14:19:00","lat":49.300671,"lon":16.650653,"is_passed":false},{"stop_id":"U12342Z30","name":"Blansko, aut. st.","arrival_time":"14:24:00","departure_time":"14:25:00","lat":49.352753,"lon":16.646848,"is_passed":false},{"stop_id":"U22302Z1","name":"Blansko město","arrival_time":"14:27:00","departure_time":"14:28:00","lat":49.360996,"lon":16.639464,"is_passed":false},{"stop_id":"U22301Z1","name":"Dolní Lhota","arrival_time":"14:30:00","departure_time":"14:31:00","lat":49.386917,"lon":16.633978,"is_passed":false},{"stop_id":"U12439Z50","name":"Rájec-Jestřebí, železniční stanice","arrival_time":"14:33:00","departure_time":"14:34:00","lat":49.408206,"lon":16.627711,"is_passed":false},{"stop_id":"U12511Z50","name":"Doubravice, žel.st.","arrival_time":"14:37:00","departure_time":"14:37:00","lat":49.438707,"lon":16.621809,"is_passed":false},{"stop_id":"U12676Z50","name":"Skalice nad Svitavou, žel.st.","arrival_time":"14:43:00","departure_time":"14:51:00","lat":49.480123,"lon":16.609726,"is_passed":false},{"stop_id":"U22602Z1","name":"Svitávka","arrival_time":"14:53:00","departure_time":"14:54:00","lat":49.499434,"lon":16.599208,"is_passed":false},{"stop_id":"U22701Z1","name":"Zboněk","arrival_time":"14:56:00","departure_time":"14:56:00","lat":49.521608,"lon":16.583438,"is_passed":false},{"stop_id":"U22702Z1","name":"Letovice zastávka","arrival_time":"14:59:00","departure_time":"14:59:00","lat":49.535496,"lon":16.576998,"is_passed":false},{"stop_id":"U12736Z50","name":"Letovice, železniční stanice","arrival_time":"15:02:00","departure_time":"15:31:00","lat":49.555973,"lon":16.570906,"is_passed":false}],"4810":[{"stop_id":"U14526Z1","name":"Jamolice, restaurace","arrival_time":"9:43:00","departure_time":"9:43:00","lat":49.073472,"lon":16.248928,"is_passed":false},{"stop_id":"U14525Z1","name":"Jamolice, mateřská škola","arrival_time":"9:44:00","departure_time":"9:44:00","lat":49.072047,"lon":16.260135,"is_passed":false},{"stop_id":"U14486Z1","name":"Moravský Krumlov, Polánka","arrival_time":"9:48:00","departure_time":"9:48:00","lat":49.069054,"lon":16.302685,"is_passed":false},{"stop_id":"U14481Z1","name":"Moravský Krumlov, Ivančická","arrival_time":"9:53:00","departure_time":"9:53:00","lat":49.050572,"lon":16.296608,"is_passed":false},{"stop_id":"U14485Z1","name":"Moravský Krumlov, u parku","arrival_time":"9:55:00","departure_time":"9:55:00","lat":49.044735,"lon":16.304072,"is_passed":false},{"stop_id":"U14472Z21","name":"Moravský Krumlov, náměstí","arrival_time":"9:57:00","departure_time":"9:57:00","lat":49.048618,"lon":16.31303,"is_passed":false},{"stop_id":"U14499Z12","name":"Moravský Krumlov, autobusové nádraží","arrival_time":"9:59:00","departure_time":"10:02:00","lat":49.048233,"lon":16.309639,"is_passed":false},{"stop_id":"U14471Z2","name":"Moravský Krumlov, Kavalírka","arrival_time":"10:03:00","departure_time":"10:03:00","lat":49.045758,"lon":16.31087,"is_passed":false},{"stop_id":"U14478Z2","name":"Moravský Krumlov, Václavská","arrival_time":"10:05:00","departure_time":"10:05:00","lat":49.044005,"lon":16.315667,"is_passed":false},{"stop_id":"U14477Z2","name":"Moravský Krumlov, stezka","arrival_time":"10:06:00","departure_time":"10:06:00","lat":49.044908,"lon":16.32186,"is_passed":false},{"stop_id":"U14479Z51","name":"Moravský Krumlov, železniční stanice","arrival_time":"10:08:00","departure_time":"10:42:00","lat":49.04619,"lon":16.338163,"is_passed":false}],"4811":[{"stop_id":"U14479Z6","name":"Moravský Krumlov, železniční stanice","arrival_time":"10:42:00","departure_time":"10:42:00","lat":49.04619,"lon":16.338163,"is_passed":false},{"stop_id":"U14477Z1","name":"Moravský Krumlov, stezka","arrival_time":"10:45:00","departure_time":"10:45:00","lat":49.044907,"lon":16.321857,"is_passed":false},{"stop_id":"U14478Z1","name":"Moravský Krumlov, Václavská","arrival_time":"10:46:00","departure_time":"10:46:00","lat":49.04408,"lon":16.315493,"is_passed":false},{"stop_id":"U14471Z1","name":"Moravský Krumlov, Kavalírka","arrival_time":"10:48:00","departure_time":"10:48:00","lat":49.04575,"lon":16.310588,"is_passed":false},{"stop_id":"U14499Z6","name":"Moravský Krumlov, autobusové nádraží","arrival_time":"10:49:00","departure_time":"10:50:00","lat":49.048225,"lon":16.309067,"is_passed":false},{"stop_id":"U14472Z22","name":"Moravský Krumlov, náměstí","arrival_time":"10:52:00","departure_time":"10:52:00","lat":49.048831,"lon":16.312392,"is_passed":false},{"stop_id":"U14485Z2","name":"Moravský Krumlov, u parku","arrival_time":"10:54:00","departure_time":"10:54:00","lat":49.045493,"lon":16.304797,"is_passed":false},{"stop_id":"U14484Z2","name":"Moravský Krumlov, škola","arrival_time":"10:55:00","departure_time":"10:55:00","lat":49.047595,"lon":16.301727,"is_passed":false},{"stop_id":"U14481Z2","name":"Moravský Krumlov, Ivančická","arrival_time":"10:56:00","departure_time":"10:56:00","lat":49.050653,"lon":16.296715,"is_passed":false},{"stop_id":"U14486Z2","name":"Moravský Krumlov, Polánka","arrival_time":"11:01:00","departure_time":"11:01:00","lat":49.068086,"lon":16.304782,"is_passed":false},{"stop_id":"U14525Z2","name":"Jamolice, mateřská škola","arrival_time":"11:05:00","departure_time":"11:05:00","lat":49.072136,"lon":16.256433,"is_passed":false},{"stop_id":"U14526Z2","name":"Jamolice, restaurace","arrival_time":"11:06:00","departure_time":"11:06:00","lat":49.073205,"lon":16.249931,"is_passed":false},{"stop_id":"U14524Z2","name":"Jamolice, lesovna","arrival_time":"11:07:00","departure_time":"11:07:00","lat":49.08001,"lon":16.239168,"is_passed":false},{"stop_id":"U14520Z1","name":"Dukovany, obec","arrival_time":"11:13:00","departure_time":"11:26:00","lat":49.079628,"lon":16.190947,"is_passed":false}],"4812":[{"stop_id":"U14520Z3","name":"Dukovany, obec","arrival_time":"11:26:00","departure_time":"11:26:00","lat":49.079628,"lon":16.190947,"is_passed":false},{"stop_id":"U14524Z1","name":"Jamolice, lesovna","arrival_time":"11:32:00","departure_time":"11:32:00","lat":49.079845,"lon":16.23923,"is_passed":false},{"stop_id":"U14526Z1","name":"Jamolice, restaurace","arrival_time":"11:33:00","departure_time":"11:33:00","lat":49.073472,"lon":16.248928,"is_passed":false},{"stop_id":"U14525Z1","name":"Jamolice, mateřská škola","arrival_time":"11:34:00","departure_time":"11:34:00","lat":49.072047,"lon":16.260135,"is_passed":false},{"stop_id":"U14486Z1","name":"Moravský Krumlov, Polánka","arrival_time":"11:38:00","departure_time":"11:38:00","lat":49.069054,"lon":16.302685,"is_passed":false},{"stop_id":"U14481Z1","name":"Moravský Krumlov, Ivančická","arrival_time":"11:43:00","departure_time":"11:43:00","lat":49.050572,"lon":16.296608,"is_passed":false},{"stop_id":"U14485Z1","name":"Moravský Krumlov, u parku","arrival_time":"11:45:00","departure_time":"11:45:00","lat":49.044735,"lon":16.304072,"is_passed":false},{"stop_id":"U14472Z21","name":"Moravský Krumlov, náměstí","arrival_time":"11:47:00","departure_time":"11:47:00","lat":49.048618,"lon":16.31303,"is_passed":false},{"stop_id":"U14499Z12","name":"Moravský Krumlov, autobusové nádraží","arrival_time":"11:49:00","departure_time":"11:50:00","lat":49.048233,"lon":16.309639,"is_passed":false}],"4813":[{"stop_id":"U14499Z6","name":"Moravský Krumlov, autobusové nádraží","arrival_time":"11:50:00","departure_time":"11:50:00","lat":49.048225,"lon":16.309067,"is_passed":false},{"stop_id":"U14472Z22","name":"Moravský Krumlov, náměstí","arrival_time":"11:52:00","departure_time":"11:52:00","lat":49.048831,"lon":16.312392,"is_passed":false},{"stop_id":"U14485Z2","name":"Moravský Krumlov, u parku","arrival_time":"11:54:00","departure_time":"11:54:00","lat":49.045493,"lon":16.304797,"is_passed":false},{"stop_id":"U14484Z2","name":"Moravský Krumlov, škola","arrival_time":"11:55:00","departure_time":"11:55:00","lat":49.047595,"lon":16.301727,"is_passed":false},{"stop_id":"U14481Z2","name":"Moravský Krumlov, Ivančická","arrival_time":"11:56:00","departure_time":"11:56:00","lat":49.050653,"lon":16.296715,"is_passed":false},{"stop_id":"U14486Z2","name":"Moravský Krumlov, Polánka","arrival_time":"12:01:00","departure_time":"12:01:00","lat":49.068086,"lon":16.304782,"is_passed":false},{"stop_id":"U14525Z2","name":"Jamolice, mateřská škola","arrival_time":"12:05:00","departure_time":"12:05:00","lat":49.072136,"lon":16.256433,"is_passed":false},{"stop_id":"U14526Z2","name":"Jamolice, restaurace","arrival_time":"12:06:00","departure_time":"12:06:00","lat":49.073205,"lon":16.249931,"is_passed":false},{"stop_id":"U14524Z2","name":"Jamolice, lesovna","arrival_time":"12:07:00","departure_time":"12:07:00","lat":49.08001,"lon":16.239168,"is_passed":false},{"stop_id":"U14520Z1","name":"Dukovany, obec","arrival_time":"12:13:00","departure_time":"12:43:00","lat":49.079628,"lon":16.190947,"is_passed":false}],"4814":[{"stop_id":"U14520Z3","name":"Dukovany, obec","arrival_time":"12:43:00","departure_time":"12:43:00","lat":49.079628,"lon":16.190947,"is_passed":false},{"stop_id":"U14524Z1","name":"Jamolice, lesovna","arrival_time":"12:49:00","departure_time":"12:49:00","lat":49.079845,"lon":16.23923,"is_passed":false},{"stop_id":"U14526Z1","name":"Jamolice, restaurace","arrival_time":"12:50:00","departure_time":"12:50:00","lat":49.073472,"lon":16.248928,"is_passed":false},{"stop_id":"U14525Z1","name":"Jamolice, mateřská škola","arrival_time":"12:51:00","departure_time":"12:51:00","lat":49.072047,"lon":16.260135,"is_passed":false},{"stop_id":"U14486Z1","name":"Moravský Krumlov, Polánka","arrival_time":"12:55:00","departure_time":"12:55:00","lat":49.069054,"lon":16.302685,"is_passed":false},{"stop_id":"U14486Z3","name":"Moravský Krumlov, Polánka","arrival_time":"12:56:00","departure_time":"12:56:00","lat":49.067943,"lon":16.304883,"is_passed":false},{"stop_id":"U14481Z1","name":"Moravský Krumlov, Ivančická","arrival_time":"13:00:00","departure_time":"13:00:00","lat":49.050572,"lon":16.296608,"is_passed":false},{"stop_id":"U14485Z1","name":"Moravský Krumlov, u parku","arrival_time":"13:02:00","departure_time":"13:02:00","lat":49.044735,"lon":16.304072,"is_passed":false},{"stop_id":"U14472Z21","name":"Moravský Krumlov, náměstí","arrival_time":"13:04:00","departure_time":"13:04:00","lat":49.048618,"lon":16.31303,"is_passed":false},{"stop_id":"U14499Z12","name":"Moravský Krumlov, autobusové nádraží","arrival_time":"13:06:00","departure_time":"13:06:00","lat":49.048233,"lon":16.309639,"is_passed":false},{"stop_id":"U14471Z2","name":"Moravský Krumlov, Kavalírka","arrival_time":"13:07:00","departure_time":"13:07:00","lat":49.045758,"lon":16.31087,"is_passed":false},{"stop_id":"U14478Z2","name":"Moravský Krumlov, Václavská","arrival_time":"13:09:00","departure_time":"13:09:00","lat":49.044005,"lon":16.315667,"is_passed":false},{"stop_id":"U14477Z2","name":"Moravský Krumlov, stezka","arrival_time":"13:10:00","departure_time":"13:10:00","lat":49.044908,"lon":16.32186,"is_passed":false},{"stop_id":"U14479Z51","name":"Moravský Krumlov, železniční stanice","arrival_time":"13:12:00","departure_time":"14:42:00","lat":49.04619,"lon":16.338163,"is_passed":false}],"4815":[{"stop_id":"U14479Z6","name":"Moravský Krumlov, železniční stanice","arrival_time":"14:42:00","departure_time":"14:42:00","lat":49.04619,"lon":16.338163,"is_passed":false},{"stop_id":"U14477Z1","name":"Moravský Krumlov, stezka","arrival_time":"14:45:00","departure_time":"14:45:00","lat":49.044907,"lon":16.321857,"is_passed":false},{"stop_id":"U14478Z1","name":"Moravský Krumlov, Václavská","arrival_time":"14:46:00","departure_time":"14:46:00","lat":49.04408,"lon":16.315493,"is_passed":false},{"stop_id":"U14471Z1","name":"Moravský Krumlov, Kavalírka","arrival_time":"14:48:00","departure_time":"14:48:00","lat":49.04575,"lon":16.310588,"is_passed":false},{"stop_id":"U14499Z6","name":"Moravský Krumlov, autobusové nádraží","arrival_time":"14:49:00","departure_time":"14:50:00","lat":49.048225,"lon":16.309067,"is_passed":false},{"stop_id":"U14472Z22","name":"Moravský Krumlov, náměstí","arrival_time":"14:52:00","departure_time":"14:52:00","lat":49.048831,"lon":16.312392,"is_passed":false},{"stop_id":"U14485Z2","name":"Moravský Krumlov, u parku","arrival_time":"14:54:00","departure_time":"14:54:00","lat":49.045493,"lon":16.304797,"is_passed":false},{"stop_id":"U14484Z2","name":"Moravský Krumlov, škola","arrival_time":"14:55:00","departure_time":"14:55:00","lat":49.047595,"lon":16.301727,"is_passed":false},{"stop_id":"U14481Z2","name":"Moravský Krumlov, Ivančická","arrival_time":"14:56:00","departure_time":"14:56:00","lat":49.050653,"lon":16.296715,"is_passed":false},{"stop_id":"U14486Z2","name":"Moravský Krumlov, Polánka","arrival_time":"15:01:00","departure_time":"15:01:00","lat":49.068086,"lon":16.304782,"is_passed":false},{"stop_id":"U14525Z2","name":"Jamolice, mateřská škola","arrival_time":"15:05:00","departure_time":"15:05:00","lat":49.072136,"lon":16.256433,"is_passed":false},{"stop_id":"U14526Z2","name":"Jamolice, restaurace","arrival_time":"15:06:00","departure_time":"15:06:00","lat":49.073205,"lon":16.249931,"is_passed":false},{"stop_id":"U14524Z2","name":"Jamolice, lesovna","arrival_time":"15:07:00","departure_time":"15:07:00","lat":49.08001,"lon":16.239168,"is_passed":false},{"stop_id":"U14520Z1","name":"Dukovany, obec","arrival_time":"15:13:00","departure_time":"15:13:00","lat":49.079628,"lon":16.190947,"is_passed":false},{"stop_id":"U14521Z1","name":"Dukovany, rozcestí","arrival_time":"15:16:00","departure_time":"15:16:00","lat":49.086452,"lon":16.16227,"is_passed":false},{"stop_id":"U14601Z1","name":"Dukovany, EDU","arrival_time":"15:18:00","departure_time":"15:38:00","lat":49.090318,"lon":16.14494,"is_passed":false}],"4816":[{"stop_id":"U14601Z2","name":"Dukovany, EDU","arrival_time":"15:38:00","departure_time":"15:38:00","lat":49.090405,"lon":16.144991,"is_passed":false},{"stop_id":"U14521Z3","name":"Dukovany, rozcestí","arrival_time":"15:40:00","departure_time":"15:40:00","lat":49.086408,"lon":16.162082,"is_passed":false},{"stop_id":"U14520Z3","name":"Dukovany, obec","arrival_time":"15:43:00","departure_time":"15:43:00","lat":49.079628,"lon":16.190947,"is_passed":false},{"stop_id":"U14524Z1","name":"Jamolice, lesovna","arrival_time":"15:49:00","departure_time":"15:49:00","lat":49.079845,"lon":16.23923,"is_passed":false},{"stop_id":"U14526Z1","name":"Jamolice, restaurace","arrival_time":"15:50:00","departure_time":"15:50:00","lat":49.073472,"lon":16.248928,"is_passed":false},{"stop_id":"U14525Z1","name":"Jamolice, mateřská škola","arrival_time":"15:51:00","departure_time":"15:51:00","lat":49.072047,"lon":16.260135,"is_passed":false},{"stop_id":"U14486Z1","name":"Moravský Krumlov, Polánka","arrival_time":"15:55:00","departure_time":"15:55:00","lat":49.069054,"lon":16.302685,"is_passed":false},{"stop_id":"U14486Z3","name":"Moravský Krumlov, Polánka","arrival_time":"15:56:00","departure_time":"15:56:00","lat":49.067943,"lon":16.304883,"is_passed":false},{"stop_id":"U14481Z1","name":"Moravský Krumlov, Ivančická","arrival_time":"16:00:00","departure_time":"16:00:00","lat":49.050572,"lon":16.296608,"is_passed":false},{"stop_id":"U14485Z1","name":"Moravský Krumlov, u parku","arrival_time":"16:02:00","departure_time":"16:02:00","lat":49.044735,"lon":16.304072,"is_passed":false},{"stop_id":"U14472Z21","name":"Moravský Krumlov, náměstí","arrival_time":"16:04:00","departure_time":"16:04:00","lat":49.048618,"lon":16.31303,"is_passed":false},{"stop_id":"U14499Z12","name":"Moravský Krumlov, autobusové nádraží","arrival_time":"16:06:00","departure_time":"16:06:00","lat":49.048233,"lon":16.309639,"is_passed":false},{"stop_id":"U14471Z2","name":"Moravský Krumlov, Kavalírka","arrival_time":"16:07:00","departure_time":"16:07:00","lat":49.045758,"lon":16.31087,"is_passed":false},{"stop_id":"U14478Z2","name":"Moravský Krumlov, Václavská","arrival_time":"16:09:00","departure_time":"16:09:00","lat":49.044005,"lon":16.315667,"is_passed":false},{"stop_id":"U14477Z2","name":"Moravský Krumlov, stezka","arrival_time":"16:10:00","departure_time":"16:10:00","lat":49.044908,"lon":16.32186,"is_passed":false},{"stop_id":"U14479Z51","name":"Moravský Krumlov, železniční stanice","arrival_time":"16:12:00","departure_time":"16:42:00","lat":49.04619,"lon":16.338163,"is_passed":false}],"4817":[{"stop_id":"U14479Z6","name":"Moravský Krumlov, železniční stanice","arrival_time":"16:42:00","departure_time":"16:42:00","lat":49.04619,"lon":16.338163,"is_passed":false},{"stop_id":"U14477Z1","name":"Moravský Krumlov, stezka","arrival_time":"16:45:00","departure_time":"16:45:00","lat":49.044907,"lon":16.321857,"is_passed":false},{"stop_id":"U14478Z1","name":"Moravský Krumlov, Václavská","arrival_time":"16:46:00","departure_time":"16:46:00","lat":49.04408,"lon":16.315493,"is_passed":false},{"stop_id":"U14471Z1","name":"Moravský Krumlov, Kavalírka","arrival_time":"16:48:00","departure_time":"16:48:00","lat":49.04575,"lon":16.310588,"is_passed":false},{"stop_id":"U14499Z6","name":"Moravský Krumlov, autobusové nádraží","arrival_time":"16:49:00","departure_time":"16:50:00","lat":49.048225,"lon":16.309067,"is_passed":false},{"stop_id":"U14472Z22","name":"Moravský Krumlov, náměstí","arrival_time":"16:52:00","departure_time":"16:52:00","lat":49.048831,"lon":16.312392,"is_passed":false},{"stop_id":"U14485Z2","name":"Moravský Krumlov, u parku","arrival_time":"16:54:00","departure_time":"16:54:00","lat":49.045493,"lon":16.304797,"is_passed":false},{"stop_id":"U14484Z2","name":"Moravský Krumlov, škola","arrival_time":"16:55:00","departure_time":"16:55:00","lat":49.047595,"lon":16.301727,"is_passed":false},{"stop_id":"U14481Z2","name":"Moravský Krumlov, Ivančická","arrival_time":"16:56:00","departure_time":"16:56:00","lat":49.050653,"lon":16.296715,"is_passed":false},{"stop_id":"U14486Z2","name":"Moravský Krumlov, Polánka","arrival_time":"17:01:00","departure_time":"17:01:00","lat":49.068086,"lon":16.304782,"is_passed":false},{"stop_id":"U14525Z2","name":"Jamolice, mateřská škola","arrival_time":"17:05:00","departure_time":"17:05:00","lat":49.072136,"lon":16.256433,"is_passed":false},{"stop_id":"U14526Z2","name":"Jamolice, restaurace","arrival_time":"17:06:00","departure_time":"17:06:00","lat":49.073205,"lon":16.249931,"is_passed":false},{"stop_id":"U14524Z2","name":"Jamolice, lesovna","arrival_time":"17:07:00","departure_time":"17:07:00","lat":49.08001,"lon":16.239168,"is_passed":false},{"stop_id":"U14520Z1","name":"Dukovany, obec","arrival_time":"17:13:00","departure_time":"17:13:00","lat":49.079628,"lon":16.190947,"is_passed":false},{"stop_id":"U14521Z1","name":"Dukovany, rozcestí","arrival_time":"17:16:00","departure_time":"17:16:00","lat":49.086452,"lon":16.16227,"is_passed":false},{"stop_id":"U14601Z1","name":"Dukovany, EDU","arrival_time":"17:18:00","departure_time":"17:38:00","lat":49.090318,"lon":16.14494,"is_passed":false}],"4818":[{"stop_id":"U14601Z2","name":"Dukovany, EDU","arrival_time":"17:38:00","departure_time":"17:38:00","lat":49.090405,"lon":16.144991,"is_passed":false},{"stop_id":"U14521Z3","name":"Dukovany, rozcestí","arrival_time":"17:40:00","departure_time":"17:40:00","lat":49.086408,"lon":16.162082,"is_passed":false},{"stop_id":"U14520Z3","name":"Dukovany, obec","arrival_time":"17:43:00","departure_time":"17:43:00","lat":49.079628,"lon":16.190947,"is_passed":false},{"stop_id":"U14524Z1","name":"Jamolice, lesovna","arrival_time":"17:49:00","departure_time":"17:49:00","lat":49.079845,"lon":16.23923,"is_passed":false},{"stop_id":"U14526Z1","name":"Jamolice, restaurace","arrival_time":"17:50:00","departure_time":"17:50:00","lat":49.073472,"lon":16.248928,"is_passed":false},{"stop_id":"U14525Z1","name":"Jamolice, mateřská škola","arrival_time":"17:51:00","departure_time":"17:51:00","lat":49.072047,"lon":16.260135,"is_passed":false},{"stop_id":"U14486Z1","name":"Moravský Krumlov, Polánka","arrival_time":"17:55:00","departure_time":"17:55:00","lat":49.069054,"lon":16.302685,"is_passed":false},{"stop_id":"U14486Z3","name":"Moravský Krumlov, Polánka","arrival_time":"17:56:00","departure_time":"17:56:00","lat":49.067943,"lon":16.304883,"is_passed":false},{"stop_id":"U14481Z1","name":"Moravský Krumlov, Ivančická","arrival_time":"18:00:00","departure_time":"18:00:00","lat":49.050572,"lon":16.296608,"is_passed":false},{"stop_id":"U14485Z1","name":"Moravský Krumlov, u parku","arrival_time":"18:02:00","departure_time":"18:02:00","lat":49.044735,"lon":16.304072,"is_passed":false},{"stop_id":"U14472Z21","name":"Moravský Krumlov, náměstí","arrival_time":"18:04:00","departure_time":"18:04:00","lat":49.048618,"lon":16.31303,"is_passed":false},{"stop_id":"U14499Z12","name":"Moravský Krumlov, autobusové nádraží","arrival_time":"18:06:00","departure_time":"18:06:00","lat":49.048233,"lon":16.309639,"is_passed":false},{"stop_id":"U14471Z2","name":"Moravský Krumlov, Kavalírka","arrival_time":"18:07:00","departure_time":"18:07:00","lat":49.045758,"lon":16.31087,"is_passed":false},{"stop_id":"U14478Z2","name":"Moravský Krumlov, Václavská","arrival_time":"18:09:00","departure_time":"18:09:00","lat":49.044005,"lon":16.315667,"is_passed":false},{"stop_id":"U14477Z2","name":"Moravský Krumlov, stezka","arrival_time":"18:10:00","departure_time":"18:10:00","lat":49.044908,"lon":16.32186,"is_passed":false},{"stop_id":"U14479Z51","name":"Moravský Krumlov, železniční stanice","arrival_time":"18:12:00","departure_time":"19:42:00","lat":49.04619,"lon":16.338163,"is_passed":false}],"4819":[{"stop_id":"U14479Z6","name":"Moravský Krumlov, železniční stanice","arrival_time":"19:42:00","departure_time":"19:42:00","lat":49.04619,"lon":16.338163,"is_passed":false},{"stop_id":"U14477Z1","name":"Moravský Krumlov, stezka","arrival_time":"19:45:00","departure_time":"19:45:00","lat":49.044907,"lon":16.321857,"is_passed":false},{"stop_id":"U14478Z1","name":"Moravský Krumlov, Václavská","arrival_time":"19:46:00","departure_time":"19:46:00","lat":49.04408,"lon":16.315493,"is_passed":false},{"stop_id":"U14471Z1","name":"Moravský Krumlov, Kavalírka","arrival_time":"19:48:00","departure_time":"19:48:00","lat":49.04575,"lon":16.310588,"is_passed":false},{"stop_id":"U14499Z6","name":"Moravský Krumlov, autobusové nádraží","arrival_time":"19:49:00","departure_time":"19:50:00","lat":49.048225,"lon":16.309067,"is_passed":false},{"stop_id":"U14472Z22","name":"Moravský Krumlov, náměstí","arrival_time":"19:52:00","departure_time":"19:52:00","lat":49.048831,"lon":16.312392,"is_passed":false},{"stop_id":"U14485Z2","name":"Moravský Krumlov, u parku","arrival_time":"19:54:00","departure_time":"19:54:00","lat":49.045493,"lon":16.304797,"is_passed":false},{"stop_id":"U14484Z2","name":"Moravský Krumlov, škola","arrival_time":"19:55:00","departure_time":"19:55:00","lat":49.047595,"lon":16.301727,"is_passed":false},{"stop_id":"U14481Z2","name":"Moravský Krumlov, Ivančická","arrival_time":"19:56:00","departure_time":"19:56:00","lat":49.050653,"lon":16.296715,"is_passed":false},{"stop_id":"U14486Z2","name":"Moravský Krumlov, Polánka","arrival_time":"20:01:00","departure_time":"20:01:00","lat":49.068086,"lon":16.304782,"is_passed":false},{"stop_id":"U14525Z2","name":"Jamolice, mateřská škola","arrival_time":"20:05:00","departure_time":"20:05:00","lat":49.072136,"lon":16.256433,"is_passed":false},{"stop_id":"U14526Z2","name":"Jamolice, restaurace","arrival_time":"20:06:00","departure_time":"20:06:00","lat":49.073205,"lon":16.249931,"is_passed":false},{"stop_id":"U14524Z2","name":"Jamolice, lesovna","arrival_time":"20:07:00","departure_time":"20:07:00","lat":49.08001,"lon":16.239168,"is_passed":false},{"stop_id":"U14520Z1","name":"Dukovany, obec","arrival_time":"20:13:00","departure_time":"20:43:00","lat":49.079628,"lon":16.190947,"is_passed":false}],"48100":[{"stop_id":"U1037Z2","name":"Bosonohy","arrival_time":"13:52:00","departure_time":"13:52:00","lat":49.176372,"lon":16.525514,"is_passed":false},{"stop_id":"U1161Z2","name":"Hoštická","arrival_time":"13:53:00","departure_time":"13:53:00","lat":49.173917,"lon":16.527822,"is_passed":false},{"stop_id":"U1516Z1","name":"Pražská","arrival_time":"13:54:00","departure_time":"13:54:00","lat":49.173478,"lon":16.531543,"is_passed":false},{"stop_id":"U1568Z2","name":"Skalní","arrival_time":"13:55:00","departure_time":"13:55:00","lat":49.174201,"lon":16.537903,"is_passed":false},{"stop_id":"U1202Z2","name":"Jemelkova","arrival_time":"13:56:00","departure_time":"13:56:00","lat":49.173163,"lon":16.54872,"is_passed":false},{"stop_id":"U1616Z4","name":"Starý Lískovec, smyčka","arrival_time":"13:58:00","departure_time":"13:58:00","lat":49.170615,"lon":16.55427,"is_passed":false},{"stop_id":"U1687Z2","name":"U hřiště","arrival_time":"13:59:00","departure_time":"13:59:00","lat":49.165806,"lon":16.558562,"is_passed":false},{"stop_id":"U1666Z2","name":"Točná","arrival_time":"14:00:00","departure_time":"14:00:00","lat":49.164745,"lon":16.561481,"is_passed":false},{"stop_id":"U1061Z2","name":"Čermákova","arrival_time":"14:01:00","departure_time":"14:01:00","lat":49.164349,"lon":16.564689,"is_passed":false},{"stop_id":"U1627Z2","name":"Svah","arrival_time":"14:01:00","departure_time":"14:01:00","lat":49.164924,"lon":16.567717,"is_passed":false},{"stop_id":"U1273Z1","name":"Kosmonautů","arrival_time":"14:02:00","departure_time":"14:02:00","lat":49.167006,"lon":16.568017,"is_passed":false},{"stop_id":"U1472Z7","name":"Osová","arrival_time":"14:03:00","departure_time":"14:03:00","lat":49.168951,"lon":16.566714,"is_passed":false},{"stop_id":"U1492Z1","name":"Pod nemocnicí","arrival_time":"14:04:00","departure_time":"14:04:00","lat":49.172412,"lon":16.569624,"is_passed":false},{"stop_id":"U1429Z4","name":"Nemocnice Bohunice","arrival_time":"14:06:00","departure_time":"14:06:00","lat":49.176125,"lon":16.567246,"is_passed":false},{"stop_id":"U1610Z2","name":"Stará nemocnice","arrival_time":"14:09:00","departure_time":"14:09:00","lat":49.173436,"lon":16.577787,"is_passed":false},{"stop_id":"U1293Z6","name":"Krematorium","arrival_time":"14:10:00","departure_time":"14:10:00","lat":49.172826,"lon":16.590375,"is_passed":false},{"stop_id":"U1703Z6","name":"Ústřední hřbitov","arrival_time":"14:12:00","departure_time":"14:12:00","lat":49.170744,"lon":16.597612,"is_passed":false}],"48101":[{"stop_id":"U1703Z6","name":"Ústřední hřbitov","arrival_time":"14:12:00","departure_time":"14:12:00","lat":49.170744,"lon":16.597612,"is_passed":false},{"stop_id":"U1673Z1","name":"Traťová","arrival_time":"14:13:00","departure_time":"14:13:00","lat":49.163849,"lon":16.595255,"is_passed":false},{"stop_id":"U1122Z1","name":"Gruzínská","arrival_time":"14:15:00","departure_time":"14:15:00","lat":49.167041,"lon":16.586433,"is_passed":false},{"stop_id":"U1701Z1","name":"Ukrajinská","arrival_time":"14:16:00","departure_time":"14:16:00","lat":49.170325,"lon":16.585437,"is_passed":false},{"stop_id":"U1714Z2","name":"Uzbecká","arrival_time":"14:17:00","departure_time":"14:17:00","lat":49.172173,"lon":16.583374,"is_passed":false},{"stop_id":"U1411Z2","name":"Mýtná","arrival_time":"14:18:00","departure_time":"14:18:00","lat":49.175186,"lon":16.582128,"is_passed":false},{"stop_id":"U1222Z4","name":"Kamenice","arrival_time":"14:19:00","departure_time":"14:19:00","lat":49.177782,"lon":16.57232,"is_passed":false},{"stop_id":"U1699Z4","name":"Univerzitní kampus","arrival_time":"14:20:00","departure_time":"14:20:00","lat":49.17846,"lon":16.567533,"is_passed":false},{"stop_id":"U1624Z2","name":"Studentská","arrival_time":"14:21:00","departure_time":"14:21:00","lat":49.179291,"lon":16.570244,"is_passed":false},{"stop_id":"U1699Z2","name":"Univerzitní kampus","arrival_time":"14:23:00","departure_time":"14:23:00","lat":49.177455,"lon":16.567173,"is_passed":false},{"stop_id":"U1429Z5","name":"Nemocnice Bohunice","arrival_time":"14:24:00","departure_time":"14:24:00","lat":49.175206,"lon":16.56694,"is_passed":false},{"stop_id":"U1492Z2","name":"Pod nemocnicí","arrival_time":"14:26:00","departure_time":"14:26:00","lat":49.172338,"lon":16.569417,"is_passed":false},{"stop_id":"U1472Z8","name":"Osová","arrival_time":"14:27:00","departure_time":"14:27:00","lat":49.168617,"lon":16.566306,"is_passed":false},{"stop_id":"U1273Z2","name":"Kosmonautů","arrival_time":"14:27:00","departure_time":"14:27:00","lat":49.167124,"lon":16.56745,"is_passed":false},{"stop_id":"U1627Z1","name":"Svah","arrival_time":"14:28:00","departure_time":"14:28:00","lat":49.165199,"lon":16.567969,"is_passed":false},{"stop_id":"U1061Z1","name":"Čermákova","arrival_time":"14:28:00","departure_time":"14:28:00","lat":49.164336,"lon":16.565516,"is_passed":false},{"stop_id":"U1666Z1","name":"Točná","arrival_time":"14:29:00","departure_time":"14:29:00","lat":49.16476,"lon":16.561692,"is_passed":false},{"stop_id":"U1687Z1","name":"U hřiště","arrival_time":"14:30:00","departure_time":"14:30:00","lat":49.166214,"lon":16.558668,"is_passed":false},{"stop_id":"U1097Z5","name":"Dunajská","arrival_time":"14:31:00","departure_time":"14:31:00","lat":49.169618,"lon":16.555308,"is_passed":false},{"stop_id":"U1616Z5","name":"Starý Lískovec, smyčka","arrival_time":"14:32:00","departure_time":"14:32:00","lat":49.172309,"lon":16.553313,"is_passed":false},{"stop_id":"U1202Z1","name":"Jemelkova","arrival_time":"14:33:00","departure_time":"14:33:00","lat":49.173333,"lon":16.548692,"is_passed":false},{"stop_id":"U1568Z1","name":"Skalní","arrival_time":"14:35:00","departure_time":"14:35:00","lat":49.174278,"lon":16.534362,"is_passed":false},{"stop_id":"U1161Z1","name":"Hoštická","arrival_time":"14:36:00","departure_time":"14:36:00","lat":49.173864,"lon":16.528044,"is_passed":false},{"stop_id":"U1037Z1","name":"Bosonohy","arrival_time":"14:38:00","departure_time":"15:12:00","lat":49.17652,"lon":16.525792,"is_passed":false}],"48102":[{"stop_id":"U1037Z2","name":"Bosonohy","arrival_time":"15:12:00","departure_time":"15:12:00","lat":49.176372,"lon":16.525514,"is_passed":false},{"stop_id":"U1161Z2","name":"Hoštická","arrival_time":"15:13:00","departure_time":"15:13:00","lat":49.173917,"lon":16.527822,"is_passed":false},{"stop_id":"U1516Z1","name":"Pražská","arrival_time":"15:14:00","departure_time":"15:14:00","lat":49.173478,"lon":16.531543,"is_passed":false},{"stop_id":"U1568Z2","name":"Skalní","arrival_time":"15:15:00","departure_time":"15:15:00","lat":49.174201,"lon":16.537903,"is_passed":false},{"stop_id":"U1202Z2","name":"Jemelkova","arrival_time":"15:16:00","departure_time":"15:16:00","lat":49.173163,"lon":16.54872,"is_passed":false},{"stop_id":"U1616Z4","name":"Starý Lískovec, smyčka","arrival_time":"15:18:00","departure_time":"15:18:00","lat":49.170615,"lon":16.55427,"is_passed":false},{"stop_id":"U1687Z2","name":"U hřiště","arrival_time":"15:19:00","departure_time":"15:19:00","lat":49.165806,"lon":16.558562,"is_passed":false},{"stop_id":"U1666Z2","name":"Točná","arrival_time":"15:20:00","departure_time":"15:20:00","lat":49.164745,"lon":16.561481,"is_passed":false},{"stop_id":"U1061Z2","name":"Čermákova","arrival_time":"15:21:00","departure_time":"15:21:00","lat":49.164349,"lon":16.564689,"is_passed":false},{"stop_id":"U1627Z2","name":"Svah","arrival_time":"15:21:00","departure_time":"15:21:00","lat":49.164924,"lon":16.567717,"is_passed":false},{"stop_id":"U1273Z1","name":"Kosmonautů","arrival_time":"15:22:00","departure_time":"15:22:00","lat":49.167006,"lon":16.568017,"is_passed":false},{"stop_id":"U1472Z7","name":"Osová","arrival_time":"15:23:00","departure_time":"15:23:00","lat":49.168951,"lon":16.566714,"is_passed":false},{"stop_id":"U1492Z1","name":"Pod nemocnicí","arrival_time":"15:24:00","departure_time":"15:24:00","lat":49.172412,"lon":16.569624,"is_passed":false},{"stop_id":"U1429Z4","name":"Nemocnice Bohunice","arrival_time":"15:26:00","departure_time":"15:26:00","lat":49.176125,"lon":16.567246,"is_passed":false},{"stop_id":"U1610Z2","name":"Stará nemocnice","arrival_time":"15:29:00","departure_time":"15:29:00","lat":49.173436,"lon":16.577787,"is_passed":false},{"stop_id":"U1293Z6","name":"Krematorium","arrival_time":"15:30:00","departure_time":"15:30:00","lat":49.172826,"lon":16.590375,"is_passed":false},{"stop_id":"U1703Z6","name":"Ústřední hřbitov","arrival_time":"15:32:00","departure_time":"15:32:00","lat":49.170744,"lon":16.597612,"is_passed":false}],"48103":[{"stop_id":"U1703Z6","name":"Ústřední hřbitov","arrival_time":"15:32:00","departure_time":"15:32:00","lat":49.170744,"lon":16.597612,"is_passed":false},{"stop_id":"U1673Z1","name":"Traťová","arrival_time":"15:33:00","departure_time":"15:33:00","lat":49.163849,"lon":16.595255,"is_passed":false},{"stop_id":"U1122Z1","name":"Gruzínská","arrival_time":"15:35:00","departure_time":"15:35:00","lat":49.167041,"lon":16.586433,"is_passed":false},{"stop_id":"U1701Z1","name":"Ukrajinská","arrival_time":"15:36:00","departure_time":"15:36:00","lat":49.170325,"lon":16.585437,"is_passed":false},{"stop_id":"U1714Z2","name":"Uzbecká","arrival_time":"15:37:00","departure_time":"15:37:00","lat":49.172173,"lon":16.583374,"is_passed":false},{"stop_id":"U1411Z2","name":"Mýtná","arrival_time":"15:38:00","departure_time":"15:38:00","lat":49.175186,"lon":16.582128,"is_passed":false},{"stop_id":"U1222Z4","name":"Kamenice","arrival_time":"15:39:00","departure_time":"15:39:00","lat":49.177782,"lon":16.57232,"is_passed":false},{"stop_id":"U1699Z4","name":"Univerzitní kampus","arrival_time":"15:40:00","departure_time":"15:40:00","lat":49.17846,"lon":16.567533,"is_passed":false},{"stop_id":"U1624Z2","name":"Studentská","arrival_time":"15:41:00","departure_time":"15:41:00","lat":49.179291,"lon":16.570244,"is_passed":false},{"stop_id":"U1699Z2","name":"Univerzitní kampus","arrival_time":"15:43:00","departure_time":"15:43:00","lat":49.177455,"lon":16.567173,"is_passed":false},{"stop_id":"U1429Z5","name":"Nemocnice Bohunice","arrival_time":"15:44:00","departure_time":"15:44:00","lat":49.175206,"lon":16.56694,"is_passed":false},{"stop_id":"U1492Z2","name":"Pod nemocnicí","arrival_time":"15:46:00","departure_time":"15:46:00","lat":49.172338,"lon":16.569417,"is_passed":false},{"stop_id":"U1472Z8","name":"Osová","arrival_time":"15:47:00","departure_time":"15:47:00","lat":49.168617,"lon":16.566306,"is_passed":false},{"stop_id":"U1273Z2","name":"Kosmonautů","arrival_time":"15:47:00","departure_time":"15:47:00","lat":49.167124,"lon":16.56745,"is_passed":false},{"stop_id":"U1627Z1","name":"Svah","arrival_time":"15:48:00","departure_time":"15:48:00","lat":49.165199,"lon":16.567969,"is_passed":false},{"stop_id":"U1061Z1","name":"Čermákova","arrival_time":"15:48:00","departure_time":"15:48:00","lat":49.164336,"lon":16.565516,"is_passed":false},{"stop_id":"U1666Z1","name":"Točná","arrival_time":"15:49:00","departure_time":"15:49:00","lat":49.16476,"lon":16.561692,"is_passed":false},{"stop_id":"U1687Z1","name":"U hřiště","arrival_time":"15:50:00","departure_time":"15:50:00","lat":49.166214,"lon":16.558668,"is_passed":false},{"stop_id":"U1097Z5","name":"Dunajská","arrival_time":"15:51:00","departure_time":"15:51:00","lat":49.169618,"lon":16.555308,"is_passed":false},{"stop_id":"U1616Z5","name":"Starý Lískovec, smyčka","arrival_time":"15:52:00","departure_time":"15:52:00","lat":49.172309,"lon":16.553313,"is_passed":false},{"stop_id":"U1202Z1","name":"Jemelkova","arrival_time":"15:53:00","departure_time":"15:53:00","lat":49.173333,"lon":16.548692,"is_passed":false},{"stop_id":"U1568Z1","name":"Skalní","arrival_time":"15:55:00","departure_time":"15:55:00","lat":49.174278,"lon":16.534362,"is_passed":false},{"stop_id":"U1161Z1","name":"Hoštická","arrival_time":"15:56:00","departure_time":"15:56:00","lat":49.173864,"lon":16.528044,"is_passed":false},{"stop_id":"U1037Z1","name":"Bosonohy","arrival_time":"15:58:00","departure_time":"16:32:00","lat":49.17652,"lon":16.525792,"is_passed":false}],"48104":[{"stop_id":"U1037Z2","name":"Bosonohy","arrival_time":"16:32:00","departure_time":"16:32:00","lat":49.176372,"lon":16.525514,"is_passed":false},{"stop_id":"U1161Z2","name":"Hoštická","arrival_time":"16:33:00","departure_time":"16:33:00","lat":49.173917,"lon":16.527822,"is_passed":false},{"stop_id":"U1516Z1","name":"Pražská","arrival_time":"16:34:00","departure_time":"16:34:00","lat":49.173478,"lon":16.531543,"is_passed":false},{"stop_id":"U1568Z2","name":"Skalní","arrival_time":"16:35:00","departure_time":"16:35:00","lat":49.174201,"lon":16.537903,"is_passed":false},{"stop_id":"U1202Z2","name":"Jemelkova","arrival_time":"16:36:00","departure_time":"16:36:00","lat":49.173163,"lon":16.54872,"is_passed":false},{"stop_id":"U1616Z4","name":"Starý Lískovec, smyčka","arrival_time":"16:38:00","departure_time":"16:38:00","lat":49.170615,"lon":16.55427,"is_passed":false},{"stop_id":"U1687Z2","name":"U hřiště","arrival_time":"16:39:00","departure_time":"16:39:00","lat":49.165806,"lon":16.558562,"is_passed":false},{"stop_id":"U1666Z2","name":"Točná","arrival_time":"16:40:00","departure_time":"16:40:00","lat":49.164745,"lon":16.561481,"is_passed":false},{"stop_id":"U1061Z2","name":"Čermákova","arrival_time":"16:41:00","departure_time":"16:41:00","lat":49.164349,"lon":16.564689,"is_passed":false},{"stop_id":"U1627Z2","name":"Svah","arrival_time":"16:41:00","departure_time":"16:41:00","lat":49.164924,"lon":16.567717,"is_passed":false},{"stop_id":"U1273Z1","name":"Kosmonautů","arrival_time":"16:42:00","departure_time":"16:42:00","lat":49.167006,"lon":16.568017,"is_passed":false},{"stop_id":"U1472Z7","name":"Osová","arrival_time":"16:43:00","departure_time":"16:43:00","lat":49.168951,"lon":16.566714,"is_passed":false},{"stop_id":"U1492Z1","name":"Pod nemocnicí","arrival_time":"16:44:00","departure_time":"16:44:00","lat":49.172412,"lon":16.569624,"is_passed":false},{"stop_id":"U1429Z4","name":"Nemocnice Bohunice","arrival_time":"16:46:00","departure_time":"16:46:00","lat":49.176125,"lon":16.567246,"is_passed":false},{"stop_id":"U1610Z2","name":"Stará nemocnice","arrival_time":"16:49:00","departure_time":"16:49:00","lat":49.173436,"lon":16.577787,"is_passed":false},{"stop_id":"U1293Z6","name":"Krematorium","arrival_time":"16:50:00","departure_time":"16:50:00","lat":49.172826,"lon":16.590375,"is_passed":false},{"stop_id":"U1703Z6","name":"Ústřední hřbitov","arrival_time":"16:52:00","departure_time":"16:52:00","lat":49.170744,"lon":16.597612,"is_passed":false}],"48105":[{"stop_id":"U1703Z6","name":"Ústřední hřbitov","arrival_time":"16:52:00","departure_time":"16:52:00","lat":49.170744,"lon":16.597612,"is_passed":false},{"stop_id":"U1673Z1","name":"Traťová","arrival_time":"16:53:00","departure_time":"16:53:00","lat":49.163849,"lon":16.595255,"is_passed":false},{"stop_id":"U1122Z1","name":"Gruzínská","arrival_time":"16:55:00","departure_time":"16:55:00","lat":49.167041,"lon":16.586433,"is_passed":false},{"stop_id":"U1701Z1","name":"Ukrajinská","arrival_time":"16:56:00","departure_time":"16:56:00","lat":49.170325,"lon":16.585437,"is_passed":false},{"stop_id":"U1714Z2","name":"Uzbecká","arrival_time":"16:57:00","departure_time":"16:57:00","lat":49.172173,"lon":16.583374,"is_passed":false},{"stop_id":"U1411Z2","name":"Mýtná","arrival_time":"16:58:00","departure_time":"16:58:00","lat":49.175186,"lon":16.582128,"is_passed":false},{"stop_id":"U1222Z4","name":"Kamenice","arrival_time":"16:59:00","departure_time":"16:59:00","lat":49.177782,"lon":16.57232,"is_passed":false},{"stop_id":"U1699Z4","name":"Univerzitní kampus","arrival_time":"17:00:00","departure_time":"17:00:00","lat":49.17846,"lon":16.567533,"is_passed":false},{"stop_id":"U1624Z2","name":"Studentská","arrival_time":"17:01:00","departure_time":"17:01:00","lat":49.179291,"lon":16.570244,"is_passed":false},{"stop_id":"U1699Z2","name":"Univerzitní kampus","arrival_time":"17:03:00","departure_time":"17:03:00","lat":49.177455,"lon":16.567173,"is_passed":false},{"stop_id":"U1429Z5","name":"Nemocnice Bohunice","arrival_time":"17:04:00","departure_time":"17:04:00","lat":49.175206,"lon":16.56694,"is_passed":false},{"stop_id":"U1492Z2","name":"Pod nemocnicí","arrival_time":"17:06:00","departure_time":"17:06:00","lat":49.172338,"lon":16.569417,"is_passed":false},{"stop_id":"U1472Z8","name":"Osová","arrival_time":"17:07:00","departure_time":"17:07:00","lat":49.168617,"lon":16.566306,"is_passed":false},{"stop_id":"U1273Z2","name":"Kosmonautů","arrival_time":"17:07:00","departure_time":"17:07:00","lat":49.167124,"lon":16.56745,"is_passed":false},{"stop_id":"U1627Z1","name":"Svah","arrival_time":"17:08:00","departure_time":"17:08:00","lat":49.165199,"lon":16.567969,"is_passed":false},{"stop_id":"U1061Z1","name":"Čermákova","arrival_time":"17:08:00","departure_time":"17:08:00","lat":49.164336,"lon":16.565516,"is_passed":false},{"stop_id":"U1666Z1","name":"Točná","arrival_time":"17:09:00","departure_time":"17:09:00","lat":49.16476,"lon":16.561692,"is_passed":false},{"stop_id":"U1687Z1","name":"U hřiště","arrival_time":"17:10:00","departure_time":"17:10:00","lat":49.166214,"lon":16.558668,"is_passed":false},{"stop_id":"U1097Z5","name":"Dunajská","arrival_time":"17:11:00","departure_time":"17:11:00","lat":49.169618,"lon":16.555308,"is_passed":false},{"stop_id":"U1616Z5","name":"Starý Lískovec, smyčka","arrival_time":"17:12:00","departure_time":"17:12:00","lat":49.172309,"lon":16.553313,"is_passed":false},{"stop_id":"U1202Z1","name":"Jemelkova","arrival_time":"17:13:00","departure_time":"17:13:00","lat":49.173333,"lon":16.548692,"is_passed":false},{"stop_id":"U1568Z1","name":"Skalní","arrival_time":"17:15:00","departure_time":"17:15:00","lat":49.174278,"lon":16.534362,"is_passed":false},{"stop_id":"U1161Z1","name":"Hoštická","arrival_time":"17:16:00","departure_time":"17:16:00","lat":49.173864,"lon":16.528044,"is_passed":false},{"stop_id":"U1037Z1","name":"Bosonohy","arrival_time":"17:18:00","departure_time":"17:52:00","lat":49.17652,"lon":16.525792,"is_passed":false}],"48106":[{"stop_id":"U1037Z2","name":"Bosonohy","arrival_time":"17:52:00","departure_time":"17:52:00","lat":49.176372,"lon":16.525514,"is_passed":false},{"stop_id":"U1161Z2","name":"Hoštická","arrival_time":"17:53:00","departure_time":"17:53:00","lat":49.173917,"lon":16.527822,"is_passed":false},{"stop_id":"U1516Z1","name":"Pražská","arrival_time":"17:54:00","departure_time":"17:54:00","lat":49.173478,"lon":16.531543,"is_passed":false},{"stop_id":"U1568Z2","name":"Skalní","arrival_time":"17:55:00","departure_time":"17:55:00","lat":49.174201,"lon":16.537903,"is_passed":false},{"stop_id":"U1202Z2","name":"Jemelkova","arrival_time":"17:56:00","departure_time":"17:56:00","lat":49.173163,"lon":16.54872,"is_passed":false},{"stop_id":"U1616Z4","name":"Starý Lískovec, smyčka","arrival_time":"17:58:00","departure_time":"17:58:00","lat":49.170615,"lon":16.55427,"is_passed":false},{"stop_id":"U1687Z2","name":"U hřiště","arrival_time":"17:59:00","departure_time":"17:59:00","lat":49.165806,"lon":16.558562,"is_passed":false},{"stop_id":"U1666Z2","name":"Točná","arrival_time":"18:00:00","departure_time":"18:00:00","lat":49.164745,"lon":16.561481,"is_passed":false},{"stop_id":"U1061Z2","name":"Čermákova","arrival_time":"18:01:00","departure_time":"18:01:00","lat":49.164349,"lon":16.564689,"is_passed":false},{"stop_id":"U1627Z2","name":"Svah","arrival_time":"18:01:00","departure_time":"18:01:00","lat":49.164924,"lon":16.567717,"is_passed":false},{"stop_id":"U1273Z1","name":"Kosmonautů","arrival_time":"18:02:00","departure_time":"18:02:00","lat":49.167006,"lon":16.568017,"is_passed":false},{"stop_id":"U1472Z7","name":"Osová","arrival_time":"18:03:00","departure_time":"18:03:00","lat":49.168951,"lon":16.566714,"is_passed":false},{"stop_id":"U1492Z1","name":"Pod nemocnicí","arrival_time":"18:04:00","departure_time":"18:04:00","lat":49.172412,"lon":16.569624,"is_passed":false},{"stop_id":"U1429Z4","name":"Nemocnice Bohunice","arrival_time":"18:06:00","departure_time":"18:06:00","lat":49.176125,"lon":16.567246,"is_passed":false},{"stop_id":"U1610Z2","name":"Stará nemocnice","arrival_time":"18:09:00","departure_time":"18:09:00","lat":49.173436,"lon":16.577787,"is_passed":false},{"stop_id":"U1293Z6","name":"Krematorium","arrival_time":"18:10:00","departure_time":"18:10:00","lat":49.172826,"lon":16.590375,"is_passed":false},{"stop_id":"U1703Z6","name":"Ústřední hřbitov","arrival_time":"18:12:00","departure_time":"18:12:00","lat":49.170744,"lon":16.597612,"is_passed":false}],"48107":[{"stop_id":"U1703Z6","name":"Ústřední hřbitov","arrival_time":"18:12:00","departure_time":"18:12:00","lat":49.170744,"lon":16.597612,"is_passed":false},{"stop_id":"U1673Z1","name":"Traťová","arrival_time":"18:13:00","departure_time":"18:13:00","lat":49.163849,"lon":16.595255,"is_passed":false},{"stop_id":"U1122Z1","name":"Gruzínská","arrival_time":"18:15:00","departure_time":"18:15:00","lat":49.167041,"lon":16.586433,"is_passed":false},{"stop_id":"U1701Z1","name":"Ukrajinská","arrival_time":"18:16:00","departure_time":"18:16:00","lat":49.170325,"lon":16.585437,"is_passed":false},{"stop_id":"U1714Z2","name":"Uzbecká","arrival_time":"18:17:00","departure_time":"18:17:00","lat":49.172173,"lon":16.583374,"is_passed":false},{"stop_id":"U1411Z2","name":"Mýtná","arrival_time":"18:18:00","departure_time":"18:18:00","lat":49.175186,"lon":16.582128,"is_passed":false},{"stop_id":"U1222Z4","name":"Kamenice","arrival_time":"18:19:00","departure_time":"18:19:00","lat":49.177782,"lon":16.57232,"is_passed":false},{"stop_id":"U1699Z4","name":"Univerzitní kampus","arrival_time":"18:20:00","departure_time":"18:20:00","lat":49.17846,"lon":16.567533,"is_passed":false},{"stop_id":"U1624Z2","name":"Studentská","arrival_time":"18:21:00","departure_time":"18:21:00","lat":49.179291,"lon":16.570244,"is_passed":false},{"stop_id":"U1699Z2","name":"Univerzitní kampus","arrival_time":"18:23:00","departure_time":"18:23:00","lat":49.177455,"lon":16.567173,"is_passed":false},{"stop_id":"U1429Z5","name":"Nemocnice Bohunice","arrival_time":"18:24:00","departure_time":"18:24:00","lat":49.175206,"lon":16.56694,"is_passed":false},{"stop_id":"U1492Z2","name":"Pod nemocnicí","arrival_time":"18:26:00","departure_time":"18:26:00","lat":49.172338,"lon":16.569417,"is_passed":false},{"stop_id":"U1472Z8","name":"Osová","arrival_time":"18:27:00","departure_time":"18:27:00","lat":49.168617,"lon":16.566306,"is_passed":false},{"stop_id":"U1273Z2","name":"Kosmonautů","arrival_time":"18:27:00","departure_time":"18:27:00","lat":49.167124,"lon":16.56745,"is_passed":false},{"stop_id":"U1627Z1","name":"Svah","arrival_time":"18:28:00","departure_time":"18:28:00","lat":49.165199,"lon":16.567969,"is_passed":false},{"stop_id":"U1061Z1","name":"Čermákova","arrival_time":"18:28:00","departure_time":"18:28:00","lat":49.164336,"lon":16.565516,"is_passed":false},{"stop_id":"U1666Z1","name":"Točná","arrival_time":"18:29:00","departure_time":"18:29:00","lat":49.16476,"lon":16.561692,"is_passed":false},{"stop_id":"U1687Z1","name":"U hřiště","arrival_time":"18:30:00","departure_time":"18:30:00","lat":49.166214,"lon":16.558668,"is_passed":false},{"stop_id":"U1097Z5","name":"Dunajská","arrival_time":"18:31:00","departure_time":"18:31:00","lat":49.169618,"lon":16.555308,"is_passed":false},{"stop_id":"U1616Z5","name":"Starý Lískovec, smyčka","arrival_time":"18:32:00","departure_time":"18:32:00","lat":49.172309,"lon":16.553313,"is_passed":false},{"stop_id":"U1202Z1","name":"Jemelkova","arrival_time":"18:33:00","departure_time":"18:33:00","lat":49.173333,"lon":16.548692,"is_passed":false},{"stop_id":"U1568Z1","name":"Skalní","arrival_time":"18:35:00","departure_time":"18:35:00","lat":49.174278,"lon":16.534362,"is_passed":false},{"stop_id":"U1161Z1","name":"Hoštická","arrival_time":"18:36:00","departure_time":"18:36:00","lat":49.173864,"lon":16.528044,"is_passed":false},{"stop_id":"U1037Z1","name":"Bosonohy","arrival_time":"18:38:00","departure_time":"19:12:00","lat":49.17652,"lon":16.525792,"is_passed":false}],"48108":[{"stop_id":"U1037Z2","name":"Bosonohy","arrival_time":"19:12:00","departure_time":"19:12:00","lat":49.176372,"lon":16.525514,"is_passed":false},{"stop_id":"U1161Z2","name":"Hoštická","arrival_time":"19:13:00","departure_time":"19:13:00","lat":49.173917,"lon":16.527822,"is_passed":false},{"stop_id":"U1516Z1","name":"Pražská","arrival_time":"19:14:00","departure_time":"19:14:00","lat":49.173478,"lon":16.531543,"is_passed":false},{"stop_id":"U1568Z2","name":"Skalní","arrival_time":"19:15:00","departure_time":"19:15:00","lat":49.174201,"lon":16.537903,"is_passed":false},{"stop_id":"U1202Z2","name":"Jemelkova","arrival_time":"19:16:00","departure_time":"19:16:00","lat":49.173163,"lon":16.54872,"is_passed":false},{"stop_id":"U1616Z4","name":"Starý Lískovec, smyčka","arrival_time":"19:18:00","departure_time":"19:18:00","lat":49.170615,"lon":16.55427,"is_passed":false},{"stop_id":"U1687Z2","name":"U hřiště","arrival_time":"19:19:00","departure_time":"19:19:00","lat":49.165806,"lon":16.558562,"is_passed":false},{"stop_id":"U1666Z2","name":"Točná","arrival_time":"19:20:00","departure_time":"19:20:00","lat":49.164745,"lon":16.561481,"is_passed":false},{"stop_id":"U1061Z2","name":"Čermákova","arrival_time":"19:21:00","departure_time":"19:21:00","lat":49.164349,"lon":16.564689,"is_passed":false},{"stop_id":"U1627Z2","name":"Svah","arrival_time":"19:21:00","departure_time":"19:21:00","lat":49.164924,"lon":16.567717,"is_passed":false},{"stop_id":"U1273Z1","name":"Kosmonautů","arrival_time":"19:22:00","departure_time":"19:22:00","lat":49.167006,"lon":16.568017,"is_passed":false},{"stop_id":"U1472Z7","name":"Osová","arrival_time":"19:23:00","departure_time":"19:23:00","lat":49.168951,"lon":16.566714,"is_passed":false},{"stop_id":"U1492Z1","name":"Pod nemocnicí","arrival_time":"19:24:00","departure_time":"19:24:00","lat":49.172412,"lon":16.569624,"is_passed":false},{"stop_id":"U1429Z4","name":"Nemocnice Bohunice","arrival_time":"19:26:00","departure_time":"19:26:00","lat":49.176125,"lon":16.567246,"is_passed":false},{"stop_id":"U1610Z2","name":"Stará nemocnice","arrival_time":"19:29:00","departure_time":"19:29:00","lat":49.173436,"lon":16.577787,"is_passed":false},{"stop_id":"U1293Z6","name":"Krematorium","arrival_time":"19:30:00","departure_time":"19:30:00","lat":49.172826,"lon":16.590375,"is_passed":false},{"stop_id":"U1703Z6","name":"Ústřední hřbitov","arrival_time":"19:32:00","departure_time":"19:32:00","lat":49.170744,"lon":16.597612,"is_passed":false}],"48109":[{"stop_id":"U1703Z6","name":"Ústřední hřbitov","arrival_time":"19:32:00","departure_time":"19:32:00","lat":49.170744,"lon":16.597612,"is_passed":false},{"stop_id":"U1673Z1","name":"Traťová","arrival_time":"19:33:00","departure_time":"19:33:00","lat":49.163849,"lon":16.595255,"is_passed":false},{"stop_id":"U1122Z1","name":"Gruzínská","arrival_time":"19:35:00","departure_time":"19:35:00","lat":49.167041,"lon":16.586433,"is_passed":false},{"stop_id":"U1701Z1","name":"Ukrajinská","arrival_time":"19:36:00","departure_time":"19:36:00","lat":49.170325,"lon":16.585437,"is_passed":false},{"stop_id":"U1714Z2","name":"Uzbecká","arrival_time":"19:37:00","departure_time":"19:37:00","lat":49.172173,"lon":16.583374,"is_passed":false},{"stop_id":"U1411Z2","name":"Mýtná","arrival_time":"19:38:00","departure_time":"19:38:00","lat":49.175186,"lon":16.582128,"is_passed":false},{"stop_id":"U1222Z4","name":"Kamenice","arrival_time":"19:39:00","departure_time":"19:39:00","lat":49.177782,"lon":16.57232,"is_passed":false},{"stop_id":"U1699Z4","name":"Univerzitní kampus","arrival_time":"19:40:00","departure_time":"19:40:00","lat":49.17846,"lon":16.567533,"is_passed":false},{"stop_id":"U1624Z2","name":"Studentská","arrival_time":"19:41:00","departure_time":"19:41:00","lat":49.179291,"lon":16.570244,"is_passed":false},{"stop_id":"U1699Z2","name":"Univerzitní kampus","arrival_time":"19:43:00","departure_time":"19:43:00","lat":49.177455,"lon":16.567173,"is_passed":false},{"stop_id":"U1429Z5","name":"Nemocnice Bohunice","arrival_time":"19:44:00","departure_time":"19:44:00","lat":49.175206,"lon":16.56694,"is_passed":false},{"stop_id":"U1492Z2","name":"Pod nemocnicí","arrival_time":"19:46:00","departure_time":"19:46:00","lat":49.172338,"lon":16.569417,"is_passed":false},{"stop_id":"U1472Z8","name":"Osová","arrival_time":"19:47:00","departure_time":"19:47:00","lat":49.168617,"lon":16.566306,"is_passed":false},{"stop_id":"U1273Z2","name":"Kosmonautů","arrival_time":"19:47:00","departure_time":"19:47:00","lat":49.167124,"lon":16.56745,"is_passed":false},{"stop_id":"U1627Z1","name":"Svah","arrival_time":"19:48:00","departure_time":"19:48:00","lat":49.165199,"lon":16.567969,"is_passed":false},{"stop_id":"U1061Z1","name":"Čermákova","arrival_time":"19:48:00","departure_time":"19:48:00","lat":49.164336,"lon":16.565516,"is_passed":false},{"stop_id":"U1666Z1","name":"Točná","arrival_time":"19:49:00","departure_time":"19:49:00","lat":49.16476,"lon":16.561692,"is_passed":false},{"stop_id":"U1687Z1","name":"U hřiště","arrival_time":"19:50:00","departure_time":"19:50:00","lat":49.166214,"lon":16.558668,"is_passed":false},{"stop_id":"U1097Z5","name":"Dunajská","arrival_time":"19:51:00","departure_time":"19:51:00","lat":49.169618,"lon":16.555308,"is_passed":false},{"stop_id":"U1616Z5","name":"Starý Lískovec, smyčka","arrival_time":"19:52:00","departure_time":"19:52:00","lat":49.172309,"lon":16.553313,"is_passed":false},{"stop_id":"U1202Z1","name":"Jemelkova","arrival_time":"19:53:00","departure_time":"19:53:00","lat":49.173333,"lon":16.548692,"is_passed":false},{"stop_id":"U1568Z1","name":"Skalní","arrival_time":"19:55:00","departure_time":"19:55:00","lat":49.174278,"lon":16.534362,"is_passed":false},{"stop_id":"U1161Z1","name":"Hoštická","arrival_time":"19:56:00","departure_time":"19:56:00","lat":49.173864,"lon":16.528044,"is_passed":false},{"stop_id":"U1037Z1","name":"Bosonohy","arrival_time":"19:58:00","departure_time":"20:12:00","lat":49.17652,"lon":16.525792,"is_passed":false}],"48110":[{"stop_id":"U1037Z2","name":"Bosonohy","arrival_time":"20:12:00","departure_time":"20:12:00","lat":49.176372,"lon":16.525514,"is_passed":false},{"stop_id":"U1161Z2","name":"Hoštická","arrival_time":"20:13:00","departure_time":"20:13:00","lat":49.173917,"lon":16.527822,"is_passed":false},{"stop_id":"U1516Z1","name":"Pražská","arrival_time":"20:14:00","departure_time":"20:14:00","lat":49.173478,"lon":16.531543,"is_passed":false},{"stop_id":"U1568Z2","name":"Skalní","arrival_time":"20:15:00","departure_time":"20:15:00","lat":49.174201,"lon":16.537903,"is_passed":false},{"stop_id":"U1202Z2","name":"Jemelkova","arrival_time":"20:16:00","departure_time":"20:16:00","lat":49.173163,"lon":16.54872,"is_passed":false},{"stop_id":"U1616Z4","name":"Starý Lískovec, smyčka","arrival_time":"20:18:00","departure_time":"20:18:00","lat":49.170615,"lon":16.55427,"is_passed":false},{"stop_id":"U1687Z2","name":"U hřiště","arrival_time":"20:19:00","departure_time":"20:19:00","lat":49.165806,"lon":16.558562,"is_passed":false},{"stop_id":"U1666Z2","name":"Točná","arrival_time":"20:20:00","departure_time":"20:20:00","lat":49.164745,"lon":16.561481,"is_passed":false},{"stop_id":"U1061Z2","name":"Čermákova","arrival_time":"20:21:00","departure_time":"20:21:00","lat":49.164349,"lon":16.564689,"is_passed":false},{"stop_id":"U1627Z2","name":"Svah","arrival_time":"20:21:00","departure_time":"20:21:00","lat":49.164924,"lon":16.567717,"is_passed":false},{"stop_id":"U1273Z1","name":"Kosmonautů","arrival_time":"20:22:00","departure_time":"20:22:00","lat":49.167006,"lon":16.568017,"is_passed":false},{"stop_id":"U1472Z7","name":"Osová","arrival_time":"20:23:00","departure_time":"20:23:00","lat":49.168951,"lon":16.566714,"is_passed":false},{"stop_id":"U1492Z1","name":"Pod nemocnicí","arrival_time":"20:24:00","departure_time":"20:24:00","lat":49.172412,"lon":16.569624,"is_passed":false},{"stop_id":"U1429Z4","name":"Nemocnice Bohunice","arrival_time":"20:26:00","departure_time":"20:26:00","lat":49.176125,"lon":16.567246,"is_passed":false},{"stop_id":"U1699Z3","name":"Univerzitní kampus","arrival_time":"20:27:00","departure_time":"20:27:00","lat":49.177902,"lon":16.568335,"is_passed":false},{"stop_id":"U1222Z3","name":"Kamenice","arrival_time":"20:28:00","departure_time":"20:28:00","lat":49.177622,"lon":16.573805,"is_passed":false},{"stop_id":"U1411Z1","name":"Mýtná","arrival_time":"20:29:00","departure_time":"20:29:00","lat":49.175033,"lon":16.582359,"is_passed":false},{"stop_id":"U1714Z1","name":"Uzbecká","arrival_time":"20:30:00","departure_time":"20:30:00","lat":49.172343,"lon":16.583318,"is_passed":false},{"stop_id":"U1701Z2","name":"Ukrajinská","arrival_time":"20:31:00","departure_time":"20:31:00","lat":49.170541,"lon":16.584623,"is_passed":false},{"stop_id":"U1122Z2","name":"Gruzínská","arrival_time":"20:32:00","departure_time":"20:32:00","lat":49.166633,"lon":16.586336,"is_passed":false},{"stop_id":"U1774Z2","name":"Za hřbitovem","arrival_time":"20:32:00","departure_time":"20:32:00","lat":49.164318,"lon":16.591448,"is_passed":false},{"stop_id":"U1673Z2","name":"Traťová","arrival_time":"20:33:00","departure_time":"20:33:00","lat":49.163623,"lon":16.595954,"is_passed":false},{"stop_id":"U1031Z6","name":"Bohunická","arrival_time":"20:34:00","departure_time":"20:34:00","lat":49.162697,"lon":16.600443,"is_passed":false},{"stop_id":"U1703Z7","name":"Ústřední hřbitov","arrival_time":"20:36:00","departure_time":"20:36:00","lat":49.170741,"lon":16.597834,"is_passed":false}],"48111":[{"stop_id":"U1703Z7","name":"Ústřední hřbitov","arrival_time":"20:36:00","departure_time":"20:36:00","lat":49.170741,"lon":16.597834,"is_passed":false},{"stop_id":"U1293Z5","name":"Krematorium","arrival_time":"20:37:00","departure_time":"20:37:00","lat":49.172914,"lon":16.590082,"is_passed":false},{"stop_id":"U1714Z3","name":"Uzbecká","arrival_time":"20:38:00","departure_time":"20:38:00","lat":49.173362,"lon":16.581961,"is_passed":false},{"stop_id":"U1610Z1","name":"Stará nemocnice","arrival_time":"20:39:00","departure_time":"20:39:00","lat":49.173643,"lon":16.577115,"is_passed":false},{"stop_id":"U1699Z2","name":"Univerzitní kampus","arrival_time":"20:42:00","departure_time":"20:42:00","lat":49.177455,"lon":16.567173,"is_passed":false},{"stop_id":"U1429Z5","name":"Nemocnice Bohunice","arrival_time":"20:43:00","departure_time":"20:43:00","lat":49.175206,"lon":16.56694,"is_passed":false},{"stop_id":"U1492Z2","name":"Pod nemocnicí","arrival_time":"20:45:00","departure_time":"20:45:00","lat":49.172338,"lon":16.569417,"is_passed":false},{"stop_id":"U1472Z8","name":"Osová","arrival_time":"20:46:00","departure_time":"20:46:00","lat":49.168617,"lon":16.566306,"is_passed":false},{"stop_id":"U1273Z2","name":"Kosmonautů","arrival_time":"20:46:00","departure_time":"20:46:00","lat":49.167124,"lon":16.56745,"is_passed":false},{"stop_id":"U1627Z1","name":"Svah","arrival_time":"20:47:00","departure_time":"20:47:00","lat":49.165199,"lon":16.567969,"is_passed":false},{"stop_id":"U1061Z1","name":"Čermákova","arrival_time":"20:47:00","departure_time":"20:47:00","lat":49.164336,"lon":16.565516,"is_passed":false},{"stop_id":"U1666Z1","name":"Točná","arrival_time":"20:48:00","departure_time":"20:48:00","lat":49.16476,"lon":16.561692,"is_passed":false},{"stop_id":"U1687Z1","name":"U hřiště","arrival_time":"20:48:00","departure_time":"20:48:00","lat":49.166214,"lon":16.558668,"is_passed":false},{"stop_id":"U1097Z5","name":"Dunajská","arrival_time":"20:49:00","departure_time":"20:49:00","lat":49.169618,"lon":16.555308,"is_passed":false},{"stop_id":"U1616Z5","name":"Starý Lískovec, smyčka","arrival_time":"20:50:00","departure_time":"20:50:00","lat":49.172309,"lon":16.553313,"is_passed":false},{"stop_id":"U1202Z1","name":"Jemelkova","arrival_time":"20:51:00","departure_time":"20:51:00","lat":49.173333,"lon":16.548692,"is_passed":false},{"stop_id":"U1568Z1","name":"Skalní","arrival_time":"20:53:00","departure_time":"20:53:00","lat":49.174278,"lon":16.534362,"is_passed":false},{"stop_id":"U1161Z1","name":"Hoštická","arrival_time":"20:54:00","departure_time":"20:54:00","lat":49.173864,"lon":16.528044,"is_passed":false},{"stop_id":"U1037Z1","name":"Bosonohy","arrival_time":"20:56:00","departure_time":"21:37:00","lat":49.17652,"lon":16.525792,"is_passed":false}],"48112":[{"stop_id":"U1037Z2","name":"Bosonohy","arrival_time":"21:37:00","departure_time":"21:37:00","lat":49.176372,"lon":16.525514,"is_passed":false},{"stop_id":"U1161Z2","name":"Hoštická","arrival_time":"21:38:00","departure_time":"21:38:00","lat":49.173917,"lon":16.527822,"is_passed":false},{"stop_id":"U1516Z1","name":"Pražská","arrival_time":"21:39:00","departure_time":"21:39:00","lat":49.173478,"lon":16.531543,"is_passed":false},{"stop_id":"U1568Z2","name":"Skalní","arrival_time":"21:40:00","departure_time":"21:40:00","lat":49.174201,"lon":16.537903,"is_passed":false},{"stop_id":"U1202Z2","name":"Jemelkova","arrival_time":"21:41:00","departure_time":"21:41:00","lat":49.173163,"lon":16.54872,"is_passed":false},{"stop_id":"U1616Z4","name":"Starý Lískovec, smyčka","arrival_time":"21:42:00","departure_time":"21:42:00","lat":49.170615,"lon":16.55427,"is_passed":false},{"stop_id":"U1687Z2","name":"U hřiště","arrival_time":"21:43:00","departure_time":"21:43:00","lat":49.165806,"lon":16.558562,"is_passed":false},{"stop_id":"U1666Z2","name":"Točná","arrival_time":"21:44:00","departure_time":"21:44:00","lat":49.164745,"lon":16.561481,"is_passed":false},{"stop_id":"U1061Z2","name":"Čermákova","arrival_time":"21:45:00","departure_time":"21:45:00","lat":49.164349,"lon":16.564689,"is_passed":false},{"stop_id":"U1627Z2","name":"Svah","arrival_time":"21:45:00","departure_time":"21:45:00","lat":49.164924,"lon":16.567717,"is_passed":false},{"stop_id":"U1273Z1","name":"Kosmonautů","arrival_time":"21:46:00","departure_time":"21:46:00","lat":49.167006,"lon":16.568017,"is_passed":false},{"stop_id":"U1472Z7","name":"Osová","arrival_time":"21:47:00","departure_time":"21:47:00","lat":49.168951,"lon":16.566714,"is_passed":false},{"stop_id":"U1492Z1","name":"Pod nemocnicí","arrival_time":"21:48:00","departure_time":"21:48:00","lat":49.172412,"lon":16.569624,"is_passed":false},{"stop_id":"U1429Z4","name":"Nemocnice Bohunice","arrival_time":"21:50:00","departure_time":"21:50:00","lat":49.176125,"lon":16.567246,"is_passed":false},{"stop_id":"U1610Z2","name":"Stará nemocnice","arrival_time":"21:53:00","departure_time":"21:53:00","lat":49.173436,"lon":16.577787,"is_passed":false},{"stop_id":"U1293Z6","name":"Krematorium","arrival_time":"21:54:00","departure_time":"21:54:00","lat":49.172826,"lon":16.590375,"is_passed":false},{"stop_id":"U1703Z6","name":"Ústřední hřbitov","arrival_time":"21:56:00","departure_time":"21:56:00","lat":49.170744,"lon":16.597612,"is_passed":false}],"48113":[{"stop_id":"U1703Z6","name":"Ústřední hřbitov","arrival_time":"21:56:00","departure_time":"21:56:00","lat":49.170744,"lon":16.597612,"is_passed":false},{"stop_id":"U1673Z1","name":"Traťová","arrival_time":"21:57:00","departure_time":"21:57:00","lat":49.163849,"lon":16.595255,"is_passed":false},{"stop_id":"U1122Z1","name":"Gruzínská","arrival_time":"21:58:00","departure_time":"21:58:00","lat":49.167041,"lon":16.586433,"is_passed":false},{"stop_id":"U1701Z1","name":"Ukrajinská","arrival_time":"21:59:00","departure_time":"21:59:00","lat":49.170325,"lon":16.585437,"is_passed":false},{"stop_id":"U1714Z2","name":"Uzbecká","arrival_time":"22:00:00","departure_time":"22:00:00","lat":49.172173,"lon":16.583374,"is_passed":false},{"stop_id":"U1411Z2","name":"Mýtná","arrival_time":"22:01:00","departure_time":"22:01:00","lat":49.175186,"lon":16.582128,"is_passed":false},{"stop_id":"U1222Z4","name":"Kamenice","arrival_time":"22:02:00","departure_time":"22:02:00","lat":49.177782,"lon":16.57232,"is_passed":false},{"stop_id":"U1699Z4","name":"Univerzitní kampus","arrival_time":"22:03:00","departure_time":"22:03:00","lat":49.17846,"lon":16.567533,"is_passed":false},{"stop_id":"U1624Z2","name":"Studentská","arrival_time":"22:04:00","departure_time":"22:04:00","lat":49.179291,"lon":16.570244,"is_passed":false},{"stop_id":"U1699Z2","name":"Univerzitní kampus","arrival_time":"22:06:00","departure_time":"22:06:00","lat":49.177455,"lon":16.567173,"is_passed":false},{"stop_id":"U1429Z5","name":"Nemocnice Bohunice","arrival_time":"22:07:00","departure_time":"22:07:00","lat":49.175206,"lon":16.56694,"is_passed":false},{"stop_id":"U1492Z2","name":"Pod nemocnicí","arrival_time":"22:09:00","departure_time":"22:09:00","lat":49.172338,"lon":16.569417,"is_passed":false},{"stop_id":"U1472Z8","name":"Osová","arrival_time":"22:10:00","departure_time":"22:10:00","lat":49.168617,"lon":16.566306,"is_passed":false},{"stop_id":"U1273Z2","name":"Kosmonautů","arrival_time":"22:10:00","departure_time":"22:10:00","lat":49.167124,"lon":16.56745,"is_passed":false},{"stop_id":"U1627Z1","name":"Svah","arrival_time":"22:11:00","departure_time":"22:11:00","lat":49.165199,"lon":16.567969,"is_passed":false},{"stop_id":"U1061Z1","name":"Čermákova","arrival_time":"22:11:00","departure_time":"22:11:00","lat":49.164336,"lon":16.565516,"is_passed":false},{"stop_id":"U1666Z1","name":"Točná","arrival_time":"22:12:00","departure_time":"22:12:00","lat":49.16476,"lon":16.561692,"is_passed":false},{"stop_id":"U1687Z1","name":"U hřiště","arrival_time":"22:12:00","departure_time":"22:12:00","lat":49.166214,"lon":16.558668,"is_passed":false},{"stop_id":"U1097Z5","name":"Dunajská","arrival_time":"22:13:00","departure_time":"22:13:00","lat":49.169618,"lon":16.555308,"is_passed":false},{"stop_id":"U1616Z5","name":"Starý Lískovec, smyčka","arrival_time":"22:14:00","departure_time":"22:14:00","lat":49.172309,"lon":16.553313,"is_passed":false},{"stop_id":"U1202Z1","name":"Jemelkova","arrival_time":"22:15:00","departure_time":"22:15:00","lat":49.173333,"lon":16.548692,"is_passed":false},{"stop_id":"U1568Z1","name":"Skalní","arrival_time":"22:17:00","departure_time":"22:17:00","lat":49.174278,"lon":16.534362,"is_passed":false},{"stop_id":"U1161Z1","name":"Hoštická","arrival_time":"22:18:00","departure_time":"22:18:00","lat":49.173864,"lon":16.528044,"is_passed":false},{"stop_id":"U1037Z1","name":"Bosonohy","arrival_time":"22:20:00","departure_time":"22:22:00","lat":49.17652,"lon":16.525792,"is_passed":false}],"48114":[{"stop_id":"U1796Z7","name":"Zoologická zahrada","arrival_time":"22:43:00","departure_time":"22:43:00","lat":49.227823,"lon":16.531364,"is_passed":false},{"stop_id":"U1417Z1","name":"Náměstí 28. dubna","arrival_time":"22:44:00","departure_time":"22:44:00","lat":49.225188,"lon":16.531132,"is_passed":false},{"stop_id":"U1752Z1","name":"Vondrákova","arrival_time":"22:45:00","departure_time":"22:45:00","lat":49.221303,"lon":16.528376,"is_passed":false},{"stop_id":"U1771Z1","name":"Wollmanova","arrival_time":"22:46:00","departure_time":"22:46:00","lat":49.222275,"lon":16.522436,"is_passed":false},{"stop_id":"U1004Z1","name":"Adamcova","arrival_time":"22:47:00","departure_time":"22:47:00","lat":49.21825,"lon":16.520013,"is_passed":false},{"stop_id":"U1648Z1","name":"Štouračova","arrival_time":"22:48:00","departure_time":"22:48:00","lat":49.215562,"lon":16.521438,"is_passed":false},{"stop_id":"U1608Z1","name":"Stará dálnice","arrival_time":"22:50:00","departure_time":"22:50:00","lat":49.198733,"lon":16.517301,"is_passed":false},{"stop_id":"U1248Z1","name":"Kohoutovice, hájenka","arrival_time":"22:53:00","departure_time":"22:53:00","lat":49.19638,"lon":16.531386,"is_passed":false},{"stop_id":"U1017Z2","name":"Bellova","arrival_time":"22:54:00","departure_time":"22:54:00","lat":49.193898,"lon":16.53095,"is_passed":false},{"stop_id":"U1658Z2","name":"Talichova","arrival_time":"22:54:00","departure_time":"22:54:00","lat":49.191695,"lon":16.529784,"is_passed":false},{"stop_id":"U1481Z2","name":"Pavlovská","arrival_time":"22:55:00","departure_time":"22:55:00","lat":49.189569,"lon":16.531348,"is_passed":false},{"stop_id":"U1209Z3","name":"Jírovcova","arrival_time":"22:56:00","departure_time":"22:56:00","lat":49.187316,"lon":16.535309,"is_passed":false},{"stop_id":"U1223Z2","name":"Kamenný vrch","arrival_time":"22:58:00","departure_time":"22:58:00","lat":49.179747,"lon":16.547764,"is_passed":false},{"stop_id":"U1443Z2","name":"Oblá","arrival_time":"22:59:00","departure_time":"22:59:00","lat":49.177425,"lon":16.552647,"is_passed":false},{"stop_id":"U1263Z2","name":"Koniklecová","arrival_time":"23:00:00","departure_time":"23:00:00","lat":49.176417,"lon":16.559347,"is_passed":false},{"stop_id":"U1078Z3","name":"Čtvrtě","arrival_time":"23:01:00","departure_time":"23:01:00","lat":49.17821,"lon":16.563175,"is_passed":false},{"stop_id":"U1699Z2","name":"Univerzitní kampus","arrival_time":"23:02:00","departure_time":"23:02:00","lat":49.177455,"lon":16.567173,"is_passed":false},{"stop_id":"U1429Z5","name":"Nemocnice Bohunice","arrival_time":"23:03:00","departure_time":"23:03:00","lat":49.175206,"lon":16.56694,"is_passed":false},{"stop_id":"U1492Z2","name":"Pod nemocnicí","arrival_time":"23:05:00","departure_time":"23:05:00","lat":49.172338,"lon":16.569417,"is_passed":false},{"stop_id":"U1472Z8","name":"Osová","arrival_time":"23:06:00","departure_time":"23:06:00","lat":49.168617,"lon":16.566306,"is_passed":false},{"stop_id":"U1273Z2","name":"Kosmonautů","arrival_time":"23:06:00","departure_time":"23:06:00","lat":49.167124,"lon":16.56745,"is_passed":false},{"stop_id":"U1168Z2","name":"Humenná","arrival_time":"23:07:00","departure_time":"23:07:00","lat":49.167953,"lon":16.573664,"is_passed":false},{"stop_id":"U1763Z1","name":"Vyhlídalova","arrival_time":"23:08:00","departure_time":"23:08:00","lat":49.165385,"lon":16.577302,"is_passed":false},{"stop_id":"U1122Z4","name":"Gruzínská","arrival_time":"23:09:00","departure_time":"23:09:00","lat":49.166074,"lon":16.585383,"is_passed":false},{"stop_id":"U1774Z2","name":"Za hřbitovem","arrival_time":"23:10:00","departure_time":"23:10:00","lat":49.164318,"lon":16.591448,"is_passed":false},{"stop_id":"U1673Z2","name":"Traťová","arrival_time":"23:11:00","departure_time":"23:11:00","lat":49.163623,"lon":16.595954,"is_passed":false},{"stop_id":"U1031Z6","name":"Bohunická","arrival_time":"23:12:00","departure_time":"23:12:00","lat":49.162697,"lon":16.600443,"is_passed":false},{"stop_id":"U1275Z2","name":"Košuličova","arrival_time":"23:13:00","departure_time":"23:13:00","lat":49.164588,"lon":16.609917,"is_passed":false},{"stop_id":"U1156Z2","name":"Horní Heršpice","arrival_time":"23:14:00","departure_time":"23:14:00","lat":49.167029,"lon":16.616537,"is_passed":false},{"stop_id":"U1308Z2","name":"Kšírova","arrival_time":"23:15:00","departure_time":"23:15:00","lat":49.171726,"lon":16.615746,"is_passed":false},{"stop_id":"U1256Z6","name":"Komárov","arrival_time":"23:17:00","departure_time":"23:19:00","lat":49.174812,"lon":16.620877,"is_passed":false}],"48115":[{"stop_id":"U1037Z2","name":"Bosonohy","arrival_time":"10:12:00","departure_time":"10:12:00","lat":49.176372,"lon":16.525514,"is_passed":false},{"stop_id":"U1161Z2","name":"Hoštická","arrival_time":"10:13:00","departure_time":"10:13:00","lat":49.173917,"lon":16.527822,"is_passed":false},{"stop_id":"U1516Z1","name":"Pražská","arrival_time":"10:14:00","departure_time":"10:14:00","lat":49.173478,"lon":16.531543,"is_passed":false},{"stop_id":"U1568Z2","name":"Skalní","arrival_time":"10:15:00","departure_time":"10:15:00","lat":49.174201,"lon":16.537903,"is_passed":false},{"stop_id":"U1202Z2","name":"Jemelkova","arrival_time":"10:16:00","departure_time":"10:16:00","lat":49.173163,"lon":16.54872,"is_passed":false},{"stop_id":"U1616Z4","name":"Starý Lískovec, smyčka","arrival_time":"10:18:00","departure_time":"10:18:00","lat":49.170615,"lon":16.55427,"is_passed":false},{"stop_id":"U1687Z2","name":"U hřiště","arrival_time":"10:19:00","departure_time":"10:19:00","lat":49.165806,"lon":16.558562,"is_passed":false},{"stop_id":"U1666Z2","name":"Točná","arrival_time":"10:20:00","departure_time":"10:20:00","lat":49.164745,"lon":16.561481,"is_passed":false},{"stop_id":"U1061Z2","name":"Čermákova","arrival_time":"10:21:00","departure_time":"10:21:00","lat":49.164349,"lon":16.564689,"is_passed":false},{"stop_id":"U1627Z2","name":"Svah","arrival_time":"10:21:00","departure_time":"10:21:00","lat":49.164924,"lon":16.567717,"is_passed":false},{"stop_id":"U1273Z1","name":"Kosmonautů","arrival_time":"10:22:00","departure_time":"10:22:00","lat":49.167006,"lon":16.568017,"is_passed":false},{"stop_id":"U1472Z7","name":"Osová","arrival_time":"10:23:00","departure_time":"10:23:00","lat":49.168951,"lon":16.566714,"is_passed":false},{"stop_id":"U1492Z1","name":"Pod nemocnicí","arrival_time":"10:24:00","departure_time":"10:24:00","lat":49.172412,"lon":16.569624,"is_passed":false},{"stop_id":"U1429Z4","name":"Nemocnice Bohunice","arrival_time":"10:26:00","departure_time":"10:26:00","lat":49.176125,"lon":16.567246,"is_passed":false},{"stop_id":"U1699Z3","name":"Univerzitní kampus","arrival_time":"10:27:00","departure_time":"10:27:00","lat":49.177902,"lon":16.568335,"is_passed":false},{"stop_id":"U1222Z3","name":"Kamenice","arrival_time":"10:28:00","departure_time":"10:28:00","lat":49.177622,"lon":16.573805,"is_passed":false},{"stop_id":"U1411Z1","name":"Mýtná","arrival_time":"10:29:00","departure_time":"10:29:00","lat":49.175033,"lon":16.582359,"is_passed":false},{"stop_id":"U1714Z1","name":"Uzbecká","arrival_time":"10:30:00","departure_time":"10:30:00","lat":49.172343,"lon":16.583318,"is_passed":false},{"stop_id":"U1701Z2","name":"Ukrajinská","arrival_time":"10:31:00","departure_time":"10:31:00","lat":49.170541,"lon":16.584623,"is_passed":false},{"stop_id":"U1122Z2","name":"Gruzínská","arrival_time":"10:32:00","departure_time":"10:32:00","lat":49.166633,"lon":16.586336,"is_passed":false},{"stop_id":"U1774Z2","name":"Za hřbitovem","arrival_time":"10:32:00","departure_time":"10:32:00","lat":49.164318,"lon":16.591448,"is_passed":false},{"stop_id":"U1673Z2","name":"Traťová","arrival_time":"10:33:00","departure_time":"10:33:00","lat":49.163623,"lon":16.595954,"is_passed":false},{"stop_id":"U1031Z6","name":"Bohunická","arrival_time":"10:34:00","departure_time":"10:34:00","lat":49.162697,"lon":16.600443,"is_passed":false},{"stop_id":"U1703Z7","name":"Ústřední hřbitov","arrival_time":"10:36:00","departure_time":"10:36:00","lat":49.170741,"lon":16.597834,"is_passed":false}],"48116":[{"stop_id":"U1703Z7","name":"Ústřední hřbitov","arrival_time":"10:36:00","departure_time":"10:36:00","lat":49.170741,"lon":16.597834,"is_passed":false},{"stop_id":"U1293Z5","name":"Krematorium","arrival_time":"10:38:00","departure_time":"10:38:00","lat":49.172914,"lon":16.590082,"is_passed":false},{"stop_id":"U1714Z3","name":"Uzbecká","arrival_time":"10:39:00","departure_time":"10:39:00","lat":49.173362,"lon":16.581961,"is_passed":false},{"stop_id":"U1610Z1","name":"Stará nemocnice","arrival_time":"10:40:00","departure_time":"10:40:00","lat":49.173643,"lon":16.577115,"is_passed":false},{"stop_id":"U1699Z2","name":"Univerzitní kampus","arrival_time":"10:43:00","departure_time":"10:43:00","lat":49.177455,"lon":16.567173,"is_passed":false},{"stop_id":"U1429Z5","name":"Nemocnice Bohunice","arrival_time":"10:44:00","departure_time":"10:44:00","lat":49.175206,"lon":16.56694,"is_passed":false},{"stop_id":"U1492Z2","name":"Pod nemocnicí","arrival_time":"10:46:00","departure_time":"10:46:00","lat":49.172338,"lon":16.569417,"is_passed":false},{"stop_id":"U1472Z8","name":"Osová","arrival_time":"10:47:00","departure_time":"10:47:00","lat":49.168617,"lon":16.566306,"is_passed":false},{"stop_id":"U1273Z2","name":"Kosmonautů","arrival_time":"10:47:00","departure_time":"10:47:00","lat":49.167124,"lon":16.56745,"is_passed":false},{"stop_id":"U1627Z1","name":"Svah","arrival_time":"10:48:00","departure_time":"10:48:00","lat":49.165199,"lon":16.567969,"is_passed":false},{"stop_id":"U1061Z1","name":"Čermákova","arrival_time":"10:48:00","departure_time":"10:48:00","lat":49.164336,"lon":16.565516,"is_passed":false},{"stop_id":"U1666Z1","name":"Točná","arrival_time":"10:49:00","departure_time":"10:49:00","lat":49.16476,"lon":16.561692,"is_passed":false},{"stop_id":"U1687Z1","name":"U hřiště","arrival_time":"10:50:00","departure_time":"10:50:00","lat":49.166214,"lon":16.558668,"is_passed":false},{"stop_id":"U1097Z5","name":"Dunajská","arrival_time":"10:51:00","departure_time":"10:51:00","lat":49.169618,"lon":16.555308,"is_passed":false},{"stop_id":"U1616Z5","name":"Starý Lískovec, smyčka","arrival_time":"10:52:00","departure_time":"10:52:00","lat":49.172309,"lon":16.553313,"is_passed":false},{"stop_id":"U1202Z1","name":"Jemelkova","arrival_time":"10:53:00","departure_time":"10:53:00","lat":49.173333,"lon":16.548692,"is_passed":false},{"stop_id":"U1568Z1","name":"Skalní","arrival_time":"10:55:00","departure_time":"10:55:00","lat":49.174278,"lon":16.534362,"is_passed":false},{"stop_id":"U1161Z1","name":"Hoštická","arrival_time":"10:56:00","departure_time":"10:56:00","lat":49.173864,"lon":16.528044,"is_passed":false},{"stop_id":"U1037Z1","name":"Bosonohy","arrival_time":"10:58:00","departure_time":"11:32:00","lat":49.17652,"lon":16.525792,"is_passed":false}],"48117":[{"stop_id":"U1037Z2","name":"Bosonohy","arrival_time":"11:32:00","departure_time":"11:32:00","lat":49.176372,"lon":16.525514,"is_passed":false},{"stop_id":"U1161Z2","name":"Hoštická","arrival_time":"11:33:00","departure_time":"11:33:00","lat":49.173917,"lon":16.527822,"is_passed":false},{"stop_id":"U1516Z1","name":"Pražská","arrival_time":"11:34:00","departure_time":"11:34:00","lat":49.173478,"lon":16.531543,"is_passed":false},{"stop_id":"U1568Z2","name":"Skalní","arrival_time":"11:35:00","departure_time":"11:35:00","lat":49.174201,"lon":16.537903,"is_passed":false},{"stop_id":"U1202Z2","name":"Jemelkova","arrival_time":"11:36:00","departure_time":"11:36:00","lat":49.173163,"lon":16.54872,"is_passed":false},{"stop_id":"U1616Z4","name":"Starý Lískovec, smyčka","arrival_time":"11:38:00","departure_time":"11:38:00","lat":49.170615,"lon":16.55427,"is_passed":false},{"stop_id":"U1687Z2","name":"U hřiště","arrival_time":"11:39:00","departure_time":"11:39:00","lat":49.165806,"lon":16.558562,"is_passed":false},{"stop_id":"U1666Z2","name":"Točná","arrival_time":"11:40:00","departure_time":"11:40:00","lat":49.164745,"lon":16.561481,"is_passed":false},{"stop_id":"U1061Z2","name":"Čermákova","arrival_time":"11:41:00","departure_time":"11:41:00","lat":49.164349,"lon":16.564689,"is_passed":false},{"stop_id":"U1627Z2","name":"Svah","arrival_time":"11:41:00","departure_time":"11:41:00","lat":49.164924,"lon":16.567717,"is_passed":false},{"stop_id":"U1273Z1","name":"Kosmonautů","arrival_time":"11:42:00","departure_time":"11:42:00","lat":49.167006,"lon":16.568017,"is_passed":false},{"stop_id":"U1472Z7","name":"Osová","arrival_time":"11:43:00","departure_time":"11:43:00","lat":49.168951,"lon":16.566714,"is_passed":false},{"stop_id":"U1492Z1","name":"Pod nemocnicí","arrival_time":"11:44:00","departure_time":"11:44:00","lat":49.172412,"lon":16.569624,"is_passed":false},{"stop_id":"U1429Z4","name":"Nemocnice Bohunice","arrival_time":"11:46:00","departure_time":"11:46:00","lat":49.176125,"lon":16.567246,"is_passed":false},{"stop_id":"U1699Z3","name":"Univerzitní kampus","arrival_time":"11:47:00","departure_time":"11:47:00","lat":49.177902,"lon":16.568335,"is_passed":false},{"stop_id":"U1222Z3","name":"Kamenice","arrival_time":"11:48:00","departure_time":"11:48:00","lat":49.177622,"lon":16.573805,"is_passed":false},{"stop_id":"U1411Z1","name":"Mýtná","arrival_time":"11:49:00","departure_time":"11:49:00","lat":49.175033,"lon":16.582359,"is_passed":false},{"stop_id":"U1714Z1","name":"Uzbecká","arrival_time":"11:50:00","departure_time":"11:50:00","lat":49.172343,"lon":16.583318,"is_passed":false},{"stop_id":"U1701Z2","name":"Ukrajinská","arrival_time":"11:51:00","departure_time":"11:51:00","lat":49.170541,"lon":16.584623,"is_passed":false},{"stop_id":"U1122Z2","name":"Gruzínská","arrival_time":"11:52:00","departure_time":"11:52:00","lat":49.166633,"lon":16.586336,"is_passed":false},{"stop_id":"U1774Z2","name":"Za hřbitovem","arrival_time":"11:52:00","departure_time":"11:52:00","lat":49.164318,"lon":16.591448,"is_passed":false},{"stop_id":"U1673Z2","name":"Traťová","arrival_time":"11:53:00","departure_time":"11:53:00","lat":49.163623,"lon":16.595954,"is_passed":false},{"stop_id":"U1031Z6","name":"Bohunická","arrival_time":"11:54:00","departure_time":"11:54:00","lat":49.162697,"lon":16.600443,"is_passed":false},{"stop_id":"U1703Z7","name":"Ústřední hřbitov","arrival_time":"11:56:00","departure_time":"11:56:00","lat":49.170741,"lon":16.597834,"is_passed":false}],"48118":[{"stop_id":"U1703Z7","name":"Ústřední hřbitov","arrival_time":"11:56:00","departure_time":"11:56:00","lat":49.170741,"lon":16.597834,"is_passed":false},{"stop_id":"U1293Z5","name":"Krematorium","arrival_time":"11:58:00","departure_time":"11:58:00","lat":49.172914,"lon":16.590082,"is_passed":false},{"stop_id":"U1714Z3","name":"Uzbecká","arrival_time":"11:59:00","departure_time":"11:59:00","lat":49.173362,"lon":16.581961,"is_passed":false},{"stop_id":"U1610Z1","name":"Stará nemocnice","arrival_time":"12:00:00","departure_time":"12:00:00","lat":49.173643,"lon":16.577115,"is_passed":false},{"stop_id":"U1699Z2","name":"Univerzitní kampus","arrival_time":"12:03:00","departure_time":"12:03:00","lat":49.177455,"lon":16.567173,"is_passed":false},{"stop_id":"U1429Z5","name":"Nemocnice Bohunice","arrival_time":"12:04:00","departure_time":"12:04:00","lat":49.175206,"lon":16.56694,"is_passed":false},{"stop_id":"U1492Z2","name":"Pod nemocnicí","arrival_time":"12:06:00","departure_time":"12:06:00","lat":49.172338,"lon":16.569417,"is_passed":false},{"stop_id":"U1472Z8","name":"Osová","arrival_time":"12:07:00","departure_time":"12:07:00","lat":49.168617,"lon":16.566306,"is_passed":false},{"stop_id":"U1273Z2","name":"Kosmonautů","arrival_time":"12:07:00","departure_time":"12:07:00","lat":49.167124,"lon":16.56745,"is_passed":false},{"stop_id":"U1627Z1","name":"Svah","arrival_time":"12:08:00","departure_time":"12:08:00","lat":49.165199,"lon":16.567969,"is_passed":false},{"stop_id":"U1061Z1","name":"Čermákova","arrival_time":"12:08:00","departure_time":"12:08:00","lat":49.164336,"lon":16.565516,"is_passed":false},{"stop_id":"U1666Z1","name":"Točná","arrival_time":"12:09:00","departure_time":"12:09:00","lat":49.16476,"lon":16.561692,"is_passed":false},{"stop_id":"U1687Z1","name":"U hřiště","arrival_time":"12:10:00","departure_time":"12:10:00","lat":49.166214,"lon":16.558668,"is_passed":false},{"stop_id":"U1097Z5","name":"Dunajská","arrival_time":"12:11:00","departure_time":"12:11:00","lat":49.169618,"lon":16.555308,"is_passed":false},{"stop_id":"U1616Z5","name":"Starý Lískovec, smyčka","arrival_time":"12:12:00","departure_time":"12:12:00","lat":49.172309,"lon":16.553313,"is_passed":false},{"stop_id":"U1202Z1","name":"Jemelkova","arrival_time":"12:13:00","departure_time":"12:13:00","lat":49.173333,"lon":16.548692,"is_passed":false},{"stop_id":"U1568Z1","name":"Skalní","arrival_time":"12:15:00","departure_time":"12:15:00","lat":49.174278,"lon":16.534362,"is_passed":false},{"stop_id":"U1161Z1","name":"Hoštická","arrival_time":"12:16:00","departure_time":"12:16:00","lat":49.173864,"lon":16.528044,"is_passed":false},{"stop_id":"U1037Z1","name":"Bosonohy","arrival_time":"12:18:00","departure_time":"12:52:00","lat":49.17652,"lon":16.525792,"is_passed":false}],"48119":[{"stop_id":"U1037Z2","name":"Bosonohy","arrival_time":"12:52:00","departure_time":"12:52:00","lat":49.176372,"lon":16.525514,"is_passed":false},{"stop_id":"U1161Z2","name":"Hoštická","arrival_time":"12:53:00","departure_time":"12:53:00","lat":49.173917,"lon":16.527822,"is_passed":false},{"stop_id":"U1516Z1","name":"Pražská","arrival_time":"12:54:00","departure_time":"12:54:00","lat":49.173478,"lon":16.531543,"is_passed":false},{"stop_id":"U1568Z2","name":"Skalní","arrival_time":"12:55:00","departure_time":"12:55:00","lat":49.174201,"lon":16.537903,"is_passed":false},{"stop_id":"U1202Z2","name":"Jemelkova","arrival_time":"12:56:00","departure_time":"12:56:00","lat":49.173163,"lon":16.54872,"is_passed":false},{"stop_id":"U1616Z4","name":"Starý Lískovec, smyčka","arrival_time":"12:58:00","departure_time":"12:58:00","lat":49.170615,"lon":16.55427,"is_passed":false},{"stop_id":"U1687Z2","name":"U hřiště","arrival_time":"12:59:00","departure_time":"12:59:00","lat":49.165806,"lon":16.558562,"is_passed":false},{"stop_id":"U1666Z2","name":"Točná","arrival_time":"13:00:00","departure_time":"13:00:00","lat":49.164745,"lon":16.561481,"is_passed":false},{"stop_id":"U1061Z2","name":"Čermákova","arrival_time":"13:01:00","departure_time":"13:01:00","lat":49.164349,"lon":16.564689,"is_passed":false},{"stop_id":"U1627Z2","name":"Svah","arrival_time":"13:01:00","departure_time":"13:01:00","lat":49.164924,"lon":16.567717,"is_passed":false},{"stop_id":"U1273Z1","name":"Kosmonautů","arrival_time":"13:02:00","departure_time":"13:02:00","lat":49.167006,"lon":16.568017,"is_passed":false},{"stop_id":"U1472Z7","name":"Osová","arrival_time":"13:03:00","departure_time":"13:03:00","lat":49.168951,"lon":16.566714,"is_passed":false},{"stop_id":"U1492Z1","name":"Pod nemocnicí","arrival_time":"13:04:00","departure_time":"13:04:00","lat":49.172412,"lon":16.569624,"is_passed":false},{"stop_id":"U1429Z4","name":"Nemocnice Bohunice","arrival_time":"13:06:00","departure_time":"13:06:00","lat":49.176125,"lon":16.567246,"is_passed":false},{"stop_id":"U1699Z3","name":"Univerzitní kampus","arrival_time":"13:07:00","departure_time":"13:07:00","lat":49.177902,"lon":16.568335,"is_passed":false},{"stop_id":"U1222Z3","name":"Kamenice","arrival_time":"13:08:00","departure_time":"13:08:00","lat":49.177622,"lon":16.573805,"is_passed":false},{"stop_id":"U1411Z1","name":"Mýtná","arrival_time":"13:09:00","departure_time":"13:09:00","lat":49.175033,"lon":16.582359,"is_passed":false},{"stop_id":"U1714Z1","name":"Uzbecká","arrival_time":"13:10:00","departure_time":"13:10:00","lat":49.172343,"lon":16.583318,"is_passed":false},{"stop_id":"U1701Z2","name":"Ukrajinská","arrival_time":"13:11:00","departure_time":"13:11:00","lat":49.170541,"lon":16.584623,"is_passed":false},{"stop_id":"U1122Z2","name":"Gruzínská","arrival_time":"13:12:00","departure_time":"13:12:00","lat":49.166633,"lon":16.586336,"is_passed":false},{"stop_id":"U1774Z2","name":"Za hřbitovem","arrival_time":"13:12:00","departure_time":"13:12:00","lat":49.164318,"lon":16.591448,"is_passed":false},{"stop_id":"U1673Z2","name":"Traťová","arrival_time":"13:13:00","departure_time":"13:13:00","lat":49.163623,"lon":16.595954,"is_passed":false},{"stop_id":"U1031Z6","name":"Bohunická","arrival_time":"13:14:00","departure_time":"13:14:00","lat":49.162697,"lon":16.600443,"is_passed":false},{"stop_id":"U1703Z7","name":"Ústřední hřbitov","arrival_time":"13:16:00","departure_time":"13:16:00","lat":49.170741,"lon":16.597834,"is_passed":false}],"48120":[{"stop_id":"U1703Z7","name":"Ústřední hřbitov","arrival_time":"13:16:00","departure_time":"13:16:00","lat":49.170741,"lon":16.597834,"is_passed":false},{"stop_id":"U1293Z5","name":"Krematorium","arrival_time":"13:18:00","departure_time":"13:18:00","lat":49.172914,"lon":16.590082,"is_passed":false},{"stop_id":"U1714Z3","name":"Uzbecká","arrival_time":"13:19:00","departure_time":"13:19:00","lat":49.173362,"lon":16.581961,"is_passed":false},{"stop_id":"U1610Z1","name":"Stará nemocnice","arrival_time":"13:20:00","departure_time":"13:20:00","lat":49.173643,"lon":16.577115,"is_passed":false},{"stop_id":"U1699Z2","name":"Univerzitní kampus","arrival_time":"13:23:00","departure_time":"13:23:00","lat":49.177455,"lon":16.567173,"is_passed":false},{"stop_id":"U1429Z5","name":"Nemocnice Bohunice","arrival_time":"13:24:00","departure_time":"13:24:00","lat":49.175206,"lon":16.56694,"is_passed":false},{"stop_id":"U1492Z2","name":"Pod nemocnicí","arrival_time":"13:26:00","departure_time":"13:26:00","lat":49.172338,"lon":16.569417,"is_passed":false},{"stop_id":"U1472Z8","name":"Osová","arrival_time":"13:27:00","departure_time":"13:27:00","lat":49.168617,"lon":16.566306,"is_passed":false},{"stop_id":"U1273Z2","name":"Kosmonautů","arrival_time":"13:27:00","departure_time":"13:27:00","lat":49.167124,"lon":16.56745,"is_passed":false},{"stop_id":"U1627Z1","name":"Svah","arrival_time":"13:28:00","departure_time":"13:28:00","lat":49.165199,"lon":16.567969,"is_passed":false},{"stop_id":"U1061Z1","name":"Čermákova","arrival_time":"13:28:00","departure_time":"13:28:00","lat":49.164336,"lon":16.565516,"is_passed":false},{"stop_id":"U1666Z1","name":"Točná","arrival_time":"13:29:00","departure_time":"13:29:00","lat":49.16476,"lon":16.561692,"is_passed":false},{"stop_id":"U1687Z1","name":"U hřiště","arrival_time":"13:30:00","departure_time":"13:30:00","lat":49.166214,"lon":16.558668,"is_passed":false},{"stop_id":"U1097Z5","name":"Dunajská","arrival_time":"13:31:00","departure_time":"13:31:00","lat":49.169618,"lon":16.555308,"is_passed":false},{"stop_id":"U1616Z5","name":"Starý Lískovec, smyčka","arrival_time":"13:32:00","departure_time":"13:32:00","lat":49.172309,"lon":16.553313,"is_passed":false},{"stop_id":"U1202Z1","name":"Jemelkova","arrival_time":"13:33:00","departure_time":"13:33:00","lat":49.173333,"lon":16.548692,"is_passed":false},{"stop_id":"U1568Z1","name":"Skalní","arrival_time":"13:35:00","departure_time":"13:35:00","lat":49.174278,"lon":16.534362,"is_passed":false},{"stop_id":"U1161Z1","name":"Hoštická","arrival_time":"13:36:00","departure_time":"13:36:00","lat":49.173864,"lon":16.528044,"is_passed":false},{"stop_id":"U1037Z1","name":"Bosonohy","arrival_time":"13:38:00","departure_time":"14:12:00","lat":49.17652,"lon":16.525792,"is_passed":false}],"48121":[{"stop_id":"U1037Z2","name":"Bosonohy","arrival_time":"14:12:00","departure_time":"14:12:00","lat":49.176372,"lon":16.525514,"is_passed":false},{"stop_id":"U1161Z2","name":"Hoštická","arrival_time":"14:13:00","departure_time":"14:13:00","lat":49.173917,"lon":16.527822,"is_passed":false},{"stop_id":"U1516Z1","name":"Pražská","arrival_time":"14:14:00","departure_time":"14:14:00","lat":49.173478,"lon":16.531543,"is_passed":false},{"stop_id":"U1568Z2","name":"Skalní","arrival_time":"14:15:00","departure_time":"14:15:00","lat":49.174201,"lon":16.537903,"is_passed":false},{"stop_id":"U1202Z2","name":"Jemelkova","arrival_time":"14:16:00","departure_time":"14:16:00","lat":49.173163,"lon":16.54872,"is_passed":false},{"stop_id":"U1616Z4","name":"Starý Lískovec, smyčka","arrival_time":"14:18:00","departure_time":"14:18:00","lat":49.170615,"lon":16.55427,"is_passed":false},{"stop_id":"U1687Z2","name":"U hřiště","arrival_time":"14:19:00","departure_time":"14:19:00","lat":49.165806,"lon":16.558562,"is_passed":false},{"stop_id":"U1666Z2","name":"Točná","arrival_time":"14:20:00","departure_time":"14:20:00","lat":49.164745,"lon":16.561481,"is_passed":false},{"stop_id":"U1061Z2","name":"Čermákova","arrival_time":"14:21:00","departure_time":"14:21:00","lat":49.164349,"lon":16.564689,"is_passed":false},{"stop_id":"U1627Z2","name":"Svah","arrival_time":"14:21:00","departure_time":"14:21:00","lat":49.164924,"lon":16.567717,"is_passed":false},{"stop_id":"U1273Z1","name":"Kosmonautů","arrival_time":"14:22:00","departure_time":"14:22:00","lat":49.167006,"lon":16.568017,"is_passed":false},{"stop_id":"U1472Z7","name":"Osová","arrival_time":"14:23:00","departure_time":"14:23:00","lat":49.168951,"lon":16.566714,"is_passed":false},{"stop_id":"U1492Z1","name":"Pod nemocnicí","arrival_time":"14:24:00","departure_time":"14:24:00","lat":49.172412,"lon":16.569624,"is_passed":false},{"stop_id":"U1429Z4","name":"Nemocnice Bohunice","arrival_time":"14:26:00","departure_time":"14:26:00","lat":49.176125,"lon":16.567246,"is_passed":false},{"stop_id":"U1699Z3","name":"Univerzitní kampus","arrival_time":"14:27:00","departure_time":"14:27:00","lat":49.177902,"lon":16.568335,"is_passed":false},{"stop_id":"U1222Z3","name":"Kamenice","arrival_time":"14:28:00","departure_time":"14:28:00","lat":49.177622,"lon":16.573805,"is_passed":false},{"stop_id":"U1411Z1","name":"Mýtná","arrival_time":"14:29:00","departure_time":"14:29:00","lat":49.175033,"lon":16.582359,"is_passed":false},{"stop_id":"U1714Z1","name":"Uzbecká","arrival_time":"14:30:00","departure_time":"14:30:00","lat":49.172343,"lon":16.583318,"is_passed":false},{"stop_id":"U1701Z2","name":"Ukrajinská","arrival_time":"14:31:00","departure_time":"14:31:00","lat":49.170541,"lon":16.584623,"is_passed":false},{"stop_id":"U1122Z2","name":"Gruzínská","arrival_time":"14:32:00","departure_time":"14:32:00","lat":49.166633,"lon":16.586336,"is_passed":false},{"stop_id":"U1774Z2","name":"Za hřbitovem","arrival_time":"14:32:00","departure_time":"14:32:00","lat":49.164318,"lon":16.591448,"is_passed":false},{"stop_id":"U1673Z2","name":"Traťová","arrival_time":"14:33:00","departure_time":"14:33:00","lat":49.163623,"lon":16.595954,"is_passed":false},{"stop_id":"U1031Z6","name":"Bohunická","arrival_time":"14:34:00","departure_time":"14:34:00","lat":49.162697,"lon":16.600443,"is_passed":false},{"stop_id":"U1703Z7","name":"Ústřední hřbitov","arrival_time":"14:36:00","departure_time":"14:36:00","lat":49.170741,"lon":16.597834,"is_passed":false}],"48122":[{"stop_id":"U1703Z7","name":"Ústřední hřbitov","arrival_time":"14:36:00","departure_time":"14:36:00","lat":49.170741,"lon":16.597834,"is_passed":false},{"stop_id":"U1293Z5","name":"Krematorium","arrival_time":"14:38:00","departure_time":"14:38:00","lat":49.172914,"lon":16.590082,"is_passed":false},{"stop_id":"U1714Z3","name":"Uzbecká","arrival_time":"14:39:00","departure_time":"14:39:00","lat":49.173362,"lon":16.581961,"is_passed":false},{"stop_id":"U1610Z1","name":"Stará nemocnice","arrival_time":"14:40:00","departure_time":"14:40:00","lat":49.173643,"lon":16.577115,"is_passed":false},{"stop_id":"U1699Z2","name":"Univerzitní kampus","arrival_time":"14:43:00","departure_time":"14:43:00","lat":49.177455,"lon":16.567173,"is_passed":false},{"stop_id":"U1429Z5","name":"Nemocnice Bohunice","arrival_time":"14:44:00","departure_time":"14:44:00","lat":49.175206,"lon":16.56694,"is_passed":false},{"stop_id":"U1492Z2","name":"Pod nemocnicí","arrival_time":"14:46:00","departure_time":"14:46:00","lat":49.172338,"lon":16.569417,"is_passed":false},{"stop_id":"U1472Z8","name":"Osová","arrival_time":"14:47:00","departure_time":"14:47:00","lat":49.168617,"lon":16.566306,"is_passed":false},{"stop_id":"U1273Z2","name":"Kosmonautů","arrival_time":"14:47:00","departure_time":"14:47:00","lat":49.167124,"lon":16.56745,"is_passed":false},{"stop_id":"U1627Z1","name":"Svah","arrival_time":"14:48:00","departure_time":"14:48:00","lat":49.165199,"lon":16.567969,"is_passed":false},{"stop_id":"U1061Z1","name":"Čermákova","arrival_time":"14:48:00","departure_time":"14:48:00","lat":49.164336,"lon":16.565516,"is_passed":false},{"stop_id":"U1666Z1","name":"Točná","arrival_time":"14:49:00","departure_time":"14:49:00","lat":49.16476,"lon":16.561692,"is_passed":false},{"stop_id":"U1687Z1","name":"U hřiště","arrival_time":"14:50:00","departure_time":"14:50:00","lat":49.166214,"lon":16.558668,"is_passed":false},{"stop_id":"U1097Z5","name":"Dunajská","arrival_time":"14:51:00","departure_time":"14:51:00","lat":49.169618,"lon":16.555308,"is_passed":false},{"stop_id":"U1616Z5","name":"Starý Lískovec, smyčka","arrival_time":"14:52:00","departure_time":"14:52:00","lat":49.172309,"lon":16.553313,"is_passed":false},{"stop_id":"U1202Z1","name":"Jemelkova","arrival_time":"14:53:00","departure_time":"14:53:00","lat":49.173333,"lon":16.548692,"is_passed":false},{"stop_id":"U1568Z1","name":"Skalní","arrival_time":"14:55:00","departure_time":"14:55:00","lat":49.174278,"lon":16.534362,"is_passed":false},{"stop_id":"U1161Z1","name":"Hoštická","arrival_time":"14:56:00","departure_time":"14:56:00","lat":49.173864,"lon":16.528044,"is_passed":false},{"stop_id":"U1037Z1","name":"Bosonohy","arrival_time":"14:58:00","departure_time":"15:32:00","lat":49.17652,"lon":16.525792,"is_passed":false}],"48123":[{"stop_id":"U1037Z2","name":"Bosonohy","arrival_time":"15:32:00","departure_time":"15:32:00","lat":49.176372,"lon":16.525514,"is_passed":false},{"stop_id":"U1161Z2","name":"Hoštická","arrival_time":"15:33:00","departure_time":"15:33:00","lat":49.173917,"lon":16.527822,"is_passed":false},{"stop_id":"U1516Z1","name":"Pražská","arrival_time":"15:34:00","departure_time":"15:34:00","lat":49.173478,"lon":16.531543,"is_passed":false},{"stop_id":"U1568Z2","name":"Skalní","arrival_time":"15:35:00","departure_time":"15:35:00","lat":49.174201,"lon":16.537903,"is_passed":false},{"stop_id":"U1202Z2","name":"Jemelkova","arrival_time":"15:36:00","departure_time":"15:36:00","lat":49.173163,"lon":16.54872,"is_passed":false},{"stop_id":"U1616Z4","name":"Starý Lískovec, smyčka","arrival_time":"15:38:00","departure_time":"15:38:00","lat":49.170615,"lon":16.55427,"is_passed":false},{"stop_id":"U1687Z2","name":"U hřiště","arrival_time":"15:39:00","departure_time":"15:39:00","lat":49.165806,"lon":16.558562,"is_passed":false},{"stop_id":"U1666Z2","name":"Točná","arrival_time":"15:40:00","departure_time":"15:40:00","lat":49.164745,"lon":16.561481,"is_passed":false},{"stop_id":"U1061Z2","name":"Čermákova","arrival_time":"15:41:00","departure_time":"15:41:00","lat":49.164349,"lon":16.564689,"is_passed":false},{"stop_id":"U1627Z2","name":"Svah","arrival_time":"15:41:00","departure_time":"15:41:00","lat":49.164924,"lon":16.567717,"is_passed":false},{"stop_id":"U1273Z1","name":"Kosmonautů","arrival_time":"15:42:00","departure_time":"15:42:00","lat":49.167006,"lon":16.568017,"is_passed":false},{"stop_id":"U1472Z7","name":"Osová","arrival_time":"15:43:00","departure_time":"15:43:00","lat":49.168951,"lon":16.566714,"is_passed":false},{"stop_id":"U1492Z1","name":"Pod nemocnicí","arrival_time":"15:44:00","departure_time":"15:44:00","lat":49.172412,"lon":16.569624,"is_passed":false},{"stop_id":"U1429Z4","name":"Nemocnice Bohunice","arrival_time":"15:46:00","departure_time":"15:46:00","lat":49.176125,"lon":16.567246,"is_passed":false},{"stop_id":"U1699Z3","name":"Univerzitní kampus","arrival_time":"15:47:00","departure_time":"15:47:00","lat":49.177902,"lon":16.568335,"is_passed":false},{"stop_id":"U1222Z3","name":"Kamenice","arrival_time":"15:48:00","departure_time":"15:48:00","lat":49.177622,"lon":16.573805,"is_passed":false},{"stop_id":"U1411Z1","name":"Mýtná","arrival_time":"15:49:00","departure_time":"15:49:00","lat":49.175033,"lon":16.582359,"is_passed":false},{"stop_id":"U1714Z1","name":"Uzbecká","arrival_time":"15:50:00","departure_time":"15:50:00","lat":49.172343,"lon":16.583318,"is_passed":false},{"stop_id":"U1701Z2","name":"Ukrajinská","arrival_time":"15:51:00","departure_time":"15:51:00","lat":49.170541,"lon":16.584623,"is_passed":false},{"stop_id":"U1122Z2","name":"Gruzínská","arrival_time":"15:52:00","departure_time":"15:52:00","lat":49.166633,"lon":16.586336,"is_passed":false},{"stop_id":"U1774Z2","name":"Za hřbitovem","arrival_time":"15:52:00","departure_time":"15:52:00","lat":49.164318,"lon":16.591448,"is_passed":false},{"stop_id":"U1673Z2","name":"Traťová","arrival_time":"15:53:00","departure_time":"15:53:00","lat":49.163623,"lon":16.595954,"is_passed":false},{"stop_id":"U1031Z6","name":"Bohunická","arrival_time":"15:54:00","departure_time":"15:54:00","lat":49.162697,"lon":16.600443,"is_passed":false},