[{"stop_id":"U1681Z2","name":"Tuřany, smyčka","arrival_time":"16:11:00","departure_time":"16:11:00","lat":49.141757,"lon":16.666878,"is_passed":false},{"stop_id":"U1186Z2","name":"Chrlická","arrival_time":"16:12:00","departure_time":"16:12:00","lat":49.143983,"lon":16.665097,"is_passed":false},{"stop_id":"U1131Z2","name":"Hanácká","arrival_time":"16:13:00","departure_time":"16:13:00","lat":49.146706,"lon":16.667371,"is_passed":false},{"stop_id":"U1538Z2","name":"Revoluční","arrival_time":"16:14:00","departure_time":"16:14:00","lat":49.150097,"lon":16.661811,"is_passed":false},{"stop_id":"U1118Z2","name":"Glocova","arrival_time":"16:15:00","departure_time":"16:15:00","lat":49.151351,"lon":16.659085,"is_passed":false},{"stop_id":"U1191Z2","name":"Ivanovické náměstí","arrival_time":"16:16:00","departure_time":"16:16:00","lat":49.153629,"lon":16.653755,"is_passed":false},{"stop_id":"U1511Z52","name":"Popelova","arrival_time":"16:17:00","departure_time":"16:17:00","lat":49.155898,"lon":16.647056,"is_passed":false},{"stop_id":"U1518Z1","name":"Prodloužená","arrival_time":"16:18:00","departure_time":"16:18:00","lat":49.151349,"lon":16.647722,"is_passed":false},{"stop_id":"U1717Z1","name":"V aleji","arrival_time":"16:19:00","departure_time":"16:19:00","lat":49.147687,"lon":16.648637,"is_passed":false},{"stop_id":"U1151Z1","name":"Holásky","arrival_time":"16:20:00","departure_time":"16:20:00","lat":49.143624,"lon":16.650395,"is_passed":false},{"stop_id":"U1718Z1","name":"V rejích","arrival_time":"16:21:00","departure_time":"16:21:00","lat":49.139511,"lon":16.654735,"is_passed":false},{"stop_id":"U1187Z3","name":"Chrlické náměstí","arrival_time":"16:23:00","departure_time":"16:23:00","lat":49.135906,"lon":16.65314,"is_passed":false},{"stop_id":"U1644Z1","name":"Šromova","arrival_time":"16:24:00","departure_time":"16:24:00","lat":49.13376,"lon":16.650299,"is_passed":false},{"stop_id":"U1781Z1","name":"Zámecká","arrival_time":"16:25:00","departure_time":"16:25:00","lat":49.132776,"lon":16.642479,"is_passed":false},{"stop_id":"U1533Z1","name":"Ráječek","arrival_time":"16:30:00","departure_time":"16:30:00","lat":49.160802,"lon":16.638242,"is_passed":false},{"stop_id":"U1148Z2","name":"Hněvkovského","arrival_time":"16:33:00","departure_time":"16:33:00","lat":49.169618,"lon":16.626335,"is_passed":false},{"stop_id":"U1565Z2","name":"Sazenice","arrival_time":"16:34:00","departure_time":"16:34:00","lat":49.172877,"lon":16.623824,"is_passed":false},{"stop_id":"U1361Z4","name":"Mariánské náměstí","arrival_time":"16:35:00","departure_time":"16:35:00","lat":49.177094,"lon":16.621935,"is_passed":false},{"stop_id":"U1266Z4","name":"Konopná","arrival_time":"16:36:00","departure_time":"16:36:00","lat":49.179332,"lon":16.621811,"is_passed":false},{"stop_id":"U1807Z2","name":"Železniční","arrival_time":"16:37:00","departure_time":"16:37:00","lat":49.183322,"lon":16.619338,"is_passed":false},{"stop_id":"U1696Z14","name":"ÚAN Zvonařka","arrival_time":"16:38:00","departure_time":"16:38:00","lat":49.185364,"lon":16.616151,"is_passed":false},{"stop_id":"U1716Z7","name":"Úzká","arrival_time":"16:41:00","departure_time":"16:42:00","lat":49.188863,"lon":16.613326,"is_passed":false}]