[{"stop_id":"U1346Z2","name":"Líšeň, hřbitov","arrival_time":"9:05:00","departure_time":"9:05:00","lat":49.21748,"lon":16.702635,"is_passed":false},{"stop_id":"U1441Z2","name":"Obecká","arrival_time":"9:05:00","departure_time":"9:05:00","lat":49.21417,"lon":16.701205,"is_passed":false},{"stop_id":"U1311Z2","name":"Kubelíkova","arrival_time":"9:06:00","departure_time":"9:06:00","lat":49.21195,"lon":16.698702,"is_passed":false},{"stop_id":"U1638Z2","name":"Šimáčkova","arrival_time":"9:07:00","departure_time":"9:07:00","lat":49.209571,"lon":16.6961,"is_passed":false},{"stop_id":"U1421Z2","name":"Náměstí Karla IV.","arrival_time":"9:08:00","departure_time":"9:08:00","lat":49.206113,"lon":16.69444,"is_passed":false},{"stop_id":"U1232Z2","name":"Karolíny Světlé","arrival_time":"9:09:00","departure_time":"9:09:00","lat":49.203721,"lon":16.694074,"is_passed":false},{"stop_id":"U1238Z2","name":"Klicperova","arrival_time":"9:10:00","departure_time":"9:10:00","lat":49.20242,"lon":16.687862,"is_passed":false},{"stop_id":"U1780Z2","name":"Zaoralova","arrival_time":"9:12:00","departure_time":"9:12:00","lat":49.200382,"lon":16.678706,"is_passed":false},{"stop_id":"U1787Z2","name":"Zetor - silnice","arrival_time":"9:13:00","departure_time":"9:13:00","lat":49.200807,"lon":16.670053,"is_passed":false},{"stop_id":"U1438Z4","name":"Novolíšeňská","arrival_time":"9:15:00","departure_time":"9:15:00","lat":49.201792,"lon":16.670352,"is_passed":false},{"stop_id":"U1353Z2","name":"Malá Klajdovka","arrival_time":"9:16:00","departure_time":"9:16:00","lat":49.199214,"lon":16.662929,"is_passed":false},{"stop_id":"U1212Z4","name":"Juliánov","arrival_time":"9:18:00","departure_time":"9:18:00","lat":49.196413,"lon":16.655783,"is_passed":false},{"stop_id":"U1082Z2","name":"Dělnický dům","arrival_time":"9:19:00","departure_time":"9:19:00","lat":49.195559,"lon":16.64956,"is_passed":false},{"stop_id":"U1113Z2","name":"Gajdošova","arrival_time":"9:20:00","departure_time":"9:20:00","lat":49.198286,"lon":16.645995,"is_passed":false},{"stop_id":"U1611Z6","name":"Stará osada","arrival_time":"9:22:00","departure_time":"9:22:00","lat":49.201731,"lon":16.642184,"is_passed":false},{"stop_id":"U1809Z1","name":"Židenice, nádraží","arrival_time":"9:24:00","departure_time":"9:26:00","lat":49.20162,"lon":16.635716,"is_passed":false}]