{"495":[{"stop_id":"U17446Z10","name":"Vyškov, železniční stanice","arrival_time":"4:35:00","departure_time":"4:35:00","lat":49.277222,"lon":16.990833,"is_passed":false},{"stop_id":"U27301Z1","name":"Luleč","arrival_time":"4:41:00","departure_time":"4:41:00","lat":49.248056,"lon":16.921667,"is_passed":false},{"stop_id":"U17342Z10","name":"Rousínov, žel. st.","arrival_time":"4:48:00","departure_time":"4:48:00","lat":49.196667,"lon":16.867139,"is_passed":false},{"stop_id":"U16228Z12","name":"Holubice, žel.st.","arrival_time":"4:51:00","departure_time":"4:52:00","lat":49.179869,"lon":16.824654,"is_passed":false},{"stop_id":"U16212Z10","name":"Křenovice, hor. žel. st.","arrival_time":"4:56:00","departure_time":"4:57:00","lat":49.143553,"lon":16.824564,"is_passed":false},{"stop_id":"U26201Z1","name":"Zbýšov","arrival_time":"4:59:00","departure_time":"5:00:00","lat":49.132691,"lon":16.806859,"is_passed":false},{"stop_id":"U26102Z1","name":"Hostěrádky-Rešov","arrival_time":"5:02:00","departure_time":"5:03:00","lat":49.119822,"lon":16.782755,"is_passed":false},{"stop_id":"U26101Z1","name":"Újezd u Brna","arrival_time":"5:06:00","departure_time":"5:06:00","lat":49.107297,"lon":16.745564,"is_passed":false},{"stop_id":"U16149Z10","name":"Sokolnice, železniční stanice","arrival_time":"5:08:00","departure_time":"5:09:00","lat":49.108029,"lon":16.733459,"is_passed":false},{"stop_id":"U1183Z10","name":"Chrlice, nádraží","arrival_time":"5:14:00","departure_time":"5:15:00","lat":49.132031,"lon":16.657232,"is_passed":false},{"stop_id":"U1146Z99","name":"Hlavní nádraží","arrival_time":"5:24:00","departure_time":"5:28:00","lat":49.19035,"lon":16.612342,"is_passed":false},{"stop_id":"U1809Z10","name":"Židenice, nádraží","arrival_time":"5:31:00","departure_time":"5:34:00","lat":49.204282,"lon":16.636042,"is_passed":false},{"stop_id":"U12158Z10","name":"Bílovice nad Svitavou, žel. stanice","arrival_time":"5:39:00","departure_time":"5:39:00","lat":49.242715,"lon":16.673677,"is_passed":false},{"stop_id":"U22101Z1","name":"Babice nad Svitavou","arrival_time":"5:43:00","departure_time":"5:43:00","lat":49.276645,"lon":16.673012,"is_passed":false},{"stop_id":"U12230Z10","name":"Adamov, železniční stanice","arrival_time":"5:46:00","departure_time":"5:46:00","lat":49.295341,"lon":16.663538,"is_passed":false},{"stop_id":"U12231Z10","name":"Adamov, železniční zastávka","arrival_time":"5:48:00","departure_time":"5:48:00","lat":49.300671,"lon":16.650653,"is_passed":false},{"stop_id":"U12342Z30","name":"Blansko, aut. st.","arrival_time":"5:54:00","departure_time":"5:55:00","lat":49.352753,"lon":16.646848,"is_passed":false},{"stop_id":"U22302Z1","name":"Blansko město","arrival_time":"5:57:00","departure_time":"5:57:00","lat":49.360996,"lon":16.639464,"is_passed":false},{"stop_id":"U22301Z1","name":"Dolní Lhota","arrival_time":"6:00:00","departure_time":"6:00:00","lat":49.386917,"lon":16.633978,"is_passed":false},{"stop_id":"U12439Z50","name":"Rájec-Jestřebí, železniční stanice","arrival_time":"6:03:00","departure_time":"6:03:00","lat":49.408206,"lon":16.627711,"is_passed":false},{"stop_id":"U12511Z50","name":"Doubravice, žel.st.","arrival_time":"6:06:00","departure_time":"6:07:00","lat":49.438707,"lon":16.621809,"is_passed":false},{"stop_id":"U12676Z50","name":"Skalice nad Svitavou, žel.st.","arrival_time":"6:12:00","departure_time":"6:18:00","lat":49.480123,"lon":16.609726,"is_passed":false},{"stop_id":"U22602Z1","name":"Svitávka","arrival_time":"6:20:00","departure_time":"6:21:00","lat":49.499434,"lon":16.599208,"is_passed":false},{"stop_id":"U22701Z1","name":"Zboněk","arrival_time":"6:23:00","departure_time":"6:23:00","lat":49.521608,"lon":16.583438,"is_passed":false},{"stop_id":"U22702Z1","name":"Letovice zastávka","arrival_time":"6:26:00","departure_time":"6:26:00","lat":49.535496,"lon":16.576998,"is_passed":false},{"stop_id":"U12736Z50","name":"Letovice, železniční stanice","arrival_time":"6:29:00","departure_time":"6:57:00","lat":49.555973,"lon":16.570906,"is_passed":false}],"4950":[{"stop_id":"U18308Z2","name":"Želetice, Jednota","arrival_time":"7:02:00","departure_time":"7:02:00","lat":48.93553,"lon":16.182615,"is_passed":false},{"stop_id":"U18239Z2","name":"Žerotice, požární zbrojnice","arrival_time":"7:05:00","departure_time":"7:05:00","lat":48.926907,"lon":16.16763,"is_passed":false},{"stop_id":"U18238Z2","name":"Žerotice, Kyjovická","arrival_time":"7:07:00","departure_time":"7:07:00","lat":48.925525,"lon":16.165198,"is_passed":false},{"stop_id":"U18212Z2","name":"Kyjovice","arrival_time":"7:09:00","departure_time":"7:09:00","lat":48.915725,"lon":16.16638,"is_passed":false},{"stop_id":"U18221Z4","name":"Prosiměřice, u bufetu","arrival_time":"7:12:00","departure_time":"7:12:00","lat":48.903398,"lon":16.190627,"is_passed":false},{"stop_id":"U18219Z4","name":"Prosiměřice, hostinec","arrival_time":"7:13:00","departure_time":"7:13:00","lat":48.902423,"lon":16.192625,"is_passed":false},{"stop_id":"U18223Z5","name":"Stošíkovice na Louce, rozcestí","arrival_time":"7:16:00","departure_time":"7:16:00","lat":48.889336,"lon":16.196984,"is_passed":false},{"stop_id":"U18125Z2","name":"Práče, obecní úřad","arrival_time":"7:18:00","departure_time":"7:18:00","lat":48.876979,"lon":16.202572,"is_passed":false},{"stop_id":"U18214Z2","name":"Lechovice, obecní úřad","arrival_time":"7:21:00","departure_time":"7:21:00","lat":48.872568,"lon":16.221965,"is_passed":false},{"stop_id":"U18215Z3","name":"Lechovice, zámek","arrival_time":"7:23:00","departure_time":"7:24:00","lat":48.874591,"lon":16.236258,"is_passed":false}],"4951":[{"stop_id":"U18215Z3","name":"Lechovice, zámek","arrival_time":"7:24:00","departure_time":"7:24:00","lat":48.874591,"lon":16.236258,"is_passed":false},{"stop_id":"U18214Z1","name":"Lechovice, obecní úřad","arrival_time":"7:26:00","departure_time":"7:26:00","lat":48.872558,"lon":16.222179,"is_passed":false},{"stop_id":"U18125Z1","name":"Práče, obecní úřad","arrival_time":"7:30:00","departure_time":"7:30:00","lat":48.877058,"lon":16.202218,"is_passed":false},{"stop_id":"U18223Z1","name":"Stošíkovice na Louce, rozcestí","arrival_time":"7:32:00","departure_time":"7:32:00","lat":48.890458,"lon":16.196641,"is_passed":false},{"stop_id":"U18219Z3","name":"Prosiměřice, hostinec","arrival_time":"7:35:00","departure_time":"7:47:00","lat":48.902718,"lon":16.192215,"is_passed":false},{"stop_id":"U18221Z3","name":"Prosiměřice, u bufetu","arrival_time":"7:48:00","departure_time":"7:48:00","lat":48.903893,"lon":16.190322,"is_passed":false},{"stop_id":"U18212Z1","name":"Kyjovice","arrival_time":"7:51:00","departure_time":"7:51:00","lat":48.915567,"lon":16.166742,"is_passed":false},{"stop_id":"U18238Z1","name":"Žerotice, Kyjovická","arrival_time":"7:53:00","departure_time":"7:53:00","lat":48.925525,"lon":16.165198,"is_passed":false},{"stop_id":"U18239Z1","name":"Žerotice, požární zbrojnice","arrival_time":"7:55:00","departure_time":"7:55:00","lat":48.926905,"lon":16.167782,"is_passed":false},{"stop_id":"U18308Z2","name":"Želetice, Jednota","arrival_time":"7:58:00","departure_time":"8:00:00","lat":48.93553,"lon":16.182615,"is_passed":false}],"4952":[{"stop_id":"U18308Z1","name":"Želetice, Jednota","arrival_time":"8:00:00","departure_time":"8:00:00","lat":48.93553,"lon":16.182615,"is_passed":false},{"stop_id":"U18302Z1","name":"Horní Dunajovice, Domčice","arrival_time":"8:02:00","departure_time":"8:02:00","lat":48.946078,"lon":16.167222,"is_passed":false},{"stop_id":"U18301Z1","name":"Horní Dunajovice, obecní úřad","arrival_time":"8:03:00","departure_time":"8:03:00","lat":48.950265,"lon":16.15987,"is_passed":false},{"stop_id":"U18305Z1","name":"Višňové, Mrazírny","arrival_time":"8:08:00","departure_time":"8:08:00","lat":48.97835,"lon":16.148018,"is_passed":false},{"stop_id":"U18306Z1","name":"Višňové, náměstí","arrival_time":"8:10:00","departure_time":"8:13:00","lat":48.982684,"lon":16.1501,"is_passed":false}],"4953":[{"stop_id":"U18306Z1","name":"Višňové, náměstí","arrival_time":"8:13:00","departure_time":"8:13:00","lat":48.982684,"lon":16.1501,"is_passed":false},{"stop_id":"U18305Z2","name":"Višňové, Mrazírny","arrival_time":"8:15:00","departure_time":"8:15:00","lat":48.978748,"lon":16.147538,"is_passed":false},{"stop_id":"U18301Z2","name":"Horní Dunajovice, obecní úřad","arrival_time":"8:20:00","departure_time":"8:20:00","lat":48.950223,"lon":16.16,"is_passed":false},{"stop_id":"U18302Z2","name":"Horní Dunajovice, Domčice","arrival_time":"8:21:00","departure_time":"8:21:00","lat":48.94617,"lon":16.167208,"is_passed":false},{"stop_id":"U18308Z2","name":"Želetice, Jednota","arrival_time":"8:23:00","departure_time":"8:23:00","lat":48.93553,"lon":16.182615,"is_passed":false},{"stop_id":"U18239Z2","name":"Žerotice, požární zbrojnice","arrival_time":"8:26:00","departure_time":"8:26:00","lat":48.926907,"lon":16.16763,"is_passed":false},{"stop_id":"U18212Z1","name":"Kyjovice","arrival_time":"8:29:00","departure_time":"8:29:00","lat":48.915567,"lon":16.166742,"is_passed":false},{"stop_id":"U18238Z3","name":"Žerotice, Kyjovická","arrival_time":"8:31:00","departure_time":"8:31:00","lat":48.925525,"lon":16.165198,"is_passed":false},{"stop_id":"U18283Z2","name":"Tvořihráz, Loucký mlýn","arrival_time":"8:32:00","departure_time":"8:32:00","lat":48.924867,"lon":16.154836,"is_passed":false},{"stop_id":"U18235Z2","name":"Tvořihráz, Žerotická","arrival_time":"8:33:00","departure_time":"8:33:00","lat":48.920462,"lon":16.140685,"is_passed":false},{"stop_id":"U18234Z2","name":"Tvořihráz, obecní úřad","arrival_time":"8:34:00","departure_time":"8:34:00","lat":48.918927,"lon":16.139113,"is_passed":false},{"stop_id":"U18237Z2","name":"Výrovice, rozcestí","arrival_time":"8:38:00","departure_time":"8:38:00","lat":48.916932,"lon":16.10361,"is_passed":false},{"stop_id":"U18236Z2","name":"Výrovice, hostinec","arrival_time":"8:41:00","departure_time":"8:41:00","lat":48.928608,"lon":16.120277,"is_passed":false},{"stop_id":"U18138Z2","name":"Únanov, obecní úřad","arrival_time":"8:49:00","departure_time":"8:49:00","lat":48.900605,"lon":16.06351,"is_passed":false},{"stop_id":"U18139Z2","name":"Únanov, závod","arrival_time":"8:51:00","departure_time":"8:51:00","lat":48.888422,"lon":16.064178,"is_passed":false},{"stop_id":"U18068Z2","name":"Znojmo, Městský lesík","arrival_time":"8:53:00","departure_time":"8:53:00","lat":48.87308,"lon":16.052093,"is_passed":false},{"stop_id":"U18015Z2","name":"Znojmo, Přímětická, Resslova","arrival_time":"8:55:00","departure_time":"8:55:00","lat":48.867688,"lon":16.041435,"is_passed":false},{"stop_id":"U18011Z2","name":"Znojmo, nám.Svobody, lázně","arrival_time":"8:58:00","departure_time":"8:58:00","lat":48.860435,"lon":16.049027,"is_passed":false},{"stop_id":"U18009Z51","name":"Znojmo, autobusové nádraží","arrival_time":"9:03:00","departure_time":"9:03:00","lat":48.851908,"lon":16.056983,"is_passed":false}],"4954":[{"stop_id":"U18009Z3","name":"Znojmo, autobusové nádraží","arrival_time":"11:42:00","departure_time":"11:42:00","lat":48.851903,"lon":16.057106,"is_passed":false},{"stop_id":"U18002Z1","name":"Znojmo, Suchohrdelská, hřbitov","arrival_time":"11:44:00","departure_time":"11:44:00","lat":48.85731,"lon":16.06696,"is_passed":false},{"stop_id":"U18110Z1","name":"Suchohrdly, prodejna","arrival_time":"11:47:00","departure_time":"11:47:00","lat":48.866397,"lon":16.089328,"is_passed":false},{"stop_id":"U18115Z2","name":"Suchohrdly, kurty","arrival_time":"11:48:00","departure_time":"11:48:00","lat":48.868387,"lon":16.096818,"is_passed":false},{"stop_id":"U18116Z2","name":"Suchohrdly, Purkrábka","arrival_time":"11:49:00","departure_time":"11:49:00","lat":48.868827,"lon":16.106813,"is_passed":false},{"stop_id":"U18135Z2","name":"Těšetice, na hlavní","arrival_time":"11:55:00","departure_time":"11:55:00","lat":48.888094,"lon":16.157841,"is_passed":false},{"stop_id":"U18117Z1","name":"Bantice","arrival_time":"11:58:00","departure_time":"11:58:00","lat":48.88332,"lon":16.18455,"is_passed":false},{"stop_id":"U18223Z1","name":"Stošíkovice na Louce, rozcestí","arrival_time":"12:01:00","departure_time":"12:01:00","lat":48.890458,"lon":16.196641,"is_passed":false},{"stop_id":"U18219Z2","name":"Prosiměřice, hostinec","arrival_time":"12:03:00","departure_time":"12:03:00","lat":48.902718,"lon":16.192215,"is_passed":false},{"stop_id":"U18224Z2","name":"Vítonice","arrival_time":"12:06:00","departure_time":"12:06:00","lat":48.916333,"lon":16.201035,"is_passed":false},{"stop_id":"U18218Z2","name":"Oleksovice, u potoka","arrival_time":"12:13:00","departure_time":"12:13:00","lat":48.904747,"lon":16.24336,"is_passed":false},{"stop_id":"U18216Z2","name":"Oleksovice, hostinec","arrival_time":"12:14:00","departure_time":"12:14:00","lat":48.901658,"lon":16.250667,"is_passed":false},{"stop_id":"U14542Z2","name":"Hostěradice, lom","arrival_time":"12:23:00","departure_time":"12:23:00","lat":48.947002,"lon":16.264753,"is_passed":false},{"stop_id":"U14543Z6","name":"Hostěradice, náměstí","arrival_time":"12:24:00","departure_time":"12:24:00","lat":48.950522,"lon":16.259511,"is_passed":false},{"stop_id":"U14542Z1","name":"Hostěradice, lom","arrival_time":"12:25:00","departure_time":"12:25:00","lat":48.94687,"lon":16.265652,"is_passed":false},{"stop_id":"U14548Z1","name":"Miroslav, jesle","arrival_time":"12:29:00","departure_time":"12:29:00","lat":48.94488,"lon":16.30781,"is_passed":false},{"stop_id":"U14546Z3","name":"Miroslav, autobusové nádraží","arrival_time":"12:32:00","departure_time":"12:32:00","lat":48.946991,"lon":16.312997,"is_passed":false}],"4955":[{"stop_id":"U14546Z4","name":"Miroslav, autobusové nádraží","arrival_time":"13:27:00","departure_time":"13:27:00","lat":48.947111,"lon":16.31297,"is_passed":false},{"stop_id":"U14549Z2","name":"Miroslav, kostel","arrival_time":"13:30:00","departure_time":"13:30:00","lat":48.950238,"lon":16.313682,"is_passed":false},{"stop_id":"U14536Z2","name":"Miroslavské Knínice","arrival_time":"13:36:00","departure_time":"13:36:00","lat":48.977802,"lon":16.322445,"is_passed":false},{"stop_id":"U14535Z1","name":"Lesonice, požární zbrojnice","arrival_time":"13:42:00","departure_time":"13:42:00","lat":49.003582,"lon":16.31019,"is_passed":false},{"stop_id":"U14537Z2","name":"Petrovice","arrival_time":"13:45:00","departure_time":"13:45:00","lat":49.007495,"lon":16.29147,"is_passed":false},{"stop_id":"U14470Z11","name":"Moravský Krumlov, Jatky","arrival_time":"13:50:00","departure_time":"13:50:00","lat":49.037362,"lon":16.311183,"is_passed":false},{"stop_id":"U14474Z1","name":"Moravský Krumlov, Okružní","arrival_time":"13:51:00","departure_time":"13:51:00","lat":49.038482,"lon":16.316285,"is_passed":false},{"stop_id":"U14471Z1","name":"Moravský Krumlov, Kavalírka","arrival_time":"13:54:00","departure_time":"13:54:00","lat":49.04575,"lon":16.310588,"is_passed":false},{"stop_id":"U14499Z51","name":"Moravský Krumlov, autobusové nádraží","arrival_time":"13:55:00","departure_time":"13:57:00","lat":49.048181,"lon":16.309497,"is_passed":false}],"4956":[{"stop_id":"U14499Z11","name":"Moravský Krumlov, autobusové nádraží","arrival_time":"13:57:00","departure_time":"13:57:00","lat":49.048086,"lon":16.308967,"is_passed":false},{"stop_id":"U14472Z22","name":"Moravský Krumlov, náměstí","arrival_time":"13:59:00","departure_time":"13:59:00","lat":49.048831,"lon":16.312392,"is_passed":false},{"stop_id":"U14485Z2","name":"Moravský Krumlov, u parku","arrival_time":"14:01:00","departure_time":"14:01:00","lat":49.045493,"lon":16.304797,"is_passed":false},{"stop_id":"U14473Z1","name":"Moravský Krumlov, poliklinika","arrival_time":"14:02:00","departure_time":"14:02:00","lat":49.043275,"lon":16.305654,"is_passed":false},{"stop_id":"U14467Z1","name":"Moravský Krumlov, Břízová","arrival_time":"14:03:00","departure_time":"14:03:00","lat":49.04185,"lon":16.306635,"is_passed":false},{"stop_id":"U14470Z1","name":"Moravský Krumlov, Jatky","arrival_time":"14:04:00","departure_time":"14:04:00","lat":49.037352,"lon":16.309838,"is_passed":false},{"stop_id":"U14537Z1","name":"Petrovice","arrival_time":"14:09:00","departure_time":"14:09:00","lat":49.007495,"lon":16.29147,"is_passed":false},{"stop_id":"U14535Z2","name":"Lesonice, požární zbrojnice","arrival_time":"14:12:00","departure_time":"14:12:00","lat":49.00354,"lon":16.310103,"is_passed":false},{"stop_id":"U14536Z1","name":"Miroslavské Knínice","arrival_time":"14:18:00","departure_time":"14:18:00","lat":48.978233,"lon":16.322713,"is_passed":false},{"stop_id":"U14549Z1","name":"Miroslav, kostel","arrival_time":"14:24:00","departure_time":"14:24:00","lat":48.95009,"lon":16.313703,"is_passed":false},{"stop_id":"U14546Z10","name":"Miroslav, autobusové nádraží","arrival_time":"14:26:00","departure_time":"14:37:00","lat":48.94661,"lon":16.313115,"is_passed":false}],"4957":[{"stop_id":"U14546Z4","name":"Miroslav, autobusové nádraží","arrival_time":"14:37:00","departure_time":"14:37:00","lat":48.947111,"lon":16.31297,"is_passed":false},{"stop_id":"U14549Z2","name":"Miroslav, kostel","arrival_time":"14:40:00","departure_time":"14:40:00","lat":48.950238,"lon":16.313682,"is_passed":false},{"stop_id":"U14536Z2","name":"Miroslavské Knínice","arrival_time":"14:46:00","departure_time":"14:46:00","lat":48.977802,"lon":16.322445,"is_passed":false},{"stop_id":"U14535Z1","name":"Lesonice, požární zbrojnice","arrival_time":"14:52:00","departure_time":"14:52:00","lat":49.003582,"lon":16.31019,"is_passed":false},{"stop_id":"U14537Z2","name":"Petrovice","arrival_time":"14:55:00","departure_time":"14:55:00","lat":49.007495,"lon":16.29147,"is_passed":false},{"stop_id":"U14470Z11","name":"Moravský Krumlov, Jatky","arrival_time":"15:00:00","departure_time":"15:00:00","lat":49.037362,"lon":16.311183,"is_passed":false},{"stop_id":"U14474Z1","name":"Moravský Krumlov, Okružní","arrival_time":"15:01:00","departure_time":"15:01:00","lat":49.038482,"lon":16.316285,"is_passed":false},{"stop_id":"U14471Z1","name":"Moravský Krumlov, Kavalírka","arrival_time":"15:04:00","departure_time":"15:04:00","lat":49.04575,"lon":16.310588,"is_passed":false},{"stop_id":"U14499Z51","name":"Moravský Krumlov, autobusové nádraží","arrival_time":"15:05:00","departure_time":"15:07:00","lat":49.048181,"lon":16.309497,"is_passed":false}],"4958":[{"stop_id":"U14499Z11","name":"Moravský Krumlov, autobusové nádraží","arrival_time":"15:07:00","departure_time":"15:07:00","lat":49.048086,"lon":16.308967,"is_passed":false},{"stop_id":"U14472Z22","name":"Moravský Krumlov, náměstí","arrival_time":"15:09:00","departure_time":"15:09:00","lat":49.048831,"lon":16.312392,"is_passed":false},{"stop_id":"U14485Z2","name":"Moravský Krumlov, u parku","arrival_time":"15:11:00","departure_time":"15:11:00","lat":49.045493,"lon":16.304797,"is_passed":false},{"stop_id":"U14473Z1","name":"Moravský Krumlov, poliklinika","arrival_time":"15:12:00","departure_time":"15:12:00","lat":49.043275,"lon":16.305654,"is_passed":false},{"stop_id":"U14467Z1","name":"Moravský Krumlov, Břízová","arrival_time":"15:13:00","departure_time":"15:13:00","lat":49.04185,"lon":16.306635,"is_passed":false},{"stop_id":"U14470Z1","name":"Moravský Krumlov, Jatky","arrival_time":"15:14:00","departure_time":"15:14:00","lat":49.037352,"lon":16.309838,"is_passed":false},{"stop_id":"U14537Z1","name":"Petrovice","arrival_time":"15:19:00","departure_time":"15:19:00","lat":49.007495,"lon":16.29147,"is_passed":false},{"stop_id":"U14535Z2","name":"Lesonice, požární zbrojnice","arrival_time":"15:22:00","departure_time":"15:22:00","lat":49.00354,"lon":16.310103,"is_passed":false},{"stop_id":"U14536Z1","name":"Miroslavské Knínice","arrival_time":"15:28:00","departure_time":"15:28:00","lat":48.978233,"lon":16.322713,"is_passed":false},{"stop_id":"U14549Z1","name":"Miroslav, kostel","arrival_time":"15:34:00","departure_time":"15:34:00","lat":48.95009,"lon":16.313703,"is_passed":false},{"stop_id":"U14546Z10","name":"Miroslav, autobusové nádraží","arrival_time":"15:36:00","departure_time":"15:36:00","lat":48.94661,"lon":16.313115,"is_passed":false}],"4959":[{"stop_id":"U14546Z6","name":"Miroslav, autobusové nádraží","arrival_time":"15:46:00","departure_time":"15:46:00","lat":48.947248,"lon":16.312927,"is_passed":false},{"stop_id":"U14561Z1","name":"Našiměřice, železniční stanice","arrival_time":"15:53:00","departure_time":"15:53:00","lat":48.963217,"lon":16.35083,"is_passed":false},{"stop_id":"U14559Z1","name":"Našiměřice","arrival_time":"15:56:00","departure_time":"15:56:00","lat":48.968258,"lon":16.372205,"is_passed":false},{"stop_id":"U14541Z1","name":"Bohutice","arrival_time":"16:01:00","departure_time":"16:01:00","lat":48.989738,"lon":16.360072,"is_passed":false},{"stop_id":"U14018Z1","name":"Olbramovice, prodejna","arrival_time":"16:06:00","departure_time":"16:09:00","lat":48.989877,"lon":16.395692,"is_passed":false},{"stop_id":"U14019Z1","name":"Olbramovice, restaurace","arrival_time":"16:11:00","departure_time":"16:11:00","lat":48.984167,"lon":16.400743,"is_passed":false},{"stop_id":"U14010Z1","name":"Branišovice, pošta","arrival_time":"16:16:00","departure_time":"16:16:00","lat":48.961775,"lon":16.428677,"is_passed":false},{"stop_id":"U14011Z1","name":"Branišovice, státní silnice","arrival_time":"16:18:00","departure_time":"16:18:00","lat":48.959107,"lon":16.428737,"is_passed":false},{"stop_id":"U14023Z1","name":"Trnové Pole","arrival_time":"16:21:00","departure_time":"16:21:00","lat":48.945552,"lon":16.409551,"is_passed":false},{"stop_id":"U15552Z11","name":"Jiřice u Miroslavi","arrival_time":"16:25:00","departure_time":"16:25:00","lat":48.920697,"lon":16.39138,"is_passed":false}],"49500":[{"stop_id":"U1062Z2","name":"Černého","arrival_time":"20:33:00","departure_time":"20:33:00","lat":49.213885,"lon":16.523087,"is_passed":false},{"stop_id":"U1107Z2","name":"Filipova","arrival_time":"20:34:00","departure_time":"20:34:00","lat":49.217593,"lon":16.525217,"is_passed":false},{"stop_id":"U1326Z4","name":"Laštůvkova","arrival_time":"20:35:00","departure_time":"20:35:00","lat":49.220549,"lon":16.526237,"is_passed":false},{"stop_id":"U1752Z2","name":"Vondrákova","arrival_time":"20:36:00","departure_time":"20:36:00","lat":49.221445,"lon":16.528853,"is_passed":false},{"stop_id":"U1417Z2","name":"Náměstí 28. dubna","arrival_time":"20:37:00","departure_time":"20:37:00","lat":49.226314,"lon":16.53213,"is_passed":false},{"stop_id":"U1226Z4","name":"Kamenolom","arrival_time":"20:39:00","departure_time":"20:39:00","lat":49.221655,"lon":16.536983,"is_passed":false},{"stop_id":"U1493Z4","name":"Podlesí","arrival_time":"20:40:00","departure_time":"20:40:00","lat":49.218759,"lon":16.542623,"is_passed":false},{"stop_id":"U1345Z2","name":"Lísky","arrival_time":"20:41:00","departure_time":"20:41:00","lat":49.219967,"lon":16.549281,"is_passed":false},{"stop_id":"U1633Z4","name":"Svratecká","arrival_time":"20:42:00","departure_time":"20:42:00","lat":49.218696,"lon":16.554399,"is_passed":false},{"stop_id":"U1502Z2","name":"Podveská","arrival_time":"20:43:00","departure_time":"20:43:00","lat":49.217607,"lon":16.558178,"is_passed":false},{"stop_id":"U1651Z2","name":"Štursova","arrival_time":"20:44:00","departure_time":"20:44:00","lat":49.215854,"lon":16.564522,"is_passed":false},{"stop_id":"U1758Z2","name":"Vrázova","arrival_time":"20:45:00","departure_time":"20:45:00","lat":49.216977,"lon":16.568646,"is_passed":false},{"stop_id":"U1528Z4","name":"Přívrat","arrival_time":"20:47:00","departure_time":"20:47:00","lat":49.218647,"lon":16.574085,"is_passed":false},{"stop_id":"U1777Z2","name":"Záhřebská","arrival_time":"20:48:00","departure_time":"20:48:00","lat":49.219845,"lon":16.580415,"is_passed":false},{"stop_id":"U1567Z6","name":"Skácelova","arrival_time":"20:50:00","departure_time":"20:50:00","lat":49.22163,"lon":16.585935,"is_passed":false},{"stop_id":"U1586Z4","name":"Slovanské náměstí","arrival_time":"20:51:00","departure_time":"20:51:00","lat":49.222774,"lon":16.591332,"is_passed":false},{"stop_id":"U1171Z3","name":"Husitská","arrival_time":"20:52:00","departure_time":"20:52:00","lat":49.223851,"lon":16.594116,"is_passed":false},{"stop_id":"U1566Z4","name":"Semilasso","arrival_time":"20:54:00","departure_time":"20:54:00","lat":49.228055,"lon":16.593438,"is_passed":false},{"stop_id":"U1286Z3","name":"Královo Pole, nádraží","arrival_time":"20:55:00","departure_time":"20:55:00","lat":49.229218,"lon":16.596271,"is_passed":false},{"stop_id":"U1388Z2","name":"Mojmírovo náměstí","arrival_time":"20:56:00","departure_time":"20:56:00","lat":49.226499,"lon":16.598423,"is_passed":false},{"stop_id":"U1150Z1","name":"Högrova","arrival_time":"20:58:00","departure_time":"20:58:00","lat":49.228296,"lon":16.604528,"is_passed":false},{"stop_id":"U1195Z1","name":"Jarmily Kurandové","arrival_time":"20:58:00","departure_time":"20:58:00","lat":49.230235,"lon":16.604438,"is_passed":false},{"stop_id":"U1399Z1","name":"Moskalykova","arrival_time":"20:59:00","departure_time":"20:59:00","lat":49.231252,"lon":16.607921,"is_passed":false},{"stop_id":"U1564Z1","name":"Sadová","arrival_time":"21:00:00","departure_time":"21:00:00","lat":49.234166,"lon":16.603978,"is_passed":false},{"stop_id":"U1130Z2","name":"Hamerláky","arrival_time":"21:01:00","departure_time":"21:01:00","lat":49.237225,"lon":16.60407,"is_passed":false},{"stop_id":"U1407Z1","name":"Myslivecký stadion","arrival_time":"21:02:00","departure_time":"21:02:00","lat":49.241317,"lon":16.609929,"is_passed":false},{"stop_id":"U1711Z1","name":"Útěchovská","arrival_time":"21:03:00","departure_time":"21:03:00","lat":49.2475,"lon":16.616402,"is_passed":false},{"stop_id":"U1091Z1","name":"Dohnalova","arrival_time":"21:04:00","departure_time":"21:04:00","lat":49.251124,"lon":16.618901,"is_passed":false},{"stop_id":"U1412Z1","name":"Na kovárně","arrival_time":"21:05:00","departure_time":"21:05:00","lat":49.253213,"lon":16.620275,"is_passed":false},{"stop_id":"U1548Z1","name":"Rozárka","arrival_time":"21:06:00","departure_time":"21:06:00","lat":49.254486,"lon":16.622791,"is_passed":false},{"stop_id":"U1235Z3","name":"Klarisky","arrival_time":"21:08:00","departure_time":"21:10:00","lat":49.256942,"lon":16.622725,"is_passed":false}],"49501":[{"stop_id":"U1235Z4","name":"Klarisky","arrival_time":"21:10:00","departure_time":"21:10:00","lat":49.257063,"lon":16.622604,"is_passed":false},{"stop_id":"U1412Z2","name":"Na kovárně","arrival_time":"21:10:00","departure_time":"21:10:00","lat":49.254426,"lon":16.620777,"is_passed":false},{"stop_id":"U1091Z2","name":"Dohnalova","arrival_time":"21:11:00","departure_time":"21:11:00","lat":49.249657,"lon":16.617775,"is_passed":false},{"stop_id":"U1711Z2","name":"Útěchovská","arrival_time":"21:12:00","departure_time":"21:12:00","lat":49.246974,"lon":16.61581,"is_passed":false},{"stop_id":"U1407Z2","name":"Myslivecký stadion","arrival_time":"21:13:00","departure_time":"21:13:00","lat":49.241075,"lon":16.609359,"is_passed":false},{"stop_id":"U1130Z1","name":"Hamerláky","arrival_time":"21:14:00","departure_time":"21:14:00","lat":49.237082,"lon":16.603873,"is_passed":false},{"stop_id":"U1564Z2","name":"Sadová","arrival_time":"21:15:00","departure_time":"21:15:00","lat":49.233904,"lon":16.604679,"is_passed":false},{"stop_id":"U1399Z2","name":"Moskalykova","arrival_time":"21:16:00","departure_time":"21:16:00","lat":49.23163,"lon":16.608178,"is_passed":false},{"stop_id":"U1150Z2","name":"Högrova","arrival_time":"21:17:00","departure_time":"21:17:00","lat":49.229128,"lon":16.604259,"is_passed":false},{"stop_id":"U1388Z1","name":"Mojmírovo náměstí","arrival_time":"21:19:00","departure_time":"21:19:00","lat":49.226134,"lon":16.597399,"is_passed":false},{"stop_id":"U1286Z5","name":"Královo Pole, nádraží","arrival_time":"21:22:00","departure_time":"21:22:00","lat":49.229633,"lon":16.595447,"is_passed":false},{"stop_id":"U1566Z6","name":"Semilasso","arrival_time":"21:23:00","departure_time":"21:23:00","lat":49.228248,"lon":16.593466,"is_passed":false},{"stop_id":"U1171Z4","name":"Husitská","arrival_time":"21:25:00","departure_time":"21:25:00","lat":49.224063,"lon":16.593994,"is_passed":false},{"stop_id":"U1586Z3","name":"Slovanské náměstí","arrival_time":"21:26:00","departure_time":"21:26:00","lat":49.223525,"lon":16.591009,"is_passed":false},{"stop_id":"U1567Z5","name":"Skácelova","arrival_time":"21:27:00","departure_time":"21:27:00","lat":49.221353,"lon":16.584711,"is_passed":false},{"stop_id":"U1777Z1","name":"Záhřebská","arrival_time":"21:29:00","departure_time":"21:29:00","lat":49.219602,"lon":16.579157,"is_passed":false},{"stop_id":"U1528Z3","name":"Přívrat","arrival_time":"21:30:00","departure_time":"21:30:00","lat":49.218788,"lon":16.574147,"is_passed":false},{"stop_id":"U1758Z1","name":"Vrázova","arrival_time":"21:31:00","departure_time":"21:31:00","lat":49.216968,"lon":16.568321,"is_passed":false},{"stop_id":"U1651Z1","name":"Štursova","arrival_time":"21:32:00","departure_time":"21:32:00","lat":49.216462,"lon":16.563614,"is_passed":false},{"stop_id":"U1502Z1","name":"Podveská","arrival_time":"21:33:00","departure_time":"21:34:00","lat":49.217623,"lon":16.559017,"is_passed":false},{"stop_id":"U1633Z3","name":"Svratecká","arrival_time":"21:35:00","departure_time":"21:35:00","lat":49.219008,"lon":16.554451,"is_passed":false},{"stop_id":"U1345Z1","name":"Lísky","arrival_time":"21:36:00","departure_time":"21:36:00","lat":49.219825,"lon":16.548868,"is_passed":false},{"stop_id":"U1493Z3","name":"Podlesí","arrival_time":"21:37:00","departure_time":"21:37:00","lat":49.218861,"lon":16.542049,"is_passed":false},{"stop_id":"U1226Z3","name":"Kamenolom","arrival_time":"21:38:00","departure_time":"21:38:00","lat":49.222506,"lon":16.537085,"is_passed":false},{"stop_id":"U1796Z7","name":"Zoologická zahrada","arrival_time":"21:41:00","departure_time":"21:41:00","lat":49.227823,"lon":16.531364,"is_passed":false},{"stop_id":"U1417Z1","name":"Náměstí 28. dubna","arrival_time":"21:42:00","departure_time":"21:42:00","lat":49.225188,"lon":16.531132,"is_passed":false},{"stop_id":"U1752Z1","name":"Vondrákova","arrival_time":"21:43:00","departure_time":"21:43:00","lat":49.221303,"lon":16.528376,"is_passed":false},{"stop_id":"U1326Z1","name":"Laštůvkova","arrival_time":"21:44:00","departure_time":"21:44:00","lat":49.220185,"lon":16.525212,"is_passed":false},{"stop_id":"U1107Z1","name":"Filipova","arrival_time":"21:45:00","departure_time":"21:45:00","lat":49.217684,"lon":16.525123,"is_passed":false},{"stop_id":"U1062Z1","name":"Černého","arrival_time":"21:47:00","departure_time":"22:03:00","lat":49.214083,"lon":16.522812,"is_passed":false}],"49502":[{"stop_id":"U1062Z2","name":"Černého","arrival_time":"22:03:00","departure_time":"22:03:00","lat":49.213885,"lon":16.523087,"is_passed":false},{"stop_id":"U1107Z2","name":"Filipova","arrival_time":"22:04:00","departure_time":"22:04:00","lat":49.217593,"lon":16.525217,"is_passed":false},{"stop_id":"U1326Z4","name":"Laštůvkova","arrival_time":"22:05:00","departure_time":"22:05:00","lat":49.220549,"lon":16.526237,"is_passed":false},{"stop_id":"U1752Z2","name":"Vondrákova","arrival_time":"22:06:00","departure_time":"22:06:00","lat":49.221445,"lon":16.528853,"is_passed":false},{"stop_id":"U1417Z2","name":"Náměstí 28. dubna","arrival_time":"22:07:00","departure_time":"22:07:00","lat":49.226314,"lon":16.53213,"is_passed":false},{"stop_id":"U1226Z4","name":"Kamenolom","arrival_time":"22:09:00","departure_time":"22:09:00","lat":49.221655,"lon":16.536983,"is_passed":false},{"stop_id":"U1493Z4","name":"Podlesí","arrival_time":"22:10:00","departure_time":"22:10:00","lat":49.218759,"lon":16.542623,"is_passed":false},{"stop_id":"U1345Z2","name":"Lísky","arrival_time":"22:11:00","departure_time":"22:11:00","lat":49.219967,"lon":16.549281,"is_passed":false},{"stop_id":"U1633Z4","name":"Svratecká","arrival_time":"22:12:00","departure_time":"22:12:00","lat":49.218696,"lon":16.554399,"is_passed":false},{"stop_id":"U1502Z2","name":"Podveská","arrival_time":"22:13:00","departure_time":"22:13:00","lat":49.217607,"lon":16.558178,"is_passed":false},{"stop_id":"U1651Z2","name":"Štursova","arrival_time":"22:14:00","departure_time":"22:14:00","lat":49.215854,"lon":16.564522,"is_passed":false},{"stop_id":"U1758Z2","name":"Vrázova","arrival_time":"22:15:00","departure_time":"22:15:00","lat":49.216977,"lon":16.568646,"is_passed":false},{"stop_id":"U1528Z4","name":"Přívrat","arrival_time":"22:17:00","departure_time":"22:17:00","lat":49.218647,"lon":16.574085,"is_passed":false},{"stop_id":"U1777Z2","name":"Záhřebská","arrival_time":"22:18:00","departure_time":"22:18:00","lat":49.219845,"lon":16.580415,"is_passed":false},{"stop_id":"U1567Z6","name":"Skácelova","arrival_time":"22:20:00","departure_time":"22:20:00","lat":49.22163,"lon":16.585935,"is_passed":false},{"stop_id":"U1586Z4","name":"Slovanské náměstí","arrival_time":"22:21:00","departure_time":"22:21:00","lat":49.222774,"lon":16.591332,"is_passed":false},{"stop_id":"U1171Z3","name":"Husitská","arrival_time":"22:22:00","departure_time":"22:22:00","lat":49.223851,"lon":16.594116,"is_passed":false},{"stop_id":"U1566Z4","name":"Semilasso","arrival_time":"22:24:00","departure_time":"22:24:00","lat":49.228055,"lon":16.593438,"is_passed":false},{"stop_id":"U1286Z3","name":"Královo Pole, nádraží","arrival_time":"22:25:00","departure_time":"22:25:00","lat":49.229218,"lon":16.596271,"is_passed":false},{"stop_id":"U1388Z2","name":"Mojmírovo náměstí","arrival_time":"22:26:00","departure_time":"22:26:00","lat":49.226499,"lon":16.598423,"is_passed":false},{"stop_id":"U1150Z1","name":"Högrova","arrival_time":"22:28:00","departure_time":"22:28:00","lat":49.228296,"lon":16.604528,"is_passed":false},{"stop_id":"U1195Z1","name":"Jarmily Kurandové","arrival_time":"22:28:00","departure_time":"22:28:00","lat":49.230235,"lon":16.604438,"is_passed":false},{"stop_id":"U1399Z1","name":"Moskalykova","arrival_time":"22:29:00","departure_time":"22:29:00","lat":49.231252,"lon":16.607921,"is_passed":false},{"stop_id":"U1564Z1","name":"Sadová","arrival_time":"22:30:00","departure_time":"22:30:00","lat":49.234166,"lon":16.603978,"is_passed":false},{"stop_id":"U1130Z2","name":"Hamerláky","arrival_time":"22:31:00","departure_time":"22:31:00","lat":49.237225,"lon":16.60407,"is_passed":false},{"stop_id":"U1407Z1","name":"Myslivecký stadion","arrival_time":"22:32:00","departure_time":"22:32:00","lat":49.241317,"lon":16.609929,"is_passed":false},{"stop_id":"U1711Z1","name":"Útěchovská","arrival_time":"22:33:00","departure_time":"22:33:00","lat":49.2475,"lon":16.616402,"is_passed":false},{"stop_id":"U1091Z1","name":"Dohnalova","arrival_time":"22:34:00","departure_time":"22:34:00","lat":49.251124,"lon":16.618901,"is_passed":false},{"stop_id":"U1412Z1","name":"Na kovárně","arrival_time":"22:35:00","departure_time":"22:35:00","lat":49.253213,"lon":16.620275,"is_passed":false},{"stop_id":"U1548Z1","name":"Rozárka","arrival_time":"22:36:00","departure_time":"22:36:00","lat":49.254486,"lon":16.622791,"is_passed":false},{"stop_id":"U1235Z3","name":"Klarisky","arrival_time":"22:38:00","departure_time":"22:40:00","lat":49.256942,"lon":16.622725,"is_passed":false}],"49503":[{"stop_id":"U1235Z4","name":"Klarisky","arrival_time":"22:40:00","departure_time":"22:40:00","lat":49.257063,"lon":16.622604,"is_passed":false},{"stop_id":"U1412Z2","name":"Na kovárně","arrival_time":"22:40:00","departure_time":"22:40:00","lat":49.254426,"lon":16.620777,"is_passed":false},{"stop_id":"U1091Z2","name":"Dohnalova","arrival_time":"22:41:00","departure_time":"22:41:00","lat":49.249657,"lon":16.617775,"is_passed":false},{"stop_id":"U1711Z2","name":"Útěchovská","arrival_time":"22:42:00","departure_time":"22:42:00","lat":49.246974,"lon":16.61581,"is_passed":false},{"stop_id":"U1407Z2","name":"Myslivecký stadion","arrival_time":"22:43:00","departure_time":"22:43:00","lat":49.241075,"lon":16.609359,"is_passed":false},{"stop_id":"U1130Z1","name":"Hamerláky","arrival_time":"22:44:00","departure_time":"22:44:00","lat":49.237082,"lon":16.603873,"is_passed":false},{"stop_id":"U1564Z2","name":"Sadová","arrival_time":"22:45:00","departure_time":"22:45:00","lat":49.233904,"lon":16.604679,"is_passed":false},{"stop_id":"U1399Z2","name":"Moskalykova","arrival_time":"22:46:00","departure_time":"22:46:00","lat":49.23163,"lon":16.608178,"is_passed":false},{"stop_id":"U1150Z2","name":"Högrova","arrival_time":"22:47:00","departure_time":"22:47:00","lat":49.229128,"lon":16.604259,"is_passed":false},{"stop_id":"U1388Z1","name":"Mojmírovo náměstí","arrival_time":"22:49:00","departure_time":"22:49:00","lat":49.226134,"lon":16.597399,"is_passed":false},{"stop_id":"U1286Z5","name":"Královo Pole, nádraží","arrival_time":"22:52:00","departure_time":"22:52:00","lat":49.229633,"lon":16.595447,"is_passed":false},{"stop_id":"U1566Z6","name":"Semilasso","arrival_time":"22:53:00","departure_time":"22:53:00","lat":49.228248,"lon":16.593466,"is_passed":false},{"stop_id":"U1171Z4","name":"Husitská","arrival_time":"22:55:00","departure_time":"22:55:00","lat":49.224063,"lon":16.593994,"is_passed":false},{"stop_id":"U1586Z3","name":"Slovanské náměstí","arrival_time":"22:56:00","departure_time":"22:56:00","lat":49.223525,"lon":16.591009,"is_passed":false},{"stop_id":"U1567Z5","name":"Skácelova","arrival_time":"22:57:00","departure_time":"22:57:00","lat":49.221353,"lon":16.584711,"is_passed":false},{"stop_id":"U1777Z1","name":"Záhřebská","arrival_time":"22:59:00","departure_time":"22:59:00","lat":49.219602,"lon":16.579157,"is_passed":false},{"stop_id":"U1528Z3","name":"Přívrat","arrival_time":"23:00:00","departure_time":"23:00:00","lat":49.218788,"lon":16.574147,"is_passed":false},{"stop_id":"U1758Z1","name":"Vrázova","arrival_time":"23:01:00","departure_time":"23:01:00","lat":49.216968,"lon":16.568321,"is_passed":false},{"stop_id":"U1651Z1","name":"Štursova","arrival_time":"23:02:00","departure_time":"23:02:00","lat":49.216462,"lon":16.563614,"is_passed":false},{"stop_id":"U1502Z1","name":"Podveská","arrival_time":"23:03:00","departure_time":"23:04:00","lat":49.217623,"lon":16.559017,"is_passed":false},{"stop_id":"U1633Z3","name":"Svratecká","arrival_time":"23:05:00","departure_time":"23:05:00","lat":49.219008,"lon":16.554451,"is_passed":false},{"stop_id":"U1345Z1","name":"Lísky","arrival_time":"23:06:00","departure_time":"23:06:00","lat":49.219825,"lon":16.548868,"is_passed":false},{"stop_id":"U1493Z3","name":"Podlesí","arrival_time":"23:07:00","departure_time":"23:07:00","lat":49.218861,"lon":16.542049,"is_passed":false},{"stop_id":"U1226Z3","name":"Kamenolom","arrival_time":"23:08:00","departure_time":"23:08:00","lat":49.222506,"lon":16.537085,"is_passed":false},{"stop_id":"U1796Z7","name":"Zoologická zahrada","arrival_time":"23:11:00","departure_time":"23:11:00","lat":49.227823,"lon":16.531364,"is_passed":false},{"stop_id":"U1417Z1","name":"Náměstí 28. dubna","arrival_time":"23:12:00","departure_time":"23:12:00","lat":49.225188,"lon":16.531132,"is_passed":false},{"stop_id":"U1752Z1","name":"Vondrákova","arrival_time":"23:13:00","departure_time":"23:13:00","lat":49.221303,"lon":16.528376,"is_passed":false},{"stop_id":"U1326Z1","name":"Laštůvkova","arrival_time":"23:14:00","departure_time":"23:14:00","lat":49.220185,"lon":16.525212,"is_passed":false},{"stop_id":"U1107Z1","name":"Filipova","arrival_time":"23:15:00","departure_time":"23:15:00","lat":49.217684,"lon":16.525123,"is_passed":false},{"stop_id":"U1062Z1","name":"Černého","arrival_time":"23:17:00","departure_time":"23:19:00","lat":49.214083,"lon":16.522812,"is_passed":false}],"49504":[{"stop_id":"U1517Z2","name":"Preslova","arrival_time":"10:11:00","departure_time":"10:11:00","lat":49.199468,"lon":16.570483,"is_passed":false},{"stop_id":"U1366Z2","name":"Marie Pujmanové","arrival_time":"10:11:00","departure_time":"10:11:00","lat":49.198128,"lon":16.573743,"is_passed":false},{"stop_id":"U1433Z2","name":"Neumannova","arrival_time":"10:12:00","departure_time":"10:12:00","lat":49.196459,"lon":16.578249,"is_passed":false},{"stop_id":"U1478Z2","name":"Pavlíkova","arrival_time":"10:13:00","departure_time":"10:13:00","lat":49.194734,"lon":16.582794,"is_passed":false},{"stop_id":"U1723Z2","name":"Vaňkovo náměstí","arrival_time":"10:14:00","departure_time":"10:14:00","lat":49.194962,"lon":16.586678,"is_passed":false},{"stop_id":"U1816Z2","name":"Žlutý kopec","arrival_time":"10:14:00","departure_time":"10:14:00","lat":49.195368,"lon":16.588271,"is_passed":false},{"stop_id":"U1682Z2","name":"Tvrdého","arrival_time":"10:15:00","departure_time":"10:15:00","lat":49.196917,"lon":16.592895,"is_passed":false},{"stop_id":"U1712Z4","name":"Úvoz","arrival_time":"10:16:00","departure_time":"10:16:00","lat":49.198264,"lon":16.59531,"is_passed":false},{"stop_id":"U1442Z2","name":"Obilní trh","arrival_time":"10:17:00","departure_time":"10:17:00","lat":49.198022,"lon":16.598215,"is_passed":false},{"stop_id":"U1257Z3","name":"Komenského náměstí","arrival_time":"10:19:00","departure_time":"10:19:00","lat":49.197026,"lon":16.602057,"is_passed":false}],"49505":[{"stop_id":"U1257Z2","name":"Komenského náměstí","arrival_time":"10:20:00","departure_time":"10:20:00","lat":49.197135,"lon":16.602612,"is_passed":false},{"stop_id":"U1442Z1","name":"Obilní trh","arrival_time":"10:21:00","departure_time":"10:21:00","lat":49.198221,"lon":16.597478,"is_passed":false},{"stop_id":"U1712Z3","name":"Úvoz","arrival_time":"10:22:00","departure_time":"10:22:00","lat":49.198432,"lon":16.594582,"is_passed":false},{"stop_id":"U1816Z1","name":"Žlutý kopec","arrival_time":"10:24:00","departure_time":"10:24:00","lat":49.19515,"lon":16.587289,"is_passed":false},{"stop_id":"U1723Z1","name":"Vaňkovo náměstí","arrival_time":"10:25:00","departure_time":"10:25:00","lat":49.195052,"lon":16.585013,"is_passed":false},{"stop_id":"U1228Z1","name":"Kampelíkova","arrival_time":"10:26:00","departure_time":"10:26:00","lat":49.197512,"lon":16.581178,"is_passed":false},{"stop_id":"U1597Z1","name":"Soukopova","arrival_time":"10:27:00","departure_time":"10:27:00","lat":49.198956,"lon":16.579053,"is_passed":false},{"stop_id":"U1013Z1","name":"Barvičova","arrival_time":"10:29:00","departure_time":"10:41:00","lat":49.201189,"lon":16.575746,"is_passed":false}],"49506":[{"stop_id":"U1013Z2","name":"Barvičova","arrival_time":"10:41:00","departure_time":"10:41:00","lat":49.201047,"lon":16.575783,"is_passed":false},{"stop_id":"U1597Z2","name":"Soukopova","arrival_time":"10:41:00","departure_time":"10:41:00","lat":49.199132,"lon":16.578726,"is_passed":false},{"stop_id":"U1228Z2","name":"Kampelíkova","arrival_time":"10:42:00","departure_time":"10:42:00","lat":49.197384,"lon":16.581205,"is_passed":false},{"stop_id":"U1723Z2","name":"Vaňkovo náměstí","arrival_time":"10:44:00","departure_time":"10:44:00","lat":49.194962,"lon":16.586678,"is_passed":false},{"stop_id":"U1816Z2","name":"Žlutý kopec","arrival_time":"10:44:00","departure_time":"10:44:00","lat":49.195368,"lon":16.588271,"is_passed":false},{"stop_id":"U1682Z2","name":"Tvrdého","arrival_time":"10:45:00","departure_time":"10:45:00","lat":49.196917,"lon":16.592895,"is_passed":false},{"stop_id":"U1712Z4","name":"Úvoz","arrival_time":"10:46:00","departure_time":"10:46:00","lat":49.198264,"lon":16.59531,"is_passed":false},{"stop_id":"U1442Z2","name":"Obilní trh","arrival_time":"10:47:00","departure_time":"10:47:00","lat":49.198022,"lon":16.598215,"is_passed":false},{"stop_id":"U1257Z3","name":"Komenského náměstí","arrival_time":"10:49:00","departure_time":"10:49:00","lat":49.197026,"lon":16.602057,"is_passed":false}],"49507":[{"stop_id":"U1257Z2","name":"Komenského náměstí","arrival_time":"10:50:00","departure_time":"10:50:00","lat":49.197135,"lon":16.602612,"is_passed":false},{"stop_id":"U1442Z1","name":"Obilní trh","arrival_time":"10:51:00","departure_time":"10:51:00","lat":49.198221,"lon":16.597478,"is_passed":false},{"stop_id":"U1712Z3","name":"Úvoz","arrival_time":"10:52:00","departure_time":"10:52:00","lat":49.198432,"lon":16.594582,"is_passed":false},{"stop_id":"U1816Z1","name":"Žlutý kopec","arrival_time":"10:54:00","departure_time":"10:54:00","lat":49.19515,"lon":16.587289,"is_passed":false},{"stop_id":"U1723Z3","name":"Vaňkovo náměstí","arrival_time":"10:55:00","departure_time":"10:55:00","lat":49.194723,"lon":16.585005,"is_passed":false},{"stop_id":"U1478Z1","name":"Pavlíkova","arrival_time":"10:55:00","departure_time":"10:55:00","lat":49.195012,"lon":16.581894,"is_passed":false},{"stop_id":"U1433Z1","name":"Neumannova","arrival_time":"10:56:00","departure_time":"10:56:00","lat":49.196721,"lon":16.577681,"is_passed":false},{"stop_id":"U1366Z1","name":"Marie Pujmanové","arrival_time":"10:57:00","departure_time":"10:57:00","lat":49.198265,"lon":16.573344,"is_passed":false},{"stop_id":"U1517Z1","name":"Preslova","arrival_time":"10:59:00","departure_time":"11:01:00","lat":49.199128,"lon":16.571114,"is_passed":false}],"49508":[{"stop_id":"U1062Z2","name":"Černého","arrival_time":"11:46:00","departure_time":"11:46:00","lat":49.213885,"lon":16.523087,"is_passed":false},{"stop_id":"U1107Z2","name":"Filipova","arrival_time":"11:47:00","departure_time":"11:47:00","lat":49.217593,"lon":16.525217,"is_passed":false},{"stop_id":"U1326Z4","name":"Laštůvkova","arrival_time":"11:48:00","departure_time":"11:48:00","lat":49.220549,"lon":16.526237,"is_passed":false},{"stop_id":"U1752Z2","name":"Vondrákova","arrival_time":"11:49:00","departure_time":"11:49:00","lat":49.221445,"lon":16.528853,"is_passed":false},{"stop_id":"U1417Z2","name":"Náměstí 28. dubna","arrival_time":"11:50:00","departure_time":"11:50:00","lat":49.226314,"lon":16.53213,"is_passed":false},{"stop_id":"U1226Z4","name":"Kamenolom","arrival_time":"11:52:00","departure_time":"11:52:00","lat":49.221655,"lon":16.536983,"is_passed":false},{"stop_id":"U1493Z4","name":"Podlesí","arrival_time":"11:53:00","departure_time":"11:53:00","lat":49.218759,"lon":16.542623,"is_passed":false},{"stop_id":"U1345Z2","name":"Lísky","arrival_time":"11:54:00","departure_time":"11:54:00","lat":49.219967,"lon":16.549281,"is_passed":false},{"stop_id":"U1633Z4","name":"Svratecká","arrival_time":"11:56:00","departure_time":"11:56:00","lat":49.218696,"lon":16.554399,"is_passed":false},{"stop_id":"U1502Z2","name":"Podveská","arrival_time":"11:57:00","departure_time":"11:57:00","lat":49.217607,"lon":16.558178,"is_passed":false},{"stop_id":"U1651Z2","name":"Štursova","arrival_time":"11:58:00","departure_time":"11:58:00","lat":49.215854,"lon":16.564522,"is_passed":false},{"stop_id":"U1758Z2","name":"Vrázova","arrival_time":"11:59:00","departure_time":"11:59:00","lat":49.216977,"lon":16.568646,"is_passed":false},{"stop_id":"U1528Z4","name":"Přívrat","arrival_time":"12:01:00","departure_time":"12:01:00","lat":49.218647,"lon":16.574085,"is_passed":false},{"stop_id":"U1777Z2","name":"Záhřebská","arrival_time":"12:02:00","departure_time":"12:02:00","lat":49.219845,"lon":16.580415,"is_passed":false},{"stop_id":"U1567Z6","name":"Skácelova","arrival_time":"12:04:00","departure_time":"12:04:00","lat":49.22163,"lon":16.585935,"is_passed":false},{"stop_id":"U1586Z4","name":"Slovanské náměstí","arrival_time":"12:05:00","departure_time":"12:05:00","lat":49.222774,"lon":16.591332,"is_passed":false},{"stop_id":"U1171Z3","name":"Husitská","arrival_time":"12:06:00","departure_time":"12:06:00","lat":49.223851,"lon":16.594116,"is_passed":false},{"stop_id":"U1566Z4","name":"Semilasso","arrival_time":"12:08:00","departure_time":"12:08:00","lat":49.228055,"lon":16.593438,"is_passed":false},{"stop_id":"U1286Z3","name":"Královo Pole, nádraží","arrival_time":"12:09:00","departure_time":"12:09:00","lat":49.229218,"lon":16.596271,"is_passed":false},{"stop_id":"U1388Z2","name":"Mojmírovo náměstí","arrival_time":"12:10:00","departure_time":"12:10:00","lat":49.226499,"lon":16.598423,"is_passed":false},{"stop_id":"U1150Z1","name":"Högrova","arrival_time":"12:12:00","departure_time":"12:12:00","lat":49.228296,"lon":16.604528,"is_passed":false},{"stop_id":"U1195Z1","name":"Jarmily Kurandové","arrival_time":"12:12:00","departure_time":"12:12:00","lat":49.230235,"lon":16.604438,"is_passed":false},{"stop_id":"U1399Z1","name":"Moskalykova","arrival_time":"12:13:00","departure_time":"12:13:00","lat":49.231252,"lon":16.607921,"is_passed":false},{"stop_id":"U1564Z1","name":"Sadová","arrival_time":"12:14:00","departure_time":"12:14:00","lat":49.234166,"lon":16.603978,"is_passed":false},{"stop_id":"U1130Z2","name":"Hamerláky","arrival_time":"12:15:00","departure_time":"12:15:00","lat":49.237225,"lon":16.60407,"is_passed":false},{"stop_id":"U1407Z1","name":"Myslivecký stadion","arrival_time":"12:16:00","departure_time":"12:16:00","lat":49.241317,"lon":16.609929,"is_passed":false},{"stop_id":"U1711Z1","name":"Útěchovská","arrival_time":"12:17:00","departure_time":"12:17:00","lat":49.2475,"lon":16.616402,"is_passed":false},{"stop_id":"U1091Z1","name":"Dohnalova","arrival_time":"12:18:00","departure_time":"12:18:00","lat":49.251124,"lon":16.618901,"is_passed":false},{"stop_id":"U1412Z1","name":"Na kovárně","arrival_time":"12:19:00","departure_time":"12:19:00","lat":49.253213,"lon":16.620275,"is_passed":false},{"stop_id":"U1548Z1","name":"Rozárka","arrival_time":"12:20:00","departure_time":"12:20:00","lat":49.254486,"lon":16.622791,"is_passed":false},{"stop_id":"U1235Z3","name":"Klarisky","arrival_time":"12:22:00","departure_time":"12:26:00","lat":49.256942,"lon":16.622725,"is_passed":false}],"49509":[{"stop_id":"U1235Z4","name":"Klarisky","arrival_time":"12:26:00","departure_time":"12:26:00","lat":49.257063,"lon":16.622604,"is_passed":false},{"stop_id":"U1412Z2","name":"Na kovárně","arrival_time":"12:27:00","departure_time":"12:27:00","lat":49.254426,"lon":16.620777,"is_passed":false},{"stop_id":"U1091Z2","name":"Dohnalova","arrival_time":"12:28:00","departure_time":"12:28:00","lat":49.249657,"lon":16.617775,"is_passed":false},{"stop_id":"U1711Z2","name":"Útěchovská","arrival_time":"12:29:00","departure_time":"12:29:00","lat":49.246974,"lon":16.61581,"is_passed":false},{"stop_id":"U1407Z2","name":"Myslivecký stadion","arrival_time":"12:30:00","departure_time":"12:30:00","lat":49.241075,"lon":16.609359,"is_passed":false},{"stop_id":"U1130Z1","name":"Hamerláky","arrival_time":"12:31:00","departure_time":"12:31:00","lat":49.237082,"lon":16.603873,"is_passed":false},{"stop_id":"U1564Z2","name":"Sadová","arrival_time":"12:32:00","departure_time":"12:32:00","lat":49.233904,"lon":16.604679,"is_passed":false},{"stop_id":"U1399Z2","name":"Moskalykova","arrival_time":"12:33:00","departure_time":"12:33:00","lat":49.23163,"lon":16.608178,"is_passed":false},{"stop_id":"U1150Z2","name":"Högrova","arrival_time":"12:34:00","departure_time":"12:34:00","lat":49.229128,"lon":16.604259,"is_passed":false},{"stop_id":"U1388Z1","name":"Mojmírovo náměstí","arrival_time":"12:36:00","departure_time":"12:36:00","lat":49.226134,"lon":16.597399,"is_passed":false},{"stop_id":"U1286Z5","name":"Královo Pole, nádraží","arrival_time":"12:39:00","departure_time":"12:39:00","lat":49.229633,"lon":16.595447,"is_passed":false},{"stop_id":"U1566Z6","name":"Semilasso","arrival_time":"12:40:00","departure_time":"12:40:00","lat":49.228248,"lon":16.593466,"is_passed":false},{"stop_id":"U1171Z4","name":"Husitská","arrival_time":"12:42:00","departure_time":"12:42:00","lat":49.224063,"lon":16.593994,"is_passed":false},{"stop_id":"U1586Z3","name":"Slovanské náměstí","arrival_time":"12:43:00","departure_time":"12:43:00","lat":49.223525,"lon":16.591009,"is_passed":false},{"stop_id":"U1567Z5","name":"Skácelova","arrival_time":"12:44:00","departure_time":"12:44:00","lat":49.221353,"lon":16.584711,"is_passed":false},{"stop_id":"U1777Z1","name":"Záhřebská","arrival_time":"12:46:00","departure_time":"12:46:00","lat":49.219602,"lon":16.579157,"is_passed":false},{"stop_id":"U1528Z3","name":"Přívrat","arrival_time":"12:47:00","departure_time":"12:47:00","lat":49.218788,"lon":16.574147,"is_passed":false},{"stop_id":"U1758Z1","name":"Vrázova","arrival_time":"12:48:00","departure_time":"12:48:00","lat":49.216968,"lon":16.568321,"is_passed":false},{"stop_id":"U1651Z1","name":"Štursova","arrival_time":"12:49:00","departure_time":"12:49:00","lat":49.216462,"lon":16.563614,"is_passed":false},{"stop_id":"U1502Z1","name":"Podveská","arrival_time":"12:50:00","departure_time":"12:50:00","lat":49.217623,"lon":16.559017,"is_passed":false},{"stop_id":"U1633Z3","name":"Svratecká","arrival_time":"12:51:00","departure_time":"12:51:00","lat":49.219008,"lon":16.554451,"is_passed":false},{"stop_id":"U1345Z1","name":"Lísky","arrival_time":"12:52:00","departure_time":"12:52:00","lat":49.219825,"lon":16.548868,"is_passed":false},{"stop_id":"U1493Z3","name":"Podlesí","arrival_time":"12:53:00","departure_time":"12:53:00","lat":49.218861,"lon":16.542049,"is_passed":false},{"stop_id":"U1226Z3","name":"Kamenolom","arrival_time":"12:54:00","departure_time":"12:54:00","lat":49.222506,"lon":16.537085,"is_passed":false},{"stop_id":"U1796Z7","name":"Zoologická zahrada","arrival_time":"12:58:00","departure_time":"12:58:00","lat":49.227823,"lon":16.531364,"is_passed":false},{"stop_id":"U1417Z1","name":"Náměstí 28. dubna","arrival_time":"12:59:00","departure_time":"12:59:00","lat":49.225188,"lon":16.531132,"is_passed":false},{"stop_id":"U1752Z1","name":"Vondrákova","arrival_time":"13:00:00","departure_time":"13:00:00","lat":49.221303,"lon":16.528376,"is_passed":false},{"stop_id":"U1326Z1","name":"Laštůvkova","arrival_time":"13:01:00","departure_time":"13:01:00","lat":49.220185,"lon":16.525212,"is_passed":false},{"stop_id":"U1107Z1","name":"Filipova","arrival_time":"13:02:00","departure_time":"13:02:00","lat":49.217684,"lon":16.525123,"is_passed":false},{"stop_id":"U1062Z1","name":"Černého","arrival_time":"13:04:00","departure_time":"13:46:00","lat":49.214083,"lon":16.522812,"is_passed":false}],"49510":[{"stop_id":"U1062Z2","name":"Černého","arrival_time":"13:46:00","departure_time":"13:46:00","lat":49.213885,"lon":16.523087,"is_passed":false},{"stop_id":"U1107Z2","name":"Filipova","arrival_time":"13:47:00","departure_time":"13:47:00","lat":49.217593,"lon":16.525217,"is_passed":false},{"stop_id":"U1326Z4","name":"Laštůvkova","arrival_time":"13:48:00","departure_time":"13:48:00","lat":49.220549,"lon":16.526237,"is_passed":false},{"stop_id":"U1752Z2","name":"Vondrákova","arrival_time":"13:49:00","departure_time":"13:49:00","lat":49.221445,"lon":16.528853,"is_passed":false},{"stop_id":"U1417Z2","name":"Náměstí 28. dubna","arrival_time":"13:50:00","departure_time":"13:50:00","lat":49.226314,"lon":16.53213,"is_passed":false},{"stop_id":"U1226Z4","name":"Kamenolom","arrival_time":"13:52:00","departure_time":"13:52:00","lat":49.221655,"lon":16.536983,"is_passed":false},{"stop_id":"U1493Z4","name":"Podlesí","arrival_time":"13:53:00","departure_time":"13:53:00","lat":49.218759,"lon":16.542623,"is_passed":false},{"stop_id":"U1345Z2","name":"Lísky","arrival_time":"13:54:00","departure_time":"13:54:00","lat":49.219967,"lon":16.549281,"is_passed":false},{"stop_id":"U1633Z4","name":"Svratecká","arrival_time":"13:56:00","departure_time":"13:56:00","lat":49.218696,"lon":16.554399,"is_passed":false},{"stop_id":"U1502Z2","name":"Podveská","arrival_time":"13:57:00","departure_time":"13:57:00","lat":49.217607,"lon":16.558178,"is_passed":false},{"stop_id":"U1651Z2","name":"Štursova","arrival_time":"13:58:00","departure_time":"13:58:00","lat":49.215854,"lon":16.564522,"is_passed":false},{"stop_id":"U1758Z2","name":"Vrázova","arrival_time":"13:59:00","departure_time":"13:59:00","lat":49.216977,"lon":16.568646,"is_passed":false},{"stop_id":"U1528Z4","name":"Přívrat","arrival_time":"14:01:00","departure_time":"14:01:00","lat":49.218647,"lon":16.574085,"is_passed":false},{"stop_id":"U1777Z2","name":"Záhřebská","arrival_time":"14:02:00","departure_time":"14:02:00","lat":49.219845,"lon":16.580415,"is_passed":false},{"stop_id":"U1567Z6","name":"Skácelova","arrival_time":"14:04:00","departure_time":"14:04:00","lat":49.22163,"lon":16.585935,"is_passed":false},{"stop_id":"U1586Z4","name":"Slovanské náměstí","arrival_time":"14:05:00","departure_time":"14:05:00","lat":49.222774,"lon":16.591332,"is_passed":false},{"stop_id":"U1171Z3","name":"Husitská","arrival_time":"14:06:00","departure_time":"14:06:00","lat":49.223851,"lon":16.594116,"is_passed":false},{"stop_id":"U1566Z4","name":"Semilasso","arrival_time":"14:08:00","departure_time":"14:08:00","lat":49.228055,"lon":16.593438,"is_passed":false},{"stop_id":"U1286Z3","name":"Královo Pole, nádraží","arrival_time":"14:09:00","departure_time":"14:09:00","lat":49.229218,"lon":16.596271,"is_passed":false},{"stop_id":"U1388Z2","name":"Mojmírovo náměstí","arrival_time":"14:10:00","departure_time":"14:10:00","lat":49.226499,"lon":16.598423,"is_passed":false},{"stop_id":"U1150Z1","name":"Högrova","arrival_time":"14:12:00","departure_time":"14:12:00","lat":49.228296,"lon":16.604528,"is_passed":false},{"stop_id":"U1195Z1","name":"Jarmily Kurandové","arrival_time":"14:12:00","departure_time":"14:12:00","lat":49.230235,"lon":16.604438,"is_passed":false},{"stop_id":"U1399Z1","name":"Moskalykova","arrival_time":"14:13:00","departure_time":"14:13:00","lat":49.231252,"lon":16.607921,"is_passed":false},{"stop_id":"U1564Z1","name":"Sadová","arrival_time":"14:14:00","departure_time":"14:14:00","lat":49.234166,"lon":16.603978,"is_passed":false},{"stop_id":"U1130Z2","name":"Hamerláky","arrival_time":"14:15:00","departure_time":"14:15:00","lat":49.237225,"lon":16.60407,"is_passed":false},{"stop_id":"U1407Z1","name":"Myslivecký stadion","arrival_time":"14:16:00","departure_time":"14:16:00","lat":49.241317,"lon":16.609929,"is_passed":false},{"stop_id":"U1711Z1","name":"Útěchovská","arrival_time":"14:17:00","departure_time":"14:17:00","lat":49.2475,"lon":16.616402,"is_passed":false},{"stop_id":"U1091Z1","name":"Dohnalova","arrival_time":"14:18:00","departure_time":"14:18:00","lat":49.251124,"lon":16.618901,"is_passed":false},{"stop_id":"U1412Z1","name":"Na kovárně","arrival_time":"14:19:00","departure_time":"14:19:00","lat":49.253213,"lon":16.620275,"is_passed":false},{"stop_id":"U1548Z1","name":"Rozárka","arrival_time":"14:20:00","departure_time":"14:20:00","lat":49.254486,"lon":16.622791,"is_passed":false},{"stop_id":"U1235Z3","name":"Klarisky","arrival_time":"14:22:00","departure_time":"14:26:00","lat":49.256942,"lon":16.622725,"is_passed":false}],"49511":[{"stop_id":"U1235Z4","name":"Klarisky","arrival_time":"14:26:00","departure_time":"14:26:00","lat":49.257063,"lon":16.622604,"is_passed":false},{"stop_id":"U1412Z2","name":"Na kovárně","arrival_time":"14:27:00","departure_time":"14:27:00","lat":49.254426,"lon":16.620777,"is_passed":false},{"stop_id":"U1091Z2","name":"Dohnalova","arrival_time":"14:28:00","departure_time":"14:28:00","lat":49.249657,"lon":16.617775,"is_passed":false},{"stop_id":"U1711Z2","name":"Útěchovská","arrival_time":"14:29:00","departure_time":"14:29:00","lat":49.246974,"lon":16.61581,"is_passed":false},{"stop_id":"U1407Z2","name":"Myslivecký stadion","arrival_time":"14:30:00","departure_time":"14:30:00","lat":49.241075,"lon":16.609359,"is_passed":false},{"stop_id":"U1130Z1","name":"Hamerláky","arrival_time":"14:31:00","departure_time":"14:31:00","lat":49.237082,"lon":16.603873,"is_passed":false},{"stop_id":"U1564Z2","name":"Sadová","arrival_time":"14:32:00","departure_time":"14:32:00","lat":49.233904,"lon":16.604679,"is_passed":false},{"stop_id":"U1399Z2","name":"Moskalykova","arrival_time":"14:33:00","departure_time":"14:33:00","lat":49.23163,"lon":16.608178,"is_passed":false},{"stop_id":"U1150Z2","name":"Högrova","arrival_time":"14:34:00","departure_time":"14:34:00","lat":49.229128,"lon":16.604259,"is_passed":false},{"stop_id":"U1388Z1","name":"Mojmírovo náměstí","arrival_time":"14:36:00","departure_time":"14:36:00","lat":49.226134,"lon":16.597399,"is_passed":false},{"stop_id":"U1286Z5","name":"Královo Pole, nádraží","arrival_time":"14:39:00","departure_time":"14:39:00","lat":49.229633,"lon":16.595447,"is_passed":false},{"stop_id":"U1566Z6","name":"Semilasso","arrival_time":"14:40:00","departure_time":"14:40:00","lat":49.228248,"lon":16.593466,"is_passed":false},{"stop_id":"U1171Z4","name":"Husitská","arrival_time":"14:42:00","departure_time":"14:42:00","lat":49.224063,"lon":16.593994,"is_passed":false},{"stop_id":"U1586Z3","name":"Slovanské náměstí","arrival_time":"14:43:00","departure_time":"14:43:00","lat":49.223525,"lon":16.591009,"is_passed":false},{"stop_id":"U1567Z5","name":"Skácelova","arrival_time":"14:44:00","departure_time":"14:44:00","lat":49.221353,"lon":16.584711,"is_passed":false},{"stop_id":"U1777Z1","name":"Záhřebská","arrival_time":"14:46:00","departure_time":"14:46:00","lat":49.219602,"lon":16.579157,"is_passed":false},{"stop_id":"U1528Z3","name":"Přívrat","arrival_time":"14:47:00","departure_time":"14:47:00","lat":49.218788,"lon":16.574147,"is_passed":false},{"stop_id":"U1758Z1","name":"Vrázova","arrival_time":"14:48:00","departure_time":"14:48:00","lat":49.216968,"lon":16.568321,"is_passed":false},{"stop_id":"U1651Z1","name":"Štursova","arrival_time":"14:49:00","departure_time":"14:49:00","lat":49.216462,"lon":16.563614,"is_passed":false},{"stop_id":"U1502Z1","name":"Podveská","arrival_time":"14:50:00","departure_time":"14:50:00","lat":49.217623,"lon":16.559017,"is_passed":false},{"stop_id":"U1633Z3","name":"Svratecká","arrival_time":"14:51:00","departure_time":"14:51:00","lat":49.219008,"lon":16.554451,"is_passed":false},{"stop_id":"U1345Z1","name":"Lísky","arrival_time":"14:52:00","departure_time":"14:52:00","lat":49.219825,"lon":16.548868,"is_passed":false},{"stop_id":"U1493Z3","name":"Podlesí","arrival_time":"14:53:00","departure_time":"14:53:00","lat":49.218861,"lon":16.542049,"is_passed":false},{"stop_id":"U1226Z3","name":"Kamenolom","arrival_time":"14:54:00","departure_time":"14:54:00","lat":49.222506,"lon":16.537085,"is_passed":false},{"stop_id":"U1796Z7","name":"Zoologická zahrada","arrival_time":"14:58:00","departure_time":"14:58:00","lat":49.227823,"lon":16.531364,"is_passed":false},{"stop_id":"U1417Z1","name":"Náměstí 28. dubna","arrival_time":"14:59:00","departure_time":"14:59:00","lat":49.225188,"lon":16.531132,"is_passed":false},{"stop_id":"U1752Z1","name":"Vondrákova","arrival_time":"15:00:00","departure_time":"15:00:00","lat":49.221303,"lon":16.528376,"is_passed":false},{"stop_id":"U1326Z1","name":"Laštůvkova","arrival_time":"15:01:00","departure_time":"15:01:00","lat":49.220185,"lon":16.525212,"is_passed":false},{"stop_id":"U1107Z1","name":"Filipova","arrival_time":"15:02:00","departure_time":"15:02:00","lat":49.217684,"lon":16.525123,"is_passed":false},{"stop_id":"U1062Z1","name":"Černého","arrival_time":"15:04:00","departure_time":"15:46:00","lat":49.214083,"lon":16.522812,"is_passed":false}],"49512":[{"stop_id":"U1062Z2","name":"Černého","arrival_time":"15:46:00","departure_time":"15:46:00","lat":49.213885,"lon":16.523087,"is_passed":false},{"stop_id":"U1107Z2","name":"Filipova","arrival_time":"15:47:00","departure_time":"15:47:00","lat":49.217593,"lon":16.525217,"is_passed":false},{"stop_id":"U1326Z4","name":"Laštůvkova","arrival_time":"15:48:00","departure_time":"15:48:00","lat":49.220549,"lon":16.526237,"is_passed":false},{"stop_id":"U1752Z2","name":"Vondrákova","arrival_time":"15:49:00","departure_time":"15:49:00","lat":49.221445,"lon":16.528853,"is_passed":false},{"stop_id":"U1417Z2","name":"Náměstí 28. dubna","arrival_time":"15:50:00","departure_time":"15:50:00","lat":49.226314,"lon":16.53213,"is_passed":false},{"stop_id":"U1226Z4","name":"Kamenolom","arrival_time":"15:52:00","departure_time":"15:52:00","lat":49.221655,"lon":16.536983,"is_passed":false},{"stop_id":"U1493Z4","name":"Podlesí","arrival_time":"15:53:00","departure_time":"15:53:00","lat":49.218759,"lon":16.542623,"is_passed":false},{"stop_id":"U1345Z2","name":"Lísky","arrival_time":"15:54:00","departure_time":"15:54:00","lat":49.219967,"lon":16.549281,"is_passed":false},{"stop_id":"U1633Z4","name":"Svratecká","arrival_time":"15:56:00","departure_time":"15:56:00","lat":49.218696,"lon":16.554399,"is_passed":false},{"stop_id":"U1502Z2","name":"Podveská","arrival_time":"15:57:00","departure_time":"15:57:00","lat":49.217607,"lon":16.558178,"is_passed":false},{"stop_id":"U1651Z2","name":"Štursova","arrival_time":"15:58:00","departure_time":"15:58:00","lat":49.215854,"lon":16.564522,"is_passed":false},{"stop_id":"U1758Z2","name":"Vrázova","arrival_time":"15:59:00","departure_time":"15:59:00","lat":49.216977,"lon":16.568646,"is_passed":false},{"stop_id":"U1528Z4","name":"Přívrat","arrival_time":"16:01:00","departure_time":"16:01:00","lat":49.218647,"lon":16.574085,"is_passed":false},{"stop_id":"U1777Z2","name":"Záhřebská","arrival_time":"16:02:00","departure_time":"16:02:00","lat":49.219845,"lon":16.580415,"is_passed":false},{"stop_id":"U1567Z6","name":"Skácelova","arrival_time":"16:04:00","departure_time":"16:04:00","lat":49.22163,"lon":16.585935,"is_passed":false},{"stop_id":"U1586Z4","name":"Slovanské náměstí","arrival_time":"16:05:00","departure_time":"16:05:00","lat":49.222774,"lon":16.591332,"is_passed":false},{"stop_id":"U1171Z3","name":"Husitská","arrival_time":"16:06:00","departure_time":"16:06:00","lat":49.223851,"lon":16.594116,"is_passed":false},{"stop_id":"U1566Z4","name":"Semilasso","arrival_time":"16:08:00","departure_time":"16:08:00","lat":49.228055,"lon":16.593438,"is_passed":false},{"stop_id":"U1286Z3","name":"Královo Pole, nádraží","arrival_time":"16:09:00","departure_time":"16:09:00","lat":49.229218,"lon":16.596271,"is_passed":false},{"stop_id":"U1388Z2","name":"Mojmírovo náměstí","arrival_time":"16:10:00","departure_time":"16:10:00","lat":49.226499,"lon":16.598423,"is_passed":false},{"stop_id":"U1150Z1","name":"Högrova","arrival_time":"16:12:00","departure_time":"16:12:00","lat":49.228296,"lon":16.604528,"is_passed":false},{"stop_id":"U1195Z1","name":"Jarmily Kurandové","arrival_time":"16:12:00","departure_time":"16:12:00","lat":49.230235,"lon":16.604438,"is_passed":false},{"stop_id":"U1399Z1","name":"Moskalykova","arrival_time":"16:13:00","departure_time":"16:13:00","lat":49.231252,"lon":16.607921,"is_passed":false},{"stop_id":"U1564Z1","name":"Sadová","arrival_time":"16:14:00","departure_time":"16:14:00","lat":49.234166,"lon":16.603978,"is_passed":false},{"stop_id":"U1130Z2","name":"Hamerláky","arrival_time":"16:15:00","departure_time":"16:15:00","lat":49.237225,"lon":16.60407,"is_passed":false},{"stop_id":"U1407Z1","name":"Myslivecký stadion","arrival_time":"16:16:00","departure_time":"16:16:00","lat":49.241317,"lon":16.609929,"is_passed":false},{"stop_id":"U1711Z1","name":"Útěchovská","arrival_time":"16:17:00","departure_time":"16:17:00","lat":49.2475,"lon":16.616402,"is_passed":false},{"stop_id":"U1091Z1","name":"Dohnalova","arrival_time":"16:18:00","departure_time":"16:18:00","lat":49.251124,"lon":16.618901,"is_passed":false},{"stop_id":"U1412Z1","name":"Na kovárně","arrival_time":"16:19:00","departure_time":"16:19:00","lat":49.253213,"lon":16.620275,"is_passed":false},{"stop_id":"U1548Z1","name":"Rozárka","arrival_time":"16:20:00","departure_time":"16:20:00","lat":49.254486,"lon":16.622791,"is_passed":false},{"stop_id":"U1235Z3","name":"Klarisky","arrival_time":"16:22:00","departure_time":"16:26:00","lat":49.256942,"lon":16.622725,"is_passed":false}],"49513":[{"stop_id":"U1235Z4","name":"Klarisky","arrival_time":"16:26:00","departure_time":"16:26:00","lat":49.257063,"lon":16.622604,"is_passed":false},{"stop_id":"U1412Z2","name":"Na kovárně","arrival_time":"16:27:00","departure_time":"16:27:00","lat":49.254426,"lon":16.620777,"is_passed":false},{"stop_id":"U1091Z2","name":"Dohnalova","arrival_time":"16:28:00","departure_time":"16:28:00","lat":49.249657,"lon":16.617775,"is_passed":false},{"stop_id":"U1711Z2","name":"Útěchovská","arrival_time":"16:29:00","departure_time":"16:29:00","lat":49.246974,"lon":16.61581,"is_passed":false},{"stop_id":"U1407Z2","name":"Myslivecký stadion","arrival_time":"16:30:00","departure_time":"16:30:00","lat":49.241075,"lon":16.609359,"is_passed":false},{"stop_id":"U1130Z1","name":"Hamerláky","arrival_time":"16:31:00","departure_time":"16:31:00","lat":49.237082,"lon":16.603873,"is_passed":false},{"stop_id":"U1564Z2","name":"Sadová","arrival_time":"16:32:00","departure_time":"16:32:00","lat":49.233904,"lon":16.604679,"is_passed":false},{"stop_id":"U1399Z2","name":"Moskalykova","arrival_time":"16:33:00","departure_time":"16:33:00","lat":49.23163,"lon":16.608178,"is_passed":false},{"stop_id":"U1150Z2","name":"Högrova","arrival_time":"16:34:00","departure_time":"16:34:00","lat":49.229128,"lon":16.604259,"is_passed":false},{"stop_id":"U1388Z1","name":"Mojmírovo náměstí","arrival_time":"16:36:00","departure_time":"16:36:00","lat":49.226134,"lon":16.597399,"is_passed":false},{"stop_id":"U1286Z5","name":"Královo Pole, nádraží","arrival_time":"16:39:00","departure_time":"16:39:00","lat":49.229633,"lon":16.595447,"is_passed":false},{"stop_id":"U1566Z6","name":"Semilasso","arrival_time":"16:40:00","departure_time":"16:40:00","lat":49.228248,"lon":16.593466,"is_passed":false},{"stop_id":"U1171Z4","name":"Husitská","arrival_time":"16:42:00","departure_time":"16:42:00","lat":49.224063,"lon":16.593994,"is_passed":false},{"stop_id":"U1586Z3","name":"Slovanské náměstí","arrival_time":"16:43:00","departure_time":"16:43:00","lat":49.223525,"lon":16.591009,"is_passed":false},{"stop_id":"U1567Z5","name":"Skácelova","arrival_time":"16:44:00","departure_time":"16:44:00","lat":49.221353,"lon":16.584711,"is_passed":false},{"stop_id":"U1777Z1","name":"Záhřebská","arrival_time":"16:46:00","departure_time":"16:46:00","lat":49.219602,"lon":16.579157,"is_passed":false},{"stop_id":"U1528Z3","name":"Přívrat","arrival_time":"16:47:00","departure_time":"16:47:00","lat":49.218788,"lon":16.574147,"is_passed":false},{"stop_id":"U1758Z1","name":"Vrázova","arrival_time":"16:48:00","departure_time":"16:48:00","lat":49.216968,"lon":16.568321,"is_passed":false},{"stop_id":"U1651Z1","name":"Štursova","arrival_time":"16:49:00","departure_time":"16:49:00","lat":49.216462,"lon":16.563614,"is_passed":false},{"stop_id":"U1502Z1","name":"Podveská","arrival_time":"16:50:00","departure_time":"16:50:00","lat":49.217623,"lon":16.559017,"is_passed":false},{"stop_id":"U1633Z3","name":"Svratecká","arrival_time":"16:51:00","departure_time":"16:51:00","lat":49.219008,"lon":16.554451,"is_passed":false},{"stop_id":"U1345Z1","name":"Lísky","arrival_time":"16:52:00","departure_time":"16:52:00","lat":49.219825,"lon":16.548868,"is_passed":false},{"stop_id":"U1493Z3","name":"Podlesí","arrival_time":"16:53:00","departure_time":"16:53:00","lat":49.218861,"lon":16.542049,"is_passed":false},{"stop_id":"U1226Z3","name":"Kamenolom","arrival_time":"16:54:00","departure_time":"16:54:00","lat":49.222506,"lon":16.537085,"is_passed":false},{"stop_id":"U1796Z7","name":"Zoologická zahrada","arrival_time":"16:58:00","departure_time":"16:58:00","lat":49.227823,"lon":16.531364,"is_passed":false},{"stop_id":"U1417Z1","name":"Náměstí 28. dubna","arrival_time":"16:59:00","departure_time":"16:59:00","lat":49.225188,"lon":16.531132,"is_passed":false},{"stop_id":"U1752Z1","name":"Vondrákova","arrival_time":"17:00:00","departure_time":"17:00:00","lat":49.221303,"lon":16.528376,"is_passed":false},{"stop_id":"U1326Z1","name":"Laštůvkova","arrival_time":"17:01:00","departure_time":"17:01:00","lat":49.220185,"lon":16.525212,"is_passed":false},{"stop_id":"U1107Z1","name":"Filipova","arrival_time":"17:02:00","departure_time":"17:02:00","lat":49.217684,"lon":16.525123,"is_passed":false},{"stop_id":"U1062Z1","name":"Černého","arrival_time":"17:04:00","departure_time":"17:06:00","lat":49.214083,"lon":16.522812,"is_passed":false}],"49514":[{"stop_id":"U1517Z2","name":"Preslova","arrival_time":"17:51:00","departure_time":"17:51:00","lat":49.199468,"lon":16.570483,"is_passed":false},{"stop_id":"U1366Z2","name":"Marie Pujmanové","arrival_time":"17:51:00","departure_time":"17:51:00","lat":49.198128,"lon":16.573743,"is_passed":false},{"stop_id":"U1433Z2","name":"Neumannova","arrival_time":"17:52:00","departure_time":"17:52:00","lat":49.196459,"lon":16.578249,"is_passed":false},{"stop_id":"U1478Z2","name":"Pavlíkova","arrival_time":"17:53:00","departure_time":"17:53:00","lat":49.194734,"lon":16.582794,"is_passed":false},{"stop_id":"U1723Z2","name":"Vaňkovo náměstí","arrival_time":"17:54:00","departure_time":"17:54:00","lat":49.194962,"lon":16.586678,"is_passed":false},{"stop_id":"U1816Z2","name":"Žlutý kopec","arrival_time":"17:54:00","departure_time":"17:54:00","lat":49.195368,"lon":16.588271,"is_passed":false},{"stop_id":"U1682Z2","name":"Tvrdého","arrival_time":"17:55:00","departure_time":"17:55:00","lat":49.196917,"lon":16.592895,"is_passed":false},{"stop_id":"U1712Z4","name":"Úvoz","arrival_time":"17:56:00","departure_time":"17:56:00","lat":49.198264,"lon":16.59531,"is_passed":false},{"stop_id":"U1442Z2","name":"Obilní trh","arrival_time":"17:57:00","departure_time":"17:57:00","lat":49.198022,"lon":16.598215,"is_passed":false},{"stop_id":"U1257Z3","name":"Komenského náměstí","arrival_time":"17:59:00","departure_time":"17:59:00","lat":49.197026,"lon":16.602057,"is_passed":false}],"49515":[{"stop_id":"U1257Z2","name":"Komenského náměstí","arrival_time":"18:00:00","departure_time":"18:00:00","lat":49.197135,"lon":16.602612,"is_passed":false},{"stop_id":"U1442Z1","name":"Obilní trh","arrival_time":"18:01:00","departure_time":"18:01:00","lat":49.198221,"lon":16.597478,"is_passed":false},{"stop_id":"U1712Z3","name":"Úvoz","arrival_time":"18:02:00","departure_time":"18:02:00","lat":49.198432,"lon":16.594582,"is_passed":false},{"stop_id":"U1816Z1","name":"Žlutý kopec","arrival_time":"18:04:00","departure_time":"18:04:00","lat":49.19515,"lon":16.587289,"is_passed":false},{"stop_id":"U1723Z1","name":"Vaňkovo náměstí","arrival_time":"18:05:00","departure_time":"18:05:00","lat":49.195052,"lon":16.585013,"is_passed":false},{"stop_id":"U1228Z1","name":"Kampelíkova","arrival_time":"18:06:00","departure_time":"18:06:00","lat":49.197512,"lon":16.581178,"is_passed":false},{"stop_id":"U1597Z1","name":"Soukopova","arrival_time":"18:07:00","departure_time":"18:07:00","lat":49.198956,"lon":16.579053,"is_passed":false},{"stop_id":"U1013Z1","name":"Barvičova","arrival_time":"18:09:00","departure_time":"18:21:00","lat":49.201189,"lon":16.575746,"is_passed":false}],"49516":[{"stop_id":"U1013Z2","name":"Barvičova","arrival_time":"18:21:00","departure_time":"18:21:00","lat":49.201047,"lon":16.575783,"is_passed":false},{"stop_id":"U1597Z2","name":"Soukopova","arrival_time":"18:21:00","departure_time":"18:21:00","lat":49.199132,"lon":16.578726,"is_passed":false},{"stop_id":"U1228Z2","name":"Kampelíkova","arrival_time":"18:22:00","departure_time":"18:22:00","lat":49.197384,"lon":16.581205,"is_passed":false},{"stop_id":"U1723Z2","name":"Vaňkovo náměstí","arrival_time":"18:24:00","departure_time":"18:24:00","lat":49.194962,"lon":16.586678,"is_passed":false},{"stop_id":"U1816Z2","name":"Žlutý kopec","arrival_time":"18:24:00","departure_time":"18:24:00","lat":49.195368,"lon":16.588271,"is_passed":false},{"stop_id":"U1682Z2","name":"Tvrdého","arrival_time":"18:25:00","departure_time":"18:25:00","lat":49.196917,"lon":16.592895,"is_passed":false},{"stop_id":"U1712Z4","name":"Úvoz","arrival_time":"18:26:00","departure_time":"18:26:00","lat":49.198264,"lon":16.59531,"is_passed":false},{"stop_id":"U1442Z2","name":"Obilní trh","arrival_time":"18:27:00","departure_time":"18:27:00","lat":49.198022,"lon":16.598215,"is_passed":false},{"stop_id":"U1257Z3","name":"Komenského náměstí","arrival_time":"18:29:00","departure_time":"18:29:00","lat":49.197026,"lon":16.602057,"is_passed":false}],"49517":[{"stop_id":"U1257Z2","name":"Komenského náměstí","arrival_time":"18:30:00","departure_time":"18:30:00","lat":49.197135,"lon":16.602612,"is_passed":false},{"stop_id":"U1442Z1","name":"Obilní trh","arrival_time":"18:31:00","departure_time":"18:31:00","lat":49.198221,"lon":16.597478,"is_passed":false},{"stop_id":"U1712Z3","name":"Úvoz","arrival_time":"18:32:00","departure_time":"18:32:00","lat":49.198432,"lon":16.594582,"is_passed":false},{"stop_id":"U1816Z1","name":"Žlutý kopec","arrival_time":"18:34:00","departure_time":"18:34:00","lat":49.19515,"lon":16.587289,"is_passed":false},{"stop_id":"U1723Z3","name":"Vaňkovo náměstí","arrival_time":"18:35:00","departure_time":"18:35:00","lat":49.194723,"lon":16.585005,"is_passed":false},{"stop_id":"U1478Z1","name":"Pavlíkova","arrival_time":"18:35:00","departure_time":"18:35:00","lat":49.195012,"lon":16.581894,"is_passed":false},{"stop_id":"U1433Z1","name":"Neumannova","arrival_time":"18:36:00","departure_time":"18:36:00","lat":49.196721,"lon":16.577681,"is_passed":false},{"stop_id":"U1366Z1","name":"Marie Pujmanové","arrival_time":"18:37:00","departure_time":"18:37:00","lat":49.198265,"lon":16.573344,"is_passed":false},{"stop_id":"U1517Z1","name":"Preslova","arrival_time":"18:39:00","departure_time":"18:46:00","lat":49.199128,"lon":16.571114,"is_passed":false}],"49518":[{"stop_id":"U1146Z4","name":"Hlavní nádraží","arrival_time":"5:58:00","departure_time":"5:58:00","lat":49.19125,"lon":16.612674,"is_passed":false},{"stop_id":"U1746Z1","name":"Vlhká","arrival_time":"5:59:00","departure_time":"5:59:00","lat":49.191847,"lon":16.618976,"is_passed":false},{"stop_id":"U1372Z1","name":"Masná","arrival_time":"6:00:00","departure_time":"6:00:00","lat":49.191244,"lon":16.625642,"is_passed":false},{"stop_id":"U1677Z1","name":"Tržní","arrival_time":"6:02:00","departure_time":"6:02:00","lat":49.189973,"lon":16.632193,"is_passed":false},{"stop_id":"U1641Z1","name":"Škroupova","arrival_time":"6:04:00","departure_time":"6:04:00","lat":49.192022,"lon":16.648112,"is_passed":false},{"stop_id":"U1473Z4","name":"Otakara Ševčíka","arrival_time":"6:05:00","departure_time":"6:05:00","lat":49.194988,"lon":16.646643,"is_passed":false},{"stop_id":"U1082Z1","name":"Dělnický dům","arrival_time":"6:06:00","departure_time":"6:06:00","lat":49.195559,"lon":16.650177,"is_passed":false},{"stop_id":"U1496Z1","name":"Podlomní","arrival_time":"6:07:00","departure_time":"6:07:00","lat":49.192252,"lon":16.655367,"is_passed":false},{"stop_id":"U1642Z1","name":"Špačkova","arrival_time":"6:07:00","departure_time":"6:07:00","lat":49.190929,"lon":16.658793,"is_passed":false},{"stop_id":"U1018Z6","name":"Bělohorská","arrival_time":"6:08:00","departure_time":"6:08:00","lat":49.189603,"lon":16.662473,"is_passed":false},{"stop_id":"U1501Z4","name":"Podstránská","arrival_time":"6:08:00","departure_time":"6:08:00","lat":49.186139,"lon":16.667061,"is_passed":false},{"stop_id":"U1068Z1","name":"Černovičky","arrival_time":"6:10:00","departure_time":"6:10:00","lat":49.182244,"lon":16.66894,"is_passed":false},{"stop_id":"U1741Z1","name":"Vlárská","arrival_time":"6:10:00","departure_time":"6:10:00","lat":49.180745,"lon":16.671647,"is_passed":false},{"stop_id":"U1105Z1","name":"Ericha Roučky","arrival_time":"6:12:00","departure_time":"6:12:00","lat":49.174784,"lon":16.66987,"is_passed":false},{"stop_id":"U1064Z1","name":"Černovická terasa I","arrival_time":"6:13:00","departure_time":"6:13:00","lat":49.171172,"lon":16.673495,"is_passed":false},{"stop_id":"U1065Z1","name":"Černovická terasa II","arrival_time":"6:13:00","departure_time":"6:13:00","lat":49.167108,"lon":16.67608,"is_passed":false},{"stop_id":"U1581Z3","name":"Areál Slatina","arrival_time":"6:14:00","departure_time":"6:17:00","lat":49.168533,"lon":16.678786,"is_passed":false}],"49519":[{"stop_id":"U1577Z2","name":"Slatina, sídliště","arrival_time":"7:02:00","departure_time":"7:02:00","lat":49.181605,"lon":16.690121,"is_passed":false},{"stop_id":"U1297Z1","name":"Kroměřížská","arrival_time":"7:02:00","departure_time":"7:02:00","lat":49.178307,"lon":16.688244,"is_passed":false},{"stop_id":"U1382Z1","name":"Mikulčická","arrival_time":"7:03:00","departure_time":"7:03:00","lat":49.178464,"lon":16.683602,"is_passed":false},{"stop_id":"U1323Z1","name":"Langrova","arrival_time":"7:04:00","departure_time":"7:04:00","lat":49.180031,"lon":16.680806,"is_passed":false},{"stop_id":"U1173Z1","name":"Hviezdoslavova","arrival_time":"7:05:00","departure_time":"7:05:00","lat":49.18219,"lon":16.676025,"is_passed":false},{"stop_id":"U1757Z1","name":"Vozovna Slatina","arrival_time":"7:06:00","departure_time":"7:06:00","lat":49.183032,"lon":16.672807,"is_passed":false},{"stop_id":"U1068Z1","name":"Černovičky","arrival_time":"7:07:00","departure_time":"7:07:00","lat":49.182244,"lon":16.66894,"is_passed":false},{"stop_id":"U1741Z1","name":"Vlárská","arrival_time":"7:08:00","departure_time":"7:08:00","lat":49.180745,"lon":16.671647,"is_passed":false},{"stop_id":"U1105Z4","name":"Ericha Roučky","arrival_time":"7:10:00","departure_time":"7:10:00","lat":49.175789,"lon":16.668403,"is_passed":false},{"stop_id":"U1739Z2","name":"Vlastimila Pecha","arrival_time":"7:11:00","departure_time":"7:11:00","lat":49.179751,"lon":16.662407,"is_passed":false},{"stop_id":"U1665Z2","name":"Těžební","arrival_time":"7:12:00","departure_time":"7:12:00","lat":49.182639,"lon":16.656437,"is_passed":false},{"stop_id":"U1455Z2","name":"Olomoucká - u školy","arrival_time":"7:13:00","departure_time":"7:13:00","lat":49.186437,"lon":16.652477,"is_passed":false},{"stop_id":"U1598Z2","name":"Spáčilova","arrival_time":"7:14:00","departure_time":"7:14:00","lat":49.188617,"lon":16.641569,"is_passed":false},{"stop_id":"U1814Z4","name":"Životského","arrival_time":"7:16:00","departure_time":"7:16:00","lat":49.190077,"lon":16.634992,"is_passed":false},{"stop_id":"U1372Z2","name":"Masná","arrival_time":"7:18:00","departure_time":"7:18:00","lat":49.191283,"lon":16.6245,"is_passed":false},{"stop_id":"U1746Z2","name":"Vlhká","arrival_time":"7:19:00","departure_time":"7:19:00","lat":49.191852,"lon":16.619157,"is_passed":false},{"stop_id":"U1146Z7","name":"Hlavní nádraží","arrival_time":"7:22:00","departure_time":"7:26:00","lat":49.19213,"lon":16.613467,"is_passed":false}],"49520":[{"stop_id":"U1146Z8","name":"Hlavní nádraží","arrival_time":"7:26:00","departure_time":"7:26:00","lat":49.191893,"lon":16.613334,"is_passed":false},{"stop_id":"U1746Z1","name":"Vlhká","arrival_time":"7:27:00","departure_time":"7:27:00","lat":49.191847,"lon":16.618976,"is_passed":false},{"stop_id":"U1372Z5","name":"Masná","arrival_time":"7:28:00","departure_time":"7:28:00","lat":49.191189,"lon":16.626548,"is_passed":false},{"stop_id":"U1677Z1","name":"Tržní","arrival_time":"7:30:00","departure_time":"7:30:00","lat":49.189973,"lon":16.632193,"is_passed":false},{"stop_id":"U1598Z1","name":"Spáčilova","arrival_time":"7:31:00","departure_time":"7:31:00","lat":49.188674,"lon":16.640942,"is_passed":false},{"stop_id":"U1455Z1","name":"Olomoucká - u školy","arrival_time":"7:32:00","departure_time":"7:32:00","lat":49.186169,"lon":16.652958,"is_passed":false},{"stop_id":"U1665Z1","name":"Těžební","arrival_time":"7:34:00","departure_time":"7:34:00","lat":49.181966,"lon":16.657236,"is_passed":false},{"stop_id":"U1739Z1","name":"Vlastimila Pecha","arrival_time":"7:35:00","departure_time":"7:35:00","lat":49.179379,"lon":16.662741,"is_passed":false},{"stop_id":"U1741Z2","name":"Vlárská","arrival_time":"7:38:00","departure_time":"7:38:00","lat":49.180702,"lon":16.672017,"is_passed":false},{"stop_id":"U1068Z3","name":"Černovičky","arrival_time":"7:40:00","departure_time":"7:40:00","lat":49.183143,"lon":16.669108,"is_passed":false},{"stop_id":"U1757Z2","name":"Vozovna Slatina","arrival_time":"7:41:00","departure_time":"7:41:00","lat":49.182866,"lon":16.673489,"is_passed":false},{"stop_id":"U1173Z2","name":"Hviezdoslavova","arrival_time":"7:42:00","departure_time":"7:42:00","lat":49.181664,"lon":16.677149,"is_passed":false},{"stop_id":"U1323Z2","name":"Langrova","arrival_time":"7:43:00","departure_time":"7:43:00","lat":49.17982,"lon":16.68105,"is_passed":false},{"stop_id":"U1382Z2","name":"Mikulčická","arrival_time":"7:44:00","departure_time":"7:44:00","lat":49.178227,"lon":16.684944,"is_passed":false},{"stop_id":"U1297Z2","name":"Kroměřížská","arrival_time":"7:45:00","departure_time":"7:45:00","lat":49.178988,"lon":16.689151,"is_passed":false},{"stop_id":"U1577Z1","name":"Slatina, sídliště","arrival_time":"7:47:00","departure_time":"8:02:00","lat":49.181827,"lon":16.690272,"is_passed":false}],"49521":[{"stop_id":"U1577Z2","name":"Slatina, sídliště","arrival_time":"8:02:00","departure_time":"8:02:00","lat":49.181605,"lon":16.690121,"is_passed":false},{"stop_id":"U1297Z1","name":"Kroměřížská","arrival_time":"8:02:00","departure_time":"8:02:00","lat":49.178307,"lon":16.688244,"is_passed":false},{"stop_id":"U1382Z1","name":"Mikulčická","arrival_time":"8:03:00","departure_time":"8:03:00","lat":49.178464,"lon":16.683602,"is_passed":false},{"stop_id":"U1323Z1","name":"Langrova","arrival_time":"8:04:00","departure_time":"8:04:00","lat":49.180031,"lon":16.680806,"is_passed":false},{"stop_id":"U1173Z1","name":"Hviezdoslavova","arrival_time":"8:05:00","departure_time":"8:05:00","lat":49.18219,"lon":16.676025,"is_passed":false},{"stop_id":"U1757Z1","name":"Vozovna Slatina","arrival_time":"8:06:00","departure_time":"8:06:00","lat":49.183032,"lon":16.672807,"is_passed":false},{"stop_id":"U1068Z1","name":"Černovičky","arrival_time":"8:07:00","departure_time":"8:07:00","lat":49.182244,"lon":16.66894,"is_passed":false},{"stop_id":"U1741Z1","name":"Vlárská","arrival_time":"8:08:00","departure_time":"8:08:00","lat":49.180745,"lon":16.671647,"is_passed":false},{"stop_id":"U1105Z4","name":"Ericha Roučky","arrival_time":"8:10:00","departure_time":"8:10:00","lat":49.175789,"lon":16.668403,"is_passed":false},{"stop_id":"U1739Z2","name":"Vlastimila Pecha","arrival_time":"8:11:00","departure_time":"8:11:00","lat":49.179751,"lon":16.662407,"is_passed":false},{"stop_id":"U1665Z2","name":"Těžební","arrival_time":"8:12:00","departure_time":"8:12:00","lat":49.182639,"lon":16.656437,"is_passed":false},{"stop_id":"U1455Z2","name":"Olomoucká - u školy","arrival_time":"8:13:00","departure_time":"8:13:00","lat":49.186437,"lon":16.652477,"is_passed":false},{"stop_id":"U1598Z2","name":"Spáčilova","arrival_time":"8:14:00","departure_time":"8:14:00","lat":49.188617,"lon":16.641569,"is_passed":false},{"stop_id":"U1814Z4","name":"Životského","arrival_time":"8:16:00","departure_time":"8:16:00","lat":49.190077,"lon":16.634992,"is_passed":false},{"stop_id":"U1372Z2","name":"Masná","arrival_time":"8:18:00","departure_time":"8:18:00","lat":49.191283,"lon":16.6245,"is_passed":false},{"stop_id":"U1746Z2","name":"Vlhká","arrival_time":"8:19:00","departure_time":"8:19:00","lat":49.191852,"lon":16.619157,"is_passed":false},{"stop_id":"U1146Z7","name":"Hlavní nádraží","arrival_time":"8:22:00","departure_time":"8:26:00","lat":49.19213,"lon":16.613467,"is_passed":false}],"49522":[{"stop_id":"U1146Z8","name":"Hlavní nádraží","arrival_time":"8:26:00","departure_time":"8:26:00","lat":49.191893,"lon":16.613334,"is_passed":false},{"stop_id":"U1746Z1","name":"Vlhká","arrival_time":"8:27:00","departure_time":"8:27:00","lat":49.191847,"lon":16.618976,"is_passed":false},{"stop_id":"U1372Z5","name":"Masná","arrival_time":"8:28:00","departure_time":"8:28:00","lat":49.191189,"lon":16.626548,"is_passed":false},{"stop_id":"U1677Z1","name":"Tržní","arrival_time":"8:30:00","departure_time":"8:30:00","lat":49.189973,"lon":16.632193,"is_passed":false},{"stop_id":"U1598Z1","name":"Spáčilova","arrival_time":"8:31:00","departure_time":"8:31:00","lat":49.188674,"lon":16.640942,"is_passed":false},{"stop_id":"U1455Z1","name":"Olomoucká - u školy","arrival_time":"8:32:00","departure_time":"8:32:00","lat":49.186169,"lon":16.652958,"is_passed":false},{"stop_id":"U1665Z1","name":"Těžební","arrival_time":"8:34:00","departure_time":"8:34:00","lat":49.181966,"lon":16.657236,"is_passed":false},{"stop_id":"U1739Z1","name":"Vlastimila Pecha","arrival_time":"8:35:00","departure_time":"8:35:00","lat":49.179379,"lon":16.662741,"is_passed":false},{"stop_id":"U1741Z2","name":"Vlárská","arrival_time":"8:38:00","departure_time":"8:38:00","lat":49.180702,"lon":16.672017,"is_passed":false},{"stop_id":"U1068Z3","name":"Černovičky","arrival_time":"8:40:00","departure_time":"8:40:00","lat":49.183143,"lon":16.669108,"is_passed":false},{"stop_id":"U1757Z2","name":"Vozovna Slatina","arrival_time":"8:41:00","departure_time":"8:41:00","lat":49.182866,"lon":16.673489,"is_passed":false},{"stop_id":"U1173Z2","name":"Hviezdoslavova","arrival_time":"8:42:00","departure_time":"8:42:00","lat":49.181664,"lon":16.677149,"is_passed":false},{"stop_id":"U1323Z2","name":"Langrova","arrival_time":"8:43:00","departure_time":"8:43:00","lat":49.17982,"lon":16.68105,"is_passed":false},{"stop_id":"U1382Z2","name":"Mikulčická","arrival_time":"8:44:00","departure_time":"8:44:00","lat":49.178227,"lon":16.684944,"is_passed":false},{"stop_id":"U1297Z2","name":"Kroměřížská","arrival_time":"8:45:00","departure_time":"8:45:00","lat":49.178988,"lon":16.689151,"is_passed":false},{"stop_id":"U1577Z1","name":"Slatina, sídliště","arrival_time":"8:47:00","departure_time":"8:57:00","lat":49.181827,"lon":16.690272,"is_passed":false}],"49523":[{"stop_id":"U1577Z2","name":"Slatina, sídliště","arrival_time":"8:57:00","departure_time":"8:57:00","lat":49.181605,"lon":16.690121,"is_passed":false},{"stop_id":"U1297Z1","name":"Kroměřížská","arrival_time":"8:57:00","departure_time":"8:57:00","lat":49.178307,"lon":16.688244,"is_passed":false},{"stop_id":"U1382Z1","name":"Mikulčická","arrival_time":"8:58:00","departure_time":"8:58:00","lat":49.178464,"lon":16.683602,"is_passed":false},{"stop_id":"U1323Z1","name":"Langrova","arrival_time":"8:59:00","departure_time":"8:59:00","lat":49.180031,"lon":16.680806,"is_passed":false},{"stop_id":"U1173Z1","name":"Hviezdoslavova","arrival_time":"9:00:00","departure_time":"9:00:00","lat":49.18219,"lon":16.676025,"is_passed":false},{"stop_id":"U1757Z1","name":"Vozovna Slatina","arrival_time":"9:01:00","departure_time":"9:01:00","lat":49.183032,"lon":16.672807,"is_passed":false},{"stop_id":"U1068Z1","name":"Černovičky","arrival_time":"9:02:00","departure_time":"9:02:00","lat":49.182244,"lon":16.66894,"is_passed":false},{"stop_id":"U1741Z1","name":"Vlárská","arrival_time":"9:03:00","departure_time":"9:03:00","lat":49.180745,"lon":16.671647,"is_passed":false},{"stop_id":"U1105Z4","name":"Ericha Roučky","arrival_time":"9:05:00","departure_time":"9:05:00","lat":49.175789,"lon":16.668403,"is_passed":false},{"stop_id":"U1739Z2","name":"Vlastimila Pecha","arrival_time":"9:06:00","departure_time":"9:06:00","lat":49.179751,"lon":16.662407,"is_passed":false},{"stop_id":"U1665Z2","name":"Těžební","arrival_time":"9:07:00","departure_time":"9:07:00","lat":49.182639,"lon":16.656437,"is_passed":false},{"stop_id":"U1455Z2","name":"Olomoucká - u školy","arrival_time":"9:08:00","departure_time":"9:08:00","lat":49.186437,"lon":16.652477,"is_passed":false},{"stop_id":"U1598Z2","name":"Spáčilova","arrival_time":"9:09:00","departure_time":"9:09:00","lat":49.188617,"lon":16.641569,"is_passed":false},{"stop_id":"U1814Z4","name":"Životského","arrival_time":"9:11:00","departure_time":"9:11:00","lat":49.190077,"lon":16.634992,"is_passed":false},{"stop_id":"U1372Z2","name":"Masná","arrival_time":"9:13:00","departure_time":"9:13:00","lat":49.191283,"lon":16.6245,"is_passed":false},{"stop_id":"U1746Z2","name":"Vlhká","arrival_time":"9:14:00","departure_time":"9:14:00","lat":49.191852,"lon":16.619157,"is_passed":false},{"stop_id":"U1146Z7","name":"Hlavní nádraží","arrival_time":"9:17:00","departure_time":"9:20:00","lat":49.19213,"lon":16.613467,"is_passed":false}],"49524":[{"stop_id":"U1146Z8","name":"Hlavní nádraží","arrival_time":"9:20:00","departure_time":"9:20:00","lat":49.191893,"lon":16.613334,"is_passed":false},{"stop_id":"U1746Z1","name":"Vlhká","arrival_time":"9:21:00","departure_time":"9:21:00","lat":49.191847,"lon":16.618976,"is_passed":false},{"stop_id":"U1372Z5","name":"Masná","arrival_time":"9:22:00","departure_time":"9:22:00","lat":49.191189,"lon":16.626548,"is_passed":false},{"stop_id":"U1677Z1","name":"Tržní","arrival_time":"9:24:00","departure_time":"9:24:00","lat":49.189973,"lon":16.632193,"is_passed":false},{"stop_id":"U1598Z1","name":"Spáčilova","arrival_time":"9:25:00","departure_time":"9:25:00","lat":49.188674,"lon":16.640942,"is_passed":false},{"stop_id":"U1455Z1","name":"Olomoucká - u školy","arrival_time":"9:26:00","departure_time":"9:26:00","lat":49.186169,"lon":16.652958,"is_passed":false},{"stop_id":"U1665Z1","name":"Těžební","arrival_time":"9:28:00","departure_time":"9:28:00","lat":49.181966,"lon":16.657236,"is_passed":false},{"stop_id":"U1739Z1","name":"Vlastimila Pecha","arrival_time":"9:29:00","departure_time":"9:29:00","lat":49.179379,"lon":16.662741,"is_passed":false},{"stop_id":"U1741Z2","name":"Vlárská","arrival_time":"9:32:00","departure_time":"9:32:00","lat":49.180702,"lon":16.672017,"is_passed":false},{"stop_id":"U1068Z3","name":"Černovičky","arrival_time":"9:34:00","departure_time":"9:34:00","lat":49.183143,"lon":16.669108,"is_passed":false},{"stop_id":"U1757Z2","name":"Vozovna Slatina","arrival_time":"9:35:00","departure_time":"9:35:00","lat":49.182866,"lon":16.673489,"is_passed":false},{"stop_id":"U1173Z2","name":"Hviezdoslavova","arrival_time":"9:36:00","departure_time":"9:36:00","lat":49.181664,"lon":16.677149,"is_passed":false},{"stop_id":"U1323Z2","name":"Langrova","arrival_time":"9:37:00","departure_time":"9:37:00","lat":49.17982,"lon":16.68105,"is_passed":false},{"stop_id":"U1382Z2","name":"Mikulčická","arrival_time":"9:38:00","departure_time":"9:38:00","lat":49.178227,"lon":16.684944,"is_passed":false},{"stop_id":"U1297Z2","name":"Kroměřížská","arrival_time":"9:39:00","departure_time":"9:39:00","lat":49.178988,"lon":16.689151,"is_passed":false},{"stop_id":"U1577Z1","name":"Slatina, sídliště","arrival_time":"9:41:00","departure_time":"9:57:00","lat":49.181827,"lon":16.690272,"is_passed":false}],"49525":[{"stop_id":"U1577Z2","name":"Slatina, sídliště","arrival_time":"9:57:00","departure_time":"9:57:00","lat":49.181605,"lon":16.690121,"is_passed":false},{"stop_id":"U1297Z1","name":"Kroměřížská","arrival_time":"9:57:00","departure_time":"9:57:00","lat":49.178307,"lon":16.688244,"is_passed":false},{"stop_id":"U1382Z1","name":"Mikulčická","arrival_time":"9:58:00","departure_time":"9:58:00","lat":49.178464,"lon":16.683602,"is_passed":false},{"stop_id":"U1323Z1","name":"Langrova","arrival_time":"9:59:00","departure_time":"9:59:00","lat":49.180031,"lon":16.680806,"is_passed":false},{"stop_id":"U1173Z1","name":"Hviezdoslavova","arrival_time":"10:00:00","departure_time":"10:00:00","lat":49.18219,"lon":16.676025,"is_passed":false},{"stop_id":"U1757Z1","name":"Vozovna Slatina","arrival_time":"10:01:00","departure_time":"10:01:00","lat":49.183032,"lon":16.672807,"is_passed":false},{"stop_id":"U1068Z1","name":"Černovičky","arrival_time":"10:02:00","departure_time":"10:02:00","lat":49.182244,"lon":16.66894,"is_passed":false},{"stop_id":"U1741Z1","name":"Vlárská","arrival_time":"10:03:00","departure_time":"10:03:00","lat":49.180745,"lon":16.671647,"is_passed":false},{"stop_id":"U1105Z4","name":"Ericha Roučky","arrival_time":"10:05:00","departure_time":"10:05:00","lat":49.175789,"lon":16.668403,"is_passed":false},{"stop_id":"U1739Z2","name":"Vlastimila Pecha","arrival_time":"10:06:00","departure_time":"10:06:00","lat":49.179751,"lon":16.662407,"is_passed":false},{"stop_id":"U1665Z2","name":"Těžební","arrival_time":"10:07:00","departure_time":"10:07:00","lat":49.182639,"lon":16.656437,"is_passed":false},{"stop_id":"U1455Z2","name":"Olomoucká - u školy","arrival_time":"10:08:00","departure_time":"10:08:00","lat":49.186437,"lon":16.652477,"is_passed":false},{"stop_id":"U1598Z2","name":"Spáčilova","arrival_time":"10:09:00","departure_time":"10:09:00","lat":49.188617,"lon":16.641569,"is_passed":false},{"stop_id":"U1814Z4","name":"Životského","arrival_time":"10:11:00","departure_time":"10:11:00","lat":49.190077,"lon":16.634992,"is_passed":false},{"stop_id":"U1372Z2","name":"Masná","arrival_time":"10:13:00","departure_time":"10:13:00","lat":49.191283,"lon":16.6245,"is_passed":false},{"stop_id":"U1746Z2","name":"Vlhká","arrival_time":"10:14:00","departure_time":"10:14:00","lat":49.191852,"lon":16.619157,"is_passed":false},{"stop_id":"U1146Z7","name":"Hlavní nádraží","arrival_time":"10:17:00","departure_time":"10:20:00","lat":49.19213,"lon":16.613467,"is_passed":false}],"49526":[{"stop_id":"U1146Z8","name":"Hlavní nádraží","arrival_time":"10:20:00","departure_time":"10:20:00","lat":49.191893,"lon":16.613334,"is_passed":false},{"stop_id":"U1746Z1","name":"Vlhká","arrival_time":"10:21:00","departure_time":"10:21:00","lat":49.191847,"lon":16.618976,"is_passed":false},{"stop_id":"U1372Z5","name":"Masná","arrival_time":"10:22:00","departure_time":"10:22:00","lat":49.191189,"lon":16.626548,"is_passed":false},{"stop_id":"U1677Z1","name":"Tržní","arrival_time":"10:24:00","departure_time":"10:24:00","lat":49.189973,"lon":16.632193,"is_passed":false},{"stop_id":"U1598Z1","name":"Spáčilova","arrival_time":"10:25:00","departure_time":"10:25:00","lat":49.188674,"lon":16.640942,"is_passed":false},{"stop_id":"U1455Z1","name":"Olomoucká - u školy","arrival_time":"10:26:00","departure_time":"10:26:00","lat":49.186169,"lon":16.652958,"is_passed":false},{"stop_id":"U1665Z1","name":"Těžební","arrival_time":"10:28:00","departure_time":"10:28:00","lat":49.181966,"lon":16.657236,"is_passed":false},{"stop_id":"U1739Z1","name":"Vlastimila Pecha","arrival_time":"10:29:00","departure_time":"10:29:00","lat":49.179379,"lon":16.662741,"is_passed":false},{"stop_id":"U1741Z2","name":"Vlárská","arrival_time":"10:32:00","departure_time":"10:32:00","lat":49.180702,"lon":16.672017,"is_passed":false},{"stop_id":"U1068Z3","name":"Černovičky","arrival_time":"10:34:00","departure_time":"10:34:00","lat":49.183143,"lon":16.669108,"is_passed":false},{"stop_id":"U1757Z2","name":"Vozovna Slatina","arrival_time":"10:35:00","departure_time":"10:35:00","lat":49.182866,"lon":16.673489,"is_passed":false},{"stop_id":"U1173Z2","name":"Hviezdoslavova","arrival_time":"10:36:00","departure_time":"10:36:00","lat":49.181664,"lon":16.677149,"is_passed":false},{"stop_id":"U1323Z2","name":"Langrova","arrival_time":"10:37:00","departure_time":"10:37:00","lat":49.17982,"lon":16.68105,"is_passed":false},{"stop_id":"U1382Z2","name":"Mikulčická","arrival_time":"10:38:00","departure_time":"10:38:00","lat":49.178227,"lon":16.684944,"is_passed":false},{"stop_id":"U1297Z2","name":"Kroměřížská","arrival_time":"10:39:00","departure_time":"10:39:00","lat":49.178988,"lon":16.689151,"is_passed":false},{"stop_id":"U1577Z1","name":"Slatina, sídliště","arrival_time":"10:41:00","departure_time":"11:17:00","lat":49.181827,"lon":16.690272,"is_passed":false}],"49527":[{"stop_id":"U1577Z2","name":"Slatina, sídliště","arrival_time":"11:17:00","departure_time":"11:17:00","lat":49.181605,"lon":16.690121,"is_passed":false},{"stop_id":"U1297Z1","name":"Kroměřížská","arrival_time":"11:17:00","departure_time":"11:17:00","lat":49.178307,"lon":16.688244,"is_passed":false},{"stop_id":"U1382Z1","name":"Mikulčická","arrival_time":"11:18:00","departure_time":"11:18:00","lat":49.178464,"lon":16.683602,"is_passed":false},{"stop_id":"U1323Z1","name":"Langrova","arrival_time":"11:19:00","departure_time":"11:19:00","lat":49.180031,"lon":16.680806,"is_passed":false},{"stop_id":"U1173Z1","name":"Hviezdoslavova","arrival_time":"11:20:00","departure_time":"11:20:00","lat":49.18219,"lon":16.676025,"is_passed":false},{"stop_id":"U1757Z1","name":"Vozovna Slatina","arrival_time":"11:21:00","departure_time":"11:21:00","lat":49.183032,"lon":16.672807,"is_passed":false},{"stop_id":"U1068Z1","name":"Černovičky","arrival_time":"11:22:00","departure_time":"11:22:00","lat":49.182244,"lon":16.66894,"is_passed":false},{"stop_id":"U1741Z1","name":"Vlárská","arrival_time":"11:23:00","departure_time":"11:23:00","lat":49.180745,"lon":16.671647,"is_passed":false},{"stop_id":"U1105Z4","name":"Ericha Roučky","arrival_time":"11:25:00","departure_time":"11:25:00","lat":49.175789,"lon":16.668403,"is_passed":false},