[{"stop_id":"U12736Z51","name":"Letovice, železniční stanice","arrival_time":"7:30:00","departure_time":"7:30:00","lat":49.555973,"lon":16.570906,"is_passed":false},{"stop_id":"U12676Z51","name":"Skalice nad Svitavou, žel.st.","arrival_time":"7:37:00","departure_time":"7:38:00","lat":49.480123,"lon":16.609726,"is_passed":false},{"stop_id":"U22302Z2","name":"Blansko město","arrival_time":"7:47:00","departure_time":"7:47:00","lat":49.360996,"lon":16.639464,"is_passed":false},{"stop_id":"U12342Z29","name":"Blansko, aut. st.","arrival_time":"7:49:00","departure_time":"7:50:00","lat":49.352753,"lon":16.646848,"is_passed":false},{"stop_id":"U1809Z11","name":"Židenice, nádraží","arrival_time":"8:05:00","departure_time":"8:05:00","lat":49.204282,"lon":16.636042,"is_passed":false},{"stop_id":"U1146Z98","name":"Hlavní nádraží","arrival_time":"8:10:00","departure_time":"13:49:00","lat":49.19035,"lon":16.612342,"is_passed":false}]