[{"stop_id":"U1286Z5","name":"Královo Pole, nádraží","arrival_time":"14:51:00","departure_time":"14:51:00","lat":49.229633,"lon":16.595447,"is_passed":false},{"stop_id":"U1566Z6","name":"Semilasso","arrival_time":"14:52:00","departure_time":"14:52:00","lat":49.228248,"lon":16.593466,"is_passed":false},{"stop_id":"U1171Z4","name":"Husitská","arrival_time":"14:54:00","departure_time":"14:54:00","lat":49.224063,"lon":16.593994,"is_passed":false},{"stop_id":"U1586Z3","name":"Slovanské náměstí","arrival_time":"14:55:00","departure_time":"14:55:00","lat":49.223525,"lon":16.591009,"is_passed":false},{"stop_id":"U1567Z5","name":"Skácelova","arrival_time":"14:56:00","departure_time":"14:56:00","lat":49.221353,"lon":16.584711,"is_passed":false},{"stop_id":"U1777Z3","name":"Záhřebská","arrival_time":"14:58:00","departure_time":"14:58:00","lat":49.22001,"lon":16.579572,"is_passed":false},{"stop_id":"U1155Z1","name":"Horská","arrival_time":"14:58:00","departure_time":"14:58:00","lat":49.221621,"lon":16.579517,"is_passed":false},{"stop_id":"U1475Z2","name":"Palackého vrch","arrival_time":"15:00:00","departure_time":"15:00:00","lat":49.224173,"lon":16.573374,"is_passed":false},{"stop_id":"U1660Z3","name":"Technická","arrival_time":"15:01:00","departure_time":"15:01:00","lat":49.223701,"lon":16.578091,"is_passed":false},{"stop_id":"U1499Z1","name":"Podnikatelská","arrival_time":"15:02:00","departure_time":"15:02:00","lat":49.227371,"lon":16.576366,"is_passed":false},{"stop_id":"U1252Z2","name":"Kolejní","arrival_time":"15:03:00","departure_time":"15:03:00","lat":49.230641,"lon":16.57191,"is_passed":false},{"stop_id":"U1733Z1","name":"Vědeckotechnický park","arrival_time":"15:04:00","departure_time":"15:04:00","lat":49.2326,"lon":16.574806,"is_passed":false},{"stop_id":"U1659Z4","name":"Technologický park","arrival_time":"15:05:00","departure_time":"15:05:00","lat":49.231509,"lon":16.576781,"is_passed":false}]