[{"stop_id":"U1659Z4","name":"Technologický park","arrival_time":"19:45:00","departure_time":"19:45:00","lat":49.231509,"lon":16.576781,"is_passed":false},{"stop_id":"U1756Z3","name":"Vozovna Medlánky","arrival_time":"19:47:00","departure_time":"19:47:00","lat":49.235779,"lon":16.585218,"is_passed":false},{"stop_id":"U1377Z1","name":"Medlánky, škola","arrival_time":"19:48:00","departure_time":"19:48:00","lat":49.238431,"lon":16.578024,"is_passed":false},{"stop_id":"U1376Z1","name":"Medlánky","arrival_time":"19:49:00","departure_time":"19:49:00","lat":49.240555,"lon":16.573723,"is_passed":false},{"stop_id":"U1719Z1","name":"V Újezdech","arrival_time":"19:49:00","departure_time":"19:49:00","lat":49.241986,"lon":16.573155,"is_passed":false},{"stop_id":"U1414Z2","name":"Nadační","arrival_time":"19:50:00","departure_time":"19:50:00","lat":49.244744,"lon":16.57031,"is_passed":false},{"stop_id":"U1539Z1","name":"Renčova","arrival_time":"19:52:00","departure_time":"19:52:00","lat":49.246696,"lon":16.575244,"is_passed":false},{"stop_id":"U1457Z1","name":"Olšanského","arrival_time":"19:53:00","departure_time":"19:53:00","lat":49.244367,"lon":16.577644,"is_passed":false},{"stop_id":"U1553Z3","name":"Řečkovice","arrival_time":"19:54:00","departure_time":"19:54:00","lat":49.246501,"lon":16.579153,"is_passed":false},{"stop_id":"U1476Z1","name":"Palackého náměstí","arrival_time":"19:55:00","departure_time":"19:55:00","lat":49.25084,"lon":16.581903,"is_passed":false},{"stop_id":"U1556Z1","name":"Řečkovice, hřbitov","arrival_time":"19:57:00","departure_time":"20:01:00","lat":49.253402,"lon":16.582496,"is_passed":false}]