[{"stop_id":"U1058Z2","name":"Čejkovická","arrival_time":"6:05:00","departure_time":"6:05:00","lat":49.200493,"lon":16.661793,"is_passed":false},{"stop_id":"U1036Z2","name":"Bořetická","arrival_time":"6:06:00","departure_time":"6:06:00","lat":49.201495,"lon":16.658055,"is_passed":false},{"stop_id":"U1403Z2","name":"Mutěnická","arrival_time":"6:07:00","departure_time":"6:07:00","lat":49.203951,"lon":16.654889,"is_passed":false},{"stop_id":"U1477Z2","name":"Pálavské náměstí","arrival_time":"6:08:00","departure_time":"6:08:00","lat":49.20538,"lon":16.658103,"is_passed":false},{"stop_id":"U1052Z2","name":"Bzenecká","arrival_time":"6:09:00","departure_time":"6:09:00","lat":49.205822,"lon":16.661645,"is_passed":false},{"stop_id":"U1523Z2","name":"Prušánecká","arrival_time":"6:10:00","departure_time":"6:10:00","lat":49.209503,"lon":16.663369,"is_passed":false},{"stop_id":"U1743Z2","name":"Vlčnovská","arrival_time":"6:10:00","departure_time":"6:10:00","lat":49.211166,"lon":16.659638,"is_passed":false},{"stop_id":"U1002Z2","name":"Akátky","arrival_time":"6:11:00","departure_time":"6:11:00","lat":49.208751,"lon":16.648718,"is_passed":false},{"stop_id":"U1698Z2","name":"Údolíček","arrival_time":"6:11:00","departure_time":"6:11:00","lat":49.206553,"lon":16.643865,"is_passed":false},{"stop_id":"U1631Z1","name":"Svatoplukova","arrival_time":"6:12:00","departure_time":"6:12:00","lat":49.2051,"lon":16.641425,"is_passed":false},{"stop_id":"U1611Z6","name":"Stará osada","arrival_time":"6:14:00","departure_time":"6:14:00","lat":49.201731,"lon":16.642184,"is_passed":false},{"stop_id":"U1313Z2","name":"Kuldova","arrival_time":"6:15:00","departure_time":"6:15:00","lat":49.201319,"lon":16.634551,"is_passed":false},{"stop_id":"U1773Z2","name":"Vojenská nemocnice","arrival_time":"6:16:00","departure_time":"6:16:00","lat":49.202306,"lon":16.62966,"is_passed":false},{"stop_id":"U1663Z2","name":"Tkalcovská","arrival_time":"6:17:00","departure_time":"6:17:00","lat":49.199805,"lon":16.625934,"is_passed":false},{"stop_id":"U1271Z2","name":"Körnerova","arrival_time":"6:18:00","departure_time":"6:18:00","lat":49.198152,"lon":16.619504,"is_passed":false},{"stop_id":"U1357Z1","name":"Malinovského náměstí","arrival_time":"6:20:00","departure_time":"6:20:00","lat":49.195492,"lon":16.61386,"is_passed":false},{"stop_id":"U1146Z8","name":"Hlavní nádraží","arrival_time":"6:23:00","departure_time":"6:23:00","lat":49.191893,"lon":16.613334,"is_passed":false}]