[{"stop_id":"U1408Z2","name":"Myslivna","arrival_time":"12:17:00","departure_time":"12:17:00","lat":49.18786,"lon":16.552068,"is_passed":false},{"stop_id":"U1636Z2","name":"Šárka","arrival_time":"12:18:00","departure_time":"12:18:00","lat":49.19131,"lon":16.545929,"is_passed":false},{"stop_id":"U1003Z1","name":"Antonína Procházky","arrival_time":"12:20:00","departure_time":"12:20:00","lat":49.193559,"lon":16.561795,"is_passed":false},{"stop_id":"U1007Z4","name":"Anthropos","arrival_time":"12:21:00","departure_time":"12:21:00","lat":49.193356,"lon":16.56677,"is_passed":false},{"stop_id":"U1487Z6","name":"Pisárky","arrival_time":"12:22:00","departure_time":"12:22:00","lat":49.193537,"lon":16.570797,"is_passed":false},{"stop_id":"U1320Z2","name":"Květná","arrival_time":"12:23:00","departure_time":"12:23:00","lat":49.193384,"lon":16.576691,"is_passed":false},{"stop_id":"U1478Z4","name":"Pavlíkova","arrival_time":"12:24:00","departure_time":"12:24:00","lat":49.194603,"lon":16.584264,"is_passed":false},{"stop_id":"U1723Z4","name":"Vaňkovo náměstí","arrival_time":"12:25:00","departure_time":"12:25:00","lat":49.195446,"lon":16.585783,"is_passed":false},{"stop_id":"U1328Z2","name":"Lerchova","arrival_time":"12:26:00","departure_time":"12:26:00","lat":49.198598,"lon":16.583814,"is_passed":false},{"stop_id":"U1371Z3","name":"Náměstí Míru","arrival_time":"12:29:00","departure_time":"12:29:00","lat":49.201996,"lon":16.581664,"is_passed":false},{"stop_id":"U1279Z1","name":"Kounicovy koleje","arrival_time":"12:30:00","departure_time":"12:30:00","lat":49.207874,"lon":16.583463,"is_passed":false},{"stop_id":"U1657Z6","name":"Tábor","arrival_time":"12:31:00","departure_time":"12:31:00","lat":49.210122,"lon":16.587633,"is_passed":false},{"stop_id":"U1242Z1","name":"Klusáčkova","arrival_time":"12:33:00","departure_time":"12:33:00","lat":49.212365,"lon":16.592666,"is_passed":false},{"stop_id":"U1643Z2","name":"Štefánikova","arrival_time":"12:35:00","departure_time":"12:35:00","lat":49.21528,"lon":16.599053,"is_passed":false},{"stop_id":"U1535Z4","name":"Reissigova","arrival_time":"12:36:00","departure_time":"12:36:00","lat":49.21637,"lon":16.60365,"is_passed":false},{"stop_id":"U1415Z2","name":"NC Královo Pole","arrival_time":"12:38:00","departure_time":"12:42:00","lat":49.217553,"lon":16.607232,"is_passed":false}]