[{"stop_id":"U1378Z10","name":"Mendlovo náměstí","arrival_time":"23:01:00","departure_time":"23:01:00","lat":49.190361,"lon":16.593096,"is_passed":false},{"stop_id":"U1768Z3","name":"Výstaviště - hlavní vstup","arrival_time":"23:02:00","departure_time":"23:02:00","lat":49.18958,"lon":16.586471,"is_passed":false},{"stop_id":"U1343Z3","name":"ARENA BRNO","arrival_time":"23:03:00","departure_time":"23:03:00","lat":49.191696,"lon":16.576091,"is_passed":false},{"stop_id":"U1487Z5","name":"Pisárky","arrival_time":"23:04:00","departure_time":"23:04:00","lat":49.193517,"lon":16.571155,"is_passed":false},{"stop_id":"U1007Z3","name":"Anthropos","arrival_time":"23:05:00","departure_time":"23:05:00","lat":49.193146,"lon":16.565715,"is_passed":false},{"stop_id":"U1003Z2","name":"Antonína Procházky","arrival_time":"23:05:00","departure_time":"23:05:00","lat":49.194292,"lon":16.55926,"is_passed":false},{"stop_id":"U1636Z1","name":"Šárka","arrival_time":"23:06:00","departure_time":"23:06:00","lat":49.191567,"lon":16.545721,"is_passed":false},{"stop_id":"U1409Z1","name":"Myslivní","arrival_time":"23:07:00","departure_time":"23:07:00","lat":49.190497,"lon":16.543386,"is_passed":false},{"stop_id":"U1767Z1","name":"Výletní","arrival_time":"23:08:00","departure_time":"23:08:00","lat":49.1916,"lon":16.539376,"is_passed":false},{"stop_id":"U1806Z1","name":"Žebětínská","arrival_time":"23:09:00","departure_time":"23:09:00","lat":49.195158,"lon":16.536454,"is_passed":false},{"stop_id":"U1248Z2","name":"Kohoutovice, hájenka","arrival_time":"23:11:00","departure_time":"23:12:00","lat":49.19656,"lon":16.530778,"is_passed":false},{"stop_id":"U1608Z2","name":"Stará dálnice","arrival_time":"23:14:00","departure_time":"23:14:00","lat":49.199858,"lon":16.516922,"is_passed":false},{"stop_id":"U1267Z1","name":"Kopce","arrival_time":"23:15:00","departure_time":"23:15:00","lat":49.205491,"lon":16.509214,"is_passed":false},{"stop_id":"U1251Z1","name":"Kohoutovická","arrival_time":"23:16:00","departure_time":"23:16:00","lat":49.207042,"lon":16.497787,"is_passed":false},{"stop_id":"U1803Z1","name":"Žebětín, škola","arrival_time":"23:17:00","departure_time":"23:17:00","lat":49.207486,"lon":16.491642,"is_passed":false},{"stop_id":"U1302Z1","name":"Křivánkovo náměstí","arrival_time":"23:18:00","departure_time":"23:18:00","lat":49.20718,"lon":16.487513,"is_passed":false},{"stop_id":"U1800Z1","name":"Žebětín, hřbitov","arrival_time":"23:19:00","departure_time":"23:19:00","lat":49.204634,"lon":16.487304,"is_passed":false},{"stop_id":"U1015Z1","name":"Bartolomějská","arrival_time":"23:20:00","departure_time":"23:22:00","lat":49.20362,"lon":16.489502,"is_passed":false}]