{"499":[{"stop_id":"U12736Z51","name":"Letovice, železniční stanice","arrival_time":"5:22:00","departure_time":"5:22:00","lat":49.555973,"lon":16.570906,"is_passed":false},{"stop_id":"U22702Z2","name":"Letovice zastávka","arrival_time":"5:24:00","departure_time":"5:25:00","lat":49.536152,"lon":16.576186,"is_passed":false},{"stop_id":"U22701Z2","name":"Zboněk","arrival_time":"5:27:00","departure_time":"5:27:00","lat":49.520482,"lon":16.584439,"is_passed":false},{"stop_id":"U22602Z2","name":"Svitávka","arrival_time":"5:30:00","departure_time":"5:30:00","lat":49.499434,"lon":16.599208,"is_passed":false},{"stop_id":"U12676Z51","name":"Skalice nad Svitavou, žel.st.","arrival_time":"5:33:00","departure_time":"5:42:00","lat":49.480123,"lon":16.609726,"is_passed":false},{"stop_id":"U12511Z51","name":"Doubravice, žel.st.","arrival_time":"5:47:00","departure_time":"5:47:00","lat":49.438707,"lon":16.621809,"is_passed":false},{"stop_id":"U12439Z51","name":"Rájec-Jestřebí, železniční stanice","arrival_time":"5:50:00","departure_time":"5:51:00","lat":49.408206,"lon":16.627711,"is_passed":false},{"stop_id":"U22301Z2","name":"Dolní Lhota","arrival_time":"5:54:00","departure_time":"5:54:00","lat":49.386917,"lon":16.633978,"is_passed":false},{"stop_id":"U22302Z2","name":"Blansko město","arrival_time":"5:57:00","departure_time":"5:58:00","lat":49.360996,"lon":16.639464,"is_passed":false},{"stop_id":"U12342Z29","name":"Blansko, aut. st.","arrival_time":"5:59:00","departure_time":"6:01:00","lat":49.352753,"lon":16.646848,"is_passed":false},{"stop_id":"U12231Z11","name":"Adamov, železniční zastávka","arrival_time":"6:06:00","departure_time":"6:07:00","lat":49.300671,"lon":16.650653,"is_passed":false},{"stop_id":"U12230Z11","name":"Adamov, železniční stanice","arrival_time":"6:08:00","departure_time":"6:09:00","lat":49.295341,"lon":16.663538,"is_passed":false},{"stop_id":"U22101Z2","name":"Babice nad Svitavou","arrival_time":"6:12:00","departure_time":"6:12:00","lat":49.276645,"lon":16.673012,"is_passed":false},{"stop_id":"U12158Z11","name":"Bílovice nad Svitavou, žel. stanice","arrival_time":"6:16:00","departure_time":"6:17:00","lat":49.242715,"lon":16.673677,"is_passed":false},{"stop_id":"U1809Z11","name":"Židenice, nádraží","arrival_time":"6:22:00","departure_time":"6:22:00","lat":49.204282,"lon":16.636042,"is_passed":false},{"stop_id":"U1146Z98","name":"Hlavní nádraží","arrival_time":"6:27:00","departure_time":"6:35:00","lat":49.19035,"lon":16.612342,"is_passed":false},{"stop_id":"U1183Z11","name":"Chrlice, nádraží","arrival_time":"6:43:00","departure_time":"6:47:00","lat":49.132031,"lon":16.657232,"is_passed":false},{"stop_id":"U16149Z11","name":"Sokolnice, železniční stanice","arrival_time":"6:53:00","departure_time":"7:40:00","lat":49.108029,"lon":16.733459,"is_passed":false}],"4990":[{"stop_id":"U14242Z4","name":"Zastávka, železniční stanice","arrival_time":"11:49:00","departure_time":"11:49:00","lat":49.187553,"lon":16.359243,"is_passed":false},{"stop_id":"U14224Z1","name":"Babice u Rosic","arrival_time":"11:52:00","departure_time":"11:52:00","lat":49.171094,"lon":16.359022,"is_passed":false},{"stop_id":"U14338Z1","name":"Zbýšov, Sička","arrival_time":"11:54:00","departure_time":"11:54:00","lat":49.166783,"lon":16.353281,"is_passed":false},{"stop_id":"U14335Z1","name":"Zbýšov, Jednota","arrival_time":"11:57:00","departure_time":"11:57:00","lat":49.161582,"lon":16.342693,"is_passed":false},{"stop_id":"U14330Z1","name":"Zakřany, Jednota","arrival_time":"12:00:00","departure_time":"12:00:00","lat":49.168713,"lon":16.331422,"is_passed":false},{"stop_id":"U14331Z1","name":"Zakřany, obecní úřad","arrival_time":"12:01:00","departure_time":"12:01:00","lat":49.170393,"lon":16.325588,"is_passed":false},{"stop_id":"U14332Z1","name":"Zakřany, ZD","arrival_time":"12:02:00","departure_time":"12:02:00","lat":49.169187,"lon":16.319818,"is_passed":false},{"stop_id":"U14324Z1","name":"Lukovany, u kapličky","arrival_time":"12:04:00","departure_time":"12:04:00","lat":49.163321,"lon":16.3027,"is_passed":false},{"stop_id":"U14322Z1","name":"Lukovany, na dolině","arrival_time":"12:05:00","departure_time":"12:05:00","lat":49.162995,"lon":16.299642,"is_passed":false},{"stop_id":"U14323Z1","name":"Lukovany, točna","arrival_time":"12:06:00","departure_time":"12:10:00","lat":49.163362,"lon":16.295969,"is_passed":false}],"4991":[{"stop_id":"U14323Z2","name":"Lukovany, točna","arrival_time":"12:10:00","departure_time":"12:10:00","lat":49.163362,"lon":16.295969,"is_passed":false},{"stop_id":"U14322Z2","name":"Lukovany, na dolině","arrival_time":"12:11:00","departure_time":"12:11:00","lat":49.162876,"lon":16.299755,"is_passed":false},{"stop_id":"U14324Z2","name":"Lukovany, u kapličky","arrival_time":"12:12:00","departure_time":"12:12:00","lat":49.163265,"lon":16.302909,"is_passed":false},{"stop_id":"U14332Z2","name":"Zakřany, ZD","arrival_time":"12:14:00","departure_time":"12:14:00","lat":49.169187,"lon":16.319818,"is_passed":false},{"stop_id":"U14331Z2","name":"Zakřany, obecní úřad","arrival_time":"12:16:00","departure_time":"12:16:00","lat":49.170265,"lon":16.325898,"is_passed":false},{"stop_id":"U14330Z2","name":"Zakřany, Jednota","arrival_time":"12:18:00","departure_time":"12:18:00","lat":49.168722,"lon":16.331437,"is_passed":false},{"stop_id":"U14335Z2","name":"Zbýšov, Jednota","arrival_time":"12:20:00","departure_time":"12:20:00","lat":49.161319,"lon":16.342814,"is_passed":false},{"stop_id":"U14338Z2","name":"Zbýšov, Sička","arrival_time":"12:24:00","departure_time":"12:24:00","lat":49.16693,"lon":16.353128,"is_passed":false},{"stop_id":"U14224Z2","name":"Babice u Rosic","arrival_time":"12:26:00","departure_time":"12:26:00","lat":49.171089,"lon":16.359275,"is_passed":false},{"stop_id":"U14242Z10","name":"Zastávka, železniční stanice","arrival_time":"12:32:00","departure_time":"13:19:00","lat":49.187164,"lon":16.360086,"is_passed":false}],"4992":[{"stop_id":"U14242Z4","name":"Zastávka, železniční stanice","arrival_time":"13:19:00","departure_time":"13:19:00","lat":49.187553,"lon":16.359243,"is_passed":false},{"stop_id":"U14224Z1","name":"Babice u Rosic","arrival_time":"13:22:00","departure_time":"13:22:00","lat":49.171094,"lon":16.359022,"is_passed":false},{"stop_id":"U14338Z1","name":"Zbýšov, Sička","arrival_time":"13:24:00","departure_time":"13:24:00","lat":49.166783,"lon":16.353281,"is_passed":false},{"stop_id":"U14335Z1","name":"Zbýšov, Jednota","arrival_time":"13:27:00","departure_time":"13:27:00","lat":49.161582,"lon":16.342693,"is_passed":false},{"stop_id":"U14330Z1","name":"Zakřany, Jednota","arrival_time":"13:30:00","departure_time":"13:30:00","lat":49.168713,"lon":16.331422,"is_passed":false},{"stop_id":"U14331Z1","name":"Zakřany, obecní úřad","arrival_time":"13:31:00","departure_time":"13:31:00","lat":49.170393,"lon":16.325588,"is_passed":false},{"stop_id":"U14332Z1","name":"Zakřany, ZD","arrival_time":"13:32:00","departure_time":"13:32:00","lat":49.169187,"lon":16.319818,"is_passed":false},{"stop_id":"U14324Z1","name":"Lukovany, u kapličky","arrival_time":"13:34:00","departure_time":"13:34:00","lat":49.163321,"lon":16.3027,"is_passed":false},{"stop_id":"U14322Z1","name":"Lukovany, na dolině","arrival_time":"13:35:00","departure_time":"13:35:00","lat":49.162995,"lon":16.299642,"is_passed":false},{"stop_id":"U14323Z1","name":"Lukovany, točna","arrival_time":"13:36:00","departure_time":"14:10:00","lat":49.163362,"lon":16.295969,"is_passed":false}],"4993":[{"stop_id":"U14323Z2","name":"Lukovany, točna","arrival_time":"14:10:00","departure_time":"14:10:00","lat":49.163362,"lon":16.295969,"is_passed":false},{"stop_id":"U14322Z2","name":"Lukovany, na dolině","arrival_time":"14:11:00","departure_time":"14:11:00","lat":49.162876,"lon":16.299755,"is_passed":false},{"stop_id":"U14324Z2","name":"Lukovany, u kapličky","arrival_time":"14:12:00","departure_time":"14:12:00","lat":49.163265,"lon":16.302909,"is_passed":false},{"stop_id":"U14332Z2","name":"Zakřany, ZD","arrival_time":"14:14:00","departure_time":"14:14:00","lat":49.169187,"lon":16.319818,"is_passed":false},{"stop_id":"U14331Z2","name":"Zakřany, obecní úřad","arrival_time":"14:16:00","departure_time":"14:16:00","lat":49.170265,"lon":16.325898,"is_passed":false},{"stop_id":"U14330Z2","name":"Zakřany, Jednota","arrival_time":"14:18:00","departure_time":"14:18:00","lat":49.168722,"lon":16.331437,"is_passed":false},{"stop_id":"U14335Z2","name":"Zbýšov, Jednota","arrival_time":"14:20:00","departure_time":"14:20:00","lat":49.161319,"lon":16.342814,"is_passed":false},{"stop_id":"U14338Z2","name":"Zbýšov, Sička","arrival_time":"14:24:00","departure_time":"14:24:00","lat":49.16693,"lon":16.353128,"is_passed":false},{"stop_id":"U14224Z2","name":"Babice u Rosic","arrival_time":"14:26:00","departure_time":"14:26:00","lat":49.171089,"lon":16.359275,"is_passed":false},{"stop_id":"U14242Z10","name":"Zastávka, železniční stanice","arrival_time":"14:32:00","departure_time":"14:49:00","lat":49.187164,"lon":16.360086,"is_passed":false}],"4994":[{"stop_id":"U14242Z4","name":"Zastávka, železniční stanice","arrival_time":"14:49:00","departure_time":"14:49:00","lat":49.187553,"lon":16.359243,"is_passed":false},{"stop_id":"U14224Z1","name":"Babice u Rosic","arrival_time":"14:52:00","departure_time":"14:52:00","lat":49.171094,"lon":16.359022,"is_passed":false},{"stop_id":"U14338Z1","name":"Zbýšov, Sička","arrival_time":"14:54:00","departure_time":"14:54:00","lat":49.166783,"lon":16.353281,"is_passed":false},{"stop_id":"U14335Z1","name":"Zbýšov, Jednota","arrival_time":"14:57:00","departure_time":"14:57:00","lat":49.161582,"lon":16.342693,"is_passed":false},{"stop_id":"U14330Z1","name":"Zakřany, Jednota","arrival_time":"15:00:00","departure_time":"15:00:00","lat":49.168713,"lon":16.331422,"is_passed":false},{"stop_id":"U14331Z1","name":"Zakřany, obecní úřad","arrival_time":"15:01:00","departure_time":"15:01:00","lat":49.170393,"lon":16.325588,"is_passed":false},{"stop_id":"U14332Z1","name":"Zakřany, ZD","arrival_time":"15:02:00","departure_time":"15:02:00","lat":49.169187,"lon":16.319818,"is_passed":false},{"stop_id":"U14324Z1","name":"Lukovany, u kapličky","arrival_time":"15:04:00","departure_time":"15:04:00","lat":49.163321,"lon":16.3027,"is_passed":false},{"stop_id":"U14322Z1","name":"Lukovany, na dolině","arrival_time":"15:05:00","departure_time":"15:05:00","lat":49.162995,"lon":16.299642,"is_passed":false},{"stop_id":"U14323Z1","name":"Lukovany, točna","arrival_time":"15:06:00","departure_time":"15:10:00","lat":49.163362,"lon":16.295969,"is_passed":false}],"4995":[{"stop_id":"U14323Z2","name":"Lukovany, točna","arrival_time":"15:10:00","departure_time":"15:10:00","lat":49.163362,"lon":16.295969,"is_passed":false},{"stop_id":"U14322Z2","name":"Lukovany, na dolině","arrival_time":"15:11:00","departure_time":"15:11:00","lat":49.162876,"lon":16.299755,"is_passed":false},{"stop_id":"U14324Z2","name":"Lukovany, u kapličky","arrival_time":"15:12:00","departure_time":"15:12:00","lat":49.163265,"lon":16.302909,"is_passed":false},{"stop_id":"U14332Z2","name":"Zakřany, ZD","arrival_time":"15:14:00","departure_time":"15:14:00","lat":49.169187,"lon":16.319818,"is_passed":false},{"stop_id":"U14331Z2","name":"Zakřany, obecní úřad","arrival_time":"15:16:00","departure_time":"15:16:00","lat":49.170265,"lon":16.325898,"is_passed":false},{"stop_id":"U14330Z2","name":"Zakřany, Jednota","arrival_time":"15:18:00","departure_time":"15:18:00","lat":49.168722,"lon":16.331437,"is_passed":false},{"stop_id":"U14335Z2","name":"Zbýšov, Jednota","arrival_time":"15:20:00","departure_time":"15:20:00","lat":49.161319,"lon":16.342814,"is_passed":false},{"stop_id":"U14338Z2","name":"Zbýšov, Sička","arrival_time":"15:24:00","departure_time":"15:24:00","lat":49.16693,"lon":16.353128,"is_passed":false},{"stop_id":"U14224Z2","name":"Babice u Rosic","arrival_time":"15:26:00","departure_time":"15:26:00","lat":49.171089,"lon":16.359275,"is_passed":false},{"stop_id":"U14242Z10","name":"Zastávka, železniční stanice","arrival_time":"15:32:00","departure_time":"15:32:00","lat":49.187164,"lon":16.360086,"is_passed":false}],"4996":[{"stop_id":"U14242Z2","name":"Zastávka, železniční stanice","arrival_time":"15:47:00","departure_time":"15:47:00","lat":49.18763,"lon":16.359105,"is_passed":false},{"stop_id":"U14239Z2","name":"Zastávka, Dům zdraví","arrival_time":"15:48:00","departure_time":"15:48:00","lat":49.186967,"lon":16.361933,"is_passed":false},{"stop_id":"U14225Z2","name":"Rosice, ADOSA","arrival_time":"15:50:00","departure_time":"15:50:00","lat":49.183986,"lon":16.370956,"is_passed":false},{"stop_id":"U14229Z2","name":"Rosice, Kamínky","arrival_time":"15:52:00","departure_time":"15:52:00","lat":49.184668,"lon":16.382321,"is_passed":false},{"stop_id":"U14235Z2","name":"Rosice, Trávníky","arrival_time":"15:54:00","departure_time":"15:54:00","lat":49.183467,"lon":16.390594,"is_passed":false},{"stop_id":"U14226Z2","name":"Rosice, Brněnská","arrival_time":"15:56:00","departure_time":"15:56:00","lat":49.182913,"lon":16.39836,"is_passed":false},{"stop_id":"U14233Z2","name":"Rosice, STK","arrival_time":"15:57:00","departure_time":"15:57:00","lat":49.184703,"lon":16.405114,"is_passed":false},{"stop_id":"U14111Z2","name":"Omice, Kývalka","arrival_time":"16:01:00","departure_time":"16:01:00","lat":49.189889,"lon":16.452549,"is_passed":false},{"stop_id":"U14133Z2","name":"Popůvky, Vintrovna","arrival_time":"16:04:00","departure_time":"16:04:00","lat":49.181645,"lon":16.49075,"is_passed":false},{"stop_id":"U14160Z2","name":"Troubsko, Veselka","arrival_time":"16:06:00","departure_time":"16:06:00","lat":49.176834,"lon":16.503674,"is_passed":false},{"stop_id":"U14107Z2","name":"Troubsko, Kovopodnik","arrival_time":"16:07:00","departure_time":"16:07:00","lat":49.175782,"lon":16.511673,"is_passed":false},{"stop_id":"U1672Z2","name":"Tranzitní plynovod","arrival_time":"16:08:00","departure_time":"16:08:00","lat":49.174004,"lon":16.523133,"is_passed":false},{"stop_id":"U1516Z1","name":"Pražská","arrival_time":"16:09:00","departure_time":"16:09:00","lat":49.173478,"lon":16.531543,"is_passed":false},{"stop_id":"U1568Z2","name":"Skalní","arrival_time":"16:10:00","departure_time":"16:10:00","lat":49.174201,"lon":16.537903,"is_passed":false},{"stop_id":"U1202Z2","name":"Jemelkova","arrival_time":"16:11:00","departure_time":"16:11:00","lat":49.173163,"lon":16.54872,"is_passed":false},{"stop_id":"U1632Z2","name":"Svážná","arrival_time":"16:12:00","departure_time":"16:12:00","lat":49.173409,"lon":16.553508,"is_passed":false},{"stop_id":"U1429Z7","name":"Nemocnice Bohunice","arrival_time":"16:15:00","departure_time":"16:42:00","lat":49.176176,"lon":16.567045,"is_passed":false}],"4997":[{"stop_id":"U1429Z7","name":"Nemocnice Bohunice","arrival_time":"16:42:00","departure_time":"16:42:00","lat":49.176176,"lon":16.567045,"is_passed":false},{"stop_id":"U1632Z1","name":"Svážná","arrival_time":"16:44:00","departure_time":"16:44:00","lat":49.173544,"lon":16.553381,"is_passed":false},{"stop_id":"U1202Z1","name":"Jemelkova","arrival_time":"16:44:00","departure_time":"16:44:00","lat":49.173333,"lon":16.548692,"is_passed":false},{"stop_id":"U1568Z1","name":"Skalní","arrival_time":"16:46:00","departure_time":"16:46:00","lat":49.174278,"lon":16.534362,"is_passed":false},{"stop_id":"U1161Z3","name":"Hoštická","arrival_time":"16:47:00","departure_time":"16:47:00","lat":49.173743,"lon":16.529523,"is_passed":false},{"stop_id":"U1672Z1","name":"Tranzitní plynovod","arrival_time":"16:48:00","departure_time":"16:48:00","lat":49.174213,"lon":16.522313,"is_passed":false},{"stop_id":"U14107Z1","name":"Troubsko, Kovopodnik","arrival_time":"16:49:00","departure_time":"16:49:00","lat":49.175866,"lon":16.511544,"is_passed":false},{"stop_id":"U14160Z1","name":"Troubsko, Veselka","arrival_time":"16:50:00","departure_time":"16:50:00","lat":49.176905,"lon":16.503284,"is_passed":false},{"stop_id":"U14133Z1","name":"Popůvky, Vintrovna","arrival_time":"16:52:00","departure_time":"16:52:00","lat":49.181813,"lon":16.490518,"is_passed":false},{"stop_id":"U14111Z1","name":"Omice, Kývalka","arrival_time":"16:55:00","departure_time":"16:55:00","lat":49.190139,"lon":16.451061,"is_passed":false},{"stop_id":"U14233Z1","name":"Rosice, STK","arrival_time":"16:59:00","departure_time":"16:59:00","lat":49.184733,"lon":16.404825,"is_passed":false},{"stop_id":"U14226Z1","name":"Rosice, Brněnská","arrival_time":"17:00:00","departure_time":"17:00:00","lat":49.182964,"lon":16.39814,"is_passed":false},{"stop_id":"U14235Z1","name":"Rosice, Trávníky","arrival_time":"17:01:00","departure_time":"17:01:00","lat":49.183539,"lon":16.390958,"is_passed":false},{"stop_id":"U14229Z1","name":"Rosice, Kamínky","arrival_time":"17:02:00","departure_time":"17:02:00","lat":49.184836,"lon":16.382997,"is_passed":false},{"stop_id":"U14225Z1","name":"Rosice, ADOSA","arrival_time":"17:04:00","departure_time":"17:04:00","lat":49.184094,"lon":16.370947,"is_passed":false},{"stop_id":"U14239Z1","name":"Zastávka, Dům zdraví","arrival_time":"17:06:00","departure_time":"17:06:00","lat":49.186831,"lon":16.361669,"is_passed":false},{"stop_id":"U14242Z10","name":"Zastávka, železniční stanice","arrival_time":"17:09:00","departure_time":"17:47:00","lat":49.187164,"lon":16.360086,"is_passed":false}],"4998":[{"stop_id":"U14242Z2","name":"Zastávka, železniční stanice","arrival_time":"17:47:00","departure_time":"17:47:00","lat":49.18763,"lon":16.359105,"is_passed":false},{"stop_id":"U14239Z2","name":"Zastávka, Dům zdraví","arrival_time":"17:48:00","departure_time":"17:48:00","lat":49.186967,"lon":16.361933,"is_passed":false},{"stop_id":"U14225Z2","name":"Rosice, ADOSA","arrival_time":"17:50:00","departure_time":"17:50:00","lat":49.183986,"lon":16.370956,"is_passed":false},{"stop_id":"U14229Z2","name":"Rosice, Kamínky","arrival_time":"17:52:00","departure_time":"17:52:00","lat":49.184668,"lon":16.382321,"is_passed":false},{"stop_id":"U14235Z2","name":"Rosice, Trávníky","arrival_time":"17:54:00","departure_time":"17:54:00","lat":49.183467,"lon":16.390594,"is_passed":false},{"stop_id":"U14226Z2","name":"Rosice, Brněnská","arrival_time":"17:56:00","departure_time":"17:56:00","lat":49.182913,"lon":16.39836,"is_passed":false},{"stop_id":"U14233Z2","name":"Rosice, STK","arrival_time":"17:57:00","departure_time":"17:57:00","lat":49.184703,"lon":16.405114,"is_passed":false},{"stop_id":"U14111Z2","name":"Omice, Kývalka","arrival_time":"18:01:00","departure_time":"18:01:00","lat":49.189889,"lon":16.452549,"is_passed":false},{"stop_id":"U14133Z2","name":"Popůvky, Vintrovna","arrival_time":"18:04:00","departure_time":"18:04:00","lat":49.181645,"lon":16.49075,"is_passed":false},{"stop_id":"U14160Z2","name":"Troubsko, Veselka","arrival_time":"18:06:00","departure_time":"18:06:00","lat":49.176834,"lon":16.503674,"is_passed":false},{"stop_id":"U14107Z2","name":"Troubsko, Kovopodnik","arrival_time":"18:07:00","departure_time":"18:07:00","lat":49.175782,"lon":16.511673,"is_passed":false},{"stop_id":"U1672Z2","name":"Tranzitní plynovod","arrival_time":"18:08:00","departure_time":"18:08:00","lat":49.174004,"lon":16.523133,"is_passed":false},{"stop_id":"U1516Z1","name":"Pražská","arrival_time":"18:09:00","departure_time":"18:09:00","lat":49.173478,"lon":16.531543,"is_passed":false},{"stop_id":"U1568Z2","name":"Skalní","arrival_time":"18:10:00","departure_time":"18:10:00","lat":49.174201,"lon":16.537903,"is_passed":false},{"stop_id":"U1202Z2","name":"Jemelkova","arrival_time":"18:11:00","departure_time":"18:11:00","lat":49.173163,"lon":16.54872,"is_passed":false},{"stop_id":"U1632Z2","name":"Svážná","arrival_time":"18:12:00","departure_time":"18:12:00","lat":49.173409,"lon":16.553508,"is_passed":false},{"stop_id":"U1429Z7","name":"Nemocnice Bohunice","arrival_time":"18:15:00","departure_time":"18:42:00","lat":49.176176,"lon":16.567045,"is_passed":false}],"4999":[{"stop_id":"U1429Z7","name":"Nemocnice Bohunice","arrival_time":"18:42:00","departure_time":"18:42:00","lat":49.176176,"lon":16.567045,"is_passed":false},{"stop_id":"U1632Z1","name":"Svážná","arrival_time":"18:44:00","departure_time":"18:44:00","lat":49.173544,"lon":16.553381,"is_passed":false},{"stop_id":"U1202Z1","name":"Jemelkova","arrival_time":"18:44:00","departure_time":"18:44:00","lat":49.173333,"lon":16.548692,"is_passed":false},{"stop_id":"U1568Z1","name":"Skalní","arrival_time":"18:46:00","departure_time":"18:46:00","lat":49.174278,"lon":16.534362,"is_passed":false},{"stop_id":"U1161Z3","name":"Hoštická","arrival_time":"18:47:00","departure_time":"18:47:00","lat":49.173743,"lon":16.529523,"is_passed":false},{"stop_id":"U1672Z1","name":"Tranzitní plynovod","arrival_time":"18:48:00","departure_time":"18:48:00","lat":49.174213,"lon":16.522313,"is_passed":false},{"stop_id":"U14107Z1","name":"Troubsko, Kovopodnik","arrival_time":"18:49:00","departure_time":"18:49:00","lat":49.175866,"lon":16.511544,"is_passed":false},{"stop_id":"U14160Z1","name":"Troubsko, Veselka","arrival_time":"18:50:00","departure_time":"18:50:00","lat":49.176905,"lon":16.503284,"is_passed":false},{"stop_id":"U14133Z1","name":"Popůvky, Vintrovna","arrival_time":"18:52:00","departure_time":"18:52:00","lat":49.181813,"lon":16.490518,"is_passed":false},{"stop_id":"U14111Z1","name":"Omice, Kývalka","arrival_time":"18:55:00","departure_time":"18:55:00","lat":49.190139,"lon":16.451061,"is_passed":false},{"stop_id":"U14233Z1","name":"Rosice, STK","arrival_time":"18:59:00","departure_time":"18:59:00","lat":49.184733,"lon":16.404825,"is_passed":false},{"stop_id":"U14226Z1","name":"Rosice, Brněnská","arrival_time":"19:00:00","departure_time":"19:00:00","lat":49.182964,"lon":16.39814,"is_passed":false},{"stop_id":"U14235Z1","name":"Rosice, Trávníky","arrival_time":"19:01:00","departure_time":"19:01:00","lat":49.183539,"lon":16.390958,"is_passed":false},{"stop_id":"U14229Z1","name":"Rosice, Kamínky","arrival_time":"19:02:00","departure_time":"19:02:00","lat":49.184836,"lon":16.382997,"is_passed":false},{"stop_id":"U14225Z1","name":"Rosice, ADOSA","arrival_time":"19:04:00","departure_time":"19:04:00","lat":49.184094,"lon":16.370947,"is_passed":false},{"stop_id":"U14239Z1","name":"Zastávka, Dům zdraví","arrival_time":"19:06:00","departure_time":"19:06:00","lat":49.186831,"lon":16.361669,"is_passed":false},{"stop_id":"U14242Z10","name":"Zastávka, železniční stanice","arrival_time":"19:09:00","departure_time":"19:09:00","lat":49.187164,"lon":16.360086,"is_passed":false}],"49900":[{"stop_id":"U1213Z2","name":"Jundrov","arrival_time":"9:57:00","departure_time":"9:57:00","lat":49.211666,"lon":16.550607,"is_passed":false},{"stop_id":"U1462Z2","name":"Optátova","arrival_time":"9:58:00","departure_time":"9:58:00","lat":49.208867,"lon":16.555614,"is_passed":false},{"stop_id":"U1214Z1","name":"Jundrovský most","arrival_time":"9:59:00","departure_time":"9:59:00","lat":49.209437,"lon":16.556755,"is_passed":false},{"stop_id":"U1217Z4","name":"Vozovna Komín","arrival_time":"10:00:00","departure_time":"10:00:00","lat":49.214283,"lon":16.559705,"is_passed":false},{"stop_id":"U1143Z2","name":"Hlavní","arrival_time":"10:01:00","departure_time":"10:01:00","lat":49.21715,"lon":16.560506,"is_passed":false},{"stop_id":"U1651Z2","name":"Štursova","arrival_time":"10:02:00","departure_time":"10:02:00","lat":49.215854,"lon":16.564522,"is_passed":false},{"stop_id":"U1544Z4","name":"Rosického náměstí","arrival_time":"10:03:00","departure_time":"10:03:00","lat":49.214881,"lon":16.568314,"is_passed":false},{"stop_id":"U1528Z4","name":"Přívrat","arrival_time":"10:05:00","departure_time":"10:05:00","lat":49.218647,"lon":16.574085,"is_passed":false},{"stop_id":"U1777Z2","name":"Záhřebská","arrival_time":"10:06:00","departure_time":"10:06:00","lat":49.219845,"lon":16.580415,"is_passed":false},{"stop_id":"U1567Z6","name":"Skácelova","arrival_time":"10:08:00","departure_time":"10:08:00","lat":49.22163,"lon":16.585935,"is_passed":false},{"stop_id":"U1586Z4","name":"Slovanské náměstí","arrival_time":"10:09:00","departure_time":"10:09:00","lat":49.222774,"lon":16.591332,"is_passed":false},{"stop_id":"U1181Z2","name":"Charvatská","arrival_time":"10:10:00","departure_time":"10:10:00","lat":49.219543,"lon":16.592241,"is_passed":false},{"stop_id":"U1643Z2","name":"Štefánikova","arrival_time":"10:12:00","departure_time":"10:12:00","lat":49.21528,"lon":16.599053,"is_passed":false},{"stop_id":"U1535Z4","name":"Reissigova","arrival_time":"10:13:00","departure_time":"10:13:00","lat":49.21637,"lon":16.60365,"is_passed":false},{"stop_id":"U1415Z2","name":"NC Královo Pole","arrival_time":"10:15:00","departure_time":"10:15:00","lat":49.217553,"lon":16.607232,"is_passed":false},{"stop_id":"U1535Z2","name":"Reissigova","arrival_time":"10:17:00","departure_time":"10:17:00","lat":49.215925,"lon":16.604659,"is_passed":false},{"stop_id":"U1602Z2","name":"Sportovní","arrival_time":"10:18:00","departure_time":"10:18:00","lat":49.212001,"lon":16.607125,"is_passed":false},{"stop_id":"U1793Z4","name":"Za Lužánkami","arrival_time":"10:19:00","departure_time":"10:19:00","lat":49.208864,"lon":16.609536,"is_passed":false},{"stop_id":"U1177Z2","name":"Schodová","arrival_time":"10:20:00","departure_time":"10:20:00","lat":49.206474,"lon":16.612255,"is_passed":false},{"stop_id":"U1418Z4","name":"Náměstí 28. října","arrival_time":"10:22:00","departure_time":"10:22:00","lat":49.202201,"lon":16.613634,"is_passed":false},{"stop_id":"U1397Z4","name":"Moravské náměstí","arrival_time":"10:24:00","departure_time":"10:24:00","lat":49.199159,"lon":16.608704,"is_passed":false},{"stop_id":"U1193Z4","name":"Janáčkovo divadlo","arrival_time":"10:24:00","departure_time":"10:24:00","lat":49.197997,"lon":16.610307,"is_passed":false},{"stop_id":"U1357Z4","name":"Malinovského náměstí","arrival_time":"10:26:00","departure_time":"10:26:00","lat":49.195612,"lon":16.613248,"is_passed":false},{"stop_id":"U1146Z5","name":"Hlavní nádraží","arrival_time":"10:28:00","departure_time":"10:28:00","lat":49.192074,"lon":16.613923,"is_passed":false},{"stop_id":"U1746Z1","name":"Vlhká","arrival_time":"10:29:00","departure_time":"10:29:00","lat":49.191847,"lon":16.618976,"is_passed":false},{"stop_id":"U1372Z6","name":"Masná","arrival_time":"10:31:00","departure_time":"10:31:00","lat":49.190905,"lon":16.626023,"is_passed":false},{"stop_id":"U1144Z3","name":"Hladíkova","arrival_time":"10:32:00","departure_time":"10:32:00","lat":49.186729,"lon":16.626124,"is_passed":false},{"stop_id":"U1639Z1","name":"Škrobárenská","arrival_time":"10:33:00","departure_time":"10:33:00","lat":49.182466,"lon":16.626261,"is_passed":false},{"stop_id":"U1266Z3","name":"Konopná","arrival_time":"10:35:00","departure_time":"10:35:00","lat":49.180126,"lon":16.621339,"is_passed":false},{"stop_id":"U1256Z3","name":"Komárov","arrival_time":"10:37:00","departure_time":"10:37:00","lat":49.17444,"lon":16.622448,"is_passed":false},{"stop_id":"U1148Z1","name":"Hněvkovského","arrival_time":"10:38:00","departure_time":"10:38:00","lat":49.169807,"lon":16.625991,"is_passed":false},{"stop_id":"U1570Z1","name":"Skandinávská","arrival_time":"10:41:00","departure_time":"10:41:00","lat":49.154716,"lon":16.629354,"is_passed":false},{"stop_id":"U7505Z1","name":"Ikea","arrival_time":"10:42:00","departure_time":"10:42:00","lat":49.156435,"lon":16.628041,"is_passed":false},{"stop_id":"U7524Z1","name":"Avion Shopping Park","arrival_time":"10:44:00","departure_time":"11:02:00","lat":49.158343,"lon":16.627978,"is_passed":false}],"49901":[{"stop_id":"U7524Z2","name":"Avion Shopping Park","arrival_time":"11:02:00","departure_time":"11:02:00","lat":49.158198,"lon":16.627919,"is_passed":false},{"stop_id":"U7505Z2","name":"Ikea","arrival_time":"11:03:00","departure_time":"11:03:00","lat":49.156089,"lon":16.627772,"is_passed":false},{"stop_id":"U1570Z2","name":"Skandinávská","arrival_time":"11:04:00","departure_time":"11:04:00","lat":49.154354,"lon":16.629223,"is_passed":false},{"stop_id":"U1148Z2","name":"Hněvkovského","arrival_time":"11:08:00","departure_time":"11:08:00","lat":49.169618,"lon":16.626335,"is_passed":false},{"stop_id":"U1565Z2","name":"Sazenice","arrival_time":"11:09:00","departure_time":"11:09:00","lat":49.172877,"lon":16.623824,"is_passed":false},{"stop_id":"U1361Z4","name":"Mariánské náměstí","arrival_time":"11:10:00","departure_time":"11:10:00","lat":49.177094,"lon":16.621935,"is_passed":false},{"stop_id":"U1266Z4","name":"Konopná","arrival_time":"11:11:00","departure_time":"11:11:00","lat":49.179332,"lon":16.621811,"is_passed":false},{"stop_id":"U1639Z2","name":"Škrobárenská","arrival_time":"11:12:00","departure_time":"11:12:00","lat":49.183283,"lon":16.626321,"is_passed":false},{"stop_id":"U1144Z4","name":"Hladíkova","arrival_time":"11:13:00","departure_time":"11:13:00","lat":49.18682,"lon":16.626223,"is_passed":false},{"stop_id":"U1372Z2","name":"Masná","arrival_time":"11:15:00","departure_time":"11:15:00","lat":49.191283,"lon":16.6245,"is_passed":false},{"stop_id":"U1746Z2","name":"Vlhká","arrival_time":"11:16:00","departure_time":"11:16:00","lat":49.191852,"lon":16.619157,"is_passed":false},{"stop_id":"U1146Z6","name":"Hlavní nádraží","arrival_time":"11:18:00","departure_time":"11:18:00","lat":49.192214,"lon":16.613823,"is_passed":false},{"stop_id":"U1357Z3","name":"Malinovského náměstí","arrival_time":"11:20:00","departure_time":"11:20:00","lat":49.196131,"lon":16.612953,"is_passed":false},{"stop_id":"U1193Z3","name":"Janáčkovo divadlo","arrival_time":"11:20:00","departure_time":"11:20:00","lat":49.198165,"lon":16.610034,"is_passed":false},{"stop_id":"U1397Z3","name":"Moravské náměstí","arrival_time":"11:21:00","departure_time":"11:21:00","lat":49.199309,"lon":16.609047,"is_passed":false},{"stop_id":"U1418Z3","name":"Náměstí 28. října","arrival_time":"11:24:00","departure_time":"11:24:00","lat":49.201497,"lon":16.614016,"is_passed":false},{"stop_id":"U1177Z1","name":"Schodová","arrival_time":"11:25:00","departure_time":"11:25:00","lat":49.206731,"lon":16.612212,"is_passed":false},{"stop_id":"U1793Z3","name":"Za Lužánkami","arrival_time":"11:26:00","departure_time":"11:26:00","lat":49.208786,"lon":16.609799,"is_passed":false},{"stop_id":"U1602Z1","name":"Sportovní","arrival_time":"11:28:00","departure_time":"11:28:00","lat":49.212234,"lon":16.607184,"is_passed":false},{"stop_id":"U1415Z1","name":"NC Královo Pole","arrival_time":"11:31:00","departure_time":"11:31:00","lat":49.217588,"lon":16.606968,"is_passed":false},{"stop_id":"U1535Z1","name":"Reissigova","arrival_time":"11:32:00","departure_time":"11:32:00","lat":49.21647,"lon":16.603814,"is_passed":false},{"stop_id":"U1643Z1","name":"Štefánikova","arrival_time":"11:34:00","departure_time":"11:34:00","lat":49.215384,"lon":16.599228,"is_passed":false},{"stop_id":"U1181Z1","name":"Charvatská","arrival_time":"11:36:00","departure_time":"11:36:00","lat":49.219239,"lon":16.59252,"is_passed":false},{"stop_id":"U1586Z1","name":"Slovanské náměstí","arrival_time":"11:37:00","departure_time":"11:37:00","lat":49.222659,"lon":16.591882,"is_passed":false},{"stop_id":"U1586Z3","name":"Slovanské náměstí","arrival_time":"11:38:00","departure_time":"11:38:00","lat":49.223525,"lon":16.591009,"is_passed":false},{"stop_id":"U1567Z5","name":"Skácelova","arrival_time":"11:39:00","departure_time":"11:39:00","lat":49.221353,"lon":16.584711,"is_passed":false},{"stop_id":"U1777Z1","name":"Záhřebská","arrival_time":"11:41:00","departure_time":"11:41:00","lat":49.219602,"lon":16.579157,"is_passed":false},{"stop_id":"U1528Z3","name":"Přívrat","arrival_time":"11:42:00","departure_time":"11:42:00","lat":49.218788,"lon":16.574147,"is_passed":false},{"stop_id":"U1544Z3","name":"Rosického náměstí","arrival_time":"11:43:00","departure_time":"11:43:00","lat":49.214882,"lon":16.56907,"is_passed":false},{"stop_id":"U1651Z1","name":"Štursova","arrival_time":"11:44:00","departure_time":"11:44:00","lat":49.216462,"lon":16.563614,"is_passed":false},{"stop_id":"U1143Z1","name":"Hlavní","arrival_time":"11:45:00","departure_time":"11:45:00","lat":49.216836,"lon":16.560198,"is_passed":false},{"stop_id":"U1217Z3","name":"Vozovna Komín","arrival_time":"11:45:00","departure_time":"11:45:00","lat":49.213556,"lon":16.559289,"is_passed":false},{"stop_id":"U1214Z2","name":"Jundrovský most","arrival_time":"11:46:00","departure_time":"11:46:00","lat":49.210699,"lon":16.558163,"is_passed":false},{"stop_id":"U1462Z1","name":"Optátova","arrival_time":"11:47:00","departure_time":"11:47:00","lat":49.208965,"lon":16.555555,"is_passed":false},{"stop_id":"U1416Z1","name":"Nálepkova","arrival_time":"11:48:00","departure_time":"11:48:00","lat":49.208794,"lon":16.55232,"is_passed":false},{"stop_id":"U1213Z1","name":"Jundrov","arrival_time":"11:50:00","departure_time":"11:57:00","lat":49.211836,"lon":16.550693,"is_passed":false}],"49902":[{"stop_id":"U1213Z2","name":"Jundrov","arrival_time":"11:57:00","departure_time":"11:57:00","lat":49.211666,"lon":16.550607,"is_passed":false},{"stop_id":"U1462Z2","name":"Optátova","arrival_time":"11:58:00","departure_time":"11:58:00","lat":49.208867,"lon":16.555614,"is_passed":false},{"stop_id":"U1214Z1","name":"Jundrovský most","arrival_time":"11:59:00","departure_time":"11:59:00","lat":49.209437,"lon":16.556755,"is_passed":false},{"stop_id":"U1217Z4","name":"Vozovna Komín","arrival_time":"12:00:00","departure_time":"12:00:00","lat":49.214283,"lon":16.559705,"is_passed":false},{"stop_id":"U1143Z2","name":"Hlavní","arrival_time":"12:01:00","departure_time":"12:01:00","lat":49.21715,"lon":16.560506,"is_passed":false},{"stop_id":"U1651Z2","name":"Štursova","arrival_time":"12:02:00","departure_time":"12:02:00","lat":49.215854,"lon":16.564522,"is_passed":false},{"stop_id":"U1544Z4","name":"Rosického náměstí","arrival_time":"12:03:00","departure_time":"12:03:00","lat":49.214881,"lon":16.568314,"is_passed":false},{"stop_id":"U1528Z4","name":"Přívrat","arrival_time":"12:05:00","departure_time":"12:05:00","lat":49.218647,"lon":16.574085,"is_passed":false},{"stop_id":"U1777Z2","name":"Záhřebská","arrival_time":"12:06:00","departure_time":"12:06:00","lat":49.219845,"lon":16.580415,"is_passed":false},{"stop_id":"U1567Z6","name":"Skácelova","arrival_time":"12:08:00","departure_time":"12:08:00","lat":49.22163,"lon":16.585935,"is_passed":false},{"stop_id":"U1586Z4","name":"Slovanské náměstí","arrival_time":"12:09:00","departure_time":"12:09:00","lat":49.222774,"lon":16.591332,"is_passed":false},{"stop_id":"U1181Z2","name":"Charvatská","arrival_time":"12:10:00","departure_time":"12:10:00","lat":49.219543,"lon":16.592241,"is_passed":false},{"stop_id":"U1643Z2","name":"Štefánikova","arrival_time":"12:12:00","departure_time":"12:12:00","lat":49.21528,"lon":16.599053,"is_passed":false},{"stop_id":"U1535Z4","name":"Reissigova","arrival_time":"12:13:00","departure_time":"12:13:00","lat":49.21637,"lon":16.60365,"is_passed":false},{"stop_id":"U1415Z2","name":"NC Královo Pole","arrival_time":"12:15:00","departure_time":"12:15:00","lat":49.217553,"lon":16.607232,"is_passed":false},{"stop_id":"U1535Z2","name":"Reissigova","arrival_time":"12:17:00","departure_time":"12:17:00","lat":49.215925,"lon":16.604659,"is_passed":false},{"stop_id":"U1602Z2","name":"Sportovní","arrival_time":"12:18:00","departure_time":"12:18:00","lat":49.212001,"lon":16.607125,"is_passed":false},{"stop_id":"U1793Z4","name":"Za Lužánkami","arrival_time":"12:19:00","departure_time":"12:19:00","lat":49.208864,"lon":16.609536,"is_passed":false},{"stop_id":"U1177Z2","name":"Schodová","arrival_time":"12:20:00","departure_time":"12:20:00","lat":49.206474,"lon":16.612255,"is_passed":false},{"stop_id":"U1418Z4","name":"Náměstí 28. října","arrival_time":"12:22:00","departure_time":"12:22:00","lat":49.202201,"lon":16.613634,"is_passed":false},{"stop_id":"U1397Z4","name":"Moravské náměstí","arrival_time":"12:24:00","departure_time":"12:24:00","lat":49.199159,"lon":16.608704,"is_passed":false},{"stop_id":"U1193Z4","name":"Janáčkovo divadlo","arrival_time":"12:24:00","departure_time":"12:24:00","lat":49.197997,"lon":16.610307,"is_passed":false},{"stop_id":"U1357Z4","name":"Malinovského náměstí","arrival_time":"12:26:00","departure_time":"12:26:00","lat":49.195612,"lon":16.613248,"is_passed":false},{"stop_id":"U1146Z5","name":"Hlavní nádraží","arrival_time":"12:28:00","departure_time":"12:28:00","lat":49.192074,"lon":16.613923,"is_passed":false},{"stop_id":"U1746Z1","name":"Vlhká","arrival_time":"12:29:00","departure_time":"12:29:00","lat":49.191847,"lon":16.618976,"is_passed":false},{"stop_id":"U1372Z6","name":"Masná","arrival_time":"12:31:00","departure_time":"12:31:00","lat":49.190905,"lon":16.626023,"is_passed":false},{"stop_id":"U1144Z3","name":"Hladíkova","arrival_time":"12:32:00","departure_time":"12:32:00","lat":49.186729,"lon":16.626124,"is_passed":false},{"stop_id":"U1639Z1","name":"Škrobárenská","arrival_time":"12:33:00","departure_time":"12:33:00","lat":49.182466,"lon":16.626261,"is_passed":false},{"stop_id":"U1266Z3","name":"Konopná","arrival_time":"12:35:00","departure_time":"12:35:00","lat":49.180126,"lon":16.621339,"is_passed":false},{"stop_id":"U1256Z3","name":"Komárov","arrival_time":"12:37:00","departure_time":"12:37:00","lat":49.17444,"lon":16.622448,"is_passed":false},{"stop_id":"U1148Z1","name":"Hněvkovského","arrival_time":"12:38:00","departure_time":"12:38:00","lat":49.169807,"lon":16.625991,"is_passed":false},{"stop_id":"U1570Z1","name":"Skandinávská","arrival_time":"12:41:00","departure_time":"12:41:00","lat":49.154716,"lon":16.629354,"is_passed":false},{"stop_id":"U7505Z1","name":"Ikea","arrival_time":"12:42:00","departure_time":"12:42:00","lat":49.156435,"lon":16.628041,"is_passed":false},{"stop_id":"U7524Z1","name":"Avion Shopping Park","arrival_time":"12:44:00","departure_time":"13:17:00","lat":49.158343,"lon":16.627978,"is_passed":false}],"49903":[{"stop_id":"U7524Z2","name":"Avion Shopping Park","arrival_time":"13:17:00","departure_time":"13:17:00","lat":49.158198,"lon":16.627919,"is_passed":false},{"stop_id":"U7505Z2","name":"Ikea","arrival_time":"13:18:00","departure_time":"13:18:00","lat":49.156089,"lon":16.627772,"is_passed":false},{"stop_id":"U1570Z2","name":"Skandinávská","arrival_time":"13:19:00","departure_time":"13:19:00","lat":49.154354,"lon":16.629223,"is_passed":false},{"stop_id":"U1148Z2","name":"Hněvkovského","arrival_time":"13:23:00","departure_time":"13:23:00","lat":49.169618,"lon":16.626335,"is_passed":false},{"stop_id":"U1565Z2","name":"Sazenice","arrival_time":"13:24:00","departure_time":"13:24:00","lat":49.172877,"lon":16.623824,"is_passed":false},{"stop_id":"U1361Z4","name":"Mariánské náměstí","arrival_time":"13:25:00","departure_time":"13:25:00","lat":49.177094,"lon":16.621935,"is_passed":false},{"stop_id":"U1266Z4","name":"Konopná","arrival_time":"13:26:00","departure_time":"13:26:00","lat":49.179332,"lon":16.621811,"is_passed":false},{"stop_id":"U1639Z2","name":"Škrobárenská","arrival_time":"13:27:00","departure_time":"13:27:00","lat":49.183283,"lon":16.626321,"is_passed":false},{"stop_id":"U1144Z4","name":"Hladíkova","arrival_time":"13:28:00","departure_time":"13:28:00","lat":49.18682,"lon":16.626223,"is_passed":false},{"stop_id":"U1372Z2","name":"Masná","arrival_time":"13:30:00","departure_time":"13:30:00","lat":49.191283,"lon":16.6245,"is_passed":false},{"stop_id":"U1746Z2","name":"Vlhká","arrival_time":"13:31:00","departure_time":"13:31:00","lat":49.191852,"lon":16.619157,"is_passed":false},{"stop_id":"U1146Z6","name":"Hlavní nádraží","arrival_time":"13:33:00","departure_time":"13:33:00","lat":49.192214,"lon":16.613823,"is_passed":false},{"stop_id":"U1357Z3","name":"Malinovského náměstí","arrival_time":"13:35:00","departure_time":"13:35:00","lat":49.196131,"lon":16.612953,"is_passed":false},{"stop_id":"U1193Z3","name":"Janáčkovo divadlo","arrival_time":"13:35:00","departure_time":"13:35:00","lat":49.198165,"lon":16.610034,"is_passed":false},{"stop_id":"U1397Z3","name":"Moravské náměstí","arrival_time":"13:36:00","departure_time":"13:36:00","lat":49.199309,"lon":16.609047,"is_passed":false},{"stop_id":"U1418Z3","name":"Náměstí 28. října","arrival_time":"13:39:00","departure_time":"13:39:00","lat":49.201497,"lon":16.614016,"is_passed":false},{"stop_id":"U1177Z1","name":"Schodová","arrival_time":"13:40:00","departure_time":"13:40:00","lat":49.206731,"lon":16.612212,"is_passed":false},{"stop_id":"U1793Z3","name":"Za Lužánkami","arrival_time":"13:41:00","departure_time":"13:41:00","lat":49.208786,"lon":16.609799,"is_passed":false},{"stop_id":"U1602Z1","name":"Sportovní","arrival_time":"13:43:00","departure_time":"13:43:00","lat":49.212234,"lon":16.607184,"is_passed":false},{"stop_id":"U1415Z1","name":"NC Královo Pole","arrival_time":"13:46:00","departure_time":"13:46:00","lat":49.217588,"lon":16.606968,"is_passed":false},{"stop_id":"U1535Z1","name":"Reissigova","arrival_time":"13:47:00","departure_time":"13:47:00","lat":49.21647,"lon":16.603814,"is_passed":false},{"stop_id":"U1643Z1","name":"Štefánikova","arrival_time":"13:49:00","departure_time":"13:49:00","lat":49.215384,"lon":16.599228,"is_passed":false},{"stop_id":"U1181Z1","name":"Charvatská","arrival_time":"13:51:00","departure_time":"13:51:00","lat":49.219239,"lon":16.59252,"is_passed":false},{"stop_id":"U1586Z1","name":"Slovanské náměstí","arrival_time":"13:52:00","departure_time":"13:52:00","lat":49.222659,"lon":16.591882,"is_passed":false},{"stop_id":"U1586Z3","name":"Slovanské náměstí","arrival_time":"13:53:00","departure_time":"13:53:00","lat":49.223525,"lon":16.591009,"is_passed":false},{"stop_id":"U1567Z5","name":"Skácelova","arrival_time":"13:54:00","departure_time":"13:54:00","lat":49.221353,"lon":16.584711,"is_passed":false},{"stop_id":"U1777Z1","name":"Záhřebská","arrival_time":"13:56:00","departure_time":"13:56:00","lat":49.219602,"lon":16.579157,"is_passed":false},{"stop_id":"U1528Z3","name":"Přívrat","arrival_time":"13:57:00","departure_time":"13:57:00","lat":49.218788,"lon":16.574147,"is_passed":false},{"stop_id":"U1544Z3","name":"Rosického náměstí","arrival_time":"13:58:00","departure_time":"13:58:00","lat":49.214882,"lon":16.56907,"is_passed":false},{"stop_id":"U1651Z1","name":"Štursova","arrival_time":"13:59:00","departure_time":"13:59:00","lat":49.216462,"lon":16.563614,"is_passed":false},{"stop_id":"U1143Z1","name":"Hlavní","arrival_time":"14:00:00","departure_time":"14:00:00","lat":49.216836,"lon":16.560198,"is_passed":false},{"stop_id":"U1217Z3","name":"Vozovna Komín","arrival_time":"14:00:00","departure_time":"14:00:00","lat":49.213556,"lon":16.559289,"is_passed":false},{"stop_id":"U1214Z2","name":"Jundrovský most","arrival_time":"14:01:00","departure_time":"14:01:00","lat":49.210699,"lon":16.558163,"is_passed":false},{"stop_id":"U1462Z1","name":"Optátova","arrival_time":"14:02:00","departure_time":"14:02:00","lat":49.208965,"lon":16.555555,"is_passed":false},{"stop_id":"U1416Z1","name":"Nálepkova","arrival_time":"14:03:00","departure_time":"14:03:00","lat":49.208794,"lon":16.55232,"is_passed":false},{"stop_id":"U1213Z1","name":"Jundrov","arrival_time":"14:05:00","departure_time":"14:12:00","lat":49.211836,"lon":16.550693,"is_passed":false}],"49904":[{"stop_id":"U1213Z2","name":"Jundrov","arrival_time":"14:12:00","departure_time":"14:12:00","lat":49.211666,"lon":16.550607,"is_passed":false},{"stop_id":"U1462Z2","name":"Optátova","arrival_time":"14:13:00","departure_time":"14:13:00","lat":49.208867,"lon":16.555614,"is_passed":false},{"stop_id":"U1214Z1","name":"Jundrovský most","arrival_time":"14:14:00","departure_time":"14:14:00","lat":49.209437,"lon":16.556755,"is_passed":false},{"stop_id":"U1217Z4","name":"Vozovna Komín","arrival_time":"14:15:00","departure_time":"14:15:00","lat":49.214283,"lon":16.559705,"is_passed":false},{"stop_id":"U1143Z2","name":"Hlavní","arrival_time":"14:16:00","departure_time":"14:16:00","lat":49.21715,"lon":16.560506,"is_passed":false},{"stop_id":"U1651Z2","name":"Štursova","arrival_time":"14:17:00","departure_time":"14:17:00","lat":49.215854,"lon":16.564522,"is_passed":false},{"stop_id":"U1544Z4","name":"Rosického náměstí","arrival_time":"14:18:00","departure_time":"14:18:00","lat":49.214881,"lon":16.568314,"is_passed":false},{"stop_id":"U1528Z4","name":"Přívrat","arrival_time":"14:20:00","departure_time":"14:20:00","lat":49.218647,"lon":16.574085,"is_passed":false},{"stop_id":"U1777Z2","name":"Záhřebská","arrival_time":"14:21:00","departure_time":"14:21:00","lat":49.219845,"lon":16.580415,"is_passed":false},{"stop_id":"U1567Z6","name":"Skácelova","arrival_time":"14:23:00","departure_time":"14:23:00","lat":49.22163,"lon":16.585935,"is_passed":false},{"stop_id":"U1586Z4","name":"Slovanské náměstí","arrival_time":"14:24:00","departure_time":"14:24:00","lat":49.222774,"lon":16.591332,"is_passed":false},{"stop_id":"U1181Z2","name":"Charvatská","arrival_time":"14:25:00","departure_time":"14:25:00","lat":49.219543,"lon":16.592241,"is_passed":false},{"stop_id":"U1643Z2","name":"Štefánikova","arrival_time":"14:27:00","departure_time":"14:27:00","lat":49.21528,"lon":16.599053,"is_passed":false},{"stop_id":"U1535Z4","name":"Reissigova","arrival_time":"14:28:00","departure_time":"14:28:00","lat":49.21637,"lon":16.60365,"is_passed":false},{"stop_id":"U1415Z2","name":"NC Královo Pole","arrival_time":"14:30:00","departure_time":"14:30:00","lat":49.217553,"lon":16.607232,"is_passed":false},{"stop_id":"U1535Z2","name":"Reissigova","arrival_time":"14:32:00","departure_time":"14:32:00","lat":49.215925,"lon":16.604659,"is_passed":false},{"stop_id":"U1602Z2","name":"Sportovní","arrival_time":"14:33:00","departure_time":"14:33:00","lat":49.212001,"lon":16.607125,"is_passed":false},{"stop_id":"U1793Z4","name":"Za Lužánkami","arrival_time":"14:34:00","departure_time":"14:34:00","lat":49.208864,"lon":16.609536,"is_passed":false},{"stop_id":"U1177Z2","name":"Schodová","arrival_time":"14:35:00","departure_time":"14:35:00","lat":49.206474,"lon":16.612255,"is_passed":false},{"stop_id":"U1418Z4","name":"Náměstí 28. října","arrival_time":"14:37:00","departure_time":"14:37:00","lat":49.202201,"lon":16.613634,"is_passed":false},{"stop_id":"U1397Z4","name":"Moravské náměstí","arrival_time":"14:39:00","departure_time":"14:39:00","lat":49.199159,"lon":16.608704,"is_passed":false},{"stop_id":"U1193Z4","name":"Janáčkovo divadlo","arrival_time":"14:39:00","departure_time":"14:39:00","lat":49.197997,"lon":16.610307,"is_passed":false},{"stop_id":"U1357Z4","name":"Malinovského náměstí","arrival_time":"14:41:00","departure_time":"14:41:00","lat":49.195612,"lon":16.613248,"is_passed":false},{"stop_id":"U1146Z5","name":"Hlavní nádraží","arrival_time":"14:43:00","departure_time":"14:43:00","lat":49.192074,"lon":16.613923,"is_passed":false},{"stop_id":"U1746Z1","name":"Vlhká","arrival_time":"14:44:00","departure_time":"14:44:00","lat":49.191847,"lon":16.618976,"is_passed":false},{"stop_id":"U1372Z6","name":"Masná","arrival_time":"14:46:00","departure_time":"14:46:00","lat":49.190905,"lon":16.626023,"is_passed":false},{"stop_id":"U1144Z3","name":"Hladíkova","arrival_time":"14:47:00","departure_time":"14:47:00","lat":49.186729,"lon":16.626124,"is_passed":false},{"stop_id":"U1639Z1","name":"Škrobárenská","arrival_time":"14:48:00","departure_time":"14:48:00","lat":49.182466,"lon":16.626261,"is_passed":false},{"stop_id":"U1266Z3","name":"Konopná","arrival_time":"14:50:00","departure_time":"14:50:00","lat":49.180126,"lon":16.621339,"is_passed":false},{"stop_id":"U1256Z3","name":"Komárov","arrival_time":"14:52:00","departure_time":"14:52:00","lat":49.17444,"lon":16.622448,"is_passed":false},{"stop_id":"U1148Z1","name":"Hněvkovského","arrival_time":"14:53:00","departure_time":"14:53:00","lat":49.169807,"lon":16.625991,"is_passed":false},{"stop_id":"U1570Z1","name":"Skandinávská","arrival_time":"14:56:00","departure_time":"14:56:00","lat":49.154716,"lon":16.629354,"is_passed":false},{"stop_id":"U7505Z1","name":"Ikea","arrival_time":"14:57:00","departure_time":"14:57:00","lat":49.156435,"lon":16.628041,"is_passed":false},{"stop_id":"U7524Z1","name":"Avion Shopping Park","arrival_time":"14:59:00","departure_time":"16:02:00","lat":49.158343,"lon":16.627978,"is_passed":false}],"49905":[{"stop_id":"U7524Z2","name":"Avion Shopping Park","arrival_time":"16:02:00","departure_time":"16:02:00","lat":49.158198,"lon":16.627919,"is_passed":false},{"stop_id":"U7505Z2","name":"Ikea","arrival_time":"16:03:00","departure_time":"16:03:00","lat":49.156089,"lon":16.627772,"is_passed":false},{"stop_id":"U1570Z2","name":"Skandinávská","arrival_time":"16:04:00","departure_time":"16:04:00","lat":49.154354,"lon":16.629223,"is_passed":false},{"stop_id":"U1148Z2","name":"Hněvkovského","arrival_time":"16:08:00","departure_time":"16:08:00","lat":49.169618,"lon":16.626335,"is_passed":false},{"stop_id":"U1565Z2","name":"Sazenice","arrival_time":"16:09:00","departure_time":"16:09:00","lat":49.172877,"lon":16.623824,"is_passed":false},{"stop_id":"U1361Z4","name":"Mariánské náměstí","arrival_time":"16:10:00","departure_time":"16:10:00","lat":49.177094,"lon":16.621935,"is_passed":false},{"stop_id":"U1266Z4","name":"Konopná","arrival_time":"16:11:00","departure_time":"16:11:00","lat":49.179332,"lon":16.621811,"is_passed":false},{"stop_id":"U1639Z2","name":"Škrobárenská","arrival_time":"16:12:00","departure_time":"16:12:00","lat":49.183283,"lon":16.626321,"is_passed":false},{"stop_id":"U1144Z4","name":"Hladíkova","arrival_time":"16:13:00","departure_time":"16:13:00","lat":49.18682,"lon":16.626223,"is_passed":false},{"stop_id":"U1372Z2","name":"Masná","arrival_time":"16:15:00","departure_time":"16:15:00","lat":49.191283,"lon":16.6245,"is_passed":false},{"stop_id":"U1746Z2","name":"Vlhká","arrival_time":"16:16:00","departure_time":"16:16:00","lat":49.191852,"lon":16.619157,"is_passed":false},{"stop_id":"U1146Z6","name":"Hlavní nádraží","arrival_time":"16:18:00","departure_time":"16:18:00","lat":49.192214,"lon":16.613823,"is_passed":false},{"stop_id":"U1357Z3","name":"Malinovského náměstí","arrival_time":"16:20:00","departure_time":"16:20:00","lat":49.196131,"lon":16.612953,"is_passed":false},{"stop_id":"U1193Z3","name":"Janáčkovo divadlo","arrival_time":"16:20:00","departure_time":"16:20:00","lat":49.198165,"lon":16.610034,"is_passed":false},{"stop_id":"U1397Z3","name":"Moravské náměstí","arrival_time":"16:21:00","departure_time":"16:21:00","lat":49.199309,"lon":16.609047,"is_passed":false},{"stop_id":"U1418Z3","name":"Náměstí 28. října","arrival_time":"16:24:00","departure_time":"16:24:00","lat":49.201497,"lon":16.614016,"is_passed":false},{"stop_id":"U1177Z1","name":"Schodová","arrival_time":"16:25:00","departure_time":"16:25:00","lat":49.206731,"lon":16.612212,"is_passed":false},{"stop_id":"U1793Z3","name":"Za Lužánkami","arrival_time":"16:26:00","departure_time":"16:26:00","lat":49.208786,"lon":16.609799,"is_passed":false},{"stop_id":"U1602Z1","name":"Sportovní","arrival_time":"16:28:00","departure_time":"16:28:00","lat":49.212234,"lon":16.607184,"is_passed":false},{"stop_id":"U1415Z1","name":"NC Královo Pole","arrival_time":"16:31:00","departure_time":"16:31:00","lat":49.217588,"lon":16.606968,"is_passed":false},{"stop_id":"U1535Z1","name":"Reissigova","arrival_time":"16:32:00","departure_time":"16:32:00","lat":49.21647,"lon":16.603814,"is_passed":false},{"stop_id":"U1643Z1","name":"Štefánikova","arrival_time":"16:34:00","departure_time":"16:34:00","lat":49.215384,"lon":16.599228,"is_passed":false},{"stop_id":"U1181Z1","name":"Charvatská","arrival_time":"16:36:00","departure_time":"16:36:00","lat":49.219239,"lon":16.59252,"is_passed":false},{"stop_id":"U1586Z1","name":"Slovanské náměstí","arrival_time":"16:37:00","departure_time":"16:37:00","lat":49.222659,"lon":16.591882,"is_passed":false},{"stop_id":"U1586Z3","name":"Slovanské náměstí","arrival_time":"16:38:00","departure_time":"16:38:00","lat":49.223525,"lon":16.591009,"is_passed":false},{"stop_id":"U1567Z5","name":"Skácelova","arrival_time":"16:39:00","departure_time":"16:39:00","lat":49.221353,"lon":16.584711,"is_passed":false},{"stop_id":"U1777Z1","name":"Záhřebská","arrival_time":"16:41:00","departure_time":"16:41:00","lat":49.219602,"lon":16.579157,"is_passed":false},{"stop_id":"U1528Z3","name":"Přívrat","arrival_time":"16:42:00","departure_time":"16:42:00","lat":49.218788,"lon":16.574147,"is_passed":false},{"stop_id":"U1544Z3","name":"Rosického náměstí","arrival_time":"16:43:00","departure_time":"16:43:00","lat":49.214882,"lon":16.56907,"is_passed":false},{"stop_id":"U1651Z1","name":"Štursova","arrival_time":"16:44:00","departure_time":"16:44:00","lat":49.216462,"lon":16.563614,"is_passed":false},{"stop_id":"U1143Z1","name":"Hlavní","arrival_time":"16:45:00","departure_time":"16:45:00","lat":49.216836,"lon":16.560198,"is_passed":false},{"stop_id":"U1217Z3","name":"Vozovna Komín","arrival_time":"16:45:00","departure_time":"16:45:00","lat":49.213556,"lon":16.559289,"is_passed":false},{"stop_id":"U1214Z2","name":"Jundrovský most","arrival_time":"16:46:00","departure_time":"16:46:00","lat":49.210699,"lon":16.558163,"is_passed":false},{"stop_id":"U1462Z1","name":"Optátova","arrival_time":"16:47:00","departure_time":"16:47:00","lat":49.208965,"lon":16.555555,"is_passed":false},{"stop_id":"U1416Z1","name":"Nálepkova","arrival_time":"16:48:00","departure_time":"16:48:00","lat":49.208794,"lon":16.55232,"is_passed":false},{"stop_id":"U1213Z1","name":"Jundrov","arrival_time":"16:50:00","departure_time":"16:57:00","lat":49.211836,"lon":16.550693,"is_passed":false}],"49906":[{"stop_id":"U1213Z2","name":"Jundrov","arrival_time":"16:57:00","departure_time":"16:57:00","lat":49.211666,"lon":16.550607,"is_passed":false},{"stop_id":"U1462Z2","name":"Optátova","arrival_time":"16:58:00","departure_time":"16:58:00","lat":49.208867,"lon":16.555614,"is_passed":false},{"stop_id":"U1214Z1","name":"Jundrovský most","arrival_time":"16:59:00","departure_time":"16:59:00","lat":49.209437,"lon":16.556755,"is_passed":false},{"stop_id":"U1217Z4","name":"Vozovna Komín","arrival_time":"17:00:00","departure_time":"17:00:00","lat":49.214283,"lon":16.559705,"is_passed":false},{"stop_id":"U1143Z2","name":"Hlavní","arrival_time":"17:01:00","departure_time":"17:01:00","lat":49.21715,"lon":16.560506,"is_passed":false},{"stop_id":"U1651Z2","name":"Štursova","arrival_time":"17:02:00","departure_time":"17:02:00","lat":49.215854,"lon":16.564522,"is_passed":false},{"stop_id":"U1544Z4","name":"Rosického náměstí","arrival_time":"17:03:00","departure_time":"17:03:00","lat":49.214881,"lon":16.568314,"is_passed":false},{"stop_id":"U1528Z4","name":"Přívrat","arrival_time":"17:05:00","departure_time":"17:05:00","lat":49.218647,"lon":16.574085,"is_passed":false},{"stop_id":"U1777Z2","name":"Záhřebská","arrival_time":"17:06:00","departure_time":"17:06:00","lat":49.219845,"lon":16.580415,"is_passed":false},{"stop_id":"U1567Z6","name":"Skácelova","arrival_time":"17:08:00","departure_time":"17:08:00","lat":49.22163,"lon":16.585935,"is_passed":false},{"stop_id":"U1586Z4","name":"Slovanské náměstí","arrival_time":"17:09:00","departure_time":"17:09:00","lat":49.222774,"lon":16.591332,"is_passed":false},{"stop_id":"U1181Z2","name":"Charvatská","arrival_time":"17:10:00","departure_time":"17:10:00","lat":49.219543,"lon":16.592241,"is_passed":false},{"stop_id":"U1643Z2","name":"Štefánikova","arrival_time":"17:12:00","departure_time":"17:12:00","lat":49.21528,"lon":16.599053,"is_passed":false},{"stop_id":"U1535Z4","name":"Reissigova","arrival_time":"17:13:00","departure_time":"17:13:00","lat":49.21637,"lon":16.60365,"is_passed":false},{"stop_id":"U1415Z2","name":"NC Královo Pole","arrival_time":"17:15:00","departure_time":"17:15:00","lat":49.217553,"lon":16.607232,"is_passed":false},{"stop_id":"U1535Z2","name":"Reissigova","arrival_time":"17:17:00","departure_time":"17:17:00","lat":49.215925,"lon":16.604659,"is_passed":false},{"stop_id":"U1602Z2","name":"Sportovní","arrival_time":"17:18:00","departure_time":"17:18:00","lat":49.212001,"lon":16.607125,"is_passed":false},{"stop_id":"U1793Z4","name":"Za Lužánkami","arrival_time":"17:19:00","departure_time":"17:19:00","lat":49.208864,"lon":16.609536,"is_passed":false},{"stop_id":"U1177Z2","name":"Schodová","arrival_time":"17:20:00","departure_time":"17:20:00","lat":49.206474,"lon":16.612255,"is_passed":false},{"stop_id":"U1418Z4","name":"Náměstí 28. října","arrival_time":"17:22:00","departure_time":"17:22:00","lat":49.202201,"lon":16.613634,"is_passed":false},{"stop_id":"U1397Z4","name":"Moravské náměstí","arrival_time":"17:24:00","departure_time":"17:24:00","lat":49.199159,"lon":16.608704,"is_passed":false},{"stop_id":"U1193Z4","name":"Janáčkovo divadlo","arrival_time":"17:24:00","departure_time":"17:24:00","lat":49.197997,"lon":16.610307,"is_passed":false},{"stop_id":"U1357Z4","name":"Malinovského náměstí","arrival_time":"17:26:00","departure_time":"17:26:00","lat":49.195612,"lon":16.613248,"is_passed":false},{"stop_id":"U1146Z5","name":"Hlavní nádraží","arrival_time":"17:28:00","departure_time":"17:28:00","lat":49.192074,"lon":16.613923,"is_passed":false},{"stop_id":"U1746Z1","name":"Vlhká","arrival_time":"17:29:00","departure_time":"17:29:00","lat":49.191847,"lon":16.618976,"is_passed":false},{"stop_id":"U1372Z6","name":"Masná","arrival_time":"17:31:00","departure_time":"17:31:00","lat":49.190905,"lon":16.626023,"is_passed":false},{"stop_id":"U1144Z3","name":"Hladíkova","arrival_time":"17:32:00","departure_time":"17:32:00","lat":49.186729,"lon":16.626124,"is_passed":false},{"stop_id":"U1639Z1","name":"Škrobárenská","arrival_time":"17:33:00","departure_time":"17:33:00","lat":49.182466,"lon":16.626261,"is_passed":false},{"stop_id":"U1266Z3","name":"Konopná","arrival_time":"17:35:00","departure_time":"17:35:00","lat":49.180126,"lon":16.621339,"is_passed":false},{"stop_id":"U1256Z3","name":"Komárov","arrival_time":"17:37:00","departure_time":"17:37:00","lat":49.17444,"lon":16.622448,"is_passed":false},{"stop_id":"U1148Z1","name":"Hněvkovského","arrival_time":"17:38:00","departure_time":"17:38:00","lat":49.169807,"lon":16.625991,"is_passed":false},{"stop_id":"U1570Z1","name":"Skandinávská","arrival_time":"17:41:00","departure_time":"17:41:00","lat":49.154716,"lon":16.629354,"is_passed":false},{"stop_id":"U7505Z1","name":"Ikea","arrival_time":"17:42:00","departure_time":"17:42:00","lat":49.156435,"lon":16.628041,"is_passed":false},{"stop_id":"U7524Z1","name":"Avion Shopping Park","arrival_time":"17:44:00","departure_time":"18:02:00","lat":49.158343,"lon":16.627978,"is_passed":false}],"49907":[{"stop_id":"U7524Z2","name":"Avion Shopping Park","arrival_time":"18:02:00","departure_time":"18:02:00","lat":49.158198,"lon":16.627919,"is_passed":false},{"stop_id":"U7505Z2","name":"Ikea","arrival_time":"18:03:00","departure_time":"18:03:00","lat":49.156089,"lon":16.627772,"is_passed":false},{"stop_id":"U1570Z2","name":"Skandinávská","arrival_time":"18:04:00","departure_time":"18:04:00","lat":49.154354,"lon":16.629223,"is_passed":false},{"stop_id":"U1148Z2","name":"Hněvkovského","arrival_time":"18:08:00","departure_time":"18:08:00","lat":49.169618,"lon":16.626335,"is_passed":false},{"stop_id":"U1565Z2","name":"Sazenice","arrival_time":"18:09:00","departure_time":"18:09:00","lat":49.172877,"lon":16.623824,"is_passed":false},{"stop_id":"U1361Z4","name":"Mariánské náměstí","arrival_time":"18:10:00","departure_time":"18:10:00","lat":49.177094,"lon":16.621935,"is_passed":false},{"stop_id":"U1266Z4","name":"Konopná","arrival_time":"18:11:00","departure_time":"18:11:00","lat":49.179332,"lon":16.621811,"is_passed":false},{"stop_id":"U1639Z2","name":"Škrobárenská","arrival_time":"18:12:00","departure_time":"18:12:00","lat":49.183283,"lon":16.626321,"is_passed":false},{"stop_id":"U1144Z4","name":"Hladíkova","arrival_time":"18:13:00","departure_time":"18:13:00","lat":49.18682,"lon":16.626223,"is_passed":false},{"stop_id":"U1372Z2","name":"Masná","arrival_time":"18:15:00","departure_time":"18:15:00","lat":49.191283,"lon":16.6245,"is_passed":false},{"stop_id":"U1746Z2","name":"Vlhká","arrival_time":"18:16:00","departure_time":"18:16:00","lat":49.191852,"lon":16.619157,"is_passed":false},{"stop_id":"U1146Z6","name":"Hlavní nádraží","arrival_time":"18:18:00","departure_time":"18:18:00","lat":49.192214,"lon":16.613823,"is_passed":false},{"stop_id":"U1357Z3","name":"Malinovského náměstí","arrival_time":"18:20:00","departure_time":"18:20:00","lat":49.196131,"lon":16.612953,"is_passed":false},{"stop_id":"U1193Z3","name":"Janáčkovo divadlo","arrival_time":"18:20:00","departure_time":"18:20:00","lat":49.198165,"lon":16.610034,"is_passed":false},{"stop_id":"U1397Z3","name":"Moravské náměstí","arrival_time":"18:21:00","departure_time":"18:21:00","lat":49.199309,"lon":16.609047,"is_passed":false},{"stop_id":"U1418Z3","name":"Náměstí 28. října","arrival_time":"18:24:00","departure_time":"18:24:00","lat":49.201497,"lon":16.614016,"is_passed":false},{"stop_id":"U1177Z1","name":"Schodová","arrival_time":"18:25:00","departure_time":"18:25:00","lat":49.206731,"lon":16.612212,"is_passed":false},{"stop_id":"U1793Z3","name":"Za Lužánkami","arrival_time":"18:26:00","departure_time":"18:26:00","lat":49.208786,"lon":16.609799,"is_passed":false},{"stop_id":"U1602Z1","name":"Sportovní","arrival_time":"18:28:00","departure_time":"18:28:00","lat":49.212234,"lon":16.607184,"is_passed":false},{"stop_id":"U1415Z1","name":"NC Královo Pole","arrival_time":"18:31:00","departure_time":"18:31:00","lat":49.217588,"lon":16.606968,"is_passed":false},{"stop_id":"U1535Z1","name":"Reissigova","arrival_time":"18:32:00","departure_time":"18:32:00","lat":49.21647,"lon":16.603814,"is_passed":false},{"stop_id":"U1643Z1","name":"Štefánikova","arrival_time":"18:34:00","departure_time":"18:34:00","lat":49.215384,"lon":16.599228,"is_passed":false},{"stop_id":"U1181Z1","name":"Charvatská","arrival_time":"18:36:00","departure_time":"18:36:00","lat":49.219239,"lon":16.59252,"is_passed":false},{"stop_id":"U1586Z1","name":"Slovanské náměstí","arrival_time":"18:37:00","departure_time":"18:37:00","lat":49.222659,"lon":16.591882,"is_passed":false},{"stop_id":"U1586Z3","name":"Slovanské náměstí","arrival_time":"18:38:00","departure_time":"18:38:00","lat":49.223525,"lon":16.591009,"is_passed":false},{"stop_id":"U1567Z5","name":"Skácelova","arrival_time":"18:39:00","departure_time":"18:39:00","lat":49.221353,"lon":16.584711,"is_passed":false},{"stop_id":"U1777Z1","name":"Záhřebská","arrival_time":"18:41:00","departure_time":"18:41:00","lat":49.219602,"lon":16.579157,"is_passed":false},{"stop_id":"U1528Z3","name":"Přívrat","arrival_time":"18:42:00","departure_time":"18:42:00","lat":49.218788,"lon":16.574147,"is_passed":false},{"stop_id":"U1544Z3","name":"Rosického náměstí","arrival_time":"18:43:00","departure_time":"18:43:00","lat":49.214882,"lon":16.56907,"is_passed":false},{"stop_id":"U1651Z1","name":"Štursova","arrival_time":"18:44:00","departure_time":"18:44:00","lat":49.216462,"lon":16.563614,"is_passed":false},{"stop_id":"U1143Z1","name":"Hlavní","arrival_time":"18:45:00","departure_time":"18:45:00","lat":49.216836,"lon":16.560198,"is_passed":false},{"stop_id":"U1217Z3","name":"Vozovna Komín","arrival_time":"18:45:00","departure_time":"18:45:00","lat":49.213556,"lon":16.559289,"is_passed":false},{"stop_id":"U1214Z2","name":"Jundrovský most","arrival_time":"18:46:00","departure_time":"18:46:00","lat":49.210699,"lon":16.558163,"is_passed":false},{"stop_id":"U1462Z1","name":"Optátova","arrival_time":"18:47:00","departure_time":"18:47:00","lat":49.208965,"lon":16.555555,"is_passed":false},{"stop_id":"U1416Z1","name":"Nálepkova","arrival_time":"18:48:00","departure_time":"18:48:00","lat":49.208794,"lon":16.55232,"is_passed":false},{"stop_id":"U1213Z1","name":"Jundrov","arrival_time":"18:50:00","departure_time":"19:12:00","lat":49.211836,"lon":16.550693,"is_passed":false}],"49908":[{"stop_id":"U1213Z2","name":"Jundrov","arrival_time":"19:12:00","departure_time":"19:12:00","lat":49.211666,"lon":16.550607,"is_passed":false},{"stop_id":"U1462Z2","name":"Optátova","arrival_time":"19:13:00","departure_time":"19:13:00","lat":49.208867,"lon":16.555614,"is_passed":false},{"stop_id":"U1214Z1","name":"Jundrovský most","arrival_time":"19:14:00","departure_time":"19:14:00","lat":49.209437,"lon":16.556755,"is_passed":false},{"stop_id":"U1217Z4","name":"Vozovna Komín","arrival_time":"19:15:00","departure_time":"19:15:00","lat":49.214283,"lon":16.559705,"is_passed":false},{"stop_id":"U1143Z2","name":"Hlavní","arrival_time":"19:16:00","departure_time":"19:16:00","lat":49.21715,"lon":16.560506,"is_passed":false},{"stop_id":"U1651Z2","name":"Štursova","arrival_time":"19:17:00","departure_time":"19:17:00","lat":49.215854,"lon":16.564522,"is_passed":false},{"stop_id":"U1544Z4","name":"Rosického náměstí","arrival_time":"19:18:00","departure_time":"19:18:00","lat":49.214881,"lon":16.568314,"is_passed":false},{"stop_id":"U1528Z4","name":"Přívrat","arrival_time":"19:20:00","departure_time":"19:20:00","lat":49.218647,"lon":16.574085,"is_passed":false},{"stop_id":"U1777Z2","name":"Záhřebská","arrival_time":"19:21:00","departure_time":"19:21:00","lat":49.219845,"lon":16.580415,"is_passed":false},{"stop_id":"U1567Z6","name":"Skácelova","arrival_time":"19:23:00","departure_time":"19:23:00","lat":49.22163,"lon":16.585935,"is_passed":false},{"stop_id":"U1586Z4","name":"Slovanské náměstí","arrival_time":"19:24:00","departure_time":"19:24:00","lat":49.222774,"lon":16.591332,"is_passed":false},{"stop_id":"U1181Z2","name":"Charvatská","arrival_time":"19:25:00","departure_time":"19:25:00","lat":49.219543,"lon":16.592241,"is_passed":false},{"stop_id":"U1643Z2","name":"Štefánikova","arrival_time":"19:27:00","departure_time":"19:27:00","lat":49.21528,"lon":16.599053,"is_passed":false},{"stop_id":"U1535Z4","name":"Reissigova","arrival_time":"19:28:00","departure_time":"19:28:00","lat":49.21637,"lon":16.60365,"is_passed":false},{"stop_id":"U1415Z2","name":"NC Královo Pole","arrival_time":"19:30:00","departure_time":"19:30:00","lat":49.217553,"lon":16.607232,"is_passed":false},{"stop_id":"U1535Z2","name":"Reissigova","arrival_time":"19:32:00","departure_time":"19:32:00","lat":49.215925,"lon":16.604659,"is_passed":false},{"stop_id":"U1602Z2","name":"Sportovní","arrival_time":"19:33:00","departure_time":"19:33:00","lat":49.212001,"lon":16.607125,"is_passed":false},{"stop_id":"U1793Z4","name":"Za Lužánkami","arrival_time":"19:34:00","departure_time":"19:34:00","lat":49.208864,"lon":16.609536,"is_passed":false},{"stop_id":"U1177Z2","name":"Schodová","arrival_time":"19:35:00","departure_time":"19:35:00","lat":49.206474,"lon":16.612255,"is_passed":false},{"stop_id":"U1418Z4","name":"Náměstí 28. října","arrival_time":"19:37:00","departure_time":"19:37:00","lat":49.202201,"lon":16.613634,"is_passed":false},{"stop_id":"U1397Z4","name":"Moravské náměstí","arrival_time":"19:39:00","departure_time":"19:39:00","lat":49.199159,"lon":16.608704,"is_passed":false},{"stop_id":"U1193Z4","name":"Janáčkovo divadlo","arrival_time":"19:39:00","departure_time":"19:39:00","lat":49.197997,"lon":16.610307,"is_passed":false},{"stop_id":"U1357Z4","name":"Malinovského náměstí","arrival_time":"19:41:00","departure_time":"19:41:00","lat":49.195612,"lon":16.613248,"is_passed":false},{"stop_id":"U1146Z5","name":"Hlavní nádraží","arrival_time":"19:43:00","departure_time":"19:43:00","lat":49.192074,"lon":16.613923,"is_passed":false},{"stop_id":"U1746Z1","name":"Vlhká","arrival_time":"19:44:00","departure_time":"19:44:00","lat":49.191847,"lon":16.618976,"is_passed":false},{"stop_id":"U1372Z6","name":"Masná","arrival_time":"19:46:00","departure_time":"19:46:00","lat":49.190905,"lon":16.626023,"is_passed":false},{"stop_id":"U1144Z3","name":"Hladíkova","arrival_time":"19:47:00","departure_time":"19:47:00","lat":49.186729,"lon":16.626124,"is_passed":false},{"stop_id":"U1639Z1","name":"Škrobárenská","arrival_time":"19:48:00","departure_time":"19:48:00","lat":49.182466,"lon":16.626261,"is_passed":false},{"stop_id":"U1266Z3","name":"Konopná","arrival_time":"19:50:00","departure_time":"19:50:00","lat":49.180126,"lon":16.621339,"is_passed":false},{"stop_id":"U1256Z3","name":"Komárov","arrival_time":"19:52:00","departure_time":"19:52:00","lat":49.17444,"lon":16.622448,"is_passed":false},{"stop_id":"U1148Z1","name":"Hněvkovského","arrival_time":"19:53:00","departure_time":"19:53:00","lat":49.169807,"lon":16.625991,"is_passed":false},{"stop_id":"U1570Z1","name":"Skandinávská","arrival_time":"19:56:00","departure_time":"19:56:00","lat":49.154716,"lon":16.629354,"is_passed":false},{"stop_id":"U7505Z1","name":"Ikea","arrival_time":"19:57:00","departure_time":"19:57:00","lat":49.156435,"lon":16.628041,"is_passed":false},{"stop_id":"U7524Z1","name":"Avion Shopping Park","arrival_time":"19:59:00","departure_time":"20:22:00","lat":49.158343,"lon":16.627978,"is_passed":false}],"49909":[{"stop_id":"U7524Z2","name":"Avion Shopping Park","arrival_time":"20:22:00","departure_time":"20:22:00","lat":49.158198,"lon":16.627919,"is_passed":false},{"stop_id":"U7505Z2","name":"Ikea","arrival_time":"20:23:00","departure_time":"20:23:00","lat":49.156089,"lon":16.627772,"is_passed":false},{"stop_id":"U1570Z2","name":"Skandinávská","arrival_time":"20:24:00","departure_time":"20:24:00","lat":49.154354,"lon":16.629223,"is_passed":false},{"stop_id":"U1148Z2","name":"Hněvkovského","arrival_time":"20:28:00","departure_time":"20:28:00","lat":49.169618,"lon":16.626335,"is_passed":false},{"stop_id":"U1565Z2","name":"Sazenice","arrival_time":"20:29:00","departure_time":"20:29:00","lat":49.172877,"lon":16.623824,"is_passed":false},{"stop_id":"U1361Z4","name":"Mariánské náměstí","arrival_time":"20:30:00","departure_time":"20:30:00","lat":49.177094,"lon":16.621935,"is_passed":false},{"stop_id":"U1266Z4","name":"Konopná","arrival_time":"20:31:00","departure_time":"20:31:00","lat":49.179332,"lon":16.621811,"is_passed":false},{"stop_id":"U1639Z2","name":"Škrobárenská","arrival_time":"20:32:00","departure_time":"20:32:00","lat":49.183283,"lon":16.626321,"is_passed":false},{"stop_id":"U1144Z4","name":"Hladíkova","arrival_time":"20:33:00","departure_time":"20:33:00","lat":49.18682,"lon":16.626223,"is_passed":false},{"stop_id":"U1372Z2","name":"Masná","arrival_time":"20:35:00","departure_time":"20:35:00","lat":49.191283,"lon":16.6245,"is_passed":false},{"stop_id":"U1746Z2","name":"Vlhká","arrival_time":"20:36:00","departure_time":"20:36:00","lat":49.191852,"lon":16.619157,"is_passed":false},{"stop_id":"U1146Z6","name":"Hlavní nádraží","arrival_time":"20:38:00","departure_time":"20:38:00","lat":49.192214,"lon":16.613823,"is_passed":false},{"stop_id":"U1357Z3","name":"Malinovského náměstí","arrival_time":"20:40:00","departure_time":"20:40:00","lat":49.196131,"lon":16.612953,"is_passed":false},{"stop_id":"U1193Z3","name":"Janáčkovo divadlo","arrival_time":"20:40:00","departure_time":"20:40:00","lat":49.198165,"lon":16.610034,"is_passed":false},{"stop_id":"U1397Z3","name":"Moravské náměstí","arrival_time":"20:41:00","departure_time":"20:41:00","lat":49.199309,"lon":16.609047,"is_passed":false},{"stop_id":"U1418Z3","name":"Náměstí 28. října","arrival_time":"20:44:00","departure_time":"20:44:00","lat":49.201497,"lon":16.614016,"is_passed":false},{"stop_id":"U1177Z1","name":"Schodová","arrival_time":"20:45:00","departure_time":"20:45:00","lat":49.206731,"lon":16.612212,"is_passed":false},{"stop_id":"U1793Z3","name":"Za Lužánkami","arrival_time":"20:46:00","departure_time":"20:46:00","lat":49.208786,"lon":16.609799,"is_passed":false},{"stop_id":"U1602Z1","name":"Sportovní","arrival_time":"20:48:00","departure_time":"20:48:00","lat":49.212234,"lon":16.607184,"is_passed":false},{"stop_id":"U1415Z1","name":"NC Královo Pole","arrival_time":"20:51:00","departure_time":"20:51:00","lat":49.217588,"lon":16.606968,"is_passed":false},{"stop_id":"U1535Z1","name":"Reissigova","arrival_time":"20:52:00","departure_time":"20:52:00","lat":49.21647,"lon":16.603814,"is_passed":false},{"stop_id":"U1643Z1","name":"Štefánikova","arrival_time":"20:54:00","departure_time":"20:54:00","lat":49.215384,"lon":16.599228,"is_passed":false},{"stop_id":"U1181Z1","name":"Charvatská","arrival_time":"20:56:00","departure_time":"20:56:00","lat":49.219239,"lon":16.59252,"is_passed":false},{"stop_id":"U1586Z1","name":"Slovanské náměstí","arrival_time":"20:57:00","departure_time":"20:57:00","lat":49.222659,"lon":16.591882,"is_passed":false},{"stop_id":"U1586Z3","name":"Slovanské náměstí","arrival_time":"20:58:00","departure_time":"20:58:00","lat":49.223525,"lon":16.591009,"is_passed":false},{"stop_id":"U1567Z5","name":"Skácelova","arrival_time":"20:59:00","departure_time":"20:59:00","lat":49.221353,"lon":16.584711,"is_passed":false},{"stop_id":"U1777Z1","name":"Záhřebská","arrival_time":"21:01:00","departure_time":"21:01:00","lat":49.219602,"lon":16.579157,"is_passed":false},{"stop_id":"U1528Z3","name":"Přívrat","arrival_time":"21:02:00","departure_time":"21:02:00","lat":49.218788,"lon":16.574147,"is_passed":false},{"stop_id":"U1544Z3","name":"Rosického náměstí","arrival_time":"21:03:00","departure_time":"21:03:00","lat":49.214882,"lon":16.56907,"is_passed":false},{"stop_id":"U1651Z1","name":"Štursova","arrival_time":"21:04:00","departure_time":"21:04:00","lat":49.216462,"lon":16.563614,"is_passed":false},{"stop_id":"U1143Z1","name":"Hlavní","arrival_time":"21:05:00","departure_time":"21:05:00","lat":49.216836,"lon":16.560198,"is_passed":false},{"stop_id":"U1217Z3","name":"Vozovna Komín","arrival_time":"21:05:00","departure_time":"21:05:00","lat":49.213556,"lon":16.559289,"is_passed":false},{"stop_id":"U1214Z2","name":"Jundrovský most","arrival_time":"21:06:00","departure_time":"21:06:00","lat":49.210699,"lon":16.558163,"is_passed":false},{"stop_id":"U1462Z1","name":"Optátova","arrival_time":"21:07:00","departure_time":"21:07:00","lat":49.208965,"lon":16.555555,"is_passed":false},{"stop_id":"U1416Z1","name":"Nálepkova","arrival_time":"21:08:00","departure_time":"21:08:00","lat":49.208794,"lon":16.55232,"is_passed":false},{"stop_id":"U1213Z1","name":"Jundrov","arrival_time":"21:10:00","departure_time":"21:12:00","lat":49.211836,"lon":16.550693,"is_passed":false}],"49910":[{"stop_id":"U1071Z2","name":"Červený písek","arrival_time":"5:00:00","departure_time":"5:00:00","lat":49.220452,"lon":16.657444,"is_passed":false},{"stop_id":"U1503Z3","name":"Podzimní","arrival_time":"5:00:00","departure_time":"5:00:00","lat":49.22165,"lon":16.652917,"is_passed":false},{"stop_id":"U1197Z3","name":"Jarní ČD","arrival_time":"5:01:00","departure_time":"5:01:00","lat":49.22026,"lon":16.652902,"is_passed":false},{"stop_id":"U1808Z2","name":"Železniční stavitelství","arrival_time":"5:02:00","departure_time":"5:02:00","lat":49.216798,"lon":16.654101,"is_passed":false},{"stop_id":"U1791Z1","name":"Zimní I","arrival_time":"5:03:00","departure_time":"5:03:00","lat":49.213186,"lon":16.658794,"is_passed":false},{"stop_id":"U1792Z1","name":"Zimní II","arrival_time":"5:04:00","departure_time":"5:04:00","lat":49.213409,"lon":16.655937,"is_passed":false},{"stop_id":"U1083Z2","name":"Depo ČD","arrival_time":"5:05:00","departure_time":"5:05:00","lat":49.214319,"lon":16.652131,"is_passed":false},{"stop_id":"U1316Z2","name":"Kulkova","arrival_time":"5:05:00","departure_time":"5:05:00","lat":49.211681,"lon":16.648344,"is_passed":false},{"stop_id":"U1498Z2","name":"Podsednická","arrival_time":"5:06:00","departure_time":"5:06:00","lat":49.209601,"lon":16.645873,"is_passed":false},{"stop_id":"U1698Z2","name":"Údolíček","arrival_time":"5:06:00","departure_time":"5:06:00","lat":49.206553,"lon":16.643865,"is_passed":false},{"stop_id":"U1631Z1","name":"Svatoplukova","arrival_time":"5:07:00","departure_time":"5:07:00","lat":49.2051,"lon":16.641425,"is_passed":false},{"stop_id":"U1611Z6","name":"Stará osada","arrival_time":"5:09:00","departure_time":"5:14:00","lat":49.201731,"lon":16.642184,"is_passed":false}],"49911":[{"stop_id":"U1611Z8","name":"Stará osada","arrival_time":"5:14:00","departure_time":"5:14:00","lat":49.202294,"lon":16.642001,"is_passed":false},{"stop_id":"U1698Z1","name":"Údolíček","arrival_time":"5:15:00","departure_time":"5:15:00","lat":49.206732,"lon":16.644592,"is_passed":false},{"stop_id":"U1498Z1","name":"Podsednická","arrival_time":"5:16:00","departure_time":"5:16:00","lat":49.209376,"lon":16.645876,"is_passed":false},{"stop_id":"U1316Z1","name":"Kulkova","arrival_time":"5:16:00","departure_time":"5:16:00","lat":49.211717,"lon":16.64853,"is_passed":false},{"stop_id":"U1791Z51","name":"Zimní I","arrival_time":"5:17:00","departure_time":"5:17:00","lat":49.213186,"lon":16.658794,"is_passed":false},{"stop_id":"U1792Z51","name":"Zimní II","arrival_time":"5:18:00","departure_time":"5:18:00","lat":49.213409,"lon":16.655937,"is_passed":false},{"stop_id":"U1083Z1","name":"Depo ČD","arrival_time":"5:19:00","departure_time":"5:19:00","lat":49.215406,"lon":16.653524,"is_passed":false},{"stop_id":"U1808Z1","name":"Železniční stavitelství","arrival_time":"5:19:00","departure_time":"5:19:00","lat":49.217133,"lon":16.654292,"is_passed":false},{"stop_id":"U1197Z4","name":"Jarní ČD","arrival_time":"5:20:00","departure_time":"5:20:00","lat":49.220905,"lon":16.652747,"is_passed":false},{"stop_id":"U1503Z2","name":"Podzimní","arrival_time":"5:20:00","departure_time":"5:20:00","lat":49.221561,"lon":16.653136,"is_passed":false},{"stop_id":"U1071Z1","name":"Červený písek","arrival_time":"5:22:00","departure_time":"5:30:00","lat":49.220493,"lon":16.657264,"is_passed":false}],"49912":[{"stop_id":"U1071Z2","name":"Červený písek","arrival_time":"5:30:00","departure_time":"5:30:00","lat":49.220452,"lon":16.657444,"is_passed":false},{"stop_id":"U1503Z3","name":"Podzimní","arrival_time":"5:30:00","departure_time":"5:30:00","lat":49.22165,"lon":16.652917,"is_passed":false},{"stop_id":"U1197Z3","name":"Jarní ČD","arrival_time":"5:31:00","departure_time":"5:31:00","lat":49.22026,"lon":16.652902,"is_passed":false},{"stop_id":"U1808Z2","name":"Železniční stavitelství","arrival_time":"5:32:00","departure_time":"5:32:00","lat":49.216798,"lon":16.654101,"is_passed":false},{"stop_id":"U1791Z1","name":"Zimní I","arrival_time":"5:33:00","departure_time":"5:33:00","lat":49.213186,"lon":16.658794,"is_passed":false},{"stop_id":"U1792Z1","name":"Zimní II","arrival_time":"5:34:00","departure_time":"5:34:00","lat":49.213409,"lon":16.655937,"is_passed":false},{"stop_id":"U1083Z2","name":"Depo ČD","arrival_time":"5:35:00","departure_time":"5:35:00","lat":49.214319,"lon":16.652131,"is_passed":false},{"stop_id":"U1316Z2","name":"Kulkova","arrival_time":"5:35:00","departure_time":"5:35:00","lat":49.211681,"lon":16.648344,"is_passed":false},{"stop_id":"U1498Z2","name":"Podsednická","arrival_time":"5:36:00","departure_time":"5:36:00","lat":49.209601,"lon":16.645873,"is_passed":false},{"stop_id":"U1698Z2","name":"Údolíček","arrival_time":"5:36:00","departure_time":"5:36:00","lat":49.206553,"lon":16.643865,"is_passed":false},{"stop_id":"U1631Z1","name":"Svatoplukova","arrival_time":"5:37:00","departure_time":"5:37:00","lat":49.2051,"lon":16.641425,"is_passed":false},{"stop_id":"U1611Z6","name":"Stará osada","arrival_time":"5:39:00","departure_time":"5:44:00","lat":49.201731,"lon":16.642184,"is_passed":false}],"49913":[{"stop_id":"U1611Z8","name":"Stará osada","arrival_time":"5:44:00","departure_time":"5:44:00","lat":49.202294,"lon":16.642001,"is_passed":false},{"stop_id":"U1698Z1","name":"Údolíček","arrival_time":"5:45:00","departure_time":"5:45:00","lat":49.206732,"lon":16.644592,"is_passed":false},{"stop_id":"U1498Z1","name":"Podsednická","arrival_time":"5:46:00","departure_time":"5:46:00","lat":49.209376,"lon":16.645876,"is_passed":false},{"stop_id":"U1316Z1","name":"Kulkova","arrival_time":"5:46:00","departure_time":"5:46:00","lat":49.211717,"lon":16.64853,"is_passed":false},{"stop_id":"U1791Z51","name":"Zimní I","arrival_time":"5:47:00","departure_time":"5:47:00","lat":49.213186,"lon":16.658794,"is_passed":false},{"stop_id":"U1792Z51","name":"Zimní II","arrival_time":"5:48:00","departure_time":"5:48:00","lat":49.213409,"lon":16.655937,"is_passed":false},{"stop_id":"U1083Z1","name":"Depo ČD","arrival_time":"5:49:00","departure_time":"5:49:00","lat":49.215406,"lon":16.653524,"is_passed":false},{"stop_id":"U1808Z1","name":"Železniční stavitelství","arrival_time":"5:49:00","departure_time":"5:49:00","lat":49.217133,"lon":16.654292,"is_passed":false},{"stop_id":"U1197Z4","name":"Jarní ČD","arrival_time":"5:50:00","departure_time":"5:50:00","lat":49.220905,"lon":16.652747,"is_passed":false},{"stop_id":"U1503Z2","name":"Podzimní","arrival_time":"5:50:00","departure_time":"5:50:00","lat":49.221561,"lon":16.653136,"is_passed":false},{"stop_id":"U1071Z1","name":"Červený písek","arrival_time":"5:52:00","departure_time":"6:00:00","lat":49.220493,"lon":16.657264,"is_passed":false}],"49914":[{"stop_id":"U1071Z2","name":"Červený písek","arrival_time":"6:00:00","departure_time":"6:00:00","lat":49.220452,"lon":16.657444,"is_passed":false},{"stop_id":"U1503Z3","name":"Podzimní","arrival_time":"6:00:00","departure_time":"6:00:00","lat":49.22165,"lon":16.652917,"is_passed":false},{"stop_id":"U1197Z3","name":"Jarní ČD","arrival_time":"6:01:00","departure_time":"6:01:00","lat":49.22026,"lon":16.652902,"is_passed":false},{"stop_id":"U1808Z2","name":"Železniční stavitelství","arrival_time":"6:02:00","departure_time":"6:02:00","lat":49.216798,"lon":16.654101,"is_passed":false},{"stop_id":"U1791Z1","name":"Zimní I","arrival_time":"6:03:00","departure_time":"6:03:00","lat":49.213186,"lon":16.658794,"is_passed":false},{"stop_id":"U1792Z1","name":"Zimní II","arrival_time":"6:04:00","departure_time":"6:04:00","lat":49.213409,"lon":16.655937,"is_passed":false},{"stop_id":"U1083Z2","name":"Depo ČD","arrival_time":"6:05:00","departure_time":"6:05:00","lat":49.214319,"lon":16.652131,"is_passed":false},{"stop_id":"U1316Z2","name":"Kulkova","arrival_time":"6:05:00","departure_time":"6:05:00","lat":49.211681,"lon":16.648344,"is_passed":false},{"stop_id":"U1498Z2","name":"Podsednická","arrival_time":"6:06:00","departure_time":"6:06:00","lat":49.209601,"lon":16.645873,"is_passed":false},{"stop_id":"U1698Z2","name":"Údolíček","arrival_time":"6:06:00","departure_time":"6:06:00","lat":49.206553,"lon":16.643865,"is_passed":false},{"stop_id":"U1631Z1","name":"Svatoplukova","arrival_time":"6:07:00","departure_time":"6:07:00","lat":49.2051,"lon":16.641425,"is_passed":false},{"stop_id":"U1611Z6","name":"Stará osada","arrival_time":"6:09:00","departure_time":"6:14:00","lat":49.201731,"lon":16.642184,"is_passed":false}],"49915":[{"stop_id":"U1611Z8","name":"Stará osada","arrival_time":"6:14:00","departure_time":"6:14:00","lat":49.202294,"lon":16.642001,"is_passed":false},{"stop_id":"U1698Z1","name":"Údolíček","arrival_time":"6:15:00","departure_time":"6:15:00","lat":49.206732,"lon":16.644592,"is_passed":false},{"stop_id":"U1498Z1","name":"Podsednická","arrival_time":"6:16:00","departure_time":"6:16:00","lat":49.209376,"lon":16.645876,"is_passed":false},{"stop_id":"U1316Z1","name":"Kulkova","arrival_time":"6:16:00","departure_time":"6:16:00","lat":49.211717,"lon":16.64853,"is_passed":false},{"stop_id":"U1791Z51","name":"Zimní I","arrival_time":"6:17:00","departure_time":"6:17:00","lat":49.213186,"lon":16.658794,"is_passed":false},{"stop_id":"U1792Z51","name":"Zimní II","arrival_time":"6:18:00","departure_time":"6:18:00","lat":49.213409,"lon":16.655937,"is_passed":false},{"stop_id":"U1083Z1","name":"Depo ČD","arrival_time":"6:19:00","departure_time":"6:19:00","lat":49.215406,"lon":16.653524,"is_passed":false},{"stop_id":"U1808Z1","name":"Železniční stavitelství","arrival_time":"6:19:00","departure_time":"6:19:00","lat":49.217133,"lon":16.654292,"is_passed":false},{"stop_id":"U1197Z4","name":"Jarní ČD","arrival_time":"6:20:00","departure_time":"6:20:00","lat":49.220905,"lon":16.652747,"is_passed":false},{"stop_id":"U1503Z2","name":"Podzimní","arrival_time":"6:20:00","departure_time":"6:20:00","lat":49.221561,"lon":16.653136,"is_passed":false},{"stop_id":"U1071Z1","name":"Červený písek","arrival_time":"6:22:00","departure_time":"6:30:00","lat":49.220493,"lon":16.657264,"is_passed":false}],"49916":[{"stop_id":"U1071Z2","name":"Červený písek","arrival_time":"6:30:00","departure_time":"6:30:00","lat":49.220452,"lon":16.657444,"is_passed":false},{"stop_id":"U1503Z3","name":"Podzimní","arrival_time":"6:30:00","departure_time":"6:30:00","lat":49.22165,"lon":16.652917,"is_passed":false},{"stop_id":"U1197Z3","name":"Jarní ČD","arrival_time":"6:31:00","departure_time":"6:31:00","lat":49.22026,"lon":16.652902,"is_passed":false},{"stop_id":"U1808Z2","name":"Železniční stavitelství","arrival_time":"6:32:00","departure_time":"6:32:00","lat":49.216798,"lon":16.654101,"is_passed":false},{"stop_id":"U1791Z1","name":"Zimní I","arrival_time":"6:33:00","departure_time":"6:33:00","lat":49.213186,"lon":16.658794,"is_passed":false},{"stop_id":"U1792Z1","name":"Zimní II","arrival_time":"6:34:00","departure_time":"6:34:00","lat":49.213409,"lon":16.655937,"is_passed":false},{"stop_id":"U1083Z2","name":"Depo ČD","arrival_time":"6:35:00","departure_time":"6:35:00","lat":49.214319,"lon":16.652131,"is_passed":false},{"stop_id":"U1316Z2","name":"Kulkova","arrival_time":"6:35:00","departure_time":"6:35:00","lat":49.211681,"lon":16.648344,"is_passed":false},{"stop_id":"U1498Z2","name":"Podsednická","arrival_time":"6:36:00","departure_time":"6:36:00","lat":49.209601,"lon":16.645873,"is_passed":false},{"stop_id":"U1698Z2","name":"Údolíček","arrival_time":"6:36:00","departure_time":"6:36:00","lat":49.206553,"lon":16.643865,"is_passed":false},{"stop_id":"U1631Z1","name":"Svatoplukova","arrival_time":"6:37:00","departure_time":"6:37:00","lat":49.2051,"lon":16.641425,"is_passed":false},{"stop_id":"U1611Z6","name":"Stará osada","arrival_time":"6:39:00","departure_time":"6:41:00","lat":49.201731,"lon":16.642184,"is_passed":false}],"49917":[{"stop_id":"U1371Z3","name":"Náměstí Míru","arrival_time":"7:04:00","departure_time":"7:04:00","lat":49.201996,"lon":16.581664,"is_passed":false},{"stop_id":"U1279Z1","name":"Kounicovy koleje","arrival_time":"7:05:00","departure_time":"7:05:00","lat":49.207874,"lon":16.583463,"is_passed":false},{"stop_id":"U1657Z6","name":"Tábor","arrival_time":"7:06:00","departure_time":"7:06:00","lat":49.210122,"lon":16.587633,"is_passed":false},{"stop_id":"U1242Z1","name":"Klusáčkova","arrival_time":"7:08:00","departure_time":"7:08:00","lat":49.212365,"lon":16.592666,"is_passed":false},{"stop_id":"U1643Z2","name":"Štefánikova","arrival_time":"7:10:00","departure_time":"7:10:00","lat":49.21528,"lon":16.599053,"is_passed":false},{"stop_id":"U1535Z4","name":"Reissigova","arrival_time":"7:11:00","departure_time":"7:11:00","lat":49.21637,"lon":16.60365,"is_passed":false},{"stop_id":"U1415Z2","name":"NC Královo Pole","arrival_time":"7:12:00","departure_time":"7:18:00","lat":49.217553,"lon":16.607232,"is_passed":false}],"49918":[{"stop_id":"U1415Z1","name":"NC Královo Pole","arrival_time":"7:18:00","departure_time":"7:18:00","lat":49.217588,"lon":16.606968,"is_passed":false},{"stop_id":"U1535Z1","name":"Reissigova","arrival_time":"7:19:00","departure_time":"7:19:00","lat":49.21647,"lon":16.603814,"is_passed":false},{"stop_id":"U1643Z1","name":"Štefánikova","arrival_time":"7:20:00","departure_time":"7:20:00","lat":49.215384,"lon":16.599228,"is_passed":false},{"stop_id":"U1242Z2","name":"Klusáčkova","arrival_time":"7:22:00","departure_time":"7:22:00","lat":49.211903,"lon":16.592875,"is_passed":false},{"stop_id":"U1657Z1","name":"Tábor","arrival_time":"7:25:00","departure_time":"7:25:00","lat":49.210271,"lon":16.587228,"is_passed":false},{"stop_id":"U1279Z2","name":"Kounicovy koleje","arrival_time":"7:26:00","departure_time":"7:26:00","lat":49.20763,"lon":16.582971,"is_passed":false},{"stop_id":"U1670Z2","name":"Tichého","arrival_time":"7:26:00","departure_time":"7:26:00","lat":49.204993,"lon":16.581692,"is_passed":false},{"stop_id":"U1371Z5","name":"Náměstí Míru","arrival_time":"7:28:00","departure_time":"7:28:00","lat":49.202414,"lon":16.581386,"is_passed":false},{"stop_id":"U1328Z1","name":"Lerchova","arrival_time":"7:29:00","departure_time":"7:29:00","lat":49.198847,"lon":16.583514,"is_passed":false},{"stop_id":"U1723Z3","name":"Vaňkovo náměstí","arrival_time":"7:31:00","departure_time":"7:31:00","lat":49.194723,"lon":16.585005,"is_passed":false},{"stop_id":"U1478Z3","name":"Pavlíkova","arrival_time":"7:31:00","departure_time":"7:31:00","lat":49.194545,"lon":16.583048,"is_passed":false},{"stop_id":"U1487Z5","name":"Pisárky","arrival_time":"7:33:00","departure_time":"7:33:00","lat":49.193517,"lon":16.571155,"is_passed":false},{"stop_id":"U1007Z3","name":"Anthropos","arrival_time":"7:34:00","departure_time":"7:34:00","lat":49.193146,"lon":16.565715,"is_passed":false},{"stop_id":"U1003Z2","name":"Antonína Procházky","arrival_time":"7:34:00","departure_time":"7:34:00","lat":49.194292,"lon":16.55926,"is_passed":false},{"stop_id":"U1636Z1","name":"Šárka","arrival_time":"7:35:00","departure_time":"7:35:00","lat":49.191567,"lon":16.545721,"is_passed":false},{"stop_id":"U1408Z1","name":"Myslivna","arrival_time":"7:37:00","departure_time":"8:17:00","lat":49.18747,"lon":16.552137,"is_passed":false}],"49919":[{"stop_id":"U1408Z2","name":"Myslivna","arrival_time":"8:17:00","departure_time":"8:17:00","lat":49.18786,"lon":16.552068,"is_passed":false},{"stop_id":"U1636Z2","name":"Šárka","arrival_time":"8:18:00","departure_time":"8:18:00","lat":49.19131,"lon":16.545929,"is_passed":false},{"stop_id":"U1003Z1","name":"Antonína Procházky","arrival_time":"8:20:00","departure_time":"8:20:00","lat":49.193559,"lon":16.561795,"is_passed":false},{"stop_id":"U1007Z4","name":"Anthropos","arrival_time":"8:21:00","departure_time":"8:21:00","lat":49.193356,"lon":16.56677,"is_passed":false},{"stop_id":"U1487Z6","name":"Pisárky","arrival_time":"8:22:00","departure_time":"8:22:00","lat":49.193537,"lon":16.570797,"is_passed":false},{"stop_id":"U1320Z2","name":"Květná","arrival_time":"8:23:00","departure_time":"8:23:00","lat":49.193384,"lon":16.576691,"is_passed":false},{"stop_id":"U1478Z4","name":"Pavlíkova","arrival_time":"8:24:00","departure_time":"8:24:00","lat":49.194603,"lon":16.584264,"is_passed":false},{"stop_id":"U1723Z4","name":"Vaňkovo náměstí","arrival_time":"8:25:00","departure_time":"8:25:00","lat":49.195446,"lon":16.585783,"is_passed":false},{"stop_id":"U1328Z2","name":"Lerchova","arrival_time":"8:26:00","departure_time":"8:26:00","lat":49.198598,"lon":16.583814,"is_passed":false},{"stop_id":"U1371Z3","name":"Náměstí Míru","arrival_time":"8:29:00","departure_time":"8:29:00","lat":49.201996,"lon":16.581664,"is_passed":false},{"stop_id":"U1279Z1","name":"Kounicovy koleje","arrival_time":"8:30:00","departure_time":"8:30:00","lat":49.207874,"lon":16.583463,"is_passed":false},{"stop_id":"U1657Z6","name":"Tábor","arrival_time":"8:31:00","departure_time":"8:31:00","lat":49.210122,"lon":16.587633,"is_passed":false},{"stop_id":"U1242Z1","name":"Klusáčkova","arrival_time":"8:33:00","departure_time":"8:33:00","lat":49.212365,"lon":16.592666,"is_passed":false},{"stop_id":"U1643Z2","name":"Štefánikova","arrival_time":"8:35:00","departure_time":"8:35:00","lat":49.21528,"lon":16.599053,"is_passed":false},{"stop_id":"U1535Z4","name":"Reissigova","arrival_time":"8:36:00","departure_time":"8:36:00","lat":49.21637,"lon":16.60365,"is_passed":false},{"stop_id":"U1415Z2","name":"NC Královo Pole","arrival_time":"8:38:00","departure_time":"8:42:00","lat":49.217553,"lon":16.607232,"is_passed":false}],"49920":[{"stop_id":"U1415Z1","name":"NC Královo Pole","arrival_time":"8:42:00","departure_time":"8:42:00","lat":49.217588,"lon":16.606968,"is_passed":false},{"stop_id":"U1535Z1","name":"Reissigova","arrival_time":"8:43:00","departure_time":"8:43:00","lat":49.21647,"lon":16.603814,"is_passed":false},{"stop_id":"U1643Z1","name":"Štefánikova","arrival_time":"8:45:00","departure_time":"8:45:00","lat":49.215384,"lon":16.599228,"is_passed":false},{"stop_id":"U1242Z2","name":"Klusáčkova","arrival_time":"8:47:00","departure_time":"8:47:00","lat":49.211903,"lon":16.592875,"is_passed":false},{"stop_id":"U1657Z1","name":"Tábor","arrival_time":"8:50:00","departure_time":"8:50:00","lat":49.210271,"lon":16.587228,"is_passed":false},{"stop_id":"U1279Z2","name":"Kounicovy koleje","arrival_time":"8:51:00","departure_time":"8:51:00","lat":49.20763,"lon":16.582971,"is_passed":false},{"stop_id":"U1670Z2","name":"Tichého","arrival_time":"8:52:00","departure_time":"8:52:00","lat":49.204993,"lon":16.581692,"is_passed":false},{"stop_id":"U1371Z5","name":"Náměstí Míru","arrival_time":"8:54:00","departure_time":"9:09:00","lat":49.202414,"lon":16.581386,"is_passed":false}],"49921":[{"stop_id":"U1371Z3","name":"Náměstí Míru","arrival_time":"9:09:00","departure_time":"9:09:00","lat":49.201996,"lon":16.581664,"is_passed":false},{"stop_id":"U1279Z1","name":"Kounicovy koleje","arrival_time":"9:10:00","departure_time":"9:10:00","lat":49.207874,"lon":16.583463,"is_passed":false},{"stop_id":"U1657Z6","name":"Tábor","arrival_time":"9:11:00","departure_time":"9:11:00","lat":49.210122,"lon":16.587633,"is_passed":false},{"stop_id":"U1242Z1","name":"Klusáčkova","arrival_time":"9:13:00","departure_time":"9:13:00","lat":49.212365,"lon":16.592666,"is_passed":false},{"stop_id":"U1643Z2","name":"Štefánikova","arrival_time":"9:15:00","departure_time":"9:15:00","lat":49.21528,"lon":16.599053,"is_passed":false},{"stop_id":"U1535Z4","name":"Reissigova","arrival_time":"9:16:00","departure_time":"9:16:00","lat":49.21637,"lon":16.60365,"is_passed":false},{"stop_id":"U1415Z2","name":"NC Královo Pole","arrival_time":"9:18:00","departure_time":"9:22:00","lat":49.217553,"lon":16.607232,"is_passed":false}],"49922":[{"stop_id":"U1415Z1","name":"NC Královo Pole","arrival_time":"9:22:00","departure_time":"9:22:00","lat":49.217588,"lon":16.606968,"is_passed":false},{"stop_id":"U1535Z1","name":"Reissigova","arrival_time":"9:23:00","departure_time":"9:23:00","lat":49.21647,"lon":16.603814,"is_passed":false},{"stop_id":"U1643Z1","name":"Štefánikova","arrival_time":"9:25:00","departure_time":"9:25:00","lat":49.215384,"lon":16.599228,"is_passed":false},{"stop_id":"U1242Z2","name":"Klusáčkova","arrival_time":"9:27:00","departure_time":"9:27:00","lat":49.211903,"lon":16.592875,"is_passed":false},{"stop_id":"U1657Z1","name":"Tábor","arrival_time":"9:30:00","departure_time":"9:30:00","lat":49.210271,"lon":16.587228,"is_passed":false},{"stop_id":"U1279Z2","name":"Kounicovy koleje","arrival_time":"9:31:00","departure_time":"9:31:00","lat":49.20763,"lon":16.582971,"is_passed":false},{"stop_id":"U1670Z2","name":"Tichého","arrival_time":"9:32:00","departure_time":"9:32:00","lat":49.204993,"lon":16.581692,"is_passed":false},{"stop_id":"U1371Z5","name":"Náměstí Míru","arrival_time":"9:34:00","departure_time":"9:34:00","lat":49.202414,"lon":16.581386,"is_passed":false},{"stop_id":"U1328Z1","name":"Lerchova","arrival_time":"9:35:00","departure_time":"9:35:00","lat":49.198847,"lon":16.583514,"is_passed":false},{"stop_id":"U1723Z3","name":"Vaňkovo náměstí","arrival_time":"9:37:00","departure_time":"9:37:00","lat":49.194723,"lon":16.585005,"is_passed":false},{"stop_id":"U1478Z3","name":"Pavlíkova","arrival_time":"9:37:00","departure_time":"9:37:00","lat":49.194545,"lon":16.583048,"is_passed":false},{"stop_id":"U1487Z5","name":"Pisárky","arrival_time":"9:39:00","departure_time":"9:39:00","lat":49.193517,"lon":16.571155,"is_passed":false},{"stop_id":"U1007Z3","name":"Anthropos","arrival_time":"9:40:00","departure_time":"9:40:00","lat":49.193146,"lon":16.565715,"is_passed":false},{"stop_id":"U1003Z2","name":"Antonína Procházky","arrival_time":"9:41:00","departure_time":"9:41:00","lat":49.194292,"lon":16.55926,"is_passed":false},{"stop_id":"U1636Z1","name":"Šárka","arrival_time":"9:42:00","departure_time":"9:42:00","lat":49.191567,"lon":16.545721,"is_passed":false},{"stop_id":"U1408Z1","name":"Myslivna","arrival_time":"9:44:00","departure_time":"10:17:00","lat":49.18747,"lon":16.552137,"is_passed":false}],"49923":[{"stop_id":"U1408Z2","name":"Myslivna","arrival_time":"10:17:00","departure_time":"10:17:00","lat":49.18786,"lon":16.552068,"is_passed":false},{"stop_id":"U1636Z2","name":"Šárka","arrival_time":"10:18:00","departure_time":"10:18:00","lat":49.19131,"lon":16.545929,"is_passed":false},{"stop_id":"U1003Z1","name":"Antonína Procházky","arrival_time":"10:20:00","departure_time":"10:20:00","lat":49.193559,"lon":16.561795,"is_passed":false},{"stop_id":"U1007Z4","name":"Anthropos","arrival_time":"10:21:00","departure_time":"10:21:00","lat":49.193356,"lon":16.56677,"is_passed":false},{"stop_id":"U1487Z6","name":"Pisárky","arrival_time":"10:22:00","departure_time":"10:22:00","lat":49.193537,"lon":16.570797,"is_passed":false},{"stop_id":"U1320Z2","name":"Květná","arrival_time":"10:23:00","departure_time":"10:23:00","lat":49.193384,"lon":16.576691,"is_passed":false},{"stop_id":"U1478Z4","name":"Pavlíkova","arrival_time":"10:24:00","departure_time":"10:24:00","lat":49.194603,"lon":16.584264,"is_passed":false},{"stop_id":"U1723Z4","name":"Vaňkovo náměstí","arrival_time":"10:25:00","departure_time":"10:25:00","lat":49.195446,"lon":16.585783,"is_passed":false},{"stop_id":"U1328Z2","name":"Lerchova","arrival_time":"10:26:00","departure_time":"10:26:00","lat":49.198598,"lon":16.583814,"is_passed":false},{"stop_id":"U1371Z3","name":"Náměstí Míru","arrival_time":"10:29:00","departure_time":"10:29:00","lat":49.201996,"lon":16.581664,"is_passed":false},{"stop_id":"U1279Z1","name":"Kounicovy koleje","arrival_time":"10:30:00","departure_time":"10:30:00","lat":49.207874,"lon":16.583463,"is_passed":false},{"stop_id":"U1657Z6","name":"Tábor","arrival_time":"10:31:00","departure_time":"10:31:00","lat":49.210122,"lon":16.587633,"is_passed":false},{"stop_id":"U1242Z1","name":"Klusáčkova","arrival_time":"10:33:00","departure_time":"10:33:00","lat":49.212365,"lon":16.592666,"is_passed":false},{"stop_id":"U1643Z2","name":"Štefánikova","arrival_time":"10:35:00","departure_time":"10:35:00","lat":49.21528,"lon":16.599053,"is_passed":false},{"stop_id":"U1535Z4","name":"Reissigova","arrival_time":"10:36:00","departure_time":"10:36:00","lat":49.21637,"lon":16.60365,"is_passed":false},{"stop_id":"U1415Z2","name":"NC Královo Pole","arrival_time":"10:38:00","departure_time":"10:42:00","lat":49.217553,"lon":16.607232,"is_passed":false}],"49924":[{"stop_id":"U1415Z1","name":"NC Královo Pole","arrival_time":"10:42:00","departure_time":"10:42:00","lat":49.217588,"lon":16.606968,"is_passed":false},{"stop_id":"U1535Z1","name":"Reissigova","arrival_time":"10:43:00","departure_time":"10:43:00","lat":49.21647,"lon":16.603814,"is_passed":false},{"stop_id":"U1643Z1","name":"Štefánikova","arrival_time":"10:45:00","departure_time":"10:45:00","lat":49.215384,"lon":16.599228,"is_passed":false},{"stop_id":"U1242Z2","name":"Klusáčkova","arrival_time":"10:47:00","departure_time":"10:47:00","lat":49.211903,"lon":16.592875,"is_passed":false},{"stop_id":"U1657Z1","name":"Tábor","arrival_time":"10:50:00","departure_time":"10:50:00","lat":49.210271,"lon":16.587228,"is_passed":false},{"stop_id":"U1279Z2","name":"Kounicovy koleje","arrival_time":"10:51:00","departure_time":"10:51:00","lat":49.20763,"lon":16.582971,"is_passed":false},{"stop_id":"U1670Z2","name":"Tichého","arrival_time":"10:52:00","departure_time":"10:52:00","lat":49.204993,"lon":16.581692,"is_passed":false},{"stop_id":"U1371Z5","name":"Náměstí Míru","arrival_time":"10:54:00","departure_time":"11:09:00","lat":49.202414,"lon":16.581386,"is_passed":false}],"49925":[{"stop_id":"U1371Z3","name":"Náměstí Míru","arrival_time":"11:09:00","departure_time":"11:09:00","lat":49.201996,"lon":16.581664,"is_passed":false},{"stop_id":"U1279Z1","name":"Kounicovy koleje","arrival_time":"11:10:00","departure_time":"11:10:00","lat":49.207874,"lon":16.583463,"is_passed":false},{"stop_id":"U1657Z6","name":"Tábor","arrival_time":"11:11:00","departure_time":"11:11:00","lat":49.210122,"lon":16.587633,"is_passed":false},