{"499":[{"stop_id":"U12736Z51","name":"Letovice, železniční stanice","arrival_time":"9:57:00","departure_time":"9:57:00","lat":49.555973,"lon":16.570906,"is_passed":false},{"stop_id":"U22702Z2","name":"Letovice zastávka","arrival_time":"9:59:00","departure_time":"10:00:00","lat":49.536152,"lon":16.576186,"is_passed":false},{"stop_id":"U22701Z2","name":"Zboněk","arrival_time":"10:02:00","departure_time":"10:02:00","lat":49.520482,"lon":16.584439,"is_passed":false},{"stop_id":"U22602Z2","name":"Svitávka","arrival_time":"10:05:00","departure_time":"10:05:00","lat":49.499434,"lon":16.599208,"is_passed":false},{"stop_id":"U12676Z51","name":"Skalice nad Svitavou, žel.st.","arrival_time":"10:08:00","departure_time":"10:13:00","lat":49.480123,"lon":16.609726,"is_passed":false},{"stop_id":"U12511Z51","name":"Doubravice, žel.st.","arrival_time":"10:18:00","departure_time":"10:18:00","lat":49.438707,"lon":16.621809,"is_passed":false},{"stop_id":"U12439Z51","name":"Rájec-Jestřebí, železniční stanice","arrival_time":"10:21:00","departure_time":"10:22:00","lat":49.408206,"lon":16.627711,"is_passed":false},{"stop_id":"U22301Z2","name":"Dolní Lhota","arrival_time":"10:24:00","departure_time":"10:25:00","lat":49.386917,"lon":16.633978,"is_passed":false},{"stop_id":"U22302Z2","name":"Blansko město","arrival_time":"10:27:00","departure_time":"10:28:00","lat":49.360996,"lon":16.639464,"is_passed":false},{"stop_id":"U12342Z29","name":"Blansko, aut. st.","arrival_time":"10:30:00","departure_time":"10:31:00","lat":49.352753,"lon":16.646848,"is_passed":false},{"stop_id":"U12231Z11","name":"Adamov, železniční zastávka","arrival_time":"10:36:00","departure_time":"10:37:00","lat":49.300671,"lon":16.650653,"is_passed":false},{"stop_id":"U12230Z11","name":"Adamov, železniční stanice","arrival_time":"10:38:00","departure_time":"10:39:00","lat":49.295341,"lon":16.663538,"is_passed":false},{"stop_id":"U22101Z2","name":"Babice nad Svitavou","arrival_time":"10:42:00","departure_time":"10:42:00","lat":49.276645,"lon":16.673012,"is_passed":false},{"stop_id":"U12158Z11","name":"Bílovice nad Svitavou, žel. stanice","arrival_time":"10:46:00","departure_time":"10:47:00","lat":49.242715,"lon":16.673677,"is_passed":false},{"stop_id":"U1809Z11","name":"Židenice, nádraží","arrival_time":"10:52:00","departure_time":"10:52:00","lat":49.204282,"lon":16.636042,"is_passed":false},{"stop_id":"U1146Z98","name":"Hlavní nádraží","arrival_time":"10:59:00","departure_time":"11:06:00","lat":49.19035,"lon":16.612342,"is_passed":false},{"stop_id":"U1183Z11","name":"Chrlice, nádraží","arrival_time":"11:14:00","departure_time":"11:17:00","lat":49.132031,"lon":16.657232,"is_passed":false},{"stop_id":"U16149Z11","name":"Sokolnice, železniční stanice","arrival_time":"11:23:00","departure_time":"11:24:00","lat":49.108029,"lon":16.733459,"is_passed":false},{"stop_id":"U26101Z2","name":"Újezd u Brna","arrival_time":"11:25:00","departure_time":"11:26:00","lat":49.107297,"lon":16.745564,"is_passed":false},{"stop_id":"U26102Z2","name":"Hostěrádky-Rešov","arrival_time":"11:29:00","departure_time":"11:29:00","lat":49.119822,"lon":16.782755,"is_passed":false},{"stop_id":"U26201Z2","name":"Zbýšov","arrival_time":"11:32:00","departure_time":"11:32:00","lat":49.132691,"lon":16.806859,"is_passed":false},{"stop_id":"U16212Z11","name":"Křenovice, hor. žel. st.","arrival_time":"11:35:00","departure_time":"11:58:00","lat":49.143553,"lon":16.824564,"is_passed":false}],"4990":[{"stop_id":"U14242Z5","name":"Zastávka, železniční stanice","arrival_time":"7:19:00","departure_time":"7:19:00","lat":49.187451,"lon":16.359464,"is_passed":false},{"stop_id":"U14224Z1","name":"Babice u Rosic","arrival_time":"7:22:00","departure_time":"7:22:00","lat":49.171094,"lon":16.359022,"is_passed":false},{"stop_id":"U14321Z1","name":"Kratochvilka","arrival_time":"7:25:00","departure_time":"7:25:00","lat":49.15696,"lon":16.37693,"is_passed":false},{"stop_id":"U14326Z1","name":"Neslovice, škola","arrival_time":"7:27:00","departure_time":"7:27:00","lat":49.145957,"lon":16.387267,"is_passed":false},{"stop_id":"U14325Z1","name":"Neslovice","arrival_time":"7:29:00","departure_time":"7:30:00","lat":49.14255,"lon":16.387508,"is_passed":false},{"stop_id":"U14320Z1","name":"Hlína, samota","arrival_time":"7:35:00","departure_time":"7:35:00","lat":49.123094,"lon":16.421006,"is_passed":false},{"stop_id":"U14319Z1","name":"Hlína","arrival_time":"7:37:00","departure_time":"8:09:00","lat":49.114511,"lon":16.427406,"is_passed":false}],"4991":[{"stop_id":"U14319Z11","name":"Hlína","arrival_time":"8:09:00","departure_time":"8:09:00","lat":49.114511,"lon":16.427406,"is_passed":false},{"stop_id":"U14320Z2","name":"Hlína, samota","arrival_time":"8:11:00","departure_time":"8:11:00","lat":49.123189,"lon":16.421014,"is_passed":false},{"stop_id":"U14325Z2","name":"Neslovice","arrival_time":"8:17:00","departure_time":"8:25:00","lat":49.142605,"lon":16.387307,"is_passed":false},{"stop_id":"U14326Z2","name":"Neslovice, škola","arrival_time":"8:26:00","departure_time":"8:26:00","lat":49.145858,"lon":16.387305,"is_passed":false},{"stop_id":"U14321Z2","name":"Kratochvilka","arrival_time":"8:29:00","departure_time":"8:29:00","lat":49.157147,"lon":16.376968,"is_passed":false},{"stop_id":"U14224Z2","name":"Babice u Rosic","arrival_time":"8:33:00","departure_time":"8:33:00","lat":49.171089,"lon":16.359275,"is_passed":false},{"stop_id":"U14242Z10","name":"Zastávka, železniční stanice","arrival_time":"8:37:00","departure_time":"8:37:00","lat":49.187164,"lon":16.360086,"is_passed":false}],"4992":[{"stop_id":"U14242Z4","name":"Zastávka, železniční stanice","arrival_time":"10:19:00","departure_time":"10:19:00","lat":49.187553,"lon":16.359243,"is_passed":false},{"stop_id":"U14224Z1","name":"Babice u Rosic","arrival_time":"10:22:00","departure_time":"10:22:00","lat":49.171094,"lon":16.359022,"is_passed":false},{"stop_id":"U14338Z1","name":"Zbýšov, Sička","arrival_time":"10:24:00","departure_time":"10:24:00","lat":49.166783,"lon":16.353281,"is_passed":false},{"stop_id":"U14335Z1","name":"Zbýšov, Jednota","arrival_time":"10:27:00","departure_time":"10:27:00","lat":49.161582,"lon":16.342693,"is_passed":false},{"stop_id":"U14330Z1","name":"Zakřany, Jednota","arrival_time":"10:30:00","departure_time":"10:30:00","lat":49.168713,"lon":16.331422,"is_passed":false},{"stop_id":"U14331Z1","name":"Zakřany, obecní úřad","arrival_time":"10:31:00","departure_time":"10:31:00","lat":49.170393,"lon":16.325588,"is_passed":false},{"stop_id":"U14332Z1","name":"Zakřany, ZD","arrival_time":"10:32:00","departure_time":"10:32:00","lat":49.169187,"lon":16.319818,"is_passed":false},{"stop_id":"U14324Z1","name":"Lukovany, u kapličky","arrival_time":"10:34:00","departure_time":"10:34:00","lat":49.163321,"lon":16.3027,"is_passed":false},{"stop_id":"U14322Z1","name":"Lukovany, na dolině","arrival_time":"10:35:00","departure_time":"10:35:00","lat":49.162995,"lon":16.299642,"is_passed":false},{"stop_id":"U14323Z1","name":"Lukovany, točna","arrival_time":"10:36:00","departure_time":"11:10:00","lat":49.163362,"lon":16.295969,"is_passed":false}],"4993":[{"stop_id":"U14323Z2","name":"Lukovany, točna","arrival_time":"11:10:00","departure_time":"11:10:00","lat":49.163362,"lon":16.295969,"is_passed":false},{"stop_id":"U14322Z2","name":"Lukovany, na dolině","arrival_time":"11:11:00","departure_time":"11:11:00","lat":49.162876,"lon":16.299755,"is_passed":false},{"stop_id":"U14324Z2","name":"Lukovany, u kapličky","arrival_time":"11:12:00","departure_time":"11:12:00","lat":49.163265,"lon":16.302909,"is_passed":false},{"stop_id":"U14332Z2","name":"Zakřany, ZD","arrival_time":"11:14:00","departure_time":"11:14:00","lat":49.169187,"lon":16.319818,"is_passed":false},{"stop_id":"U14331Z2","name":"Zakřany, obecní úřad","arrival_time":"11:16:00","departure_time":"11:16:00","lat":49.170265,"lon":16.325898,"is_passed":false},{"stop_id":"U14330Z2","name":"Zakřany, Jednota","arrival_time":"11:18:00","departure_time":"11:18:00","lat":49.168722,"lon":16.331437,"is_passed":false},{"stop_id":"U14335Z2","name":"Zbýšov, Jednota","arrival_time":"11:20:00","departure_time":"11:20:00","lat":49.161319,"lon":16.342814,"is_passed":false},{"stop_id":"U14338Z2","name":"Zbýšov, Sička","arrival_time":"11:24:00","departure_time":"11:24:00","lat":49.16693,"lon":16.353128,"is_passed":false},{"stop_id":"U14224Z2","name":"Babice u Rosic","arrival_time":"11:26:00","departure_time":"11:26:00","lat":49.171089,"lon":16.359275,"is_passed":false},{"stop_id":"U14242Z10","name":"Zastávka, železniční stanice","arrival_time":"11:32:00","departure_time":"11:49:00","lat":49.187164,"lon":16.360086,"is_passed":false}],"4994":[{"stop_id":"U14242Z4","name":"Zastávka, železniční stanice","arrival_time":"11:49:00","departure_time":"11:49:00","lat":49.187553,"lon":16.359243,"is_passed":false},{"stop_id":"U14224Z1","name":"Babice u Rosic","arrival_time":"11:52:00","departure_time":"11:52:00","lat":49.171094,"lon":16.359022,"is_passed":false},{"stop_id":"U14338Z1","name":"Zbýšov, Sička","arrival_time":"11:54:00","departure_time":"11:54:00","lat":49.166783,"lon":16.353281,"is_passed":false},{"stop_id":"U14335Z1","name":"Zbýšov, Jednota","arrival_time":"11:57:00","departure_time":"11:57:00","lat":49.161582,"lon":16.342693,"is_passed":false},{"stop_id":"U14330Z1","name":"Zakřany, Jednota","arrival_time":"12:00:00","departure_time":"12:00:00","lat":49.168713,"lon":16.331422,"is_passed":false},{"stop_id":"U14331Z1","name":"Zakřany, obecní úřad","arrival_time":"12:01:00","departure_time":"12:01:00","lat":49.170393,"lon":16.325588,"is_passed":false},{"stop_id":"U14332Z1","name":"Zakřany, ZD","arrival_time":"12:02:00","departure_time":"12:02:00","lat":49.169187,"lon":16.319818,"is_passed":false},{"stop_id":"U14324Z1","name":"Lukovany, u kapličky","arrival_time":"12:04:00","departure_time":"12:04:00","lat":49.163321,"lon":16.3027,"is_passed":false},{"stop_id":"U14322Z1","name":"Lukovany, na dolině","arrival_time":"12:05:00","departure_time":"12:05:00","lat":49.162995,"lon":16.299642,"is_passed":false},{"stop_id":"U14323Z1","name":"Lukovany, točna","arrival_time":"12:06:00","departure_time":"12:10:00","lat":49.163362,"lon":16.295969,"is_passed":false}],"4995":[{"stop_id":"U14323Z2","name":"Lukovany, točna","arrival_time":"12:10:00","departure_time":"12:10:00","lat":49.163362,"lon":16.295969,"is_passed":false},{"stop_id":"U14322Z2","name":"Lukovany, na dolině","arrival_time":"12:11:00","departure_time":"12:11:00","lat":49.162876,"lon":16.299755,"is_passed":false},{"stop_id":"U14324Z2","name":"Lukovany, u kapličky","arrival_time":"12:12:00","departure_time":"12:12:00","lat":49.163265,"lon":16.302909,"is_passed":false},{"stop_id":"U14332Z2","name":"Zakřany, ZD","arrival_time":"12:14:00","departure_time":"12:14:00","lat":49.169187,"lon":16.319818,"is_passed":false},{"stop_id":"U14331Z2","name":"Zakřany, obecní úřad","arrival_time":"12:16:00","departure_time":"12:16:00","lat":49.170265,"lon":16.325898,"is_passed":false},{"stop_id":"U14330Z2","name":"Zakřany, Jednota","arrival_time":"12:18:00","departure_time":"12:18:00","lat":49.168722,"lon":16.331437,"is_passed":false},{"stop_id":"U14335Z2","name":"Zbýšov, Jednota","arrival_time":"12:20:00","departure_time":"12:20:00","lat":49.161319,"lon":16.342814,"is_passed":false},{"stop_id":"U14338Z2","name":"Zbýšov, Sička","arrival_time":"12:24:00","departure_time":"12:24:00","lat":49.16693,"lon":16.353128,"is_passed":false},{"stop_id":"U14224Z2","name":"Babice u Rosic","arrival_time":"12:26:00","departure_time":"12:26:00","lat":49.171089,"lon":16.359275,"is_passed":false},{"stop_id":"U14242Z10","name":"Zastávka, železniční stanice","arrival_time":"12:32:00","departure_time":"13:19:00","lat":49.187164,"lon":16.360086,"is_passed":false}],"4996":[{"stop_id":"U14242Z4","name":"Zastávka, železniční stanice","arrival_time":"13:19:00","departure_time":"13:19:00","lat":49.187553,"lon":16.359243,"is_passed":false},{"stop_id":"U14224Z1","name":"Babice u Rosic","arrival_time":"13:22:00","departure_time":"13:22:00","lat":49.171094,"lon":16.359022,"is_passed":false},{"stop_id":"U14338Z1","name":"Zbýšov, Sička","arrival_time":"13:24:00","departure_time":"13:24:00","lat":49.166783,"lon":16.353281,"is_passed":false},{"stop_id":"U14335Z1","name":"Zbýšov, Jednota","arrival_time":"13:27:00","departure_time":"13:27:00","lat":49.161582,"lon":16.342693,"is_passed":false},{"stop_id":"U14330Z1","name":"Zakřany, Jednota","arrival_time":"13:30:00","departure_time":"13:30:00","lat":49.168713,"lon":16.331422,"is_passed":false},{"stop_id":"U14331Z1","name":"Zakřany, obecní úřad","arrival_time":"13:31:00","departure_time":"13:31:00","lat":49.170393,"lon":16.325588,"is_passed":false},{"stop_id":"U14332Z1","name":"Zakřany, ZD","arrival_time":"13:32:00","departure_time":"13:32:00","lat":49.169187,"lon":16.319818,"is_passed":false},{"stop_id":"U14324Z1","name":"Lukovany, u kapličky","arrival_time":"13:34:00","departure_time":"13:34:00","lat":49.163321,"lon":16.3027,"is_passed":false},{"stop_id":"U14322Z1","name":"Lukovany, na dolině","arrival_time":"13:35:00","departure_time":"13:35:00","lat":49.162995,"lon":16.299642,"is_passed":false},{"stop_id":"U14323Z1","name":"Lukovany, točna","arrival_time":"13:36:00","departure_time":"14:10:00","lat":49.163362,"lon":16.295969,"is_passed":false}],"4997":[{"stop_id":"U14323Z2","name":"Lukovany, točna","arrival_time":"14:10:00","departure_time":"14:10:00","lat":49.163362,"lon":16.295969,"is_passed":false},{"stop_id":"U14322Z2","name":"Lukovany, na dolině","arrival_time":"14:11:00","departure_time":"14:11:00","lat":49.162876,"lon":16.299755,"is_passed":false},{"stop_id":"U14324Z2","name":"Lukovany, u kapličky","arrival_time":"14:12:00","departure_time":"14:12:00","lat":49.163265,"lon":16.302909,"is_passed":false},{"stop_id":"U14332Z2","name":"Zakřany, ZD","arrival_time":"14:14:00","departure_time":"14:14:00","lat":49.169187,"lon":16.319818,"is_passed":false},{"stop_id":"U14331Z2","name":"Zakřany, obecní úřad","arrival_time":"14:16:00","departure_time":"14:16:00","lat":49.170265,"lon":16.325898,"is_passed":false},{"stop_id":"U14330Z2","name":"Zakřany, Jednota","arrival_time":"14:18:00","departure_time":"14:18:00","lat":49.168722,"lon":16.331437,"is_passed":false},{"stop_id":"U14335Z2","name":"Zbýšov, Jednota","arrival_time":"14:20:00","departure_time":"14:20:00","lat":49.161319,"lon":16.342814,"is_passed":false},{"stop_id":"U14338Z2","name":"Zbýšov, Sička","arrival_time":"14:24:00","departure_time":"14:24:00","lat":49.16693,"lon":16.353128,"is_passed":false},{"stop_id":"U14224Z2","name":"Babice u Rosic","arrival_time":"14:26:00","departure_time":"14:26:00","lat":49.171089,"lon":16.359275,"is_passed":false},{"stop_id":"U14242Z10","name":"Zastávka, železniční stanice","arrival_time":"14:32:00","departure_time":"14:49:00","lat":49.187164,"lon":16.360086,"is_passed":false}],"4998":[{"stop_id":"U14242Z4","name":"Zastávka, železniční stanice","arrival_time":"14:49:00","departure_time":"14:49:00","lat":49.187553,"lon":16.359243,"is_passed":false},{"stop_id":"U14224Z1","name":"Babice u Rosic","arrival_time":"14:52:00","departure_time":"14:52:00","lat":49.171094,"lon":16.359022,"is_passed":false},{"stop_id":"U14338Z1","name":"Zbýšov, Sička","arrival_time":"14:54:00","departure_time":"14:54:00","lat":49.166783,"lon":16.353281,"is_passed":false},{"stop_id":"U14335Z1","name":"Zbýšov, Jednota","arrival_time":"14:57:00","departure_time":"14:57:00","lat":49.161582,"lon":16.342693,"is_passed":false},{"stop_id":"U14330Z1","name":"Zakřany, Jednota","arrival_time":"15:00:00","departure_time":"15:00:00","lat":49.168713,"lon":16.331422,"is_passed":false},{"stop_id":"U14331Z1","name":"Zakřany, obecní úřad","arrival_time":"15:01:00","departure_time":"15:01:00","lat":49.170393,"lon":16.325588,"is_passed":false},{"stop_id":"U14332Z1","name":"Zakřany, ZD","arrival_time":"15:02:00","departure_time":"15:02:00","lat":49.169187,"lon":16.319818,"is_passed":false},{"stop_id":"U14324Z1","name":"Lukovany, u kapličky","arrival_time":"15:04:00","departure_time":"15:04:00","lat":49.163321,"lon":16.3027,"is_passed":false},{"stop_id":"U14322Z1","name":"Lukovany, na dolině","arrival_time":"15:05:00","departure_time":"15:05:00","lat":49.162995,"lon":16.299642,"is_passed":false},{"stop_id":"U14323Z1","name":"Lukovany, točna","arrival_time":"15:06:00","departure_time":"15:10:00","lat":49.163362,"lon":16.295969,"is_passed":false}],"4999":[{"stop_id":"U14323Z2","name":"Lukovany, točna","arrival_time":"15:10:00","departure_time":"15:10:00","lat":49.163362,"lon":16.295969,"is_passed":false},{"stop_id":"U14322Z2","name":"Lukovany, na dolině","arrival_time":"15:11:00","departure_time":"15:11:00","lat":49.162876,"lon":16.299755,"is_passed":false},{"stop_id":"U14324Z2","name":"Lukovany, u kapličky","arrival_time":"15:12:00","departure_time":"15:12:00","lat":49.163265,"lon":16.302909,"is_passed":false},{"stop_id":"U14332Z2","name":"Zakřany, ZD","arrival_time":"15:14:00","departure_time":"15:14:00","lat":49.169187,"lon":16.319818,"is_passed":false},{"stop_id":"U14331Z2","name":"Zakřany, obecní úřad","arrival_time":"15:16:00","departure_time":"15:16:00","lat":49.170265,"lon":16.325898,"is_passed":false},{"stop_id":"U14330Z2","name":"Zakřany, Jednota","arrival_time":"15:18:00","departure_time":"15:18:00","lat":49.168722,"lon":16.331437,"is_passed":false},{"stop_id":"U14335Z2","name":"Zbýšov, Jednota","arrival_time":"15:20:00","departure_time":"15:20:00","lat":49.161319,"lon":16.342814,"is_passed":false},{"stop_id":"U14338Z2","name":"Zbýšov, Sička","arrival_time":"15:24:00","departure_time":"15:24:00","lat":49.16693,"lon":16.353128,"is_passed":false},{"stop_id":"U14224Z2","name":"Babice u Rosic","arrival_time":"15:26:00","departure_time":"15:26:00","lat":49.171089,"lon":16.359275,"is_passed":false},{"stop_id":"U14242Z10","name":"Zastávka, železniční stanice","arrival_time":"15:32:00","departure_time":"15:32:00","lat":49.187164,"lon":16.360086,"is_passed":false}],"49900":[{"stop_id":"U1037Z2","name":"Bosonohy","arrival_time":"9:12:00","departure_time":"9:12:00","lat":49.176372,"lon":16.525514,"is_passed":false},{"stop_id":"U1161Z2","name":"Hoštická","arrival_time":"9:13:00","departure_time":"9:13:00","lat":49.173917,"lon":16.527822,"is_passed":false},{"stop_id":"U1516Z1","name":"Pražská","arrival_time":"9:14:00","departure_time":"9:14:00","lat":49.173478,"lon":16.531543,"is_passed":false},{"stop_id":"U1568Z2","name":"Skalní","arrival_time":"9:15:00","departure_time":"9:15:00","lat":49.174201,"lon":16.537903,"is_passed":false},{"stop_id":"U1202Z2","name":"Jemelkova","arrival_time":"9:16:00","departure_time":"9:16:00","lat":49.173163,"lon":16.54872,"is_passed":false},{"stop_id":"U1616Z4","name":"Starý Lískovec, smyčka","arrival_time":"9:18:00","departure_time":"9:18:00","lat":49.170615,"lon":16.55427,"is_passed":false},{"stop_id":"U1687Z2","name":"U hřiště","arrival_time":"9:19:00","departure_time":"9:19:00","lat":49.165806,"lon":16.558562,"is_passed":false},{"stop_id":"U1666Z2","name":"Točná","arrival_time":"9:20:00","departure_time":"9:20:00","lat":49.164745,"lon":16.561481,"is_passed":false},{"stop_id":"U1061Z2","name":"Čermákova","arrival_time":"9:21:00","departure_time":"9:21:00","lat":49.164349,"lon":16.564689,"is_passed":false},{"stop_id":"U1627Z2","name":"Svah","arrival_time":"9:21:00","departure_time":"9:21:00","lat":49.164924,"lon":16.567717,"is_passed":false},{"stop_id":"U1273Z1","name":"Kosmonautů","arrival_time":"9:22:00","departure_time":"9:22:00","lat":49.167006,"lon":16.568017,"is_passed":false},{"stop_id":"U1472Z7","name":"Osová","arrival_time":"9:23:00","departure_time":"9:23:00","lat":49.168951,"lon":16.566714,"is_passed":false},{"stop_id":"U1492Z1","name":"Pod nemocnicí","arrival_time":"9:24:00","departure_time":"9:24:00","lat":49.172412,"lon":16.569624,"is_passed":false},{"stop_id":"U1429Z4","name":"Nemocnice Bohunice","arrival_time":"9:26:00","departure_time":"9:26:00","lat":49.176125,"lon":16.567246,"is_passed":false},{"stop_id":"U1610Z2","name":"Stará nemocnice","arrival_time":"9:29:00","departure_time":"9:29:00","lat":49.173436,"lon":16.577787,"is_passed":false},{"stop_id":"U1293Z6","name":"Krematorium","arrival_time":"9:30:00","departure_time":"9:30:00","lat":49.172826,"lon":16.590375,"is_passed":false},{"stop_id":"U1703Z6","name":"Ústřední hřbitov","arrival_time":"9:32:00","departure_time":"9:32:00","lat":49.170744,"lon":16.597612,"is_passed":false}],"49901":[{"stop_id":"U1703Z6","name":"Ústřední hřbitov","arrival_time":"9:32:00","departure_time":"9:32:00","lat":49.170744,"lon":16.597612,"is_passed":false},{"stop_id":"U1673Z1","name":"Traťová","arrival_time":"9:33:00","departure_time":"9:33:00","lat":49.163849,"lon":16.595255,"is_passed":false},{"stop_id":"U1122Z1","name":"Gruzínská","arrival_time":"9:35:00","departure_time":"9:35:00","lat":49.167041,"lon":16.586433,"is_passed":false},{"stop_id":"U1701Z1","name":"Ukrajinská","arrival_time":"9:36:00","departure_time":"9:36:00","lat":49.170325,"lon":16.585437,"is_passed":false},{"stop_id":"U1714Z2","name":"Uzbecká","arrival_time":"9:37:00","departure_time":"9:37:00","lat":49.172173,"lon":16.583374,"is_passed":false},{"stop_id":"U1411Z2","name":"Mýtná","arrival_time":"9:38:00","departure_time":"9:38:00","lat":49.175186,"lon":16.582128,"is_passed":false},{"stop_id":"U1222Z4","name":"Kamenice","arrival_time":"9:39:00","departure_time":"9:39:00","lat":49.177782,"lon":16.57232,"is_passed":false},{"stop_id":"U1699Z4","name":"Univerzitní kampus","arrival_time":"9:40:00","departure_time":"9:40:00","lat":49.17846,"lon":16.567533,"is_passed":false},{"stop_id":"U1624Z2","name":"Studentská","arrival_time":"9:41:00","departure_time":"9:41:00","lat":49.179291,"lon":16.570244,"is_passed":false},{"stop_id":"U1699Z2","name":"Univerzitní kampus","arrival_time":"9:43:00","departure_time":"9:43:00","lat":49.177455,"lon":16.567173,"is_passed":false},{"stop_id":"U1429Z5","name":"Nemocnice Bohunice","arrival_time":"9:44:00","departure_time":"9:44:00","lat":49.175206,"lon":16.56694,"is_passed":false},{"stop_id":"U1492Z2","name":"Pod nemocnicí","arrival_time":"9:46:00","departure_time":"9:46:00","lat":49.172338,"lon":16.569417,"is_passed":false},{"stop_id":"U1472Z8","name":"Osová","arrival_time":"9:47:00","departure_time":"9:47:00","lat":49.168617,"lon":16.566306,"is_passed":false},{"stop_id":"U1273Z2","name":"Kosmonautů","arrival_time":"9:47:00","departure_time":"9:47:00","lat":49.167124,"lon":16.56745,"is_passed":false},{"stop_id":"U1627Z1","name":"Svah","arrival_time":"9:48:00","departure_time":"9:48:00","lat":49.165199,"lon":16.567969,"is_passed":false},{"stop_id":"U1061Z1","name":"Čermákova","arrival_time":"9:48:00","departure_time":"9:48:00","lat":49.164336,"lon":16.565516,"is_passed":false},{"stop_id":"U1666Z1","name":"Točná","arrival_time":"9:49:00","departure_time":"9:49:00","lat":49.16476,"lon":16.561692,"is_passed":false},{"stop_id":"U1687Z1","name":"U hřiště","arrival_time":"9:50:00","departure_time":"9:50:00","lat":49.166214,"lon":16.558668,"is_passed":false},{"stop_id":"U1097Z5","name":"Dunajská","arrival_time":"9:51:00","departure_time":"9:51:00","lat":49.169618,"lon":16.555308,"is_passed":false},{"stop_id":"U1616Z5","name":"Starý Lískovec, smyčka","arrival_time":"9:52:00","departure_time":"9:52:00","lat":49.172309,"lon":16.553313,"is_passed":false},{"stop_id":"U1202Z1","name":"Jemelkova","arrival_time":"9:53:00","departure_time":"9:53:00","lat":49.173333,"lon":16.548692,"is_passed":false},{"stop_id":"U1568Z1","name":"Skalní","arrival_time":"9:55:00","departure_time":"9:55:00","lat":49.174278,"lon":16.534362,"is_passed":false},{"stop_id":"U1161Z1","name":"Hoštická","arrival_time":"9:56:00","departure_time":"9:56:00","lat":49.173864,"lon":16.528044,"is_passed":false},{"stop_id":"U1037Z1","name":"Bosonohy","arrival_time":"9:58:00","departure_time":"10:32:00","lat":49.17652,"lon":16.525792,"is_passed":false}],"49902":[{"stop_id":"U1037Z2","name":"Bosonohy","arrival_time":"10:32:00","departure_time":"10:32:00","lat":49.176372,"lon":16.525514,"is_passed":false},{"stop_id":"U1161Z2","name":"Hoštická","arrival_time":"10:33:00","departure_time":"10:33:00","lat":49.173917,"lon":16.527822,"is_passed":false},{"stop_id":"U1516Z1","name":"Pražská","arrival_time":"10:34:00","departure_time":"10:34:00","lat":49.173478,"lon":16.531543,"is_passed":false},{"stop_id":"U1568Z2","name":"Skalní","arrival_time":"10:35:00","departure_time":"10:35:00","lat":49.174201,"lon":16.537903,"is_passed":false},{"stop_id":"U1202Z2","name":"Jemelkova","arrival_time":"10:36:00","departure_time":"10:36:00","lat":49.173163,"lon":16.54872,"is_passed":false},{"stop_id":"U1616Z4","name":"Starý Lískovec, smyčka","arrival_time":"10:38:00","departure_time":"10:38:00","lat":49.170615,"lon":16.55427,"is_passed":false},{"stop_id":"U1687Z2","name":"U hřiště","arrival_time":"10:39:00","departure_time":"10:39:00","lat":49.165806,"lon":16.558562,"is_passed":false},{"stop_id":"U1666Z2","name":"Točná","arrival_time":"10:40:00","departure_time":"10:40:00","lat":49.164745,"lon":16.561481,"is_passed":false},{"stop_id":"U1061Z2","name":"Čermákova","arrival_time":"10:41:00","departure_time":"10:41:00","lat":49.164349,"lon":16.564689,"is_passed":false},{"stop_id":"U1627Z2","name":"Svah","arrival_time":"10:41:00","departure_time":"10:41:00","lat":49.164924,"lon":16.567717,"is_passed":false},{"stop_id":"U1273Z1","name":"Kosmonautů","arrival_time":"10:42:00","departure_time":"10:42:00","lat":49.167006,"lon":16.568017,"is_passed":false},{"stop_id":"U1472Z7","name":"Osová","arrival_time":"10:43:00","departure_time":"10:43:00","lat":49.168951,"lon":16.566714,"is_passed":false},{"stop_id":"U1492Z1","name":"Pod nemocnicí","arrival_time":"10:44:00","departure_time":"10:44:00","lat":49.172412,"lon":16.569624,"is_passed":false},{"stop_id":"U1429Z4","name":"Nemocnice Bohunice","arrival_time":"10:46:00","departure_time":"10:46:00","lat":49.176125,"lon":16.567246,"is_passed":false},{"stop_id":"U1610Z2","name":"Stará nemocnice","arrival_time":"10:49:00","departure_time":"10:49:00","lat":49.173436,"lon":16.577787,"is_passed":false},{"stop_id":"U1293Z6","name":"Krematorium","arrival_time":"10:50:00","departure_time":"10:50:00","lat":49.172826,"lon":16.590375,"is_passed":false},{"stop_id":"U1703Z6","name":"Ústřední hřbitov","arrival_time":"10:52:00","departure_time":"10:52:00","lat":49.170744,"lon":16.597612,"is_passed":false}],"49903":[{"stop_id":"U1703Z6","name":"Ústřední hřbitov","arrival_time":"10:52:00","departure_time":"10:52:00","lat":49.170744,"lon":16.597612,"is_passed":false},{"stop_id":"U1673Z1","name":"Traťová","arrival_time":"10:53:00","departure_time":"10:53:00","lat":49.163849,"lon":16.595255,"is_passed":false},{"stop_id":"U1122Z1","name":"Gruzínská","arrival_time":"10:55:00","departure_time":"10:55:00","lat":49.167041,"lon":16.586433,"is_passed":false},{"stop_id":"U1701Z1","name":"Ukrajinská","arrival_time":"10:56:00","departure_time":"10:56:00","lat":49.170325,"lon":16.585437,"is_passed":false},{"stop_id":"U1714Z2","name":"Uzbecká","arrival_time":"10:57:00","departure_time":"10:57:00","lat":49.172173,"lon":16.583374,"is_passed":false},{"stop_id":"U1411Z2","name":"Mýtná","arrival_time":"10:58:00","departure_time":"10:58:00","lat":49.175186,"lon":16.582128,"is_passed":false},{"stop_id":"U1222Z4","name":"Kamenice","arrival_time":"10:59:00","departure_time":"10:59:00","lat":49.177782,"lon":16.57232,"is_passed":false},{"stop_id":"U1699Z4","name":"Univerzitní kampus","arrival_time":"11:00:00","departure_time":"11:00:00","lat":49.17846,"lon":16.567533,"is_passed":false},{"stop_id":"U1624Z2","name":"Studentská","arrival_time":"11:01:00","departure_time":"11:01:00","lat":49.179291,"lon":16.570244,"is_passed":false},{"stop_id":"U1699Z2","name":"Univerzitní kampus","arrival_time":"11:03:00","departure_time":"11:03:00","lat":49.177455,"lon":16.567173,"is_passed":false},{"stop_id":"U1429Z5","name":"Nemocnice Bohunice","arrival_time":"11:04:00","departure_time":"11:04:00","lat":49.175206,"lon":16.56694,"is_passed":false},{"stop_id":"U1492Z2","name":"Pod nemocnicí","arrival_time":"11:06:00","departure_time":"11:06:00","lat":49.172338,"lon":16.569417,"is_passed":false},{"stop_id":"U1472Z8","name":"Osová","arrival_time":"11:07:00","departure_time":"11:07:00","lat":49.168617,"lon":16.566306,"is_passed":false},{"stop_id":"U1273Z2","name":"Kosmonautů","arrival_time":"11:07:00","departure_time":"11:07:00","lat":49.167124,"lon":16.56745,"is_passed":false},{"stop_id":"U1627Z1","name":"Svah","arrival_time":"11:08:00","departure_time":"11:08:00","lat":49.165199,"lon":16.567969,"is_passed":false},{"stop_id":"U1061Z1","name":"Čermákova","arrival_time":"11:08:00","departure_time":"11:08:00","lat":49.164336,"lon":16.565516,"is_passed":false},{"stop_id":"U1666Z1","name":"Točná","arrival_time":"11:09:00","departure_time":"11:09:00","lat":49.16476,"lon":16.561692,"is_passed":false},{"stop_id":"U1687Z1","name":"U hřiště","arrival_time":"11:10:00","departure_time":"11:10:00","lat":49.166214,"lon":16.558668,"is_passed":false},{"stop_id":"U1097Z5","name":"Dunajská","arrival_time":"11:11:00","departure_time":"11:11:00","lat":49.169618,"lon":16.555308,"is_passed":false},{"stop_id":"U1616Z5","name":"Starý Lískovec, smyčka","arrival_time":"11:12:00","departure_time":"11:12:00","lat":49.172309,"lon":16.553313,"is_passed":false},{"stop_id":"U1202Z1","name":"Jemelkova","arrival_time":"11:13:00","departure_time":"11:13:00","lat":49.173333,"lon":16.548692,"is_passed":false},{"stop_id":"U1568Z1","name":"Skalní","arrival_time":"11:15:00","departure_time":"11:15:00","lat":49.174278,"lon":16.534362,"is_passed":false},{"stop_id":"U1161Z1","name":"Hoštická","arrival_time":"11:16:00","departure_time":"11:16:00","lat":49.173864,"lon":16.528044,"is_passed":false},{"stop_id":"U1037Z1","name":"Bosonohy","arrival_time":"11:18:00","departure_time":"11:52:00","lat":49.17652,"lon":16.525792,"is_passed":false}],"49904":[{"stop_id":"U1037Z2","name":"Bosonohy","arrival_time":"11:52:00","departure_time":"11:52:00","lat":49.176372,"lon":16.525514,"is_passed":false},{"stop_id":"U1161Z2","name":"Hoštická","arrival_time":"11:53:00","departure_time":"11:53:00","lat":49.173917,"lon":16.527822,"is_passed":false},{"stop_id":"U1516Z1","name":"Pražská","arrival_time":"11:54:00","departure_time":"11:54:00","lat":49.173478,"lon":16.531543,"is_passed":false},{"stop_id":"U1568Z2","name":"Skalní","arrival_time":"11:55:00","departure_time":"11:55:00","lat":49.174201,"lon":16.537903,"is_passed":false},{"stop_id":"U1202Z2","name":"Jemelkova","arrival_time":"11:56:00","departure_time":"11:56:00","lat":49.173163,"lon":16.54872,"is_passed":false},{"stop_id":"U1616Z4","name":"Starý Lískovec, smyčka","arrival_time":"11:58:00","departure_time":"11:58:00","lat":49.170615,"lon":16.55427,"is_passed":false},{"stop_id":"U1687Z2","name":"U hřiště","arrival_time":"11:59:00","departure_time":"11:59:00","lat":49.165806,"lon":16.558562,"is_passed":false},{"stop_id":"U1666Z2","name":"Točná","arrival_time":"12:00:00","departure_time":"12:00:00","lat":49.164745,"lon":16.561481,"is_passed":false},{"stop_id":"U1061Z2","name":"Čermákova","arrival_time":"12:01:00","departure_time":"12:01:00","lat":49.164349,"lon":16.564689,"is_passed":false},{"stop_id":"U1627Z2","name":"Svah","arrival_time":"12:01:00","departure_time":"12:01:00","lat":49.164924,"lon":16.567717,"is_passed":false},{"stop_id":"U1273Z1","name":"Kosmonautů","arrival_time":"12:02:00","departure_time":"12:02:00","lat":49.167006,"lon":16.568017,"is_passed":false},{"stop_id":"U1472Z7","name":"Osová","arrival_time":"12:03:00","departure_time":"12:03:00","lat":49.168951,"lon":16.566714,"is_passed":false},{"stop_id":"U1492Z1","name":"Pod nemocnicí","arrival_time":"12:04:00","departure_time":"12:04:00","lat":49.172412,"lon":16.569624,"is_passed":false},{"stop_id":"U1429Z4","name":"Nemocnice Bohunice","arrival_time":"12:06:00","departure_time":"12:06:00","lat":49.176125,"lon":16.567246,"is_passed":false},{"stop_id":"U1610Z2","name":"Stará nemocnice","arrival_time":"12:09:00","departure_time":"12:09:00","lat":49.173436,"lon":16.577787,"is_passed":false},{"stop_id":"U1293Z6","name":"Krematorium","arrival_time":"12:10:00","departure_time":"12:10:00","lat":49.172826,"lon":16.590375,"is_passed":false},{"stop_id":"U1703Z6","name":"Ústřední hřbitov","arrival_time":"12:12:00","departure_time":"12:12:00","lat":49.170744,"lon":16.597612,"is_passed":false}],"49905":[{"stop_id":"U1703Z6","name":"Ústřední hřbitov","arrival_time":"12:12:00","departure_time":"12:12:00","lat":49.170744,"lon":16.597612,"is_passed":false},{"stop_id":"U1673Z1","name":"Traťová","arrival_time":"12:13:00","departure_time":"12:13:00","lat":49.163849,"lon":16.595255,"is_passed":false},{"stop_id":"U1122Z1","name":"Gruzínská","arrival_time":"12:15:00","departure_time":"12:15:00","lat":49.167041,"lon":16.586433,"is_passed":false},{"stop_id":"U1701Z1","name":"Ukrajinská","arrival_time":"12:16:00","departure_time":"12:16:00","lat":49.170325,"lon":16.585437,"is_passed":false},{"stop_id":"U1714Z2","name":"Uzbecká","arrival_time":"12:17:00","departure_time":"12:17:00","lat":49.172173,"lon":16.583374,"is_passed":false},{"stop_id":"U1411Z2","name":"Mýtná","arrival_time":"12:18:00","departure_time":"12:18:00","lat":49.175186,"lon":16.582128,"is_passed":false},{"stop_id":"U1222Z4","name":"Kamenice","arrival_time":"12:19:00","departure_time":"12:19:00","lat":49.177782,"lon":16.57232,"is_passed":false},{"stop_id":"U1699Z4","name":"Univerzitní kampus","arrival_time":"12:20:00","departure_time":"12:20:00","lat":49.17846,"lon":16.567533,"is_passed":false},{"stop_id":"U1624Z2","name":"Studentská","arrival_time":"12:21:00","departure_time":"12:21:00","lat":49.179291,"lon":16.570244,"is_passed":false},{"stop_id":"U1699Z2","name":"Univerzitní kampus","arrival_time":"12:23:00","departure_time":"12:23:00","lat":49.177455,"lon":16.567173,"is_passed":false},{"stop_id":"U1429Z5","name":"Nemocnice Bohunice","arrival_time":"12:24:00","departure_time":"12:24:00","lat":49.175206,"lon":16.56694,"is_passed":false},{"stop_id":"U1492Z2","name":"Pod nemocnicí","arrival_time":"12:26:00","departure_time":"12:26:00","lat":49.172338,"lon":16.569417,"is_passed":false},{"stop_id":"U1472Z8","name":"Osová","arrival_time":"12:27:00","departure_time":"12:27:00","lat":49.168617,"lon":16.566306,"is_passed":false},{"stop_id":"U1273Z2","name":"Kosmonautů","arrival_time":"12:27:00","departure_time":"12:27:00","lat":49.167124,"lon":16.56745,"is_passed":false},{"stop_id":"U1627Z1","name":"Svah","arrival_time":"12:28:00","departure_time":"12:28:00","lat":49.165199,"lon":16.567969,"is_passed":false},{"stop_id":"U1061Z1","name":"Čermákova","arrival_time":"12:28:00","departure_time":"12:28:00","lat":49.164336,"lon":16.565516,"is_passed":false},{"stop_id":"U1666Z1","name":"Točná","arrival_time":"12:29:00","departure_time":"12:29:00","lat":49.16476,"lon":16.561692,"is_passed":false},{"stop_id":"U1687Z1","name":"U hřiště","arrival_time":"12:30:00","departure_time":"12:30:00","lat":49.166214,"lon":16.558668,"is_passed":false},{"stop_id":"U1097Z5","name":"Dunajská","arrival_time":"12:31:00","departure_time":"12:31:00","lat":49.169618,"lon":16.555308,"is_passed":false},{"stop_id":"U1616Z5","name":"Starý Lískovec, smyčka","arrival_time":"12:32:00","departure_time":"12:32:00","lat":49.172309,"lon":16.553313,"is_passed":false},{"stop_id":"U1202Z1","name":"Jemelkova","arrival_time":"12:33:00","departure_time":"12:33:00","lat":49.173333,"lon":16.548692,"is_passed":false},{"stop_id":"U1568Z1","name":"Skalní","arrival_time":"12:35:00","departure_time":"12:35:00","lat":49.174278,"lon":16.534362,"is_passed":false},{"stop_id":"U1161Z1","name":"Hoštická","arrival_time":"12:36:00","departure_time":"12:36:00","lat":49.173864,"lon":16.528044,"is_passed":false},{"stop_id":"U1037Z1","name":"Bosonohy","arrival_time":"12:38:00","departure_time":"13:12:00","lat":49.17652,"lon":16.525792,"is_passed":false}],"49906":[{"stop_id":"U1037Z2","name":"Bosonohy","arrival_time":"13:12:00","departure_time":"13:12:00","lat":49.176372,"lon":16.525514,"is_passed":false},{"stop_id":"U1161Z2","name":"Hoštická","arrival_time":"13:13:00","departure_time":"13:13:00","lat":49.173917,"lon":16.527822,"is_passed":false},{"stop_id":"U1516Z1","name":"Pražská","arrival_time":"13:14:00","departure_time":"13:14:00","lat":49.173478,"lon":16.531543,"is_passed":false},{"stop_id":"U1568Z2","name":"Skalní","arrival_time":"13:15:00","departure_time":"13:15:00","lat":49.174201,"lon":16.537903,"is_passed":false},{"stop_id":"U1202Z2","name":"Jemelkova","arrival_time":"13:16:00","departure_time":"13:16:00","lat":49.173163,"lon":16.54872,"is_passed":false},{"stop_id":"U1616Z4","name":"Starý Lískovec, smyčka","arrival_time":"13:18:00","departure_time":"13:18:00","lat":49.170615,"lon":16.55427,"is_passed":false},{"stop_id":"U1687Z2","name":"U hřiště","arrival_time":"13:19:00","departure_time":"13:19:00","lat":49.165806,"lon":16.558562,"is_passed":false},{"stop_id":"U1666Z2","name":"Točná","arrival_time":"13:20:00","departure_time":"13:20:00","lat":49.164745,"lon":16.561481,"is_passed":false},{"stop_id":"U1061Z2","name":"Čermákova","arrival_time":"13:21:00","departure_time":"13:21:00","lat":49.164349,"lon":16.564689,"is_passed":false},{"stop_id":"U1627Z2","name":"Svah","arrival_time":"13:21:00","departure_time":"13:21:00","lat":49.164924,"lon":16.567717,"is_passed":false},{"stop_id":"U1273Z1","name":"Kosmonautů","arrival_time":"13:22:00","departure_time":"13:22:00","lat":49.167006,"lon":16.568017,"is_passed":false},{"stop_id":"U1472Z7","name":"Osová","arrival_time":"13:23:00","departure_time":"13:23:00","lat":49.168951,"lon":16.566714,"is_passed":false},{"stop_id":"U1492Z1","name":"Pod nemocnicí","arrival_time":"13:24:00","departure_time":"13:24:00","lat":49.172412,"lon":16.569624,"is_passed":false},{"stop_id":"U1429Z4","name":"Nemocnice Bohunice","arrival_time":"13:26:00","departure_time":"13:26:00","lat":49.176125,"lon":16.567246,"is_passed":false},{"stop_id":"U1610Z2","name":"Stará nemocnice","arrival_time":"13:29:00","departure_time":"13:29:00","lat":49.173436,"lon":16.577787,"is_passed":false},{"stop_id":"U1293Z6","name":"Krematorium","arrival_time":"13:30:00","departure_time":"13:30:00","lat":49.172826,"lon":16.590375,"is_passed":false},{"stop_id":"U1703Z6","name":"Ústřední hřbitov","arrival_time":"13:32:00","departure_time":"13:32:00","lat":49.170744,"lon":16.597612,"is_passed":false}],"49907":[{"stop_id":"U1703Z6","name":"Ústřední hřbitov","arrival_time":"13:32:00","departure_time":"13:32:00","lat":49.170744,"lon":16.597612,"is_passed":false},{"stop_id":"U1673Z1","name":"Traťová","arrival_time":"13:33:00","departure_time":"13:33:00","lat":49.163849,"lon":16.595255,"is_passed":false},{"stop_id":"U1122Z1","name":"Gruzínská","arrival_time":"13:35:00","departure_time":"13:35:00","lat":49.167041,"lon":16.586433,"is_passed":false},{"stop_id":"U1701Z1","name":"Ukrajinská","arrival_time":"13:36:00","departure_time":"13:36:00","lat":49.170325,"lon":16.585437,"is_passed":false},{"stop_id":"U1714Z2","name":"Uzbecká","arrival_time":"13:37:00","departure_time":"13:37:00","lat":49.172173,"lon":16.583374,"is_passed":false},{"stop_id":"U1411Z2","name":"Mýtná","arrival_time":"13:38:00","departure_time":"13:38:00","lat":49.175186,"lon":16.582128,"is_passed":false},{"stop_id":"U1222Z4","name":"Kamenice","arrival_time":"13:39:00","departure_time":"13:39:00","lat":49.177782,"lon":16.57232,"is_passed":false},{"stop_id":"U1699Z4","name":"Univerzitní kampus","arrival_time":"13:40:00","departure_time":"13:40:00","lat":49.17846,"lon":16.567533,"is_passed":false},{"stop_id":"U1624Z2","name":"Studentská","arrival_time":"13:41:00","departure_time":"13:41:00","lat":49.179291,"lon":16.570244,"is_passed":false},{"stop_id":"U1699Z2","name":"Univerzitní kampus","arrival_time":"13:43:00","departure_time":"13:43:00","lat":49.177455,"lon":16.567173,"is_passed":false},{"stop_id":"U1429Z5","name":"Nemocnice Bohunice","arrival_time":"13:44:00","departure_time":"13:44:00","lat":49.175206,"lon":16.56694,"is_passed":false},{"stop_id":"U1492Z2","name":"Pod nemocnicí","arrival_time":"13:46:00","departure_time":"13:46:00","lat":49.172338,"lon":16.569417,"is_passed":false},{"stop_id":"U1472Z8","name":"Osová","arrival_time":"13:47:00","departure_time":"13:47:00","lat":49.168617,"lon":16.566306,"is_passed":false},{"stop_id":"U1273Z2","name":"Kosmonautů","arrival_time":"13:47:00","departure_time":"13:47:00","lat":49.167124,"lon":16.56745,"is_passed":false},{"stop_id":"U1627Z1","name":"Svah","arrival_time":"13:48:00","departure_time":"13:48:00","lat":49.165199,"lon":16.567969,"is_passed":false},{"stop_id":"U1061Z1","name":"Čermákova","arrival_time":"13:48:00","departure_time":"13:48:00","lat":49.164336,"lon":16.565516,"is_passed":false},{"stop_id":"U1666Z1","name":"Točná","arrival_time":"13:49:00","departure_time":"13:49:00","lat":49.16476,"lon":16.561692,"is_passed":false},{"stop_id":"U1687Z1","name":"U hřiště","arrival_time":"13:50:00","departure_time":"13:50:00","lat":49.166214,"lon":16.558668,"is_passed":false},{"stop_id":"U1097Z5","name":"Dunajská","arrival_time":"13:51:00","departure_time":"13:51:00","lat":49.169618,"lon":16.555308,"is_passed":false},{"stop_id":"U1616Z5","name":"Starý Lískovec, smyčka","arrival_time":"13:52:00","departure_time":"13:52:00","lat":49.172309,"lon":16.553313,"is_passed":false},{"stop_id":"U1202Z1","name":"Jemelkova","arrival_time":"13:53:00","departure_time":"13:53:00","lat":49.173333,"lon":16.548692,"is_passed":false},{"stop_id":"U1568Z1","name":"Skalní","arrival_time":"13:55:00","departure_time":"13:55:00","lat":49.174278,"lon":16.534362,"is_passed":false},{"stop_id":"U1161Z1","name":"Hoštická","arrival_time":"13:56:00","departure_time":"13:56:00","lat":49.173864,"lon":16.528044,"is_passed":false},{"stop_id":"U1037Z1","name":"Bosonohy","arrival_time":"13:58:00","departure_time":"14:32:00","lat":49.17652,"lon":16.525792,"is_passed":false}],"49908":[{"stop_id":"U1037Z2","name":"Bosonohy","arrival_time":"14:32:00","departure_time":"14:32:00","lat":49.176372,"lon":16.525514,"is_passed":false},{"stop_id":"U1161Z2","name":"Hoštická","arrival_time":"14:33:00","departure_time":"14:33:00","lat":49.173917,"lon":16.527822,"is_passed":false},{"stop_id":"U1516Z1","name":"Pražská","arrival_time":"14:34:00","departure_time":"14:34:00","lat":49.173478,"lon":16.531543,"is_passed":false},{"stop_id":"U1568Z2","name":"Skalní","arrival_time":"14:35:00","departure_time":"14:35:00","lat":49.174201,"lon":16.537903,"is_passed":false},{"stop_id":"U1202Z2","name":"Jemelkova","arrival_time":"14:36:00","departure_time":"14:36:00","lat":49.173163,"lon":16.54872,"is_passed":false},{"stop_id":"U1616Z4","name":"Starý Lískovec, smyčka","arrival_time":"14:38:00","departure_time":"14:38:00","lat":49.170615,"lon":16.55427,"is_passed":false},{"stop_id":"U1687Z2","name":"U hřiště","arrival_time":"14:39:00","departure_time":"14:39:00","lat":49.165806,"lon":16.558562,"is_passed":false},{"stop_id":"U1666Z2","name":"Točná","arrival_time":"14:40:00","departure_time":"14:40:00","lat":49.164745,"lon":16.561481,"is_passed":false},{"stop_id":"U1061Z2","name":"Čermákova","arrival_time":"14:41:00","departure_time":"14:41:00","lat":49.164349,"lon":16.564689,"is_passed":false},{"stop_id":"U1627Z2","name":"Svah","arrival_time":"14:41:00","departure_time":"14:41:00","lat":49.164924,"lon":16.567717,"is_passed":false},{"stop_id":"U1273Z1","name":"Kosmonautů","arrival_time":"14:42:00","departure_time":"14:42:00","lat":49.167006,"lon":16.568017,"is_passed":false},{"stop_id":"U1472Z7","name":"Osová","arrival_time":"14:43:00","departure_time":"14:43:00","lat":49.168951,"lon":16.566714,"is_passed":false},{"stop_id":"U1492Z1","name":"Pod nemocnicí","arrival_time":"14:44:00","departure_time":"14:44:00","lat":49.172412,"lon":16.569624,"is_passed":false},{"stop_id":"U1429Z4","name":"Nemocnice Bohunice","arrival_time":"14:46:00","departure_time":"14:46:00","lat":49.176125,"lon":16.567246,"is_passed":false},{"stop_id":"U1610Z2","name":"Stará nemocnice","arrival_time":"14:49:00","departure_time":"14:49:00","lat":49.173436,"lon":16.577787,"is_passed":false},{"stop_id":"U1293Z6","name":"Krematorium","arrival_time":"14:50:00","departure_time":"14:50:00","lat":49.172826,"lon":16.590375,"is_passed":false},{"stop_id":"U1703Z6","name":"Ústřední hřbitov","arrival_time":"14:52:00","departure_time":"14:52:00","lat":49.170744,"lon":16.597612,"is_passed":false}],"49909":[{"stop_id":"U1703Z6","name":"Ústřední hřbitov","arrival_time":"14:52:00","departure_time":"14:52:00","lat":49.170744,"lon":16.597612,"is_passed":false},{"stop_id":"U1673Z1","name":"Traťová","arrival_time":"14:53:00","departure_time":"14:53:00","lat":49.163849,"lon":16.595255,"is_passed":false},{"stop_id":"U1122Z1","name":"Gruzínská","arrival_time":"14:55:00","departure_time":"14:55:00","lat":49.167041,"lon":16.586433,"is_passed":false},{"stop_id":"U1701Z1","name":"Ukrajinská","arrival_time":"14:56:00","departure_time":"14:56:00","lat":49.170325,"lon":16.585437,"is_passed":false},{"stop_id":"U1714Z2","name":"Uzbecká","arrival_time":"14:57:00","departure_time":"14:57:00","lat":49.172173,"lon":16.583374,"is_passed":false},{"stop_id":"U1411Z2","name":"Mýtná","arrival_time":"14:58:00","departure_time":"14:58:00","lat":49.175186,"lon":16.582128,"is_passed":false},{"stop_id":"U1222Z4","name":"Kamenice","arrival_time":"14:59:00","departure_time":"14:59:00","lat":49.177782,"lon":16.57232,"is_passed":false},{"stop_id":"U1699Z4","name":"Univerzitní kampus","arrival_time":"15:00:00","departure_time":"15:00:00","lat":49.17846,"lon":16.567533,"is_passed":false},{"stop_id":"U1624Z2","name":"Studentská","arrival_time":"15:01:00","departure_time":"15:01:00","lat":49.179291,"lon":16.570244,"is_passed":false},{"stop_id":"U1699Z2","name":"Univerzitní kampus","arrival_time":"15:03:00","departure_time":"15:03:00","lat":49.177455,"lon":16.567173,"is_passed":false},{"stop_id":"U1429Z5","name":"Nemocnice Bohunice","arrival_time":"15:04:00","departure_time":"15:04:00","lat":49.175206,"lon":16.56694,"is_passed":false},{"stop_id":"U1492Z2","name":"Pod nemocnicí","arrival_time":"15:06:00","departure_time":"15:06:00","lat":49.172338,"lon":16.569417,"is_passed":false},{"stop_id":"U1472Z8","name":"Osová","arrival_time":"15:07:00","departure_time":"15:07:00","lat":49.168617,"lon":16.566306,"is_passed":false},{"stop_id":"U1273Z2","name":"Kosmonautů","arrival_time":"15:07:00","departure_time":"15:07:00","lat":49.167124,"lon":16.56745,"is_passed":false},{"stop_id":"U1627Z1","name":"Svah","arrival_time":"15:08:00","departure_time":"15:08:00","lat":49.165199,"lon":16.567969,"is_passed":false},{"stop_id":"U1061Z1","name":"Čermákova","arrival_time":"15:08:00","departure_time":"15:08:00","lat":49.164336,"lon":16.565516,"is_passed":false},{"stop_id":"U1666Z1","name":"Točná","arrival_time":"15:09:00","departure_time":"15:09:00","lat":49.16476,"lon":16.561692,"is_passed":false},{"stop_id":"U1687Z1","name":"U hřiště","arrival_time":"15:10:00","departure_time":"15:10:00","lat":49.166214,"lon":16.558668,"is_passed":false},{"stop_id":"U1097Z5","name":"Dunajská","arrival_time":"15:11:00","departure_time":"15:11:00","lat":49.169618,"lon":16.555308,"is_passed":false},{"stop_id":"U1616Z5","name":"Starý Lískovec, smyčka","arrival_time":"15:12:00","departure_time":"15:12:00","lat":49.172309,"lon":16.553313,"is_passed":false},{"stop_id":"U1202Z1","name":"Jemelkova","arrival_time":"15:13:00","departure_time":"15:13:00","lat":49.173333,"lon":16.548692,"is_passed":false},{"stop_id":"U1568Z1","name":"Skalní","arrival_time":"15:15:00","departure_time":"15:15:00","lat":49.174278,"lon":16.534362,"is_passed":false},{"stop_id":"U1161Z1","name":"Hoštická","arrival_time":"15:16:00","departure_time":"15:16:00","lat":49.173864,"lon":16.528044,"is_passed":false},{"stop_id":"U1037Z1","name":"Bosonohy","arrival_time":"15:18:00","departure_time":"15:52:00","lat":49.17652,"lon":16.525792,"is_passed":false}],"49910":[{"stop_id":"U1037Z2","name":"Bosonohy","arrival_time":"15:52:00","departure_time":"15:52:00","lat":49.176372,"lon":16.525514,"is_passed":false},{"stop_id":"U1161Z2","name":"Hoštická","arrival_time":"15:53:00","departure_time":"15:53:00","lat":49.173917,"lon":16.527822,"is_passed":false},{"stop_id":"U1516Z1","name":"Pražská","arrival_time":"15:54:00","departure_time":"15:54:00","lat":49.173478,"lon":16.531543,"is_passed":false},{"stop_id":"U1568Z2","name":"Skalní","arrival_time":"15:55:00","departure_time":"15:55:00","lat":49.174201,"lon":16.537903,"is_passed":false},{"stop_id":"U1202Z2","name":"Jemelkova","arrival_time":"15:56:00","departure_time":"15:56:00","lat":49.173163,"lon":16.54872,"is_passed":false},{"stop_id":"U1616Z4","name":"Starý Lískovec, smyčka","arrival_time":"15:58:00","departure_time":"15:58:00","lat":49.170615,"lon":16.55427,"is_passed":false},{"stop_id":"U1687Z2","name":"U hřiště","arrival_time":"15:59:00","departure_time":"15:59:00","lat":49.165806,"lon":16.558562,"is_passed":false},{"stop_id":"U1666Z2","name":"Točná","arrival_time":"16:00:00","departure_time":"16:00:00","lat":49.164745,"lon":16.561481,"is_passed":false},{"stop_id":"U1061Z2","name":"Čermákova","arrival_time":"16:01:00","departure_time":"16:01:00","lat":49.164349,"lon":16.564689,"is_passed":false},{"stop_id":"U1627Z2","name":"Svah","arrival_time":"16:01:00","departure_time":"16:01:00","lat":49.164924,"lon":16.567717,"is_passed":false},{"stop_id":"U1273Z1","name":"Kosmonautů","arrival_time":"16:02:00","departure_time":"16:02:00","lat":49.167006,"lon":16.568017,"is_passed":false},{"stop_id":"U1472Z7","name":"Osová","arrival_time":"16:03:00","departure_time":"16:03:00","lat":49.168951,"lon":16.566714,"is_passed":false},{"stop_id":"U1492Z1","name":"Pod nemocnicí","arrival_time":"16:04:00","departure_time":"16:04:00","lat":49.172412,"lon":16.569624,"is_passed":false},{"stop_id":"U1429Z4","name":"Nemocnice Bohunice","arrival_time":"16:06:00","departure_time":"16:06:00","lat":49.176125,"lon":16.567246,"is_passed":false},{"stop_id":"U1610Z2","name":"Stará nemocnice","arrival_time":"16:09:00","departure_time":"16:09:00","lat":49.173436,"lon":16.577787,"is_passed":false},{"stop_id":"U1293Z6","name":"Krematorium","arrival_time":"16:10:00","departure_time":"16:10:00","lat":49.172826,"lon":16.590375,"is_passed":false},{"stop_id":"U1703Z6","name":"Ústřední hřbitov","arrival_time":"16:12:00","departure_time":"16:12:00","lat":49.170744,"lon":16.597612,"is_passed":false}],"49911":[{"stop_id":"U1703Z6","name":"Ústřední hřbitov","arrival_time":"16:12:00","departure_time":"16:12:00","lat":49.170744,"lon":16.597612,"is_passed":false},{"stop_id":"U1673Z1","name":"Traťová","arrival_time":"16:13:00","departure_time":"16:13:00","lat":49.163849,"lon":16.595255,"is_passed":false},{"stop_id":"U1122Z1","name":"Gruzínská","arrival_time":"16:15:00","departure_time":"16:15:00","lat":49.167041,"lon":16.586433,"is_passed":false},{"stop_id":"U1701Z1","name":"Ukrajinská","arrival_time":"16:16:00","departure_time":"16:16:00","lat":49.170325,"lon":16.585437,"is_passed":false},{"stop_id":"U1714Z2","name":"Uzbecká","arrival_time":"16:17:00","departure_time":"16:17:00","lat":49.172173,"lon":16.583374,"is_passed":false},{"stop_id":"U1411Z2","name":"Mýtná","arrival_time":"16:18:00","departure_time":"16:18:00","lat":49.175186,"lon":16.582128,"is_passed":false},{"stop_id":"U1222Z4","name":"Kamenice","arrival_time":"16:19:00","departure_time":"16:19:00","lat":49.177782,"lon":16.57232,"is_passed":false},{"stop_id":"U1699Z4","name":"Univerzitní kampus","arrival_time":"16:20:00","departure_time":"16:20:00","lat":49.17846,"lon":16.567533,"is_passed":false},{"stop_id":"U1624Z2","name":"Studentská","arrival_time":"16:21:00","departure_time":"16:21:00","lat":49.179291,"lon":16.570244,"is_passed":false},{"stop_id":"U1699Z2","name":"Univerzitní kampus","arrival_time":"16:23:00","departure_time":"16:23:00","lat":49.177455,"lon":16.567173,"is_passed":false},{"stop_id":"U1429Z5","name":"Nemocnice Bohunice","arrival_time":"16:24:00","departure_time":"16:24:00","lat":49.175206,"lon":16.56694,"is_passed":false},{"stop_id":"U1492Z2","name":"Pod nemocnicí","arrival_time":"16:26:00","departure_time":"16:26:00","lat":49.172338,"lon":16.569417,"is_passed":false},{"stop_id":"U1472Z8","name":"Osová","arrival_time":"16:27:00","departure_time":"16:27:00","lat":49.168617,"lon":16.566306,"is_passed":false},{"stop_id":"U1273Z2","name":"Kosmonautů","arrival_time":"16:27:00","departure_time":"16:27:00","lat":49.167124,"lon":16.56745,"is_passed":false},{"stop_id":"U1627Z1","name":"Svah","arrival_time":"16:28:00","departure_time":"16:28:00","lat":49.165199,"lon":16.567969,"is_passed":false},{"stop_id":"U1061Z1","name":"Čermákova","arrival_time":"16:28:00","departure_time":"16:28:00","lat":49.164336,"lon":16.565516,"is_passed":false},{"stop_id":"U1666Z1","name":"Točná","arrival_time":"16:29:00","departure_time":"16:29:00","lat":49.16476,"lon":16.561692,"is_passed":false},{"stop_id":"U1687Z1","name":"U hřiště","arrival_time":"16:30:00","departure_time":"16:30:00","lat":49.166214,"lon":16.558668,"is_passed":false},{"stop_id":"U1097Z5","name":"Dunajská","arrival_time":"16:31:00","departure_time":"16:31:00","lat":49.169618,"lon":16.555308,"is_passed":false},{"stop_id":"U1616Z5","name":"Starý Lískovec, smyčka","arrival_time":"16:32:00","departure_time":"16:32:00","lat":49.172309,"lon":16.553313,"is_passed":false},{"stop_id":"U1202Z1","name":"Jemelkova","arrival_time":"16:33:00","departure_time":"16:33:00","lat":49.173333,"lon":16.548692,"is_passed":false},{"stop_id":"U1568Z1","name":"Skalní","arrival_time":"16:35:00","departure_time":"16:35:00","lat":49.174278,"lon":16.534362,"is_passed":false},{"stop_id":"U1161Z1","name":"Hoštická","arrival_time":"16:36:00","departure_time":"16:36:00","lat":49.173864,"lon":16.528044,"is_passed":false},{"stop_id":"U1037Z1","name":"Bosonohy","arrival_time":"16:38:00","departure_time":"17:12:00","lat":49.17652,"lon":16.525792,"is_passed":false}],"49912":[{"stop_id":"U1037Z2","name":"Bosonohy","arrival_time":"17:12:00","departure_time":"17:12:00","lat":49.176372,"lon":16.525514,"is_passed":false},{"stop_id":"U1161Z2","name":"Hoštická","arrival_time":"17:13:00","departure_time":"17:13:00","lat":49.173917,"lon":16.527822,"is_passed":false},{"stop_id":"U1516Z1","name":"Pražská","arrival_time":"17:14:00","departure_time":"17:14:00","lat":49.173478,"lon":16.531543,"is_passed":false},{"stop_id":"U1568Z2","name":"Skalní","arrival_time":"17:15:00","departure_time":"17:15:00","lat":49.174201,"lon":16.537903,"is_passed":false},{"stop_id":"U1202Z2","name":"Jemelkova","arrival_time":"17:16:00","departure_time":"17:16:00","lat":49.173163,"lon":16.54872,"is_passed":false},{"stop_id":"U1616Z4","name":"Starý Lískovec, smyčka","arrival_time":"17:18:00","departure_time":"17:18:00","lat":49.170615,"lon":16.55427,"is_passed":false},{"stop_id":"U1687Z2","name":"U hřiště","arrival_time":"17:19:00","departure_time":"17:19:00","lat":49.165806,"lon":16.558562,"is_passed":false},{"stop_id":"U1666Z2","name":"Točná","arrival_time":"17:20:00","departure_time":"17:20:00","lat":49.164745,"lon":16.561481,"is_passed":false},{"stop_id":"U1061Z2","name":"Čermákova","arrival_time":"17:21:00","departure_time":"17:21:00","lat":49.164349,"lon":16.564689,"is_passed":false},{"stop_id":"U1627Z2","name":"Svah","arrival_time":"17:21:00","departure_time":"17:21:00","lat":49.164924,"lon":16.567717,"is_passed":false},{"stop_id":"U1273Z1","name":"Kosmonautů","arrival_time":"17:22:00","departure_time":"17:22:00","lat":49.167006,"lon":16.568017,"is_passed":false},{"stop_id":"U1472Z7","name":"Osová","arrival_time":"17:23:00","departure_time":"17:23:00","lat":49.168951,"lon":16.566714,"is_passed":false},{"stop_id":"U1492Z1","name":"Pod nemocnicí","arrival_time":"17:24:00","departure_time":"17:24:00","lat":49.172412,"lon":16.569624,"is_passed":false},{"stop_id":"U1429Z4","name":"Nemocnice Bohunice","arrival_time":"17:26:00","departure_time":"17:26:00","lat":49.176125,"lon":16.567246,"is_passed":false},{"stop_id":"U1610Z2","name":"Stará nemocnice","arrival_time":"17:29:00","departure_time":"17:29:00","lat":49.173436,"lon":16.577787,"is_passed":false},{"stop_id":"U1293Z6","name":"Krematorium","arrival_time":"17:30:00","departure_time":"17:30:00","lat":49.172826,"lon":16.590375,"is_passed":false},{"stop_id":"U1703Z6","name":"Ústřední hřbitov","arrival_time":"17:32:00","departure_time":"17:32:00","lat":49.170744,"lon":16.597612,"is_passed":false}],"49913":[{"stop_id":"U1703Z6","name":"Ústřední hřbitov","arrival_time":"17:32:00","departure_time":"17:32:00","lat":49.170744,"lon":16.597612,"is_passed":false},{"stop_id":"U1673Z1","name":"Traťová","arrival_time":"17:33:00","departure_time":"17:33:00","lat":49.163849,"lon":16.595255,"is_passed":false},{"stop_id":"U1122Z1","name":"Gruzínská","arrival_time":"17:35:00","departure_time":"17:35:00","lat":49.167041,"lon":16.586433,"is_passed":false},{"stop_id":"U1701Z1","name":"Ukrajinská","arrival_time":"17:36:00","departure_time":"17:36:00","lat":49.170325,"lon":16.585437,"is_passed":false},{"stop_id":"U1714Z2","name":"Uzbecká","arrival_time":"17:37:00","departure_time":"17:37:00","lat":49.172173,"lon":16.583374,"is_passed":false},{"stop_id":"U1411Z2","name":"Mýtná","arrival_time":"17:38:00","departure_time":"17:38:00","lat":49.175186,"lon":16.582128,"is_passed":false},{"stop_id":"U1222Z4","name":"Kamenice","arrival_time":"17:39:00","departure_time":"17:39:00","lat":49.177782,"lon":16.57232,"is_passed":false},{"stop_id":"U1699Z4","name":"Univerzitní kampus","arrival_time":"17:40:00","departure_time":"17:40:00","lat":49.17846,"lon":16.567533,"is_passed":false},{"stop_id":"U1624Z2","name":"Studentská","arrival_time":"17:41:00","departure_time":"17:41:00","lat":49.179291,"lon":16.570244,"is_passed":false},{"stop_id":"U1699Z2","name":"Univerzitní kampus","arrival_time":"17:43:00","departure_time":"17:43:00","lat":49.177455,"lon":16.567173,"is_passed":false},{"stop_id":"U1429Z5","name":"Nemocnice Bohunice","arrival_time":"17:44:00","departure_time":"17:44:00","lat":49.175206,"lon":16.56694,"is_passed":false},{"stop_id":"U1492Z2","name":"Pod nemocnicí","arrival_time":"17:46:00","departure_time":"17:46:00","lat":49.172338,"lon":16.569417,"is_passed":false},{"stop_id":"U1472Z8","name":"Osová","arrival_time":"17:47:00","departure_time":"17:47:00","lat":49.168617,"lon":16.566306,"is_passed":false},{"stop_id":"U1273Z2","name":"Kosmonautů","arrival_time":"17:47:00","departure_time":"17:47:00","lat":49.167124,"lon":16.56745,"is_passed":false},{"stop_id":"U1627Z1","name":"Svah","arrival_time":"17:48:00","departure_time":"17:48:00","lat":49.165199,"lon":16.567969,"is_passed":false},{"stop_id":"U1061Z1","name":"Čermákova","arrival_time":"17:48:00","departure_time":"17:48:00","lat":49.164336,"lon":16.565516,"is_passed":false},{"stop_id":"U1666Z1","name":"Točná","arrival_time":"17:49:00","departure_time":"17:49:00","lat":49.16476,"lon":16.561692,"is_passed":false},{"stop_id":"U1687Z1","name":"U hřiště","arrival_time":"17:50:00","departure_time":"17:50:00","lat":49.166214,"lon":16.558668,"is_passed":false},{"stop_id":"U1097Z5","name":"Dunajská","arrival_time":"17:51:00","departure_time":"17:51:00","lat":49.169618,"lon":16.555308,"is_passed":false},{"stop_id":"U1616Z5","name":"Starý Lískovec, smyčka","arrival_time":"17:52:00","departure_time":"17:52:00","lat":49.172309,"lon":16.553313,"is_passed":false},{"stop_id":"U1202Z1","name":"Jemelkova","arrival_time":"17:53:00","departure_time":"17:53:00","lat":49.173333,"lon":16.548692,"is_passed":false},{"stop_id":"U1568Z1","name":"Skalní","arrival_time":"17:55:00","departure_time":"17:55:00","lat":49.174278,"lon":16.534362,"is_passed":false},{"stop_id":"U1161Z1","name":"Hoštická","arrival_time":"17:56:00","departure_time":"17:56:00","lat":49.173864,"lon":16.528044,"is_passed":false},{"stop_id":"U1037Z1","name":"Bosonohy","arrival_time":"17:58:00","departure_time":"18:32:00","lat":49.17652,"lon":16.525792,"is_passed":false}],"49914":[{"stop_id":"U1037Z2","name":"Bosonohy","arrival_time":"18:32:00","departure_time":"18:32:00","lat":49.176372,"lon":16.525514,"is_passed":false},{"stop_id":"U1161Z2","name":"Hoštická","arrival_time":"18:33:00","departure_time":"18:33:00","lat":49.173917,"lon":16.527822,"is_passed":false},{"stop_id":"U1516Z1","name":"Pražská","arrival_time":"18:34:00","departure_time":"18:34:00","lat":49.173478,"lon":16.531543,"is_passed":false},{"stop_id":"U1568Z2","name":"Skalní","arrival_time":"18:35:00","departure_time":"18:35:00","lat":49.174201,"lon":16.537903,"is_passed":false},{"stop_id":"U1202Z2","name":"Jemelkova","arrival_time":"18:36:00","departure_time":"18:36:00","lat":49.173163,"lon":16.54872,"is_passed":false},{"stop_id":"U1616Z4","name":"Starý Lískovec, smyčka","arrival_time":"18:38:00","departure_time":"18:38:00","lat":49.170615,"lon":16.55427,"is_passed":false},{"stop_id":"U1687Z2","name":"U hřiště","arrival_time":"18:39:00","departure_time":"18:39:00","lat":49.165806,"lon":16.558562,"is_passed":false},{"stop_id":"U1666Z2","name":"Točná","arrival_time":"18:40:00","departure_time":"18:40:00","lat":49.164745,"lon":16.561481,"is_passed":false},{"stop_id":"U1061Z2","name":"Čermákova","arrival_time":"18:41:00","departure_time":"18:41:00","lat":49.164349,"lon":16.564689,"is_passed":false},{"stop_id":"U1627Z2","name":"Svah","arrival_time":"18:41:00","departure_time":"18:41:00","lat":49.164924,"lon":16.567717,"is_passed":false},{"stop_id":"U1273Z1","name":"Kosmonautů","arrival_time":"18:42:00","departure_time":"18:42:00","lat":49.167006,"lon":16.568017,"is_passed":false},{"stop_id":"U1472Z7","name":"Osová","arrival_time":"18:43:00","departure_time":"18:43:00","lat":49.168951,"lon":16.566714,"is_passed":false},{"stop_id":"U1492Z1","name":"Pod nemocnicí","arrival_time":"18:44:00","departure_time":"18:44:00","lat":49.172412,"lon":16.569624,"is_passed":false},{"stop_id":"U1429Z4","name":"Nemocnice Bohunice","arrival_time":"18:46:00","departure_time":"18:46:00","lat":49.176125,"lon":16.567246,"is_passed":false},{"stop_id":"U1610Z2","name":"Stará nemocnice","arrival_time":"18:49:00","departure_time":"18:49:00","lat":49.173436,"lon":16.577787,"is_passed":false},{"stop_id":"U1293Z6","name":"Krematorium","arrival_time":"18:50:00","departure_time":"18:50:00","lat":49.172826,"lon":16.590375,"is_passed":false},{"stop_id":"U1703Z6","name":"Ústřední hřbitov","arrival_time":"18:52:00","departure_time":"18:52:00","lat":49.170744,"lon":16.597612,"is_passed":false}],"49915":[{"stop_id":"U1703Z6","name":"Ústřední hřbitov","arrival_time":"18:52:00","departure_time":"18:52:00","lat":49.170744,"lon":16.597612,"is_passed":false},{"stop_id":"U1673Z1","name":"Traťová","arrival_time":"18:53:00","departure_time":"18:53:00","lat":49.163849,"lon":16.595255,"is_passed":false},{"stop_id":"U1122Z1","name":"Gruzínská","arrival_time":"18:55:00","departure_time":"18:55:00","lat":49.167041,"lon":16.586433,"is_passed":false},{"stop_id":"U1701Z1","name":"Ukrajinská","arrival_time":"18:56:00","departure_time":"18:56:00","lat":49.170325,"lon":16.585437,"is_passed":false},{"stop_id":"U1714Z2","name":"Uzbecká","arrival_time":"18:57:00","departure_time":"18:57:00","lat":49.172173,"lon":16.583374,"is_passed":false},{"stop_id":"U1411Z2","name":"Mýtná","arrival_time":"18:58:00","departure_time":"18:58:00","lat":49.175186,"lon":16.582128,"is_passed":false},{"stop_id":"U1222Z4","name":"Kamenice","arrival_time":"18:59:00","departure_time":"18:59:00","lat":49.177782,"lon":16.57232,"is_passed":false},{"stop_id":"U1699Z4","name":"Univerzitní kampus","arrival_time":"19:00:00","departure_time":"19:00:00","lat":49.17846,"lon":16.567533,"is_passed":false},{"stop_id":"U1624Z2","name":"Studentská","arrival_time":"19:01:00","departure_time":"19:01:00","lat":49.179291,"lon":16.570244,"is_passed":false},{"stop_id":"U1699Z2","name":"Univerzitní kampus","arrival_time":"19:03:00","departure_time":"19:03:00","lat":49.177455,"lon":16.567173,"is_passed":false},{"stop_id":"U1429Z5","name":"Nemocnice Bohunice","arrival_time":"19:04:00","departure_time":"19:04:00","lat":49.175206,"lon":16.56694,"is_passed":false},{"stop_id":"U1492Z2","name":"Pod nemocnicí","arrival_time":"19:06:00","departure_time":"19:06:00","lat":49.172338,"lon":16.569417,"is_passed":false},{"stop_id":"U1472Z8","name":"Osová","arrival_time":"19:07:00","departure_time":"19:07:00","lat":49.168617,"lon":16.566306,"is_passed":false},{"stop_id":"U1273Z2","name":"Kosmonautů","arrival_time":"19:07:00","departure_time":"19:07:00","lat":49.167124,"lon":16.56745,"is_passed":false},{"stop_id":"U1627Z1","name":"Svah","arrival_time":"19:08:00","departure_time":"19:08:00","lat":49.165199,"lon":16.567969,"is_passed":false},{"stop_id":"U1061Z1","name":"Čermákova","arrival_time":"19:08:00","departure_time":"19:08:00","lat":49.164336,"lon":16.565516,"is_passed":false},{"stop_id":"U1666Z1","name":"Točná","arrival_time":"19:09:00","departure_time":"19:09:00","lat":49.16476,"lon":16.561692,"is_passed":false},{"stop_id":"U1687Z1","name":"U hřiště","arrival_time":"19:10:00","departure_time":"19:10:00","lat":49.166214,"lon":16.558668,"is_passed":false},{"stop_id":"U1097Z5","name":"Dunajská","arrival_time":"19:11:00","departure_time":"19:11:00","lat":49.169618,"lon":16.555308,"is_passed":false},{"stop_id":"U1616Z5","name":"Starý Lískovec, smyčka","arrival_time":"19:12:00","departure_time":"19:12:00","lat":49.172309,"lon":16.553313,"is_passed":false},{"stop_id":"U1202Z1","name":"Jemelkova","arrival_time":"19:13:00","departure_time":"19:13:00","lat":49.173333,"lon":16.548692,"is_passed":false},{"stop_id":"U1568Z1","name":"Skalní","arrival_time":"19:15:00","departure_time":"19:15:00","lat":49.174278,"lon":16.534362,"is_passed":false},{"stop_id":"U1161Z1","name":"Hoštická","arrival_time":"19:16:00","departure_time":"19:16:00","lat":49.173864,"lon":16.528044,"is_passed":false},{"stop_id":"U1037Z1","name":"Bosonohy","arrival_time":"19:18:00","departure_time":"19:32:00","lat":49.17652,"lon":16.525792,"is_passed":false}],"49916":[{"stop_id":"U1037Z2","name":"Bosonohy","arrival_time":"19:32:00","departure_time":"19:32:00","lat":49.176372,"lon":16.525514,"is_passed":false},{"stop_id":"U1161Z2","name":"Hoštická","arrival_time":"19:33:00","departure_time":"19:33:00","lat":49.173917,"lon":16.527822,"is_passed":false},{"stop_id":"U1516Z1","name":"Pražská","arrival_time":"19:34:00","departure_time":"19:34:00","lat":49.173478,"lon":16.531543,"is_passed":false},{"stop_id":"U1568Z2","name":"Skalní","arrival_time":"19:35:00","departure_time":"19:35:00","lat":49.174201,"lon":16.537903,"is_passed":false},{"stop_id":"U1202Z2","name":"Jemelkova","arrival_time":"19:36:00","departure_time":"19:36:00","lat":49.173163,"lon":16.54872,"is_passed":false},{"stop_id":"U1616Z4","name":"Starý Lískovec, smyčka","arrival_time":"19:38:00","departure_time":"19:38:00","lat":49.170615,"lon":16.55427,"is_passed":false},{"stop_id":"U1687Z2","name":"U hřiště","arrival_time":"19:39:00","departure_time":"19:39:00","lat":49.165806,"lon":16.558562,"is_passed":false},{"stop_id":"U1666Z2","name":"Točná","arrival_time":"19:40:00","departure_time":"19:40:00","lat":49.164745,"lon":16.561481,"is_passed":false},{"stop_id":"U1061Z2","name":"Čermákova","arrival_time":"19:41:00","departure_time":"19:41:00","lat":49.164349,"lon":16.564689,"is_passed":false},{"stop_id":"U1627Z2","name":"Svah","arrival_time":"19:41:00","departure_time":"19:41:00","lat":49.164924,"lon":16.567717,"is_passed":false},{"stop_id":"U1273Z1","name":"Kosmonautů","arrival_time":"19:42:00","departure_time":"19:42:00","lat":49.167006,"lon":16.568017,"is_passed":false},{"stop_id":"U1472Z7","name":"Osová","arrival_time":"19:43:00","departure_time":"19:43:00","lat":49.168951,"lon":16.566714,"is_passed":false},{"stop_id":"U1492Z1","name":"Pod nemocnicí","arrival_time":"19:44:00","departure_time":"19:44:00","lat":49.172412,"lon":16.569624,"is_passed":false},{"stop_id":"U1429Z4","name":"Nemocnice Bohunice","arrival_time":"19:46:00","departure_time":"19:46:00","lat":49.176125,"lon":16.567246,"is_passed":false},{"stop_id":"U1699Z3","name":"Univerzitní kampus","arrival_time":"19:47:00","departure_time":"19:47:00","lat":49.177902,"lon":16.568335,"is_passed":false},{"stop_id":"U1222Z3","name":"Kamenice","arrival_time":"19:48:00","departure_time":"19:48:00","lat":49.177622,"lon":16.573805,"is_passed":false},{"stop_id":"U1411Z1","name":"Mýtná","arrival_time":"19:49:00","departure_time":"19:49:00","lat":49.175033,"lon":16.582359,"is_passed":false},{"stop_id":"U1714Z1","name":"Uzbecká","arrival_time":"19:50:00","departure_time":"19:50:00","lat":49.172343,"lon":16.583318,"is_passed":false},{"stop_id":"U1701Z2","name":"Ukrajinská","arrival_time":"19:51:00","departure_time":"19:51:00","lat":49.170541,"lon":16.584623,"is_passed":false},{"stop_id":"U1122Z2","name":"Gruzínská","arrival_time":"19:52:00","departure_time":"19:52:00","lat":49.166633,"lon":16.586336,"is_passed":false},{"stop_id":"U1774Z2","name":"Za hřbitovem","arrival_time":"19:52:00","departure_time":"19:52:00","lat":49.164318,"lon":16.591448,"is_passed":false},{"stop_id":"U1673Z2","name":"Traťová","arrival_time":"19:53:00","departure_time":"19:53:00","lat":49.163623,"lon":16.595954,"is_passed":false},{"stop_id":"U1031Z6","name":"Bohunická","arrival_time":"19:54:00","departure_time":"19:54:00","lat":49.162697,"lon":16.600443,"is_passed":false},{"stop_id":"U1703Z7","name":"Ústřední hřbitov","arrival_time":"19:56:00","departure_time":"19:56:00","lat":49.170741,"lon":16.597834,"is_passed":false}],"49917":[{"stop_id":"U1703Z7","name":"Ústřední hřbitov","arrival_time":"19:56:00","departure_time":"19:56:00","lat":49.170741,"lon":16.597834,"is_passed":false},{"stop_id":"U1293Z5","name":"Krematorium","arrival_time":"19:58:00","departure_time":"19:58:00","lat":49.172914,"lon":16.590082,"is_passed":false},{"stop_id":"U1714Z3","name":"Uzbecká","arrival_time":"19:59:00","departure_time":"19:59:00","lat":49.173362,"lon":16.581961,"is_passed":false},{"stop_id":"U1610Z1","name":"Stará nemocnice","arrival_time":"20:00:00","departure_time":"20:00:00","lat":49.173643,"lon":16.577115,"is_passed":false},{"stop_id":"U1699Z2","name":"Univerzitní kampus","arrival_time":"20:03:00","departure_time":"20:03:00","lat":49.177455,"lon":16.567173,"is_passed":false},{"stop_id":"U1429Z5","name":"Nemocnice Bohunice","arrival_time":"20:04:00","departure_time":"20:04:00","lat":49.175206,"lon":16.56694,"is_passed":false},{"stop_id":"U1492Z2","name":"Pod nemocnicí","arrival_time":"20:06:00","departure_time":"20:06:00","lat":49.172338,"lon":16.569417,"is_passed":false},{"stop_id":"U1472Z8","name":"Osová","arrival_time":"20:07:00","departure_time":"20:07:00","lat":49.168617,"lon":16.566306,"is_passed":false},{"stop_id":"U1273Z2","name":"Kosmonautů","arrival_time":"20:07:00","departure_time":"20:07:00","lat":49.167124,"lon":16.56745,"is_passed":false},{"stop_id":"U1627Z1","name":"Svah","arrival_time":"20:08:00","departure_time":"20:08:00","lat":49.165199,"lon":16.567969,"is_passed":false},{"stop_id":"U1061Z1","name":"Čermákova","arrival_time":"20:08:00","departure_time":"20:08:00","lat":49.164336,"lon":16.565516,"is_passed":false},{"stop_id":"U1666Z1","name":"Točná","arrival_time":"20:09:00","departure_time":"20:09:00","lat":49.16476,"lon":16.561692,"is_passed":false},{"stop_id":"U1687Z1","name":"U hřiště","arrival_time":"20:10:00","departure_time":"20:10:00","lat":49.166214,"lon":16.558668,"is_passed":false},{"stop_id":"U1097Z5","name":"Dunajská","arrival_time":"20:11:00","departure_time":"20:11:00","lat":49.169618,"lon":16.555308,"is_passed":false},{"stop_id":"U1616Z5","name":"Starý Lískovec, smyčka","arrival_time":"20:12:00","departure_time":"20:12:00","lat":49.172309,"lon":16.553313,"is_passed":false},{"stop_id":"U1202Z1","name":"Jemelkova","arrival_time":"20:13:00","departure_time":"20:13:00","lat":49.173333,"lon":16.548692,"is_passed":false},{"stop_id":"U1568Z1","name":"Skalní","arrival_time":"20:15:00","departure_time":"20:15:00","lat":49.174278,"lon":16.534362,"is_passed":false},{"stop_id":"U1161Z1","name":"Hoštická","arrival_time":"20:16:00","departure_time":"20:16:00","lat":49.173864,"lon":16.528044,"is_passed":false},{"stop_id":"U1037Z1","name":"Bosonohy","arrival_time":"20:18:00","departure_time":"20:37:00","lat":49.17652,"lon":16.525792,"is_passed":false}],"49918":[{"stop_id":"U1037Z2","name":"Bosonohy","arrival_time":"20:37:00","departure_time":"20:37:00","lat":49.176372,"lon":16.525514,"is_passed":false},{"stop_id":"U1161Z2","name":"Hoštická","arrival_time":"20:38:00","departure_time":"20:38:00","lat":49.173917,"lon":16.527822,"is_passed":false},{"stop_id":"U1516Z1","name":"Pražská","arrival_time":"20:39:00","departure_time":"20:39:00","lat":49.173478,"lon":16.531543,"is_passed":false},{"stop_id":"U1568Z2","name":"Skalní","arrival_time":"20:40:00","departure_time":"20:40:00","lat":49.174201,"lon":16.537903,"is_passed":false},{"stop_id":"U1202Z2","name":"Jemelkova","arrival_time":"20:41:00","departure_time":"20:41:00","lat":49.173163,"lon":16.54872,"is_passed":false},{"stop_id":"U1616Z4","name":"Starý Lískovec, smyčka","arrival_time":"20:42:00","departure_time":"20:42:00","lat":49.170615,"lon":16.55427,"is_passed":false},{"stop_id":"U1687Z2","name":"U hřiště","arrival_time":"20:43:00","departure_time":"20:43:00","lat":49.165806,"lon":16.558562,"is_passed":false},{"stop_id":"U1666Z2","name":"Točná","arrival_time":"20:44:00","departure_time":"20:44:00","lat":49.164745,"lon":16.561481,"is_passed":false},{"stop_id":"U1061Z2","name":"Čermákova","arrival_time":"20:45:00","departure_time":"20:45:00","lat":49.164349,"lon":16.564689,"is_passed":false},{"stop_id":"U1627Z2","name":"Svah","arrival_time":"20:45:00","departure_time":"20:45:00","lat":49.164924,"lon":16.567717,"is_passed":false},{"stop_id":"U1273Z1","name":"Kosmonautů","arrival_time":"20:46:00","departure_time":"20:46:00","lat":49.167006,"lon":16.568017,"is_passed":false},{"stop_id":"U1472Z7","name":"Osová","arrival_time":"20:47:00","departure_time":"20:47:00","lat":49.168951,"lon":16.566714,"is_passed":false},{"stop_id":"U1492Z1","name":"Pod nemocnicí","arrival_time":"20:48:00","departure_time":"20:48:00","lat":49.172412,"lon":16.569624,"is_passed":false},{"stop_id":"U1429Z4","name":"Nemocnice Bohunice","arrival_time":"20:50:00","departure_time":"20:50:00","lat":49.176125,"lon":16.567246,"is_passed":false},{"stop_id":"U1610Z2","name":"Stará nemocnice","arrival_time":"20:53:00","departure_time":"20:53:00","lat":49.173436,"lon":16.577787,"is_passed":false},{"stop_id":"U1293Z6","name":"Krematorium","arrival_time":"20:54:00","departure_time":"20:54:00","lat":49.172826,"lon":16.590375,"is_passed":false},{"stop_id":"U1703Z6","name":"Ústřední hřbitov","arrival_time":"20:56:00","departure_time":"20:56:00","lat":49.170744,"lon":16.597612,"is_passed":false}],"49919":[{"stop_id":"U1703Z6","name":"Ústřední hřbitov","arrival_time":"20:56:00","departure_time":"20:56:00","lat":49.170744,"lon":16.597612,"is_passed":false},{"stop_id":"U1673Z1","name":"Traťová","arrival_time":"20:57:00","departure_time":"20:57:00","lat":49.163849,"lon":16.595255,"is_passed":false},{"stop_id":"U1122Z1","name":"Gruzínská","arrival_time":"20:58:00","departure_time":"20:58:00","lat":49.167041,"lon":16.586433,"is_passed":false},{"stop_id":"U1701Z1","name":"Ukrajinská","arrival_time":"20:59:00","departure_time":"20:59:00","lat":49.170325,"lon":16.585437,"is_passed":false},{"stop_id":"U1714Z2","name":"Uzbecká","arrival_time":"21:00:00","departure_time":"21:00:00","lat":49.172173,"lon":16.583374,"is_passed":false},{"stop_id":"U1411Z2","name":"Mýtná","arrival_time":"21:01:00","departure_time":"21:01:00","lat":49.175186,"lon":16.582128,"is_passed":false},{"stop_id":"U1222Z4","name":"Kamenice","arrival_time":"21:02:00","departure_time":"21:02:00","lat":49.177782,"lon":16.57232,"is_passed":false},{"stop_id":"U1699Z4","name":"Univerzitní kampus","arrival_time":"21:03:00","departure_time":"21:03:00","lat":49.17846,"lon":16.567533,"is_passed":false},{"stop_id":"U1624Z2","name":"Studentská","arrival_time":"21:04:00","departure_time":"21:04:00","lat":49.179291,"lon":16.570244,"is_passed":false},{"stop_id":"U1699Z2","name":"Univerzitní kampus","arrival_time":"21:06:00","departure_time":"21:06:00","lat":49.177455,"lon":16.567173,"is_passed":false},{"stop_id":"U1429Z5","name":"Nemocnice Bohunice","arrival_time":"21:07:00","departure_time":"21:07:00","lat":49.175206,"lon":16.56694,"is_passed":false},{"stop_id":"U1492Z2","name":"Pod nemocnicí","arrival_time":"21:09:00","departure_time":"21:09:00","lat":49.172338,"lon":16.569417,"is_passed":false},{"stop_id":"U1472Z8","name":"Osová","arrival_time":"21:10:00","departure_time":"21:10:00","lat":49.168617,"lon":16.566306,"is_passed":false},{"stop_id":"U1273Z2","name":"Kosmonautů","arrival_time":"21:10:00","departure_time":"21:10:00","lat":49.167124,"lon":16.56745,"is_passed":false},{"stop_id":"U1627Z1","name":"Svah","arrival_time":"21:11:00","departure_time":"21:11:00","lat":49.165199,"lon":16.567969,"is_passed":false},{"stop_id":"U1061Z1","name":"Čermákova","arrival_time":"21:11:00","departure_time":"21:11:00","lat":49.164336,"lon":16.565516,"is_passed":false},{"stop_id":"U1666Z1","name":"Točná","arrival_time":"21:12:00","departure_time":"21:12:00","lat":49.16476,"lon":16.561692,"is_passed":false},{"stop_id":"U1687Z1","name":"U hřiště","arrival_time":"21:12:00","departure_time":"21:12:00","lat":49.166214,"lon":16.558668,"is_passed":false},{"stop_id":"U1097Z5","name":"Dunajská","arrival_time":"21:13:00","departure_time":"21:13:00","lat":49.169618,"lon":16.555308,"is_passed":false},{"stop_id":"U1616Z5","name":"Starý Lískovec, smyčka","arrival_time":"21:14:00","departure_time":"21:14:00","lat":49.172309,"lon":16.553313,"is_passed":false},{"stop_id":"U1202Z1","name":"Jemelkova","arrival_time":"21:15:00","departure_time":"21:15:00","lat":49.173333,"lon":16.548692,"is_passed":false},{"stop_id":"U1568Z1","name":"Skalní","arrival_time":"21:17:00","departure_time":"21:17:00","lat":49.174278,"lon":16.534362,"is_passed":false},{"stop_id":"U1161Z1","name":"Hoštická","arrival_time":"21:18:00","departure_time":"21:18:00","lat":49.173864,"lon":16.528044,"is_passed":false},{"stop_id":"U1037Z1","name":"Bosonohy","arrival_time":"21:20:00","departure_time":"21:22:00","lat":49.17652,"lon":16.525792,"is_passed":false}],"49920":[{"stop_id":"U1703Z7","name":"Ústřední hřbitov","arrival_time":"6:56:00","departure_time":"6:56:00","lat":49.170741,"lon":16.597834,"is_passed":false},{"stop_id":"U1293Z5","name":"Krematorium","arrival_time":"6:57:00","departure_time":"6:57:00","lat":49.172914,"lon":16.590082,"is_passed":false},{"stop_id":"U1714Z3","name":"Uzbecká","arrival_time":"6:58:00","departure_time":"6:58:00","lat":49.173362,"lon":16.581961,"is_passed":false},{"stop_id":"U1610Z1","name":"Stará nemocnice","arrival_time":"6:59:00","departure_time":"6:59:00","lat":49.173643,"lon":16.577115,"is_passed":false},{"stop_id":"U1429Z4","name":"Nemocnice Bohunice","arrival_time":"7:01:00","departure_time":"7:19:00","lat":49.176125,"lon":16.567246,"is_passed":false}],"49921":[{"stop_id":"U1699Z2","name":"Univerzitní kampus","arrival_time":"7:21:00","departure_time":"7:21:00","lat":49.177455,"lon":16.567173,"is_passed":false},{"stop_id":"U1429Z5","name":"Nemocnice Bohunice","arrival_time":"7:22:00","departure_time":"7:22:00","lat":49.175206,"lon":16.56694,"is_passed":false},{"stop_id":"U1492Z2","name":"Pod nemocnicí","arrival_time":"7:24:00","departure_time":"7:24:00","lat":49.172338,"lon":16.569417,"is_passed":false},{"stop_id":"U1472Z8","name":"Osová","arrival_time":"7:25:00","departure_time":"7:25:00","lat":49.168617,"lon":16.566306,"is_passed":false},{"stop_id":"U1273Z2","name":"Kosmonautů","arrival_time":"7:25:00","departure_time":"7:25:00","lat":49.167124,"lon":16.56745,"is_passed":false},{"stop_id":"U1627Z1","name":"Svah","arrival_time":"7:26:00","departure_time":"7:26:00","lat":49.165199,"lon":16.567969,"is_passed":false},{"stop_id":"U1061Z1","name":"Čermákova","arrival_time":"7:26:00","departure_time":"7:26:00","lat":49.164336,"lon":16.565516,"is_passed":false},{"stop_id":"U1666Z1","name":"Točná","arrival_time":"7:27:00","departure_time":"7:27:00","lat":49.16476,"lon":16.561692,"is_passed":false},{"stop_id":"U1687Z1","name":"U hřiště","arrival_time":"7:27:00","departure_time":"7:27:00","lat":49.166214,"lon":16.558668,"is_passed":false},{"stop_id":"U1097Z5","name":"Dunajská","arrival_time":"7:28:00","departure_time":"7:28:00","lat":49.169618,"lon":16.555308,"is_passed":false},{"stop_id":"U1616Z5","name":"Starý Lískovec, smyčka","arrival_time":"7:29:00","departure_time":"7:29:00","lat":49.172309,"lon":16.553313,"is_passed":false},{"stop_id":"U1202Z1","name":"Jemelkova","arrival_time":"7:30:00","departure_time":"7:30:00","lat":49.173333,"lon":16.548692,"is_passed":false},{"stop_id":"U1568Z1","name":"Skalní","arrival_time":"7:32:00","departure_time":"7:32:00","lat":49.174278,"lon":16.534362,"is_passed":false},{"stop_id":"U1161Z1","name":"Hoštická","arrival_time":"7:33:00","departure_time":"7:33:00","lat":49.173864,"lon":16.528044,"is_passed":false},{"stop_id":"U1037Z1","name":"Bosonohy","arrival_time":"7:35:00","departure_time":"7:37:00","lat":49.17652,"lon":16.525792,"is_passed":false}],"49922":[{"stop_id":"U1037Z2","name":"Bosonohy","arrival_time":"7:37:00","departure_time":"7:37:00","lat":49.176372,"lon":16.525514,"is_passed":false},{"stop_id":"U1161Z2","name":"Hoštická","arrival_time":"7:38:00","departure_time":"7:38:00","lat":49.173917,"lon":16.527822,"is_passed":false},{"stop_id":"U1516Z1","name":"Pražská","arrival_time":"7:39:00","departure_time":"7:39:00","lat":49.173478,"lon":16.531543,"is_passed":false},{"stop_id":"U1568Z2","name":"Skalní","arrival_time":"7:40:00","departure_time":"7:40:00","lat":49.174201,"lon":16.537903,"is_passed":false},{"stop_id":"U1202Z2","name":"Jemelkova","arrival_time":"7:41:00","departure_time":"7:41:00","lat":49.173163,"lon":16.54872,"is_passed":false},{"stop_id":"U1616Z4","name":"Starý Lískovec, smyčka","arrival_time":"7:42:00","departure_time":"7:42:00","lat":49.170615,"lon":16.55427,"is_passed":false},{"stop_id":"U1687Z2","name":"U hřiště","arrival_time":"7:43:00","departure_time":"7:43:00","lat":49.165806,"lon":16.558562,"is_passed":false},{"stop_id":"U1666Z2","name":"Točná","arrival_time":"7:44:00","departure_time":"7:44:00","lat":49.164745,"lon":16.561481,"is_passed":false},{"stop_id":"U1061Z2","name":"Čermákova","arrival_time":"7:45:00","departure_time":"7:45:00","lat":49.164349,"lon":16.564689,"is_passed":false},{"stop_id":"U1627Z2","name":"Svah","arrival_time":"7:45:00","departure_time":"7:45:00","lat":49.164924,"lon":16.567717,"is_passed":false},{"stop_id":"U1273Z1","name":"Kosmonautů","arrival_time":"7:46:00","departure_time":"7:46:00","lat":49.167006,"lon":16.568017,"is_passed":false},{"stop_id":"U1472Z7","name":"Osová","arrival_time":"7:47:00","departure_time":"7:47:00","lat":49.168951,"lon":16.566714,"is_passed":false},{"stop_id":"U1492Z1","name":"Pod nemocnicí","arrival_time":"7:48:00","departure_time":"7:48:00","lat":49.172412,"lon":16.569624,"is_passed":false},{"stop_id":"U1429Z4","name":"Nemocnice Bohunice","arrival_time":"7:50:00","departure_time":"7:50:00","lat":49.176125,"lon":16.567246,"is_passed":false},{"stop_id":"U1610Z2","name":"Stará nemocnice","arrival_time":"7:53:00","departure_time":"7:53:00","lat":49.173436,"lon":16.577787,"is_passed":false},{"stop_id":"U1293Z6","name":"Krematorium","arrival_time":"7:54:00","departure_time":"7:54:00","lat":49.172826,"lon":16.590375,"is_passed":false},{"stop_id":"U1703Z6","name":"Ústřední hřbitov","arrival_time":"7:56:00","departure_time":"7:56:00","lat":49.170744,"lon":16.597612,"is_passed":false}],"49923":[{"stop_id":"U1703Z6","name":"Ústřední hřbitov","arrival_time":"7:56:00","departure_time":"7:56:00","lat":49.170744,"lon":16.597612,"is_passed":false},{"stop_id":"U1673Z1","name":"Traťová","arrival_time":"7:57:00","departure_time":"7:57:00","lat":49.163849,"lon":16.595255,"is_passed":false},{"stop_id":"U1122Z1","name":"Gruzínská","arrival_time":"7:58:00","departure_time":"7:58:00","lat":49.167041,"lon":16.586433,"is_passed":false},{"stop_id":"U1701Z1","name":"Ukrajinská","arrival_time":"7:59:00","departure_time":"7:59:00","lat":49.170325,"lon":16.585437,"is_passed":false},{"stop_id":"U1714Z2","name":"Uzbecká","arrival_time":"8:00:00","departure_time":"8:00:00","lat":49.172173,"lon":16.583374,"is_passed":false},{"stop_id":"U1411Z2","name":"Mýtná","arrival_time":"8:01:00","departure_time":"8:01:00","lat":49.175186,"lon":16.582128,"is_passed":false},{"stop_id":"U1222Z4","name":"Kamenice","arrival_time":"8:02:00","departure_time":"8:02:00","lat":49.177782,"lon":16.57232,"is_passed":false},{"stop_id":"U1699Z4","name":"Univerzitní kampus","arrival_time":"8:03:00","departure_time":"8:03:00","lat":49.17846,"lon":16.567533,"is_passed":false},{"stop_id":"U1624Z2","name":"Studentská","arrival_time":"8:04:00","departure_time":"8:04:00","lat":49.179291,"lon":16.570244,"is_passed":false},{"stop_id":"U1699Z2","name":"Univerzitní kampus","arrival_time":"8:06:00","departure_time":"8:06:00","lat":49.177455,"lon":16.567173,"is_passed":false},{"stop_id":"U1429Z5","name":"Nemocnice Bohunice","arrival_time":"8:07:00","departure_time":"8:07:00","lat":49.175206,"lon":16.56694,"is_passed":false},{"stop_id":"U1492Z2","name":"Pod nemocnicí","arrival_time":"8:09:00","departure_time":"8:09:00","lat":49.172338,"lon":16.569417,"is_passed":false},{"stop_id":"U1472Z8","name":"Osová","arrival_time":"8:10:00","departure_time":"8:10:00","lat":49.168617,"lon":16.566306,"is_passed":false},{"stop_id":"U1273Z2","name":"Kosmonautů","arrival_time":"8:10:00","departure_time":"8:10:00","lat":49.167124,"lon":16.56745,"is_passed":false},{"stop_id":"U1627Z1","name":"Svah","arrival_time":"8:11:00","departure_time":"8:11:00","lat":49.165199,"lon":16.567969,"is_passed":false},{"stop_id":"U1061Z1","name":"Čermákova","arrival_time":"8:11:00","departure_time":"8:11:00","lat":49.164336,"lon":16.565516,"is_passed":false},{"stop_id":"U1666Z1","name":"Točná","arrival_time":"8:12:00","departure_time":"8:12:00","lat":49.16476,"lon":16.561692,"is_passed":false},{"stop_id":"U1687Z1","name":"U hřiště","arrival_time":"8:12:00","departure_time":"8:12:00","lat":49.166214,"lon":16.558668,"is_passed":false},{"stop_id":"U1097Z5","name":"Dunajská","arrival_time":"8:13:00","departure_time":"8:13:00","lat":49.169618,"lon":16.555308,"is_passed":false},{"stop_id":"U1616Z5","name":"Starý Lískovec, smyčka","arrival_time":"8:14:00","departure_time":"8:14:00","lat":49.172309,"lon":16.553313,"is_passed":false},{"stop_id":"U1202Z1","name":"Jemelkova","arrival_time":"8:15:00","departure_time":"8:15:00","lat":49.173333,"lon":16.548692,"is_passed":false},{"stop_id":"U1568Z1","name":"Skalní","arrival_time":"8:17:00","departure_time":"8:17:00","lat":49.174278,"lon":16.534362,"is_passed":false},{"stop_id":"U1161Z1","name":"Hoštická","arrival_time":"8:18:00","departure_time":"8:18:00","lat":49.173864,"lon":16.528044,"is_passed":false},{"stop_id":"U1037Z1","name":"Bosonohy","arrival_time":"8:20:00","departure_time":"8:32:00","lat":49.17652,"lon":16.525792,"is_passed":false}],"49924":[{"stop_id":"U1037Z2","name":"Bosonohy","arrival_time":"8:32:00","departure_time":"8:32:00","lat":49.176372,"lon":16.525514,"is_passed":false},{"stop_id":"U1161Z2","name":"Hoštická","arrival_time":"8:33:00","departure_time":"8:33:00","lat":49.173917,"lon":16.527822,"is_passed":false},{"stop_id":"U1516Z1","name":"Pražská","arrival_time":"8:34:00","departure_time":"8:34:00","lat":49.173478,"lon":16.531543,"is_passed":false},{"stop_id":"U1568Z2","name":"Skalní","arrival_time":"8:35:00","departure_time":"8:35:00","lat":49.174201,"lon":16.537903,"is_passed":false},{"stop_id":"U1202Z2","name":"Jemelkova","arrival_time":"8:36:00","departure_time":"8:36:00","lat":49.173163,"lon":16.54872,"is_passed":false},{"stop_id":"U1616Z4","name":"Starý Lískovec, smyčka","arrival_time":"8:38:00","departure_time":"8:38:00","lat":49.170615,"lon":16.55427,"is_passed":false},{"stop_id":"U1687Z2","name":"U hřiště","arrival_time":"8:39:00","departure_time":"8:39:00","lat":49.165806,"lon":16.558562,"is_passed":false},{"stop_id":"U1666Z2","name":"Točná","arrival_time":"8:40:00","departure_time":"8:40:00","lat":49.164745,"lon":16.561481,"is_passed":false},{"stop_id":"U1061Z2","name":"Čermákova","arrival_time":"8:41:00","departure_time":"8:41:00","lat":49.164349,"lon":16.564689,"is_passed":false},{"stop_id":"U1627Z2","name":"Svah","arrival_time":"8:41:00","departure_time":"8:41:00","lat":49.164924,"lon":16.567717,"is_passed":false},{"stop_id":"U1273Z1","name":"Kosmonautů","arrival_time":"8:42:00","departure_time":"8:42:00","lat":49.167006,"lon":16.568017,"is_passed":false},{"stop_id":"U1472Z7","name":"Osová","arrival_time":"8:43:00","departure_time":"8:43:00","lat":49.168951,"lon":16.566714,"is_passed":false},{"stop_id":"U1492Z1","name":"Pod nemocnicí","arrival_time":"8:44:00","departure_time":"8:44:00","lat":49.172412,"lon":16.569624,"is_passed":false},{"stop_id":"U1429Z4","name":"Nemocnice Bohunice","arrival_time":"8:46:00","departure_time":"8:46:00","lat":49.176125,"lon":16.567246,"is_passed":false},{"stop_id":"U1610Z2","name":"Stará nemocnice","arrival_time":"8:49:00","departure_time":"8:49:00","lat":49.173436,"lon":16.577787,"is_passed":false},{"stop_id":"U1293Z6","name":"Krematorium","arrival_time":"8:50:00","departure_time":"8:50:00","lat":49.172826,"lon":16.590375,"is_passed":false},{"stop_id":"U1703Z6","name":"Ústřední hřbitov","arrival_time":"8:52:00","departure_time":"8:52:00","lat":49.170744,"lon":16.597612,"is_passed":false}],"49925":[{"stop_id":"U1703Z6","name":"Ústřední hřbitov","arrival_time":"8:52:00","departure_time":"8:52:00","lat":49.170744,"lon":16.597612,"is_passed":false},{"stop_id":"U1673Z1","name":"Traťová","arrival_time":"8:53:00","departure_time":"8:53:00","lat":49.163849,"lon":16.595255,"is_passed":false},{"stop_id":"U1122Z1","name":"Gruzínská","arrival_time":"8:54:00","departure_time":"8:54:00","lat":49.167041,"lon":16.586433,"is_passed":false},{"stop_id":"U1701Z1","name":"Ukrajinská","arrival_time":"8:55:00","departure_time":"8:55:00","lat":49.170325,"lon":16.585437,"is_passed":false},{"stop_id":"U1714Z2","name":"Uzbecká","arrival_time":"8:56:00","departure_time":"8:56:00","lat":49.172173,"lon":16.583374,"is_passed":false},{"stop_id":"U1411Z2","name":"Mýtná","arrival_time":"8:57:00","departure_time":"8:57:00","lat":49.175186,"lon":16.582128,"is_passed":false},{"stop_id":"U1222Z4","name":"Kamenice","arrival_time":"8:58:00","departure_time":"8:58:00","lat":49.177782,"lon":16.57232,"is_passed":false},{"stop_id":"U1699Z4","name":"Univerzitní kampus","arrival_time":"8:59:00","departure_time":"8:59:00","lat":49.17846,"lon":16.567533,"is_passed":false},{"stop_id":"U1624Z2","name":"Studentská","arrival_time":"9:00:00","departure_time":"9:00:00","lat":49.179291,"lon":16.570244,"is_passed":false},{"stop_id":"U1699Z2","name":"Univerzitní kampus","arrival_time":"9:02:00","departure_time":"9:02:00","lat":49.177455,"lon":16.567173,"is_passed":false},{"stop_id":"U1429Z5","name":"Nemocnice Bohunice","arrival_time":"9:03:00","departure_time":"9:03:00","lat":49.175206,"lon":16.56694,"is_passed":false},{"stop_id":"U1492Z2","name":"Pod nemocnicí","arrival_time":"9:05:00","departure_time":"9:05:00","lat":49.172338,"lon":16.569417,"is_passed":false},{"stop_id":"U1472Z8","name":"Osová","arrival_time":"9:06:00","departure_time":"9:06:00","lat":49.168617,"lon":16.566306,"is_passed":false},{"stop_id":"U1273Z2","name":"Kosmonautů","arrival_time":"9:06:00","departure_time":"9:06:00","lat":49.167124,"lon":16.56745,"is_passed":false},{"stop_id":"U1627Z1","name":"Svah","arrival_time":"9:07:00","departure_time":"9:07:00","lat":49.165199,"lon":16.567969,"is_passed":false},{"stop_id":"U1061Z1","name":"Čermákova","arrival_time":"9:07:00","departure_time":"9:07:00","lat":49.164336,"lon":16.565516,"is_passed":false},{"stop_id":"U1666Z1","name":"Točná","arrival_time":"9:08:00","departure_time":"9:08:00","lat":49.16476,"lon":16.561692,"is_passed":false},{"stop_id":"U1687Z1","name":"U hřiště","arrival_time":"9:08:00","departure_time":"9:08:00","lat":49.166214,"lon":16.558668,"is_passed":false},{"stop_id":"U1097Z5","name":"Dunajská","arrival_time":"9:09:00","departure_time":"9:09:00","lat":49.169618,"lon":16.555308,"is_passed":false},{"stop_id":"U1616Z5","name":"Starý Lískovec, smyčka","arrival_time":"9:10:00","departure_time":"9:10:00","lat":49.172309,"lon":16.553313,"is_passed":false},{"stop_id":"U1202Z1","name":"Jemelkova","arrival_time":"9:11:00","departure_time":"9:11:00","lat":49.173333,"lon":16.548692,"is_passed":false},{"stop_id":"U1568Z1","name":"Skalní","arrival_time":"9:13:00","departure_time":"9:13:00","lat":49.174278,"lon":16.534362,"is_passed":false},{"stop_id":"U1161Z1","name":"Hoštická","arrival_time":"9:14:00","departure_time":"9:14:00","lat":49.173864,"lon":16.528044,"is_passed":false},{"stop_id":"U1037Z1","name":"Bosonohy","arrival_time":"9:16:00","departure_time":"9:32:00","lat":49.17652,"lon":16.525792,"is_passed":false}],"49926":[{"stop_id":"U1037Z2","name":"Bosonohy","arrival_time":"9:32:00","departure_time":"9:32:00","lat":49.176372,"lon":16.525514,"is_passed":false},{"stop_id":"U1161Z2","name":"Hoštická","arrival_time":"9:33:00","departure_time":"9:33:00","lat":49.173917,"lon":16.527822,"is_passed":false},{"stop_id":"U1516Z1","name":"Pražská","arrival_time":"9:34:00","departure_time":"9:34:00","lat":49.173478,"lon":16.531543,"is_passed":false},{"stop_id":"U1568Z2","name":"Skalní","arrival_time":"9:35:00","departure_time":"9:35:00","lat":49.174201,"lon":16.537903,"is_passed":false},{"stop_id":"U1202Z2","name":"Jemelkova","arrival_time":"9:36:00","departure_time":"9:36:00","lat":49.173163,"lon":16.54872,"is_passed":false},{"stop_id":"U1616Z4","name":"Starý Lískovec, smyčka","arrival_time":"9:38:00","departure_time":"9:38:00","lat":49.170615,"lon":16.55427,"is_passed":false},{"stop_id":"U1687Z2","name":"U hřiště","arrival_time":"9:39:00","departure_time":"9:39:00","lat":49.165806,"lon":16.558562,"is_passed":false},{"stop_id":"U1666Z2","name":"Točná","arrival_time":"9:40:00","departure_time":"9:40:00","lat":49.164745,"lon":16.561481,"is_passed":false},{"stop_id":"U1061Z2","name":"Čermákova","arrival_time":"9:41:00","departure_time":"9:41:00","lat":49.164349,"lon":16.564689,"is_passed":false},{"stop_id":"U1627Z2","name":"Svah","arrival_time":"9:41:00","departure_time":"9:41:00","lat":49.164924,"lon":16.567717,"is_passed":false},{"stop_id":"U1273Z1","name":"Kosmonautů","arrival_time":"9:42:00","departure_time":"9:42:00","lat":49.167006,"lon":16.568017,"is_passed":false},{"stop_id":"U1472Z7","name":"Osová","arrival_time":"9:43:00","departure_time":"9:43:00","lat":49.168951,"lon":16.566714,"is_passed":false},{"stop_id":"U1492Z1","name":"Pod nemocnicí","arrival_time":"9:44:00","departure_time":"9:44:00","lat":49.172412,"lon":16.569624,"is_passed":false},{"stop_id":"U1429Z4","name":"Nemocnice Bohunice","arrival_time":"9:46:00","departure_time":"9:46:00","lat":49.176125,"lon":16.567246,"is_passed":false},{"stop_id":"U1699Z3","name":"Univerzitní kampus","arrival_time":"9:47:00","departure_time":"9:47:00","lat":49.177902,"lon":16.568335,"is_passed":false},{"stop_id":"U1222Z3","name":"Kamenice","arrival_time":"9:48:00","departure_time":"9:48:00","lat":49.177622,"lon":16.573805,"is_passed":false},{"stop_id":"U1411Z1","name":"Mýtná","arrival_time":"9:49:00","departure_time":"9:49:00","lat":49.175033,"lon":16.582359,"is_passed":false},{"stop_id":"U1714Z1","name":"Uzbecká","arrival_time":"9:50:00","departure_time":"9:50:00","lat":49.172343,"lon":16.583318,"is_passed":false},{"stop_id":"U1701Z2","name":"Ukrajinská","arrival_time":"9:51:00","departure_time":"9:51:00","lat":49.170541,"lon":16.584623,"is_passed":false},{"stop_id":"U1122Z2","name":"Gruzínská","arrival_time":"9:52:00","departure_time":"9:52:00","lat":49.166633,"lon":16.586336,"is_passed":false},{"stop_id":"U1774Z2","name":"Za hřbitovem","arrival_time":"9:52:00","departure_time":"9:52:00","lat":49.164318,"lon":16.591448,"is_passed":false},{"stop_id":"U1673Z2","name":"Traťová","arrival_time":"9:53:00","departure_time":"9:53:00","lat":49.163623,"lon":16.595954,"is_passed":false},{"stop_id":"U1031Z6","name":"Bohunická","arrival_time":"9:54:00","departure_time":"9:54:00","lat":49.162697,"lon":16.600443,"is_passed":false},{"stop_id":"U1703Z7","name":"Ústřední hřbitov","arrival_time":"9:56:00","departure_time":"9:56:00","lat":49.170741,"lon":16.597834,"is_passed":false}],"49927":[{"stop_id":"U1703Z7","name":"Ústřední hřbitov","arrival_time":"9:56:00","departure_time":"9:56:00","lat":49.170741,"lon":16.597834,"is_passed":false},{"stop_id":"U1293Z5","name":"Krematorium","arrival_time":"9:58:00","departure_time":"9:58:00","lat":49.172914,"lon":16.590082,"is_passed":false},{"stop_id":"U1714Z3","name":"Uzbecká","arrival_time":"9:59:00","departure_time":"9:59:00","lat":49.173362,"lon":16.581961,"is_passed":false},{"stop_id":"U1610Z1","name":"Stará nemocnice","arrival_time":"10:00:00","departure_time":"10:00:00","lat":49.173643,"lon":16.577115,"is_passed":false},{"stop_id":"U1699Z2","name":"Univerzitní kampus","arrival_time":"10:03:00","departure_time":"10:03:00","lat":49.177455,"lon":16.567173,"is_passed":false},{"stop_id":"U1429Z5","name":"Nemocnice Bohunice","arrival_time":"10:04:00","departure_time":"10:04:00","lat":49.175206,"lon":16.56694,"is_passed":false},{"stop_id":"U1492Z2","name":"Pod nemocnicí","arrival_time":"10:06:00","departure_time":"10:06:00","lat":49.172338,"lon":16.569417,"is_passed":false},{"stop_id":"U1472Z8","name":"Osová","arrival_time":"10:07:00","departure_time":"10:07:00","lat":49.168617,"lon":16.566306,"is_passed":false},{"stop_id":"U1273Z2","name":"Kosmonautů","arrival_time":"10:07:00","departure_time":"10:07:00","lat":49.167124,"lon":16.56745,"is_passed":false},{"stop_id":"U1627Z1","name":"Svah","arrival_time":"10:08:00","departure_time":"10:08:00","lat":49.165199,"lon":16.567969,"is_passed":false},{"stop_id":"U1061Z1","name":"Čermákova","arrival_time":"10:08:00","departure_time":"10:08:00","lat":49.164336,"lon":16.565516,"is_passed":false},{"stop_id":"U1666Z1","name":"Točná","arrival_time":"10:09:00","departure_time":"10:09:00","lat":49.16476,"lon":16.561692,"is_passed":false},{"stop_id":"U1687Z1","name":"U hřiště","arrival_time":"10:10:00","departure_time":"10:10:00","lat":49.166214,"lon":16.558668,"is_passed":false},{"stop_id":"U1097Z5","name":"Dunajská","arrival_time":"10:11:00","departure_time":"10:11:00","lat":49.169618,"lon":16.555308,"is_passed":false},{"stop_id":"U1616Z5","name":"Starý Lískovec, smyčka","arrival_time":"10:12:00","departure_time":"10:12:00","lat":49.172309,"lon":16.553313,"is_passed":false},{"stop_id":"U1202Z1","name":"Jemelkova","arrival_time":"10:13:00","departure_time":"10:13:00","lat":49.173333,"lon":16.548692,"is_passed":false},{"stop_id":"U1568Z1","name":"Skalní","arrival_time":"10:15:00","departure_time":"10:15:00","lat":49.174278,"lon":16.534362,"is_passed":false},{"stop_id":"U1161Z1","name":"Hoštická","arrival_time":"10:16:00","departure_time":"10:16:00","lat":49.173864,"lon":16.528044,"is_passed":false},{"stop_id":"U1037Z1","name":"Bosonohy","arrival_time":"10:18:00","departure_time":"10:52:00","lat":49.17652,"lon":16.525792,"is_passed":false}],"49928":[{"stop_id":"U1037Z2","name":"Bosonohy","arrival_time":"10:52:00","departure_time":"10:52:00","lat":49.176372,"lon":16.525514,"is_passed":false},{"stop_id":"U1161Z2","name":"Hoštická","arrival_time":"10:53:00","departure_time":"10:53:00","lat":49.173917,"lon":16.527822,"is_passed":false},{"stop_id":"U1516Z1","name":"Pražská","arrival_time":"10:54:00","departure_time":"10:54:00","lat":49.173478,"lon":16.531543,"is_passed":false},{"stop_id":"U1568Z2","name":"Skalní","arrival_time":"10:55:00","departure_time":"10:55:00","lat":49.174201,"lon":16.537903,"is_passed":false},{"stop_id":"U1202Z2","name":"Jemelkova","arrival_time":"10:56:00","departure_time":"10:56:00","lat":49.173163,"lon":16.54872,"is_passed":false},