{"499":[{"stop_id":"U12736Z51","name":"Letovice, železniční stanice","arrival_time":"8:57:00","departure_time":"8:57:00","lat":49.555973,"lon":16.570906,"is_passed":false},{"stop_id":"U22702Z2","name":"Letovice zastávka","arrival_time":"8:59:00","departure_time":"9:00:00","lat":49.536152,"lon":16.576186,"is_passed":false},{"stop_id":"U22701Z2","name":"Zboněk","arrival_time":"9:02:00","departure_time":"9:02:00","lat":49.520482,"lon":16.584439,"is_passed":false},{"stop_id":"U22602Z2","name":"Svitávka","arrival_time":"9:05:00","departure_time":"9:05:00","lat":49.499434,"lon":16.599208,"is_passed":false},{"stop_id":"U12676Z51","name":"Skalice nad Svitavou, žel.st.","arrival_time":"9:08:00","departure_time":"9:13:00","lat":49.480123,"lon":16.609726,"is_passed":false},{"stop_id":"U12511Z51","name":"Doubravice, žel.st.","arrival_time":"9:18:00","departure_time":"9:18:00","lat":49.438707,"lon":16.621809,"is_passed":false},{"stop_id":"U12439Z51","name":"Rájec-Jestřebí, železniční stanice","arrival_time":"9:21:00","departure_time":"9:22:00","lat":49.408206,"lon":16.627711,"is_passed":false},{"stop_id":"U22301Z2","name":"Dolní Lhota","arrival_time":"9:24:00","departure_time":"9:25:00","lat":49.386917,"lon":16.633978,"is_passed":false},{"stop_id":"U22302Z2","name":"Blansko město","arrival_time":"9:27:00","departure_time":"9:28:00","lat":49.360996,"lon":16.639464,"is_passed":false},{"stop_id":"U12342Z29","name":"Blansko, aut. st.","arrival_time":"9:30:00","departure_time":"9:31:00","lat":49.352753,"lon":16.646848,"is_passed":false},{"stop_id":"U12231Z11","name":"Adamov, železniční zastávka","arrival_time":"9:36:00","departure_time":"9:37:00","lat":49.300671,"lon":16.650653,"is_passed":false},{"stop_id":"U12230Z11","name":"Adamov, železniční stanice","arrival_time":"9:38:00","departure_time":"9:39:00","lat":49.295341,"lon":16.663538,"is_passed":false},{"stop_id":"U22101Z2","name":"Babice nad Svitavou","arrival_time":"9:42:00","departure_time":"9:42:00","lat":49.276645,"lon":16.673012,"is_passed":false},{"stop_id":"U12158Z11","name":"Bílovice nad Svitavou, žel. stanice","arrival_time":"9:46:00","departure_time":"9:47:00","lat":49.242715,"lon":16.673677,"is_passed":false},{"stop_id":"U1809Z11","name":"Židenice, nádraží","arrival_time":"9:52:00","departure_time":"9:52:00","lat":49.204282,"lon":16.636042,"is_passed":false},{"stop_id":"U1146Z98","name":"Hlavní nádraží","arrival_time":"9:59:00","departure_time":"10:06:00","lat":49.19035,"lon":16.612342,"is_passed":false},{"stop_id":"U1183Z11","name":"Chrlice, nádraží","arrival_time":"10:14:00","departure_time":"10:17:00","lat":49.132031,"lon":16.657232,"is_passed":false},{"stop_id":"U16149Z11","name":"Sokolnice, železniční stanice","arrival_time":"10:23:00","departure_time":"10:24:00","lat":49.108029,"lon":16.733459,"is_passed":false},{"stop_id":"U26101Z2","name":"Újezd u Brna","arrival_time":"10:25:00","departure_time":"10:26:00","lat":49.107297,"lon":16.745564,"is_passed":false},{"stop_id":"U26102Z2","name":"Hostěrádky-Rešov","arrival_time":"10:29:00","departure_time":"10:29:00","lat":49.119822,"lon":16.782755,"is_passed":false},{"stop_id":"U26201Z2","name":"Zbýšov","arrival_time":"10:32:00","departure_time":"10:32:00","lat":49.132691,"lon":16.806859,"is_passed":false},{"stop_id":"U16212Z11","name":"Křenovice, hor. žel. st.","arrival_time":"10:35:00","departure_time":"10:58:00","lat":49.143553,"lon":16.824564,"is_passed":false}],"4990":[{"stop_id":"U15116Z2","name":"Nebovidy, dolní konec","arrival_time":"13:54:00","departure_time":"13:54:00","lat":49.141953,"lon":16.54915,"is_passed":false},{"stop_id":"U15118Z2","name":"Nebovidy, u kostela","arrival_time":"13:55:00","departure_time":"13:55:00","lat":49.141783,"lon":16.554006,"is_passed":false},{"stop_id":"U15114Z2","name":"Moravany, Hlavní","arrival_time":"13:59:00","departure_time":"13:59:00","lat":49.147097,"lon":16.578552,"is_passed":false},{"stop_id":"U15113Z2","name":"Moravany, Bohunická cesta","arrival_time":"14:00:00","departure_time":"14:00:00","lat":49.151006,"lon":16.583777,"is_passed":false},{"stop_id":"U1549Z2","name":"Rozhraní","arrival_time":"14:01:00","departure_time":"14:01:00","lat":49.155698,"lon":16.592118,"is_passed":false},{"stop_id":"U1466Z55","name":"Ořechovská","arrival_time":"14:03:00","departure_time":"14:03:00","lat":49.156238,"lon":16.599375,"is_passed":false},{"stop_id":"U1141Z2","name":"Heršpická","arrival_time":"14:06:00","departure_time":"14:06:00","lat":49.170473,"lon":16.599896,"is_passed":false},{"stop_id":"U1703Z5","name":"Ústřední hřbitov","arrival_time":"14:10:00","departure_time":"14:42:00","lat":49.171604,"lon":16.597316,"is_passed":false}],"4991":[{"stop_id":"U1703Z6","name":"Ústřední hřbitov","arrival_time":"14:42:00","departure_time":"14:42:00","lat":49.170744,"lon":16.597612,"is_passed":false},{"stop_id":"U1466Z5","name":"Ořechovská","arrival_time":"14:45:00","departure_time":"14:45:00","lat":49.156238,"lon":16.599375,"is_passed":false},{"stop_id":"U1549Z1","name":"Rozhraní","arrival_time":"14:46:00","departure_time":"14:46:00","lat":49.155854,"lon":16.592288,"is_passed":false},{"stop_id":"U15113Z1","name":"Moravany, Bohunická cesta","arrival_time":"14:47:00","departure_time":"14:47:00","lat":49.15089,"lon":16.583503,"is_passed":false},{"stop_id":"U15114Z1","name":"Moravany, Hlavní","arrival_time":"14:48:00","departure_time":"14:48:00","lat":49.147228,"lon":16.578896,"is_passed":false},{"stop_id":"U15115Z1","name":"Moravany, Nebovidská","arrival_time":"14:49:00","departure_time":"14:49:00","lat":49.147983,"lon":16.569237,"is_passed":false},{"stop_id":"U15118Z1","name":"Nebovidy, u kostela","arrival_time":"14:51:00","departure_time":"14:51:00","lat":49.141636,"lon":16.553667,"is_passed":false},{"stop_id":"U15116Z1","name":"Nebovidy, dolní konec","arrival_time":"14:52:00","departure_time":"14:54:00","lat":49.142128,"lon":16.549075,"is_passed":false}],"4992":[{"stop_id":"U15116Z2","name":"Nebovidy, dolní konec","arrival_time":"14:54:00","departure_time":"14:54:00","lat":49.141953,"lon":16.54915,"is_passed":false},{"stop_id":"U15118Z2","name":"Nebovidy, u kostela","arrival_time":"14:55:00","departure_time":"14:55:00","lat":49.141783,"lon":16.554006,"is_passed":false},{"stop_id":"U15114Z2","name":"Moravany, Hlavní","arrival_time":"14:59:00","departure_time":"14:59:00","lat":49.147097,"lon":16.578552,"is_passed":false},{"stop_id":"U15113Z2","name":"Moravany, Bohunická cesta","arrival_time":"15:00:00","departure_time":"15:00:00","lat":49.151006,"lon":16.583777,"is_passed":false},{"stop_id":"U1549Z2","name":"Rozhraní","arrival_time":"15:01:00","departure_time":"15:01:00","lat":49.155698,"lon":16.592118,"is_passed":false},{"stop_id":"U1466Z55","name":"Ořechovská","arrival_time":"15:03:00","departure_time":"15:03:00","lat":49.156238,"lon":16.599375,"is_passed":false},{"stop_id":"U1141Z2","name":"Heršpická","arrival_time":"15:06:00","departure_time":"15:06:00","lat":49.170473,"lon":16.599896,"is_passed":false},{"stop_id":"U1703Z5","name":"Ústřední hřbitov","arrival_time":"15:10:00","departure_time":"15:12:00","lat":49.171604,"lon":16.597316,"is_passed":false}],"4993":[{"stop_id":"U1703Z6","name":"Ústřední hřbitov","arrival_time":"15:12:00","departure_time":"15:12:00","lat":49.170744,"lon":16.597612,"is_passed":false},{"stop_id":"U1466Z5","name":"Ořechovská","arrival_time":"15:15:00","departure_time":"15:15:00","lat":49.156238,"lon":16.599375,"is_passed":false},{"stop_id":"U1549Z1","name":"Rozhraní","arrival_time":"15:16:00","departure_time":"15:16:00","lat":49.155854,"lon":16.592288,"is_passed":false},{"stop_id":"U15113Z1","name":"Moravany, Bohunická cesta","arrival_time":"15:17:00","departure_time":"15:17:00","lat":49.15089,"lon":16.583503,"is_passed":false},{"stop_id":"U15114Z1","name":"Moravany, Hlavní","arrival_time":"15:18:00","departure_time":"15:18:00","lat":49.147228,"lon":16.578896,"is_passed":false},{"stop_id":"U15115Z1","name":"Moravany, Nebovidská","arrival_time":"15:19:00","departure_time":"15:19:00","lat":49.147983,"lon":16.569237,"is_passed":false},{"stop_id":"U15118Z1","name":"Nebovidy, u kostela","arrival_time":"15:21:00","departure_time":"15:21:00","lat":49.141636,"lon":16.553667,"is_passed":false},{"stop_id":"U15116Z1","name":"Nebovidy, dolní konec","arrival_time":"15:22:00","departure_time":"15:34:00","lat":49.142128,"lon":16.549075,"is_passed":false}],"4994":[{"stop_id":"U15116Z2","name":"Nebovidy, dolní konec","arrival_time":"15:34:00","departure_time":"15:34:00","lat":49.141953,"lon":16.54915,"is_passed":false},{"stop_id":"U15118Z2","name":"Nebovidy, u kostela","arrival_time":"15:35:00","departure_time":"15:35:00","lat":49.141783,"lon":16.554006,"is_passed":false},{"stop_id":"U15114Z2","name":"Moravany, Hlavní","arrival_time":"15:39:00","departure_time":"15:39:00","lat":49.147097,"lon":16.578552,"is_passed":false},{"stop_id":"U15113Z2","name":"Moravany, Bohunická cesta","arrival_time":"15:40:00","departure_time":"15:40:00","lat":49.151006,"lon":16.583777,"is_passed":false},{"stop_id":"U1549Z2","name":"Rozhraní","arrival_time":"15:41:00","departure_time":"15:41:00","lat":49.155698,"lon":16.592118,"is_passed":false},{"stop_id":"U1466Z55","name":"Ořechovská","arrival_time":"15:43:00","departure_time":"15:43:00","lat":49.156238,"lon":16.599375,"is_passed":false},{"stop_id":"U1141Z2","name":"Heršpická","arrival_time":"15:46:00","departure_time":"15:46:00","lat":49.170473,"lon":16.599896,"is_passed":false},{"stop_id":"U1703Z5","name":"Ústřední hřbitov","arrival_time":"15:50:00","departure_time":"16:02:00","lat":49.171604,"lon":16.597316,"is_passed":false}],"4995":[{"stop_id":"U1703Z6","name":"Ústřední hřbitov","arrival_time":"16:02:00","departure_time":"16:02:00","lat":49.170744,"lon":16.597612,"is_passed":false},{"stop_id":"U1466Z5","name":"Ořechovská","arrival_time":"16:05:00","departure_time":"16:05:00","lat":49.156238,"lon":16.599375,"is_passed":false},{"stop_id":"U1549Z1","name":"Rozhraní","arrival_time":"16:06:00","departure_time":"16:06:00","lat":49.155854,"lon":16.592288,"is_passed":false},{"stop_id":"U15113Z1","name":"Moravany, Bohunická cesta","arrival_time":"16:07:00","departure_time":"16:07:00","lat":49.15089,"lon":16.583503,"is_passed":false},{"stop_id":"U15114Z1","name":"Moravany, Hlavní","arrival_time":"16:08:00","departure_time":"16:08:00","lat":49.147228,"lon":16.578896,"is_passed":false},{"stop_id":"U15115Z1","name":"Moravany, Nebovidská","arrival_time":"16:09:00","departure_time":"16:09:00","lat":49.147983,"lon":16.569237,"is_passed":false},{"stop_id":"U15118Z1","name":"Nebovidy, u kostela","arrival_time":"16:11:00","departure_time":"16:11:00","lat":49.141636,"lon":16.553667,"is_passed":false},{"stop_id":"U15116Z1","name":"Nebovidy, dolní konec","arrival_time":"16:12:00","departure_time":"16:34:00","lat":49.142128,"lon":16.549075,"is_passed":false}],"4996":[{"stop_id":"U15116Z2","name":"Nebovidy, dolní konec","arrival_time":"16:34:00","departure_time":"16:34:00","lat":49.141953,"lon":16.54915,"is_passed":false},{"stop_id":"U15118Z2","name":"Nebovidy, u kostela","arrival_time":"16:35:00","departure_time":"16:35:00","lat":49.141783,"lon":16.554006,"is_passed":false},{"stop_id":"U15114Z2","name":"Moravany, Hlavní","arrival_time":"16:39:00","departure_time":"16:39:00","lat":49.147097,"lon":16.578552,"is_passed":false},{"stop_id":"U15113Z2","name":"Moravany, Bohunická cesta","arrival_time":"16:40:00","departure_time":"16:40:00","lat":49.151006,"lon":16.583777,"is_passed":false},{"stop_id":"U1549Z2","name":"Rozhraní","arrival_time":"16:41:00","departure_time":"16:41:00","lat":49.155698,"lon":16.592118,"is_passed":false},{"stop_id":"U1466Z55","name":"Ořechovská","arrival_time":"16:43:00","departure_time":"16:43:00","lat":49.156238,"lon":16.599375,"is_passed":false},{"stop_id":"U1141Z2","name":"Heršpická","arrival_time":"16:46:00","departure_time":"16:46:00","lat":49.170473,"lon":16.599896,"is_passed":false},{"stop_id":"U1703Z5","name":"Ústřední hřbitov","arrival_time":"16:50:00","departure_time":"17:02:00","lat":49.171604,"lon":16.597316,"is_passed":false}],"4997":[{"stop_id":"U1703Z6","name":"Ústřední hřbitov","arrival_time":"17:02:00","departure_time":"17:02:00","lat":49.170744,"lon":16.597612,"is_passed":false},{"stop_id":"U1466Z5","name":"Ořechovská","arrival_time":"17:05:00","departure_time":"17:05:00","lat":49.156238,"lon":16.599375,"is_passed":false},{"stop_id":"U1549Z1","name":"Rozhraní","arrival_time":"17:06:00","departure_time":"17:06:00","lat":49.155854,"lon":16.592288,"is_passed":false},{"stop_id":"U15113Z1","name":"Moravany, Bohunická cesta","arrival_time":"17:07:00","departure_time":"17:07:00","lat":49.15089,"lon":16.583503,"is_passed":false},{"stop_id":"U15114Z1","name":"Moravany, Hlavní","arrival_time":"17:08:00","departure_time":"17:08:00","lat":49.147228,"lon":16.578896,"is_passed":false},{"stop_id":"U15115Z1","name":"Moravany, Nebovidská","arrival_time":"17:09:00","departure_time":"17:09:00","lat":49.147983,"lon":16.569237,"is_passed":false},{"stop_id":"U15118Z1","name":"Nebovidy, u kostela","arrival_time":"17:11:00","departure_time":"17:11:00","lat":49.141636,"lon":16.553667,"is_passed":false},{"stop_id":"U15116Z1","name":"Nebovidy, dolní konec","arrival_time":"17:12:00","departure_time":"17:24:00","lat":49.142128,"lon":16.549075,"is_passed":false}],"4998":[{"stop_id":"U15116Z2","name":"Nebovidy, dolní konec","arrival_time":"17:24:00","departure_time":"17:24:00","lat":49.141953,"lon":16.54915,"is_passed":false},{"stop_id":"U15118Z2","name":"Nebovidy, u kostela","arrival_time":"17:25:00","departure_time":"17:25:00","lat":49.141783,"lon":16.554006,"is_passed":false},{"stop_id":"U15114Z2","name":"Moravany, Hlavní","arrival_time":"17:29:00","departure_time":"17:29:00","lat":49.147097,"lon":16.578552,"is_passed":false},{"stop_id":"U15113Z2","name":"Moravany, Bohunická cesta","arrival_time":"17:30:00","departure_time":"17:30:00","lat":49.151006,"lon":16.583777,"is_passed":false},{"stop_id":"U1549Z2","name":"Rozhraní","arrival_time":"17:31:00","departure_time":"17:31:00","lat":49.155698,"lon":16.592118,"is_passed":false},{"stop_id":"U1466Z55","name":"Ořechovská","arrival_time":"17:33:00","departure_time":"17:33:00","lat":49.156238,"lon":16.599375,"is_passed":false},{"stop_id":"U1141Z2","name":"Heršpická","arrival_time":"17:36:00","departure_time":"17:36:00","lat":49.170473,"lon":16.599896,"is_passed":false},{"stop_id":"U1703Z5","name":"Ústřední hřbitov","arrival_time":"17:40:00","departure_time":"18:02:00","lat":49.171604,"lon":16.597316,"is_passed":false}],"4999":[{"stop_id":"U1703Z6","name":"Ústřední hřbitov","arrival_time":"18:02:00","departure_time":"18:02:00","lat":49.170744,"lon":16.597612,"is_passed":false},{"stop_id":"U1466Z5","name":"Ořechovská","arrival_time":"18:05:00","departure_time":"18:05:00","lat":49.156238,"lon":16.599375,"is_passed":false},{"stop_id":"U1549Z1","name":"Rozhraní","arrival_time":"18:06:00","departure_time":"18:06:00","lat":49.155854,"lon":16.592288,"is_passed":false},{"stop_id":"U15113Z1","name":"Moravany, Bohunická cesta","arrival_time":"18:07:00","departure_time":"18:07:00","lat":49.15089,"lon":16.583503,"is_passed":false},{"stop_id":"U15114Z1","name":"Moravany, Hlavní","arrival_time":"18:08:00","departure_time":"18:08:00","lat":49.147228,"lon":16.578896,"is_passed":false},{"stop_id":"U15115Z1","name":"Moravany, Nebovidská","arrival_time":"18:09:00","departure_time":"18:09:00","lat":49.147983,"lon":16.569237,"is_passed":false},{"stop_id":"U15118Z1","name":"Nebovidy, u kostela","arrival_time":"18:11:00","departure_time":"18:11:00","lat":49.141636,"lon":16.553667,"is_passed":false},{"stop_id":"U15116Z1","name":"Nebovidy, dolní konec","arrival_time":"18:12:00","departure_time":"18:24:00","lat":49.142128,"lon":16.549075,"is_passed":false}],"49900":[{"stop_id":"U1371Z2","name":"Náměstí Míru","arrival_time":"17:49:00","departure_time":"17:49:00","lat":49.201971,"lon":16.581885,"is_passed":false},{"stop_id":"U1137Z1","name":"Heinrichova","arrival_time":"17:49:00","departure_time":"17:49:00","lat":49.200413,"lon":16.584511,"is_passed":false},{"stop_id":"U1762Z2","name":"Všetičkova","arrival_time":"17:51:00","departure_time":"17:51:00","lat":49.198648,"lon":16.589335,"is_passed":false},{"stop_id":"U1712Z2","name":"Úvoz","arrival_time":"17:52:00","departure_time":"17:52:00","lat":49.198275,"lon":16.593189,"is_passed":false},{"stop_id":"U1442Z2","name":"Obilní trh","arrival_time":"17:53:00","departure_time":"17:53:00","lat":49.198022,"lon":16.598215,"is_passed":false},{"stop_id":"U1257Z2","name":"Komenského náměstí","arrival_time":"17:55:00","departure_time":"17:55:00","lat":49.197135,"lon":16.602612,"is_passed":false},{"stop_id":"U1073Z2","name":"Česká","arrival_time":"17:57:00","departure_time":"17:57:00","lat":49.197702,"lon":16.606463,"is_passed":false},{"stop_id":"U1423Z1","name":"Náměstí Svobody","arrival_time":"17:58:00","departure_time":"17:58:00","lat":49.19564,"lon":16.607991,"is_passed":false},{"stop_id":"U1784Z1","name":"Zelný trh","arrival_time":"18:00:00","departure_time":"18:00:00","lat":49.192725,"lon":16.610226,"is_passed":false},{"stop_id":"U1146Z2","name":"Hlavní nádraží","arrival_time":"18:02:00","departure_time":"18:02:00","lat":49.191394,"lon":16.612548,"is_passed":false},{"stop_id":"U1357Z2","name":"Malinovského náměstí","arrival_time":"18:04:00","departure_time":"18:04:00","lat":49.195034,"lon":16.614825,"is_passed":false},{"stop_id":"U1271Z1","name":"Körnerova","arrival_time":"18:06:00","departure_time":"18:06:00","lat":49.19828,"lon":16.619945,"is_passed":false},{"stop_id":"U1663Z1","name":"Tkalcovská","arrival_time":"18:08:00","departure_time":"18:08:00","lat":49.200261,"lon":16.626109,"is_passed":false},{"stop_id":"U1676Z1","name":"Trávníčkova","arrival_time":"18:10:00","departure_time":"18:10:00","lat":49.204439,"lon":16.625679,"is_passed":false},{"stop_id":"U1398Z1","name":"Mostecká","arrival_time":"18:11:00","departure_time":"18:11:00","lat":49.20703,"lon":16.627792,"is_passed":false},{"stop_id":"U1434Z1","name":"Vozovna Husovice","arrival_time":"18:12:00","departure_time":"18:12:00","lat":49.208331,"lon":16.629789,"is_passed":false},{"stop_id":"U1422Z1","name":"Náměstí Republiky","arrival_time":"18:13:00","departure_time":"18:13:00","lat":49.210591,"lon":16.633523,"is_passed":false},{"stop_id":"U1668Z1","name":"Tomkovo náměstí","arrival_time":"18:15:00","departure_time":"18:15:00","lat":49.214035,"lon":16.636587,"is_passed":false},{"stop_id":"U1358Z2","name":"Maloměřický most","arrival_time":"18:16:00","departure_time":"18:16:00","lat":49.215518,"lon":16.642987,"is_passed":false},{"stop_id":"U1521Z1","name":"Proškovo náměstí","arrival_time":"18:17:00","departure_time":"18:17:00","lat":49.220207,"lon":16.643397,"is_passed":false},{"stop_id":"U1447Z1","name":"Obřanská - u školy","arrival_time":"18:18:00","departure_time":"18:18:00","lat":49.222872,"lon":16.644811,"is_passed":false},{"stop_id":"U1077Z1","name":"Čtvery hony","arrival_time":"18:19:00","departure_time":"18:19:00","lat":49.226227,"lon":16.645584,"is_passed":false},{"stop_id":"U1448Z1","name":"Obřanský most","arrival_time":"18:20:00","departure_time":"18:20:00","lat":49.227602,"lon":16.650226,"is_passed":false},{"stop_id":"U1014Z1","name":"Babická","arrival_time":"18:22:00","departure_time":"18:42:00","lat":49.228004,"lon":16.652555,"is_passed":false}],"49901":[{"stop_id":"U1014Z2","name":"Babická","arrival_time":"18:42:00","departure_time":"18:42:00","lat":49.228129,"lon":16.652126,"is_passed":false},{"stop_id":"U1448Z2","name":"Obřanský most","arrival_time":"18:42:00","departure_time":"18:42:00","lat":49.227463,"lon":16.649577,"is_passed":false},{"stop_id":"U1077Z2","name":"Čtvery hony","arrival_time":"18:43:00","departure_time":"18:43:00","lat":49.225534,"lon":16.644942,"is_passed":false},{"stop_id":"U1447Z2","name":"Obřanská - u školy","arrival_time":"18:44:00","departure_time":"18:44:00","lat":49.22256,"lon":16.644731,"is_passed":false},{"stop_id":"U1521Z2","name":"Proškovo náměstí","arrival_time":"18:45:00","departure_time":"18:45:00","lat":49.21983,"lon":16.643286,"is_passed":false},{"stop_id":"U1358Z1","name":"Maloměřický most","arrival_time":"18:46:00","departure_time":"18:46:00","lat":49.21558,"lon":16.642601,"is_passed":false},{"stop_id":"U1668Z2","name":"Tomkovo náměstí","arrival_time":"18:48:00","departure_time":"18:48:00","lat":49.213819,"lon":16.636067,"is_passed":false},{"stop_id":"U1422Z2","name":"Náměstí Republiky","arrival_time":"18:49:00","departure_time":"18:49:00","lat":49.211428,"lon":16.634106,"is_passed":false},{"stop_id":"U1434Z2","name":"Vozovna Husovice","arrival_time":"18:50:00","departure_time":"18:50:00","lat":49.208534,"lon":16.629847,"is_passed":false},{"stop_id":"U1398Z2","name":"Mostecká","arrival_time":"18:52:00","departure_time":"18:52:00","lat":49.206873,"lon":16.626866,"is_passed":false},{"stop_id":"U1676Z2","name":"Trávníčkova","arrival_time":"18:53:00","departure_time":"18:53:00","lat":49.204401,"lon":16.625637,"is_passed":false},{"stop_id":"U1663Z2","name":"Tkalcovská","arrival_time":"18:55:00","departure_time":"18:55:00","lat":49.199805,"lon":16.625934,"is_passed":false},{"stop_id":"U1271Z2","name":"Körnerova","arrival_time":"18:56:00","departure_time":"18:56:00","lat":49.198152,"lon":16.619504,"is_passed":false},{"stop_id":"U1357Z1","name":"Malinovského náměstí","arrival_time":"18:59:00","departure_time":"18:59:00","lat":49.195492,"lon":16.61386,"is_passed":false},{"stop_id":"U1146Z1","name":"Hlavní nádraží","arrival_time":"19:02:00","departure_time":"19:02:00","lat":49.191185,"lon":16.611879,"is_passed":false},{"stop_id":"U1784Z2","name":"Zelný trh","arrival_time":"19:03:00","departure_time":"19:03:00","lat":49.19333,"lon":16.609624,"is_passed":false},{"stop_id":"U1423Z2","name":"Náměstí Svobody","arrival_time":"19:05:00","departure_time":"19:05:00","lat":49.195682,"lon":16.608015,"is_passed":false},{"stop_id":"U1073Z1","name":"Česká","arrival_time":"19:07:00","departure_time":"19:07:00","lat":49.197618,"lon":16.605584,"is_passed":false},{"stop_id":"U1257Z1","name":"Komenského náměstí","arrival_time":"19:08:00","departure_time":"19:08:00","lat":49.197047,"lon":16.601844,"is_passed":false},{"stop_id":"U1442Z1","name":"Obilní trh","arrival_time":"19:09:00","departure_time":"19:09:00","lat":49.198221,"lon":16.597478,"is_passed":false},{"stop_id":"U1712Z1","name":"Úvoz","arrival_time":"19:10:00","departure_time":"19:10:00","lat":49.19829,"lon":16.59265,"is_passed":false},{"stop_id":"U1762Z1","name":"Všetičkova","arrival_time":"19:11:00","departure_time":"19:11:00","lat":49.198749,"lon":16.588757,"is_passed":false},{"stop_id":"U1371Z1","name":"Náměstí Míru","arrival_time":"19:14:00","departure_time":"19:36:00","lat":49.202197,"lon":16.582014,"is_passed":false}],"49902":[{"stop_id":"U1371Z2","name":"Náměstí Míru","arrival_time":"19:36:00","departure_time":"19:36:00","lat":49.201971,"lon":16.581885,"is_passed":false},{"stop_id":"U1137Z1","name":"Heinrichova","arrival_time":"19:36:00","departure_time":"19:36:00","lat":49.200413,"lon":16.584511,"is_passed":false},{"stop_id":"U1762Z2","name":"Všetičkova","arrival_time":"19:37:00","departure_time":"19:37:00","lat":49.198648,"lon":16.589335,"is_passed":false},{"stop_id":"U1712Z2","name":"Úvoz","arrival_time":"19:38:00","departure_time":"19:38:00","lat":49.198275,"lon":16.593189,"is_passed":false},{"stop_id":"U1442Z2","name":"Obilní trh","arrival_time":"19:39:00","departure_time":"19:39:00","lat":49.198022,"lon":16.598215,"is_passed":false},{"stop_id":"U1257Z2","name":"Komenského náměstí","arrival_time":"19:41:00","departure_time":"19:41:00","lat":49.197135,"lon":16.602612,"is_passed":false},{"stop_id":"U1073Z2","name":"Česká","arrival_time":"19:43:00","departure_time":"19:43:00","lat":49.197702,"lon":16.606463,"is_passed":false},{"stop_id":"U1423Z1","name":"Náměstí Svobody","arrival_time":"19:44:00","departure_time":"19:44:00","lat":49.19564,"lon":16.607991,"is_passed":false},{"stop_id":"U1784Z1","name":"Zelný trh","arrival_time":"19:46:00","departure_time":"19:46:00","lat":49.192725,"lon":16.610226,"is_passed":false},{"stop_id":"U1146Z2","name":"Hlavní nádraží","arrival_time":"19:48:00","departure_time":"19:48:00","lat":49.191394,"lon":16.612548,"is_passed":false},{"stop_id":"U1357Z2","name":"Malinovského náměstí","arrival_time":"19:50:00","departure_time":"19:50:00","lat":49.195034,"lon":16.614825,"is_passed":false},{"stop_id":"U1271Z1","name":"Körnerova","arrival_time":"19:52:00","departure_time":"19:52:00","lat":49.19828,"lon":16.619945,"is_passed":false},{"stop_id":"U1663Z1","name":"Tkalcovská","arrival_time":"19:54:00","departure_time":"19:54:00","lat":49.200261,"lon":16.626109,"is_passed":false},{"stop_id":"U1676Z1","name":"Trávníčkova","arrival_time":"19:56:00","departure_time":"19:56:00","lat":49.204439,"lon":16.625679,"is_passed":false},{"stop_id":"U1398Z1","name":"Mostecká","arrival_time":"19:57:00","departure_time":"19:57:00","lat":49.20703,"lon":16.627792,"is_passed":false},{"stop_id":"U1434Z1","name":"Vozovna Husovice","arrival_time":"19:58:00","departure_time":"19:58:00","lat":49.208331,"lon":16.629789,"is_passed":false},{"stop_id":"U1422Z1","name":"Náměstí Republiky","arrival_time":"19:59:00","departure_time":"19:59:00","lat":49.210591,"lon":16.633523,"is_passed":false},{"stop_id":"U1668Z1","name":"Tomkovo náměstí","arrival_time":"20:01:00","departure_time":"20:01:00","lat":49.214035,"lon":16.636587,"is_passed":false},{"stop_id":"U1358Z2","name":"Maloměřický most","arrival_time":"20:02:00","departure_time":"20:02:00","lat":49.215518,"lon":16.642987,"is_passed":false},{"stop_id":"U1521Z1","name":"Proškovo náměstí","arrival_time":"20:03:00","departure_time":"20:03:00","lat":49.220207,"lon":16.643397,"is_passed":false},{"stop_id":"U1447Z1","name":"Obřanská - u školy","arrival_time":"20:04:00","departure_time":"20:04:00","lat":49.222872,"lon":16.644811,"is_passed":false},{"stop_id":"U1077Z1","name":"Čtvery hony","arrival_time":"20:05:00","departure_time":"20:05:00","lat":49.226227,"lon":16.645584,"is_passed":false},{"stop_id":"U1448Z1","name":"Obřanský most","arrival_time":"20:06:00","departure_time":"20:06:00","lat":49.227602,"lon":16.650226,"is_passed":false},{"stop_id":"U1014Z1","name":"Babická","arrival_time":"20:08:00","departure_time":"20:24:00","lat":49.228004,"lon":16.652555,"is_passed":false}],"49903":[{"stop_id":"U1014Z2","name":"Babická","arrival_time":"20:24:00","departure_time":"20:24:00","lat":49.228129,"lon":16.652126,"is_passed":false},{"stop_id":"U1448Z2","name":"Obřanský most","arrival_time":"20:24:00","departure_time":"20:24:00","lat":49.227463,"lon":16.649577,"is_passed":false},{"stop_id":"U1077Z2","name":"Čtvery hony","arrival_time":"20:25:00","departure_time":"20:25:00","lat":49.225534,"lon":16.644942,"is_passed":false},{"stop_id":"U1447Z2","name":"Obřanská - u školy","arrival_time":"20:26:00","departure_time":"20:26:00","lat":49.22256,"lon":16.644731,"is_passed":false},{"stop_id":"U1521Z2","name":"Proškovo náměstí","arrival_time":"20:27:00","departure_time":"20:27:00","lat":49.21983,"lon":16.643286,"is_passed":false},{"stop_id":"U1358Z1","name":"Maloměřický most","arrival_time":"20:28:00","departure_time":"20:28:00","lat":49.21558,"lon":16.642601,"is_passed":false},{"stop_id":"U1668Z2","name":"Tomkovo náměstí","arrival_time":"20:30:00","departure_time":"20:30:00","lat":49.213819,"lon":16.636067,"is_passed":false},{"stop_id":"U1422Z2","name":"Náměstí Republiky","arrival_time":"20:31:00","departure_time":"20:31:00","lat":49.211428,"lon":16.634106,"is_passed":false},{"stop_id":"U1434Z2","name":"Vozovna Husovice","arrival_time":"20:32:00","departure_time":"20:32:00","lat":49.208534,"lon":16.629847,"is_passed":false},{"stop_id":"U1398Z2","name":"Mostecká","arrival_time":"20:34:00","departure_time":"20:34:00","lat":49.206873,"lon":16.626866,"is_passed":false},{"stop_id":"U1676Z2","name":"Trávníčkova","arrival_time":"20:35:00","departure_time":"20:35:00","lat":49.204401,"lon":16.625637,"is_passed":false},{"stop_id":"U1663Z2","name":"Tkalcovská","arrival_time":"20:37:00","departure_time":"20:37:00","lat":49.199805,"lon":16.625934,"is_passed":false},{"stop_id":"U1271Z2","name":"Körnerova","arrival_time":"20:38:00","departure_time":"20:38:00","lat":49.198152,"lon":16.619504,"is_passed":false},{"stop_id":"U1357Z1","name":"Malinovského náměstí","arrival_time":"20:40:00","departure_time":"20:40:00","lat":49.195492,"lon":16.61386,"is_passed":false},{"stop_id":"U1146Z1","name":"Hlavní nádraží","arrival_time":"20:43:00","departure_time":"20:45:00","lat":49.191185,"lon":16.611879,"is_passed":false},{"stop_id":"U1784Z2","name":"Zelný trh","arrival_time":"20:46:00","departure_time":"20:46:00","lat":49.19333,"lon":16.609624,"is_passed":false},{"stop_id":"U1423Z2","name":"Náměstí Svobody","arrival_time":"20:48:00","departure_time":"20:48:00","lat":49.195682,"lon":16.608015,"is_passed":false},{"stop_id":"U1073Z1","name":"Česká","arrival_time":"20:50:00","departure_time":"20:50:00","lat":49.197618,"lon":16.605584,"is_passed":false},{"stop_id":"U1257Z1","name":"Komenského náměstí","arrival_time":"20:51:00","departure_time":"20:51:00","lat":49.197047,"lon":16.601844,"is_passed":false},{"stop_id":"U1442Z1","name":"Obilní trh","arrival_time":"20:52:00","departure_time":"20:52:00","lat":49.198221,"lon":16.597478,"is_passed":false},{"stop_id":"U1712Z1","name":"Úvoz","arrival_time":"20:53:00","departure_time":"20:53:00","lat":49.19829,"lon":16.59265,"is_passed":false},{"stop_id":"U1762Z1","name":"Všetičkova","arrival_time":"20:54:00","departure_time":"20:54:00","lat":49.198749,"lon":16.588757,"is_passed":false},{"stop_id":"U1371Z1","name":"Náměstí Míru","arrival_time":"20:57:00","departure_time":"21:08:00","lat":49.202197,"lon":16.582014,"is_passed":false}],"49904":[{"stop_id":"U1371Z2","name":"Náměstí Míru","arrival_time":"21:08:00","departure_time":"21:08:00","lat":49.201971,"lon":16.581885,"is_passed":false},{"stop_id":"U1137Z1","name":"Heinrichova","arrival_time":"21:08:00","departure_time":"21:08:00","lat":49.200413,"lon":16.584511,"is_passed":false},{"stop_id":"U1762Z2","name":"Všetičkova","arrival_time":"21:09:00","departure_time":"21:09:00","lat":49.198648,"lon":16.589335,"is_passed":false},{"stop_id":"U1712Z2","name":"Úvoz","arrival_time":"21:10:00","departure_time":"21:10:00","lat":49.198275,"lon":16.593189,"is_passed":false},{"stop_id":"U1442Z2","name":"Obilní trh","arrival_time":"21:11:00","departure_time":"21:11:00","lat":49.198022,"lon":16.598215,"is_passed":false},{"stop_id":"U1257Z2","name":"Komenského náměstí","arrival_time":"21:13:00","departure_time":"21:13:00","lat":49.197135,"lon":16.602612,"is_passed":false},{"stop_id":"U1073Z2","name":"Česká","arrival_time":"21:15:00","departure_time":"21:15:00","lat":49.197702,"lon":16.606463,"is_passed":false},{"stop_id":"U1423Z1","name":"Náměstí Svobody","arrival_time":"21:16:00","departure_time":"21:16:00","lat":49.19564,"lon":16.607991,"is_passed":false},{"stop_id":"U1784Z1","name":"Zelný trh","arrival_time":"21:18:00","departure_time":"21:18:00","lat":49.192725,"lon":16.610226,"is_passed":false},{"stop_id":"U1146Z2","name":"Hlavní nádraží","arrival_time":"21:20:00","departure_time":"21:22:00","lat":49.191394,"lon":16.612548,"is_passed":false},{"stop_id":"U1357Z2","name":"Malinovského náměstí","arrival_time":"21:23:00","departure_time":"21:23:00","lat":49.195034,"lon":16.614825,"is_passed":false},{"stop_id":"U1271Z1","name":"Körnerova","arrival_time":"21:25:00","departure_time":"21:25:00","lat":49.19828,"lon":16.619945,"is_passed":false},{"stop_id":"U1663Z1","name":"Tkalcovská","arrival_time":"21:26:00","departure_time":"21:26:00","lat":49.200261,"lon":16.626109,"is_passed":false},{"stop_id":"U1676Z1","name":"Trávníčkova","arrival_time":"21:28:00","departure_time":"21:28:00","lat":49.204439,"lon":16.625679,"is_passed":false},{"stop_id":"U1398Z1","name":"Mostecká","arrival_time":"21:29:00","departure_time":"21:29:00","lat":49.20703,"lon":16.627792,"is_passed":false},{"stop_id":"U1434Z1","name":"Vozovna Husovice","arrival_time":"21:30:00","departure_time":"21:30:00","lat":49.208331,"lon":16.629789,"is_passed":false},{"stop_id":"U1422Z1","name":"Náměstí Republiky","arrival_time":"21:31:00","departure_time":"21:31:00","lat":49.210591,"lon":16.633523,"is_passed":false},{"stop_id":"U1668Z1","name":"Tomkovo náměstí","arrival_time":"21:33:00","departure_time":"21:33:00","lat":49.214035,"lon":16.636587,"is_passed":false},{"stop_id":"U1358Z2","name":"Maloměřický most","arrival_time":"21:34:00","departure_time":"21:34:00","lat":49.215518,"lon":16.642987,"is_passed":false},{"stop_id":"U1521Z1","name":"Proškovo náměstí","arrival_time":"21:35:00","departure_time":"21:35:00","lat":49.220207,"lon":16.643397,"is_passed":false},{"stop_id":"U1447Z1","name":"Obřanská - u školy","arrival_time":"21:36:00","departure_time":"21:36:00","lat":49.222872,"lon":16.644811,"is_passed":false},{"stop_id":"U1077Z1","name":"Čtvery hony","arrival_time":"21:37:00","departure_time":"21:37:00","lat":49.226227,"lon":16.645584,"is_passed":false},{"stop_id":"U1448Z1","name":"Obřanský most","arrival_time":"21:38:00","departure_time":"21:38:00","lat":49.227602,"lon":16.650226,"is_passed":false},{"stop_id":"U1014Z1","name":"Babická","arrival_time":"21:40:00","departure_time":"21:52:00","lat":49.228004,"lon":16.652555,"is_passed":false}],"49905":[{"stop_id":"U1014Z2","name":"Babická","arrival_time":"21:52:00","departure_time":"21:52:00","lat":49.228129,"lon":16.652126,"is_passed":false},{"stop_id":"U1448Z2","name":"Obřanský most","arrival_time":"21:52:00","departure_time":"21:52:00","lat":49.227463,"lon":16.649577,"is_passed":false},{"stop_id":"U1077Z2","name":"Čtvery hony","arrival_time":"21:53:00","departure_time":"21:53:00","lat":49.225534,"lon":16.644942,"is_passed":false},{"stop_id":"U1447Z2","name":"Obřanská - u školy","arrival_time":"21:54:00","departure_time":"21:54:00","lat":49.22256,"lon":16.644731,"is_passed":false},{"stop_id":"U1521Z2","name":"Proškovo náměstí","arrival_time":"21:55:00","departure_time":"21:55:00","lat":49.21983,"lon":16.643286,"is_passed":false},{"stop_id":"U1358Z1","name":"Maloměřický most","arrival_time":"21:56:00","departure_time":"21:56:00","lat":49.21558,"lon":16.642601,"is_passed":false},{"stop_id":"U1668Z2","name":"Tomkovo náměstí","arrival_time":"21:58:00","departure_time":"22:00:00","lat":49.213819,"lon":16.636067,"is_passed":false},{"stop_id":"U1422Z2","name":"Náměstí Republiky","arrival_time":"22:01:00","departure_time":"22:01:00","lat":49.211428,"lon":16.634106,"is_passed":false},{"stop_id":"U1434Z2","name":"Vozovna Husovice","arrival_time":"22:02:00","departure_time":"22:02:00","lat":49.208534,"lon":16.629847,"is_passed":false},{"stop_id":"U1398Z2","name":"Mostecká","arrival_time":"22:04:00","departure_time":"22:04:00","lat":49.206873,"lon":16.626866,"is_passed":false},{"stop_id":"U1676Z2","name":"Trávníčkova","arrival_time":"22:05:00","departure_time":"22:05:00","lat":49.204401,"lon":16.625637,"is_passed":false},{"stop_id":"U1663Z2","name":"Tkalcovská","arrival_time":"22:07:00","departure_time":"22:07:00","lat":49.199805,"lon":16.625934,"is_passed":false},{"stop_id":"U1271Z2","name":"Körnerova","arrival_time":"22:08:00","departure_time":"22:08:00","lat":49.198152,"lon":16.619504,"is_passed":false},{"stop_id":"U1357Z1","name":"Malinovského náměstí","arrival_time":"22:10:00","departure_time":"22:10:00","lat":49.195492,"lon":16.61386,"is_passed":false},{"stop_id":"U1146Z1","name":"Hlavní nádraží","arrival_time":"22:13:00","departure_time":"22:15:00","lat":49.191185,"lon":16.611879,"is_passed":false},{"stop_id":"U1784Z2","name":"Zelný trh","arrival_time":"22:16:00","departure_time":"22:16:00","lat":49.19333,"lon":16.609624,"is_passed":false},{"stop_id":"U1423Z2","name":"Náměstí Svobody","arrival_time":"22:18:00","departure_time":"22:18:00","lat":49.195682,"lon":16.608015,"is_passed":false},{"stop_id":"U1073Z1","name":"Česká","arrival_time":"22:20:00","departure_time":"22:20:00","lat":49.197618,"lon":16.605584,"is_passed":false},{"stop_id":"U1257Z1","name":"Komenského náměstí","arrival_time":"22:21:00","departure_time":"22:21:00","lat":49.197047,"lon":16.601844,"is_passed":false},{"stop_id":"U1442Z1","name":"Obilní trh","arrival_time":"22:22:00","departure_time":"22:22:00","lat":49.198221,"lon":16.597478,"is_passed":false},{"stop_id":"U1712Z1","name":"Úvoz","arrival_time":"22:23:00","departure_time":"22:23:00","lat":49.19829,"lon":16.59265,"is_passed":false},{"stop_id":"U1762Z1","name":"Všetičkova","arrival_time":"22:24:00","departure_time":"22:24:00","lat":49.198749,"lon":16.588757,"is_passed":false},{"stop_id":"U1371Z1","name":"Náměstí Míru","arrival_time":"22:27:00","departure_time":"22:38:00","lat":49.202197,"lon":16.582014,"is_passed":false}],"49906":[{"stop_id":"U1371Z2","name":"Náměstí Míru","arrival_time":"22:38:00","departure_time":"22:38:00","lat":49.201971,"lon":16.581885,"is_passed":false},{"stop_id":"U1137Z1","name":"Heinrichova","arrival_time":"22:38:00","departure_time":"22:38:00","lat":49.200413,"lon":16.584511,"is_passed":false},{"stop_id":"U1762Z2","name":"Všetičkova","arrival_time":"22:39:00","departure_time":"22:39:00","lat":49.198648,"lon":16.589335,"is_passed":false},{"stop_id":"U1712Z2","name":"Úvoz","arrival_time":"22:40:00","departure_time":"22:40:00","lat":49.198275,"lon":16.593189,"is_passed":false},{"stop_id":"U1442Z2","name":"Obilní trh","arrival_time":"22:41:00","departure_time":"22:41:00","lat":49.198022,"lon":16.598215,"is_passed":false},{"stop_id":"U1257Z2","name":"Komenského náměstí","arrival_time":"22:43:00","departure_time":"22:43:00","lat":49.197135,"lon":16.602612,"is_passed":false},{"stop_id":"U1637Z3","name":"Šilingrovo náměstí","arrival_time":"22:46:00","departure_time":"22:46:00","lat":49.1923,"lon":16.60424,"is_passed":false},{"stop_id":"U1428Z2","name":"Nemocnice u sv. Anny","arrival_time":"22:47:00","departure_time":"22:47:00","lat":49.191523,"lon":16.598757,"is_passed":false},{"stop_id":"U1378Z1","name":"Mendlovo náměstí","arrival_time":"22:49:00","departure_time":"22:49:00","lat":49.189659,"lon":16.592283,"is_passed":false},{"stop_id":"U1768Z1","name":"Výstaviště - hlavní vstup","arrival_time":"22:51:00","departure_time":"22:51:00","lat":49.189583,"lon":16.584499,"is_passed":false},{"stop_id":"U1769Z1","name":"Výstaviště - vstup G2","arrival_time":"22:52:00","departure_time":"22:52:00","lat":49.190338,"lon":16.579837,"is_passed":false},{"stop_id":"U1343Z1","name":"ARENA BRNO","arrival_time":"22:53:00","departure_time":"22:53:00","lat":49.191523,"lon":16.576065,"is_passed":false}],"49907":[{"stop_id":"U1014Z2","name":"Babická","arrival_time":"4:52:00","departure_time":"4:52:00","lat":49.228129,"lon":16.652126,"is_passed":false},{"stop_id":"U1448Z2","name":"Obřanský most","arrival_time":"4:52:00","departure_time":"4:52:00","lat":49.227463,"lon":16.649577,"is_passed":false},{"stop_id":"U1077Z2","name":"Čtvery hony","arrival_time":"4:53:00","departure_time":"4:53:00","lat":49.225534,"lon":16.644942,"is_passed":false},{"stop_id":"U1447Z2","name":"Obřanská - u školy","arrival_time":"4:54:00","departure_time":"4:54:00","lat":49.22256,"lon":16.644731,"is_passed":false},{"stop_id":"U1521Z2","name":"Proškovo náměstí","arrival_time":"4:55:00","departure_time":"4:55:00","lat":49.21983,"lon":16.643286,"is_passed":false},{"stop_id":"U1358Z1","name":"Maloměřický most","arrival_time":"4:56:00","departure_time":"4:56:00","lat":49.21558,"lon":16.642601,"is_passed":false},{"stop_id":"U1668Z2","name":"Tomkovo náměstí","arrival_time":"4:58:00","departure_time":"4:58:00","lat":49.213819,"lon":16.636067,"is_passed":false},{"stop_id":"U1422Z2","name":"Náměstí Republiky","arrival_time":"4:59:00","departure_time":"4:59:00","lat":49.211428,"lon":16.634106,"is_passed":false},{"stop_id":"U1434Z2","name":"Vozovna Husovice","arrival_time":"5:00:00","departure_time":"5:00:00","lat":49.208534,"lon":16.629847,"is_passed":false},{"stop_id":"U1398Z2","name":"Mostecká","arrival_time":"5:02:00","departure_time":"5:02:00","lat":49.206873,"lon":16.626866,"is_passed":false},{"stop_id":"U1676Z2","name":"Trávníčkova","arrival_time":"5:03:00","departure_time":"5:03:00","lat":49.204401,"lon":16.625637,"is_passed":false},{"stop_id":"U1663Z2","name":"Tkalcovská","arrival_time":"5:05:00","departure_time":"5:05:00","lat":49.199805,"lon":16.625934,"is_passed":false},{"stop_id":"U1271Z2","name":"Körnerova","arrival_time":"5:06:00","departure_time":"5:06:00","lat":49.198152,"lon":16.619504,"is_passed":false},{"stop_id":"U1357Z1","name":"Malinovského náměstí","arrival_time":"5:09:00","departure_time":"5:09:00","lat":49.195492,"lon":16.61386,"is_passed":false},{"stop_id":"U1146Z1","name":"Hlavní nádraží","arrival_time":"5:12:00","departure_time":"5:12:00","lat":49.191185,"lon":16.611879,"is_passed":false},{"stop_id":"U1784Z2","name":"Zelný trh","arrival_time":"5:13:00","departure_time":"5:13:00","lat":49.19333,"lon":16.609624,"is_passed":false},{"stop_id":"U1423Z2","name":"Náměstí Svobody","arrival_time":"5:15:00","departure_time":"5:15:00","lat":49.195682,"lon":16.608015,"is_passed":false},{"stop_id":"U1073Z1","name":"Česká","arrival_time":"5:17:00","departure_time":"5:17:00","lat":49.197618,"lon":16.605584,"is_passed":false},{"stop_id":"U1257Z1","name":"Komenského náměstí","arrival_time":"5:18:00","departure_time":"5:18:00","lat":49.197047,"lon":16.601844,"is_passed":false},{"stop_id":"U1442Z1","name":"Obilní trh","arrival_time":"5:19:00","departure_time":"5:19:00","lat":49.198221,"lon":16.597478,"is_passed":false},{"stop_id":"U1712Z1","name":"Úvoz","arrival_time":"5:20:00","departure_time":"5:20:00","lat":49.19829,"lon":16.59265,"is_passed":false},{"stop_id":"U1762Z1","name":"Všetičkova","arrival_time":"5:21:00","departure_time":"5:21:00","lat":49.198749,"lon":16.588757,"is_passed":false},{"stop_id":"U1371Z1","name":"Náměstí Míru","arrival_time":"5:24:00","departure_time":"5:36:00","lat":49.202197,"lon":16.582014,"is_passed":false}],"49908":[{"stop_id":"U1371Z2","name":"Náměstí Míru","arrival_time":"5:36:00","departure_time":"5:36:00","lat":49.201971,"lon":16.581885,"is_passed":false},{"stop_id":"U1137Z1","name":"Heinrichova","arrival_time":"5:36:00","departure_time":"5:36:00","lat":49.200413,"lon":16.584511,"is_passed":false},{"stop_id":"U1762Z2","name":"Všetičkova","arrival_time":"5:37:00","departure_time":"5:37:00","lat":49.198648,"lon":16.589335,"is_passed":false},{"stop_id":"U1712Z2","name":"Úvoz","arrival_time":"5:38:00","departure_time":"5:38:00","lat":49.198275,"lon":16.593189,"is_passed":false},{"stop_id":"U1442Z2","name":"Obilní trh","arrival_time":"5:39:00","departure_time":"5:39:00","lat":49.198022,"lon":16.598215,"is_passed":false},{"stop_id":"U1257Z2","name":"Komenského náměstí","arrival_time":"5:41:00","departure_time":"5:41:00","lat":49.197135,"lon":16.602612,"is_passed":false},{"stop_id":"U1073Z2","name":"Česká","arrival_time":"5:43:00","departure_time":"5:43:00","lat":49.197702,"lon":16.606463,"is_passed":false},{"stop_id":"U1423Z1","name":"Náměstí Svobody","arrival_time":"5:44:00","departure_time":"5:44:00","lat":49.19564,"lon":16.607991,"is_passed":false},{"stop_id":"U1784Z1","name":"Zelný trh","arrival_time":"5:46:00","departure_time":"5:46:00","lat":49.192725,"lon":16.610226,"is_passed":false},{"stop_id":"U1146Z2","name":"Hlavní nádraží","arrival_time":"5:48:00","departure_time":"5:48:00","lat":49.191394,"lon":16.612548,"is_passed":false},{"stop_id":"U1357Z2","name":"Malinovského náměstí","arrival_time":"5:50:00","departure_time":"5:50:00","lat":49.195034,"lon":16.614825,"is_passed":false},{"stop_id":"U1271Z1","name":"Körnerova","arrival_time":"5:52:00","departure_time":"5:52:00","lat":49.19828,"lon":16.619945,"is_passed":false},{"stop_id":"U1663Z1","name":"Tkalcovská","arrival_time":"5:54:00","departure_time":"5:54:00","lat":49.200261,"lon":16.626109,"is_passed":false},{"stop_id":"U1676Z1","name":"Trávníčkova","arrival_time":"5:56:00","departure_time":"5:56:00","lat":49.204439,"lon":16.625679,"is_passed":false},{"stop_id":"U1398Z1","name":"Mostecká","arrival_time":"5:57:00","departure_time":"5:57:00","lat":49.20703,"lon":16.627792,"is_passed":false},{"stop_id":"U1434Z1","name":"Vozovna Husovice","arrival_time":"5:58:00","departure_time":"5:58:00","lat":49.208331,"lon":16.629789,"is_passed":false},{"stop_id":"U1422Z1","name":"Náměstí Republiky","arrival_time":"5:59:00","departure_time":"5:59:00","lat":49.210591,"lon":16.633523,"is_passed":false},{"stop_id":"U1668Z1","name":"Tomkovo náměstí","arrival_time":"6:01:00","departure_time":"6:01:00","lat":49.214035,"lon":16.636587,"is_passed":false},{"stop_id":"U1358Z2","name":"Maloměřický most","arrival_time":"6:02:00","departure_time":"6:02:00","lat":49.215518,"lon":16.642987,"is_passed":false},{"stop_id":"U1521Z1","name":"Proškovo náměstí","arrival_time":"6:03:00","departure_time":"6:03:00","lat":49.220207,"lon":16.643397,"is_passed":false},{"stop_id":"U1447Z1","name":"Obřanská - u školy","arrival_time":"6:04:00","departure_time":"6:04:00","lat":49.222872,"lon":16.644811,"is_passed":false},{"stop_id":"U1077Z1","name":"Čtvery hony","arrival_time":"6:05:00","departure_time":"6:05:00","lat":49.226227,"lon":16.645584,"is_passed":false},{"stop_id":"U1448Z1","name":"Obřanský most","arrival_time":"6:06:00","departure_time":"6:06:00","lat":49.227602,"lon":16.650226,"is_passed":false},{"stop_id":"U1014Z1","name":"Babická","arrival_time":"6:08:00","departure_time":"6:27:00","lat":49.228004,"lon":16.652555,"is_passed":false}],"49909":[{"stop_id":"U1014Z2","name":"Babická","arrival_time":"6:27:00","departure_time":"6:27:00","lat":49.228129,"lon":16.652126,"is_passed":false},{"stop_id":"U1448Z2","name":"Obřanský most","arrival_time":"6:27:00","departure_time":"6:27:00","lat":49.227463,"lon":16.649577,"is_passed":false},{"stop_id":"U1077Z2","name":"Čtvery hony","arrival_time":"6:28:00","departure_time":"6:28:00","lat":49.225534,"lon":16.644942,"is_passed":false},{"stop_id":"U1447Z2","name":"Obřanská - u školy","arrival_time":"6:29:00","departure_time":"6:29:00","lat":49.22256,"lon":16.644731,"is_passed":false},{"stop_id":"U1521Z2","name":"Proškovo náměstí","arrival_time":"6:30:00","departure_time":"6:30:00","lat":49.21983,"lon":16.643286,"is_passed":false},{"stop_id":"U1358Z1","name":"Maloměřický most","arrival_time":"6:31:00","departure_time":"6:31:00","lat":49.21558,"lon":16.642601,"is_passed":false},{"stop_id":"U1668Z2","name":"Tomkovo náměstí","arrival_time":"6:33:00","departure_time":"6:33:00","lat":49.213819,"lon":16.636067,"is_passed":false},{"stop_id":"U1422Z2","name":"Náměstí Republiky","arrival_time":"6:34:00","departure_time":"6:34:00","lat":49.211428,"lon":16.634106,"is_passed":false},{"stop_id":"U1434Z2","name":"Vozovna Husovice","arrival_time":"6:35:00","departure_time":"6:35:00","lat":49.208534,"lon":16.629847,"is_passed":false},{"stop_id":"U1398Z2","name":"Mostecká","arrival_time":"6:37:00","departure_time":"6:37:00","lat":49.206873,"lon":16.626866,"is_passed":false},{"stop_id":"U1676Z2","name":"Trávníčkova","arrival_time":"6:38:00","departure_time":"6:38:00","lat":49.204401,"lon":16.625637,"is_passed":false},{"stop_id":"U1663Z2","name":"Tkalcovská","arrival_time":"6:41:00","departure_time":"6:41:00","lat":49.199805,"lon":16.625934,"is_passed":false},{"stop_id":"U1271Z2","name":"Körnerova","arrival_time":"6:43:00","departure_time":"6:43:00","lat":49.198152,"lon":16.619504,"is_passed":false},{"stop_id":"U1357Z1","name":"Malinovského náměstí","arrival_time":"6:46:00","departure_time":"6:46:00","lat":49.195492,"lon":16.61386,"is_passed":false},{"stop_id":"U1146Z1","name":"Hlavní nádraží","arrival_time":"6:49:00","departure_time":"6:49:00","lat":49.191185,"lon":16.611879,"is_passed":false},{"stop_id":"U1784Z2","name":"Zelný trh","arrival_time":"6:50:00","departure_time":"6:50:00","lat":49.19333,"lon":16.609624,"is_passed":false},{"stop_id":"U1423Z2","name":"Náměstí Svobody","arrival_time":"6:52:00","departure_time":"6:52:00","lat":49.195682,"lon":16.608015,"is_passed":false},{"stop_id":"U1073Z1","name":"Česká","arrival_time":"6:54:00","departure_time":"6:54:00","lat":49.197618,"lon":16.605584,"is_passed":false},{"stop_id":"U1257Z1","name":"Komenského náměstí","arrival_time":"6:55:00","departure_time":"6:55:00","lat":49.197047,"lon":16.601844,"is_passed":false},{"stop_id":"U1442Z1","name":"Obilní trh","arrival_time":"6:56:00","departure_time":"6:56:00","lat":49.198221,"lon":16.597478,"is_passed":false},{"stop_id":"U1712Z1","name":"Úvoz","arrival_time":"6:57:00","departure_time":"6:57:00","lat":49.19829,"lon":16.59265,"is_passed":false},{"stop_id":"U1762Z1","name":"Všetičkova","arrival_time":"6:58:00","departure_time":"6:58:00","lat":49.198749,"lon":16.588757,"is_passed":false},{"stop_id":"U1371Z1","name":"Náměstí Míru","arrival_time":"7:01:00","departure_time":"7:09:00","lat":49.202197,"lon":16.582014,"is_passed":false}],"49910":[{"stop_id":"U1371Z2","name":"Náměstí Míru","arrival_time":"7:09:00","departure_time":"7:09:00","lat":49.201971,"lon":16.581885,"is_passed":false},{"stop_id":"U1137Z1","name":"Heinrichova","arrival_time":"7:09:00","departure_time":"7:09:00","lat":49.200413,"lon":16.584511,"is_passed":false},{"stop_id":"U1762Z2","name":"Všetičkova","arrival_time":"7:11:00","departure_time":"7:11:00","lat":49.198648,"lon":16.589335,"is_passed":false},{"stop_id":"U1712Z2","name":"Úvoz","arrival_time":"7:12:00","departure_time":"7:12:00","lat":49.198275,"lon":16.593189,"is_passed":false},{"stop_id":"U1442Z2","name":"Obilní trh","arrival_time":"7:13:00","departure_time":"7:13:00","lat":49.198022,"lon":16.598215,"is_passed":false},{"stop_id":"U1257Z2","name":"Komenského náměstí","arrival_time":"7:15:00","departure_time":"7:15:00","lat":49.197135,"lon":16.602612,"is_passed":false},{"stop_id":"U1073Z2","name":"Česká","arrival_time":"7:17:00","departure_time":"7:17:00","lat":49.197702,"lon":16.606463,"is_passed":false},{"stop_id":"U1423Z1","name":"Náměstí Svobody","arrival_time":"7:18:00","departure_time":"7:18:00","lat":49.19564,"lon":16.607991,"is_passed":false},{"stop_id":"U1784Z1","name":"Zelný trh","arrival_time":"7:20:00","departure_time":"7:20:00","lat":49.192725,"lon":16.610226,"is_passed":false},{"stop_id":"U1146Z2","name":"Hlavní nádraží","arrival_time":"7:22:00","departure_time":"7:22:00","lat":49.191394,"lon":16.612548,"is_passed":false},{"stop_id":"U1357Z2","name":"Malinovského náměstí","arrival_time":"7:24:00","departure_time":"7:24:00","lat":49.195034,"lon":16.614825,"is_passed":false},{"stop_id":"U1271Z1","name":"Körnerova","arrival_time":"7:26:00","departure_time":"7:26:00","lat":49.19828,"lon":16.619945,"is_passed":false},{"stop_id":"U1663Z1","name":"Tkalcovská","arrival_time":"7:28:00","departure_time":"7:28:00","lat":49.200261,"lon":16.626109,"is_passed":false},{"stop_id":"U1676Z1","name":"Trávníčkova","arrival_time":"7:30:00","departure_time":"7:30:00","lat":49.204439,"lon":16.625679,"is_passed":false},{"stop_id":"U1398Z1","name":"Mostecká","arrival_time":"7:31:00","departure_time":"7:31:00","lat":49.20703,"lon":16.627792,"is_passed":false},{"stop_id":"U1434Z1","name":"Vozovna Husovice","arrival_time":"7:32:00","departure_time":"7:32:00","lat":49.208331,"lon":16.629789,"is_passed":false},{"stop_id":"U1422Z1","name":"Náměstí Republiky","arrival_time":"7:33:00","departure_time":"7:33:00","lat":49.210591,"lon":16.633523,"is_passed":false},{"stop_id":"U1668Z1","name":"Tomkovo náměstí","arrival_time":"7:35:00","departure_time":"7:35:00","lat":49.214035,"lon":16.636587,"is_passed":false},{"stop_id":"U1358Z2","name":"Maloměřický most","arrival_time":"7:36:00","departure_time":"7:36:00","lat":49.215518,"lon":16.642987,"is_passed":false},{"stop_id":"U1521Z1","name":"Proškovo náměstí","arrival_time":"7:37:00","departure_time":"7:37:00","lat":49.220207,"lon":16.643397,"is_passed":false},{"stop_id":"U1447Z1","name":"Obřanská - u školy","arrival_time":"7:38:00","departure_time":"7:38:00","lat":49.222872,"lon":16.644811,"is_passed":false},{"stop_id":"U1077Z1","name":"Čtvery hony","arrival_time":"7:39:00","departure_time":"7:39:00","lat":49.226227,"lon":16.645584,"is_passed":false},{"stop_id":"U1448Z1","name":"Obřanský most","arrival_time":"7:40:00","departure_time":"7:40:00","lat":49.227602,"lon":16.650226,"is_passed":false},{"stop_id":"U1014Z1","name":"Babická","arrival_time":"7:42:00","departure_time":"8:00:00","lat":49.228004,"lon":16.652555,"is_passed":false}],"49911":[{"stop_id":"U1014Z2","name":"Babická","arrival_time":"8:00:00","departure_time":"8:00:00","lat":49.228129,"lon":16.652126,"is_passed":false},{"stop_id":"U1448Z2","name":"Obřanský most","arrival_time":"8:00:00","departure_time":"8:00:00","lat":49.227463,"lon":16.649577,"is_passed":false},{"stop_id":"U1077Z2","name":"Čtvery hony","arrival_time":"8:01:00","departure_time":"8:01:00","lat":49.225534,"lon":16.644942,"is_passed":false},{"stop_id":"U1447Z2","name":"Obřanská - u školy","arrival_time":"8:02:00","departure_time":"8:02:00","lat":49.22256,"lon":16.644731,"is_passed":false},{"stop_id":"U1521Z2","name":"Proškovo náměstí","arrival_time":"8:03:00","departure_time":"8:03:00","lat":49.21983,"lon":16.643286,"is_passed":false},{"stop_id":"U1358Z1","name":"Maloměřický most","arrival_time":"8:04:00","departure_time":"8:04:00","lat":49.21558,"lon":16.642601,"is_passed":false},{"stop_id":"U1668Z2","name":"Tomkovo náměstí","arrival_time":"8:06:00","departure_time":"8:06:00","lat":49.213819,"lon":16.636067,"is_passed":false},{"stop_id":"U1422Z2","name":"Náměstí Republiky","arrival_time":"8:07:00","departure_time":"8:07:00","lat":49.211428,"lon":16.634106,"is_passed":false},{"stop_id":"U1434Z2","name":"Vozovna Husovice","arrival_time":"8:08:00","departure_time":"8:08:00","lat":49.208534,"lon":16.629847,"is_passed":false},{"stop_id":"U1398Z2","name":"Mostecká","arrival_time":"8:10:00","departure_time":"8:10:00","lat":49.206873,"lon":16.626866,"is_passed":false},{"stop_id":"U1676Z2","name":"Trávníčkova","arrival_time":"8:11:00","departure_time":"8:11:00","lat":49.204401,"lon":16.625637,"is_passed":false},{"stop_id":"U1663Z2","name":"Tkalcovská","arrival_time":"8:14:00","departure_time":"8:14:00","lat":49.199805,"lon":16.625934,"is_passed":false},{"stop_id":"U1271Z2","name":"Körnerova","arrival_time":"8:16:00","departure_time":"8:16:00","lat":49.198152,"lon":16.619504,"is_passed":false},{"stop_id":"U1357Z1","name":"Malinovského náměstí","arrival_time":"8:19:00","departure_time":"8:19:00","lat":49.195492,"lon":16.61386,"is_passed":false},{"stop_id":"U1146Z1","name":"Hlavní nádraží","arrival_time":"8:22:00","departure_time":"8:22:00","lat":49.191185,"lon":16.611879,"is_passed":false},{"stop_id":"U1784Z2","name":"Zelný trh","arrival_time":"8:23:00","departure_time":"8:23:00","lat":49.19333,"lon":16.609624,"is_passed":false},{"stop_id":"U1423Z2","name":"Náměstí Svobody","arrival_time":"8:25:00","departure_time":"8:25:00","lat":49.195682,"lon":16.608015,"is_passed":false},{"stop_id":"U1073Z1","name":"Česká","arrival_time":"8:27:00","departure_time":"8:27:00","lat":49.197618,"lon":16.605584,"is_passed":false},{"stop_id":"U1257Z1","name":"Komenského náměstí","arrival_time":"8:28:00","departure_time":"8:28:00","lat":49.197047,"lon":16.601844,"is_passed":false},{"stop_id":"U1442Z1","name":"Obilní trh","arrival_time":"8:29:00","departure_time":"8:29:00","lat":49.198221,"lon":16.597478,"is_passed":false},{"stop_id":"U1712Z1","name":"Úvoz","arrival_time":"8:30:00","departure_time":"8:30:00","lat":49.19829,"lon":16.59265,"is_passed":false},{"stop_id":"U1762Z1","name":"Všetičkova","arrival_time":"8:31:00","departure_time":"8:31:00","lat":49.198749,"lon":16.588757,"is_passed":false},{"stop_id":"U1371Z1","name":"Náměstí Míru","arrival_time":"8:34:00","departure_time":"8:43:00","lat":49.202197,"lon":16.582014,"is_passed":false}],"49912":[{"stop_id":"U1371Z2","name":"Náměstí Míru","arrival_time":"8:43:00","departure_time":"8:43:00","lat":49.201971,"lon":16.581885,"is_passed":false},{"stop_id":"U1137Z1","name":"Heinrichova","arrival_time":"8:43:00","departure_time":"8:43:00","lat":49.200413,"lon":16.584511,"is_passed":false},{"stop_id":"U1762Z2","name":"Všetičkova","arrival_time":"8:45:00","departure_time":"8:45:00","lat":49.198648,"lon":16.589335,"is_passed":false},{"stop_id":"U1712Z2","name":"Úvoz","arrival_time":"8:46:00","departure_time":"8:46:00","lat":49.198275,"lon":16.593189,"is_passed":false},{"stop_id":"U1442Z2","name":"Obilní trh","arrival_time":"8:47:00","departure_time":"8:47:00","lat":49.198022,"lon":16.598215,"is_passed":false},{"stop_id":"U1257Z2","name":"Komenského náměstí","arrival_time":"8:49:00","departure_time":"8:49:00","lat":49.197135,"lon":16.602612,"is_passed":false},{"stop_id":"U1073Z2","name":"Česká","arrival_time":"8:51:00","departure_time":"8:51:00","lat":49.197702,"lon":16.606463,"is_passed":false},{"stop_id":"U1423Z1","name":"Náměstí Svobody","arrival_time":"8:52:00","departure_time":"8:52:00","lat":49.19564,"lon":16.607991,"is_passed":false},{"stop_id":"U1784Z1","name":"Zelný trh","arrival_time":"8:54:00","departure_time":"8:54:00","lat":49.192725,"lon":16.610226,"is_passed":false},{"stop_id":"U1146Z2","name":"Hlavní nádraží","arrival_time":"8:56:00","departure_time":"8:56:00","lat":49.191394,"lon":16.612548,"is_passed":false},{"stop_id":"U1357Z2","name":"Malinovského náměstí","arrival_time":"8:58:00","departure_time":"8:58:00","lat":49.195034,"lon":16.614825,"is_passed":false},{"stop_id":"U1271Z1","name":"Körnerova","arrival_time":"9:00:00","departure_time":"9:00:00","lat":49.19828,"lon":16.619945,"is_passed":false},{"stop_id":"U1663Z1","name":"Tkalcovská","arrival_time":"9:02:00","departure_time":"9:02:00","lat":49.200261,"lon":16.626109,"is_passed":false},{"stop_id":"U1676Z1","name":"Trávníčkova","arrival_time":"9:04:00","departure_time":"9:04:00","lat":49.204439,"lon":16.625679,"is_passed":false},{"stop_id":"U1398Z1","name":"Mostecká","arrival_time":"9:05:00","departure_time":"9:05:00","lat":49.20703,"lon":16.627792,"is_passed":false},{"stop_id":"U1434Z1","name":"Vozovna Husovice","arrival_time":"9:06:00","departure_time":"9:06:00","lat":49.208331,"lon":16.629789,"is_passed":false},{"stop_id":"U1422Z1","name":"Náměstí Republiky","arrival_time":"9:07:00","departure_time":"9:07:00","lat":49.210591,"lon":16.633523,"is_passed":false},{"stop_id":"U1668Z1","name":"Tomkovo náměstí","arrival_time":"9:09:00","departure_time":"9:09:00","lat":49.214035,"lon":16.636587,"is_passed":false},{"stop_id":"U1358Z2","name":"Maloměřický most","arrival_time":"9:10:00","departure_time":"9:10:00","lat":49.215518,"lon":16.642987,"is_passed":false},{"stop_id":"U1521Z1","name":"Proškovo náměstí","arrival_time":"9:11:00","departure_time":"9:11:00","lat":49.220207,"lon":16.643397,"is_passed":false},{"stop_id":"U1447Z1","name":"Obřanská - u školy","arrival_time":"9:12:00","departure_time":"9:12:00","lat":49.222872,"lon":16.644811,"is_passed":false},{"stop_id":"U1077Z1","name":"Čtvery hony","arrival_time":"9:13:00","departure_time":"9:13:00","lat":49.226227,"lon":16.645584,"is_passed":false},{"stop_id":"U1448Z1","name":"Obřanský most","arrival_time":"9:14:00","departure_time":"9:14:00","lat":49.227602,"lon":16.650226,"is_passed":false},{"stop_id":"U1014Z1","name":"Babická","arrival_time":"9:16:00","departure_time":"9:34:00","lat":49.228004,"lon":16.652555,"is_passed":false}],"49913":[{"stop_id":"U1014Z2","name":"Babická","arrival_time":"9:34:00","departure_time":"9:34:00","lat":49.228129,"lon":16.652126,"is_passed":false},{"stop_id":"U1448Z2","name":"Obřanský most","arrival_time":"9:34:00","departure_time":"9:34:00","lat":49.227463,"lon":16.649577,"is_passed":false},{"stop_id":"U1077Z2","name":"Čtvery hony","arrival_time":"9:35:00","departure_time":"9:35:00","lat":49.225534,"lon":16.644942,"is_passed":false},{"stop_id":"U1447Z2","name":"Obřanská - u školy","arrival_time":"9:36:00","departure_time":"9:36:00","lat":49.22256,"lon":16.644731,"is_passed":false},{"stop_id":"U1521Z2","name":"Proškovo náměstí","arrival_time":"9:37:00","departure_time":"9:37:00","lat":49.21983,"lon":16.643286,"is_passed":false},{"stop_id":"U1358Z1","name":"Maloměřický most","arrival_time":"9:38:00","departure_time":"9:38:00","lat":49.21558,"lon":16.642601,"is_passed":false},{"stop_id":"U1668Z2","name":"Tomkovo náměstí","arrival_time":"9:40:00","departure_time":"9:40:00","lat":49.213819,"lon":16.636067,"is_passed":false},{"stop_id":"U1422Z2","name":"Náměstí Republiky","arrival_time":"9:41:00","departure_time":"9:41:00","lat":49.211428,"lon":16.634106,"is_passed":false},{"stop_id":"U1434Z2","name":"Vozovna Husovice","arrival_time":"9:42:00","departure_time":"9:42:00","lat":49.208534,"lon":16.629847,"is_passed":false},{"stop_id":"U1398Z2","name":"Mostecká","arrival_time":"9:44:00","departure_time":"9:44:00","lat":49.206873,"lon":16.626866,"is_passed":false},{"stop_id":"U1676Z2","name":"Trávníčkova","arrival_time":"9:45:00","departure_time":"9:45:00","lat":49.204401,"lon":16.625637,"is_passed":false},{"stop_id":"U1663Z2","name":"Tkalcovská","arrival_time":"9:48:00","departure_time":"9:48:00","lat":49.199805,"lon":16.625934,"is_passed":false},{"stop_id":"U1271Z2","name":"Körnerova","arrival_time":"9:50:00","departure_time":"9:50:00","lat":49.198152,"lon":16.619504,"is_passed":false},{"stop_id":"U1357Z1","name":"Malinovského náměstí","arrival_time":"9:53:00","departure_time":"9:53:00","lat":49.195492,"lon":16.61386,"is_passed":false},{"stop_id":"U1146Z1","name":"Hlavní nádraží","arrival_time":"9:56:00","departure_time":"9:56:00","lat":49.191185,"lon":16.611879,"is_passed":false},{"stop_id":"U1784Z2","name":"Zelný trh","arrival_time":"9:57:00","departure_time":"9:57:00","lat":49.19333,"lon":16.609624,"is_passed":false},{"stop_id":"U1423Z2","name":"Náměstí Svobody","arrival_time":"9:59:00","departure_time":"9:59:00","lat":49.195682,"lon":16.608015,"is_passed":false},{"stop_id":"U1073Z1","name":"Česká","arrival_time":"10:01:00","departure_time":"10:01:00","lat":49.197618,"lon":16.605584,"is_passed":false},{"stop_id":"U1257Z1","name":"Komenského náměstí","arrival_time":"10:02:00","departure_time":"10:02:00","lat":49.197047,"lon":16.601844,"is_passed":false},{"stop_id":"U1442Z1","name":"Obilní trh","arrival_time":"10:03:00","departure_time":"10:03:00","lat":49.198221,"lon":16.597478,"is_passed":false},{"stop_id":"U1712Z1","name":"Úvoz","arrival_time":"10:04:00","departure_time":"10:04:00","lat":49.19829,"lon":16.59265,"is_passed":false},{"stop_id":"U1762Z1","name":"Všetičkova","arrival_time":"10:05:00","departure_time":"10:05:00","lat":49.198749,"lon":16.588757,"is_passed":false},{"stop_id":"U1371Z1","name":"Náměstí Míru","arrival_time":"10:08:00","departure_time":"10:16:00","lat":49.202197,"lon":16.582014,"is_passed":false}],"49914":[{"stop_id":"U1371Z2","name":"Náměstí Míru","arrival_time":"10:16:00","departure_time":"10:16:00","lat":49.201971,"lon":16.581885,"is_passed":false},{"stop_id":"U1137Z1","name":"Heinrichova","arrival_time":"10:16:00","departure_time":"10:16:00","lat":49.200413,"lon":16.584511,"is_passed":false},{"stop_id":"U1762Z2","name":"Všetičkova","arrival_time":"10:18:00","departure_time":"10:18:00","lat":49.198648,"lon":16.589335,"is_passed":false},{"stop_id":"U1712Z2","name":"Úvoz","arrival_time":"10:19:00","departure_time":"10:19:00","lat":49.198275,"lon":16.593189,"is_passed":false},{"stop_id":"U1442Z2","name":"Obilní trh","arrival_time":"10:20:00","departure_time":"10:20:00","lat":49.198022,"lon":16.598215,"is_passed":false},{"stop_id":"U1257Z2","name":"Komenského náměstí","arrival_time":"10:22:00","departure_time":"10:22:00","lat":49.197135,"lon":16.602612,"is_passed":false},{"stop_id":"U1073Z2","name":"Česká","arrival_time":"10:24:00","departure_time":"10:24:00","lat":49.197702,"lon":16.606463,"is_passed":false},{"stop_id":"U1423Z1","name":"Náměstí Svobody","arrival_time":"10:25:00","departure_time":"10:25:00","lat":49.19564,"lon":16.607991,"is_passed":false},{"stop_id":"U1784Z1","name":"Zelný trh","arrival_time":"10:27:00","departure_time":"10:27:00","lat":49.192725,"lon":16.610226,"is_passed":false},{"stop_id":"U1146Z2","name":"Hlavní nádraží","arrival_time":"10:29:00","departure_time":"10:29:00","lat":49.191394,"lon":16.612548,"is_passed":false},{"stop_id":"U1357Z2","name":"Malinovského náměstí","arrival_time":"10:31:00","departure_time":"10:31:00","lat":49.195034,"lon":16.614825,"is_passed":false},{"stop_id":"U1271Z1","name":"Körnerova","arrival_time":"10:33:00","departure_time":"10:33:00","lat":49.19828,"lon":16.619945,"is_passed":false},{"stop_id":"U1663Z1","name":"Tkalcovská","arrival_time":"10:35:00","departure_time":"10:35:00","lat":49.200261,"lon":16.626109,"is_passed":false},{"stop_id":"U1676Z1","name":"Trávníčkova","arrival_time":"10:37:00","departure_time":"10:37:00","lat":49.204439,"lon":16.625679,"is_passed":false},{"stop_id":"U1398Z1","name":"Mostecká","arrival_time":"10:38:00","departure_time":"10:38:00","lat":49.20703,"lon":16.627792,"is_passed":false},{"stop_id":"U1434Z1","name":"Vozovna Husovice","arrival_time":"10:39:00","departure_time":"10:39:00","lat":49.208331,"lon":16.629789,"is_passed":false},{"stop_id":"U1422Z1","name":"Náměstí Republiky","arrival_time":"10:40:00","departure_time":"10:40:00","lat":49.210591,"lon":16.633523,"is_passed":false},{"stop_id":"U1668Z1","name":"Tomkovo náměstí","arrival_time":"10:42:00","departure_time":"10:42:00","lat":49.214035,"lon":16.636587,"is_passed":false},{"stop_id":"U1358Z2","name":"Maloměřický most","arrival_time":"10:43:00","departure_time":"10:43:00","lat":49.215518,"lon":16.642987,"is_passed":false},{"stop_id":"U1521Z1","name":"Proškovo náměstí","arrival_time":"10:44:00","departure_time":"10:44:00","lat":49.220207,"lon":16.643397,"is_passed":false},{"stop_id":"U1447Z1","name":"Obřanská - u školy","arrival_time":"10:45:00","departure_time":"10:45:00","lat":49.222872,"lon":16.644811,"is_passed":false},{"stop_id":"U1077Z1","name":"Čtvery hony","arrival_time":"10:46:00","departure_time":"10:46:00","lat":49.226227,"lon":16.645584,"is_passed":false},{"stop_id":"U1448Z1","name":"Obřanský most","arrival_time":"10:47:00","departure_time":"10:47:00","lat":49.227602,"lon":16.650226,"is_passed":false},{"stop_id":"U1014Z1","name":"Babická","arrival_time":"10:49:00","departure_time":"11:07:00","lat":49.228004,"lon":16.652555,"is_passed":false}],"49915":[{"stop_id":"U1014Z2","name":"Babická","arrival_time":"11:07:00","departure_time":"11:07:00","lat":49.228129,"lon":16.652126,"is_passed":false},{"stop_id":"U1448Z2","name":"Obřanský most","arrival_time":"11:07:00","departure_time":"11:07:00","lat":49.227463,"lon":16.649577,"is_passed":false},{"stop_id":"U1077Z2","name":"Čtvery hony","arrival_time":"11:08:00","departure_time":"11:08:00","lat":49.225534,"lon":16.644942,"is_passed":false},{"stop_id":"U1447Z2","name":"Obřanská - u školy","arrival_time":"11:09:00","departure_time":"11:09:00","lat":49.22256,"lon":16.644731,"is_passed":false},{"stop_id":"U1521Z2","name":"Proškovo náměstí","arrival_time":"11:10:00","departure_time":"11:10:00","lat":49.21983,"lon":16.643286,"is_passed":false},{"stop_id":"U1358Z1","name":"Maloměřický most","arrival_time":"11:11:00","departure_time":"11:11:00","lat":49.21558,"lon":16.642601,"is_passed":false},{"stop_id":"U1668Z2","name":"Tomkovo náměstí","arrival_time":"11:13:00","departure_time":"11:13:00","lat":49.213819,"lon":16.636067,"is_passed":false},{"stop_id":"U1422Z2","name":"Náměstí Republiky","arrival_time":"11:14:00","departure_time":"11:14:00","lat":49.211428,"lon":16.634106,"is_passed":false},{"stop_id":"U1434Z2","name":"Vozovna Husovice","arrival_time":"11:15:00","departure_time":"11:15:00","lat":49.208534,"lon":16.629847,"is_passed":false},{"stop_id":"U1398Z2","name":"Mostecká","arrival_time":"11:17:00","departure_time":"11:17:00","lat":49.206873,"lon":16.626866,"is_passed":false},{"stop_id":"U1676Z2","name":"Trávníčkova","arrival_time":"11:18:00","departure_time":"11:18:00","lat":49.204401,"lon":16.625637,"is_passed":false},{"stop_id":"U1663Z2","name":"Tkalcovská","arrival_time":"11:21:00","departure_time":"11:21:00","lat":49.199805,"lon":16.625934,"is_passed":false},{"stop_id":"U1271Z2","name":"Körnerova","arrival_time":"11:23:00","departure_time":"11:23:00","lat":49.198152,"lon":16.619504,"is_passed":false},{"stop_id":"U1357Z1","name":"Malinovského náměstí","arrival_time":"11:26:00","departure_time":"11:26:00","lat":49.195492,"lon":16.61386,"is_passed":false},{"stop_id":"U1146Z1","name":"Hlavní nádraží","arrival_time":"11:29:00","departure_time":"11:29:00","lat":49.191185,"lon":16.611879,"is_passed":false},{"stop_id":"U1784Z2","name":"Zelný trh","arrival_time":"11:30:00","departure_time":"11:30:00","lat":49.19333,"lon":16.609624,"is_passed":false},{"stop_id":"U1423Z2","name":"Náměstí Svobody","arrival_time":"11:32:00","departure_time":"11:32:00","lat":49.195682,"lon":16.608015,"is_passed":false},{"stop_id":"U1073Z1","name":"Česká","arrival_time":"11:34:00","departure_time":"11:34:00","lat":49.197618,"lon":16.605584,"is_passed":false},{"stop_id":"U1257Z1","name":"Komenského náměstí","arrival_time":"11:35:00","departure_time":"11:35:00","lat":49.197047,"lon":16.601844,"is_passed":false},{"stop_id":"U1442Z1","name":"Obilní trh","arrival_time":"11:36:00","departure_time":"11:36:00","lat":49.198221,"lon":16.597478,"is_passed":false},{"stop_id":"U1712Z1","name":"Úvoz","arrival_time":"11:37:00","departure_time":"11:37:00","lat":49.19829,"lon":16.59265,"is_passed":false},{"stop_id":"U1762Z1","name":"Všetičkova","arrival_time":"11:38:00","departure_time":"11:38:00","lat":49.198749,"lon":16.588757,"is_passed":false},{"stop_id":"U1371Z1","name":"Náměstí Míru","arrival_time":"11:41:00","departure_time":"11:49:00","lat":49.202197,"lon":16.582014,"is_passed":false}],"49916":[{"stop_id":"U1371Z2","name":"Náměstí Míru","arrival_time":"11:49:00","departure_time":"11:49:00","lat":49.201971,"lon":16.581885,"is_passed":false},{"stop_id":"U1137Z1","name":"Heinrichova","arrival_time":"11:49:00","departure_time":"11:49:00","lat":49.200413,"lon":16.584511,"is_passed":false},{"stop_id":"U1762Z2","name":"Všetičkova","arrival_time":"11:51:00","departure_time":"11:51:00","lat":49.198648,"lon":16.589335,"is_passed":false},{"stop_id":"U1712Z2","name":"Úvoz","arrival_time":"11:52:00","departure_time":"11:52:00","lat":49.198275,"lon":16.593189,"is_passed":false},{"stop_id":"U1442Z2","name":"Obilní trh","arrival_time":"11:53:00","departure_time":"11:53:00","lat":49.198022,"lon":16.598215,"is_passed":false},{"stop_id":"U1257Z2","name":"Komenského náměstí","arrival_time":"11:55:00","departure_time":"11:55:00","lat":49.197135,"lon":16.602612,"is_passed":false},{"stop_id":"U1073Z2","name":"Česká","arrival_time":"11:57:00","departure_time":"11:57:00","lat":49.197702,"lon":16.606463,"is_passed":false},{"stop_id":"U1423Z1","name":"Náměstí Svobody","arrival_time":"11:58:00","departure_time":"11:58:00","lat":49.19564,"lon":16.607991,"is_passed":false},{"stop_id":"U1784Z1","name":"Zelný trh","arrival_time":"12:00:00","departure_time":"12:00:00","lat":49.192725,"lon":16.610226,"is_passed":false},{"stop_id":"U1146Z2","name":"Hlavní nádraží","arrival_time":"12:02:00","departure_time":"12:02:00","lat":49.191394,"lon":16.612548,"is_passed":false},{"stop_id":"U1357Z2","name":"Malinovského náměstí","arrival_time":"12:04:00","departure_time":"12:04:00","lat":49.195034,"lon":16.614825,"is_passed":false},{"stop_id":"U1271Z1","name":"Körnerova","arrival_time":"12:06:00","departure_time":"12:06:00","lat":49.19828,"lon":16.619945,"is_passed":false},{"stop_id":"U1663Z1","name":"Tkalcovská","arrival_time":"12:08:00","departure_time":"12:08:00","lat":49.200261,"lon":16.626109,"is_passed":false},{"stop_id":"U1676Z1","name":"Trávníčkova","arrival_time":"12:10:00","departure_time":"12:10:00","lat":49.204439,"lon":16.625679,"is_passed":false},{"stop_id":"U1398Z1","name":"Mostecká","arrival_time":"12:11:00","departure_time":"12:11:00","lat":49.20703,"lon":16.627792,"is_passed":false},{"stop_id":"U1434Z1","name":"Vozovna Husovice","arrival_time":"12:12:00","departure_time":"12:12:00","lat":49.208331,"lon":16.629789,"is_passed":false},{"stop_id":"U1422Z1","name":"Náměstí Republiky","arrival_time":"12:13:00","departure_time":"12:13:00","lat":49.210591,"lon":16.633523,"is_passed":false},{"stop_id":"U1668Z1","name":"Tomkovo náměstí","arrival_time":"12:15:00","departure_time":"12:15:00","lat":49.214035,"lon":16.636587,"is_passed":false},{"stop_id":"U1358Z2","name":"Maloměřický most","arrival_time":"12:16:00","departure_time":"12:16:00","lat":49.215518,"lon":16.642987,"is_passed":false},{"stop_id":"U1521Z1","name":"Proškovo náměstí","arrival_time":"12:17:00","departure_time":"12:17:00","lat":49.220207,"lon":16.643397,"is_passed":false},{"stop_id":"U1447Z1","name":"Obřanská - u školy","arrival_time":"12:18:00","departure_time":"12:18:00","lat":49.222872,"lon":16.644811,"is_passed":false},{"stop_id":"U1077Z1","name":"Čtvery hony","arrival_time":"12:19:00","departure_time":"12:19:00","lat":49.226227,"lon":16.645584,"is_passed":false},{"stop_id":"U1448Z1","name":"Obřanský most","arrival_time":"12:20:00","departure_time":"12:20:00","lat":49.227602,"lon":16.650226,"is_passed":false},{"stop_id":"U1014Z1","name":"Babická","arrival_time":"12:22:00","departure_time":"12:40:00","lat":49.228004,"lon":16.652555,"is_passed":false}],"49917":[{"stop_id":"U1014Z2","name":"Babická","arrival_time":"12:40:00","departure_time":"12:40:00","lat":49.228129,"lon":16.652126,"is_passed":false},{"stop_id":"U1448Z2","name":"Obřanský most","arrival_time":"12:40:00","departure_time":"12:40:00","lat":49.227463,"lon":16.649577,"is_passed":false},{"stop_id":"U1077Z2","name":"Čtvery hony","arrival_time":"12:41:00","departure_time":"12:41:00","lat":49.225534,"lon":16.644942,"is_passed":false},{"stop_id":"U1447Z2","name":"Obřanská - u školy","arrival_time":"12:42:00","departure_time":"12:42:00","lat":49.22256,"lon":16.644731,"is_passed":false},{"stop_id":"U1521Z2","name":"Proškovo náměstí","arrival_time":"12:43:00","departure_time":"12:43:00","lat":49.21983,"lon":16.643286,"is_passed":false},{"stop_id":"U1358Z1","name":"Maloměřický most","arrival_time":"12:44:00","departure_time":"12:44:00","lat":49.21558,"lon":16.642601,"is_passed":false},{"stop_id":"U1668Z2","name":"Tomkovo náměstí","arrival_time":"12:46:00","departure_time":"12:46:00","lat":49.213819,"lon":16.636067,"is_passed":false},{"stop_id":"U1422Z2","name":"Náměstí Republiky","arrival_time":"12:47:00","departure_time":"12:47:00","lat":49.211428,"lon":16.634106,"is_passed":false},{"stop_id":"U1434Z2","name":"Vozovna Husovice","arrival_time":"12:48:00","departure_time":"12:48:00","lat":49.208534,"lon":16.629847,"is_passed":false},{"stop_id":"U1398Z2","name":"Mostecká","arrival_time":"12:50:00","departure_time":"12:50:00","lat":49.206873,"lon":16.626866,"is_passed":false},{"stop_id":"U1676Z2","name":"Trávníčkova","arrival_time":"12:51:00","departure_time":"12:51:00","lat":49.204401,"lon":16.625637,"is_passed":false},{"stop_id":"U1663Z2","name":"Tkalcovská","arrival_time":"12:54:00","departure_time":"12:54:00","lat":49.199805,"lon":16.625934,"is_passed":false},{"stop_id":"U1271Z2","name":"Körnerova","arrival_time":"12:56:00","departure_time":"12:56:00","lat":49.198152,"lon":16.619504,"is_passed":false},{"stop_id":"U1357Z1","name":"Malinovského náměstí","arrival_time":"12:59:00","departure_time":"12:59:00","lat":49.195492,"lon":16.61386,"is_passed":false},{"stop_id":"U1146Z1","name":"Hlavní nádraží","arrival_time":"13:02:00","departure_time":"13:02:00","lat":49.191185,"lon":16.611879,"is_passed":false},{"stop_id":"U1784Z2","name":"Zelný trh","arrival_time":"13:03:00","departure_time":"13:03:00","lat":49.19333,"lon":16.609624,"is_passed":false},{"stop_id":"U1423Z2","name":"Náměstí Svobody","arrival_time":"13:05:00","departure_time":"13:05:00","lat":49.195682,"lon":16.608015,"is_passed":false},{"stop_id":"U1073Z1","name":"Česká","arrival_time":"13:07:00","departure_time":"13:07:00","lat":49.197618,"lon":16.605584,"is_passed":false},{"stop_id":"U1257Z1","name":"Komenského náměstí","arrival_time":"13:08:00","departure_time":"13:08:00","lat":49.197047,"lon":16.601844,"is_passed":false},{"stop_id":"U1442Z1","name":"Obilní trh","arrival_time":"13:09:00","departure_time":"13:09:00","lat":49.198221,"lon":16.597478,"is_passed":false},{"stop_id":"U1712Z1","name":"Úvoz","arrival_time":"13:10:00","departure_time":"13:10:00","lat":49.19829,"lon":16.59265,"is_passed":false},{"stop_id":"U1762Z1","name":"Všetičkova","arrival_time":"13:11:00","departure_time":"13:11:00","lat":49.198749,"lon":16.588757,"is_passed":false},{"stop_id":"U1371Z1","name":"Náměstí Míru","arrival_time":"13:14:00","departure_time":"13:23:00","lat":49.202197,"lon":16.582014,"is_passed":false}],"49918":[{"stop_id":"U1371Z2","name":"Náměstí Míru","arrival_time":"13:23:00","departure_time":"13:23:00","lat":49.201971,"lon":16.581885,"is_passed":false},{"stop_id":"U1137Z1","name":"Heinrichova","arrival_time":"13:23:00","departure_time":"13:23:00","lat":49.200413,"lon":16.584511,"is_passed":false},{"stop_id":"U1762Z2","name":"Všetičkova","arrival_time":"13:25:00","departure_time":"13:25:00","lat":49.198648,"lon":16.589335,"is_passed":false},{"stop_id":"U1712Z2","name":"Úvoz","arrival_time":"13:26:00","departure_time":"13:26:00","lat":49.198275,"lon":16.593189,"is_passed":false},{"stop_id":"U1442Z2","name":"Obilní trh","arrival_time":"13:27:00","departure_time":"13:27:00","lat":49.198022,"lon":16.598215,"is_passed":false},{"stop_id":"U1257Z2","name":"Komenského náměstí","arrival_time":"13:29:00","departure_time":"13:29:00","lat":49.197135,"lon":16.602612,"is_passed":false},{"stop_id":"U1073Z2","name":"Česká","arrival_time":"13:31:00","departure_time":"13:31:00","lat":49.197702,"lon":16.606463,"is_passed":false},{"stop_id":"U1423Z1","name":"Náměstí Svobody","arrival_time":"13:32:00","departure_time":"13:32:00","lat":49.19564,"lon":16.607991,"is_passed":false},{"stop_id":"U1784Z1","name":"Zelný trh","arrival_time":"13:34:00","departure_time":"13:34:00","lat":49.192725,"lon":16.610226,"is_passed":false},{"stop_id":"U1146Z2","name":"Hlavní nádraží","arrival_time":"13:36:00","departure_time":"13:36:00","lat":49.191394,"lon":16.612548,"is_passed":false},{"stop_id":"U1357Z2","name":"Malinovského náměstí","arrival_time":"13:38:00","departure_time":"13:38:00","lat":49.195034,"lon":16.614825,"is_passed":false},{"stop_id":"U1271Z1","name":"Körnerova","arrival_time":"13:40:00","departure_time":"13:40:00","lat":49.19828,"lon":16.619945,"is_passed":false},{"stop_id":"U1663Z1","name":"Tkalcovská","arrival_time":"13:42:00","departure_time":"13:42:00","lat":49.200261,"lon":16.626109,"is_passed":false},{"stop_id":"U1676Z1","name":"Trávníčkova","arrival_time":"13:44:00","departure_time":"13:44:00","lat":49.204439,"lon":16.625679,"is_passed":false},{"stop_id":"U1398Z1","name":"Mostecká","arrival_time":"13:45:00","departure_time":"13:45:00","lat":49.20703,"lon":16.627792,"is_passed":false},{"stop_id":"U1434Z1","name":"Vozovna Husovice","arrival_time":"13:46:00","departure_time":"13:46:00","lat":49.208331,"lon":16.629789,"is_passed":false},{"stop_id":"U1422Z1","name":"Náměstí Republiky","arrival_time":"13:47:00","departure_time":"13:47:00","lat":49.210591,"lon":16.633523,"is_passed":false},{"stop_id":"U1668Z1","name":"Tomkovo náměstí","arrival_time":"13:49:00","departure_time":"13:49:00","lat":49.214035,"lon":16.636587,"is_passed":false},{"stop_id":"U1358Z2","name":"Maloměřický most","arrival_time":"13:50:00","departure_time":"13:50:00","lat":49.215518,"lon":16.642987,"is_passed":false},{"stop_id":"U1521Z1","name":"Proškovo náměstí","arrival_time":"13:51:00","departure_time":"13:51:00","lat":49.220207,"lon":16.643397,"is_passed":false},{"stop_id":"U1447Z1","name":"Obřanská - u školy","arrival_time":"13:52:00","departure_time":"13:52:00","lat":49.222872,"lon":16.644811,"is_passed":false},{"stop_id":"U1077Z1","name":"Čtvery hony","arrival_time":"13:53:00","departure_time":"13:53:00","lat":49.226227,"lon":16.645584,"is_passed":false},{"stop_id":"U1448Z1","name":"Obřanský most","arrival_time":"13:54:00","departure_time":"13:54:00","lat":49.227602,"lon":16.650226,"is_passed":false},{"stop_id":"U1014Z1","name":"Babická","arrival_time":"13:56:00","departure_time":"14:07:00","lat":49.228004,"lon":16.652555,"is_passed":false}],"49919":[{"stop_id":"U1014Z2","name":"Babická","arrival_time":"14:07:00","departure_time":"14:07:00","lat":49.228129,"lon":16.652126,"is_passed":false},{"stop_id":"U1448Z2","name":"Obřanský most","arrival_time":"14:07:00","departure_time":"14:07:00","lat":49.227463,"lon":16.649577,"is_passed":false},{"stop_id":"U1077Z2","name":"Čtvery hony","arrival_time":"14:08:00","departure_time":"14:08:00","lat":49.225534,"lon":16.644942,"is_passed":false},{"stop_id":"U1447Z2","name":"Obřanská - u školy","arrival_time":"14:09:00","departure_time":"14:09:00","lat":49.22256,"lon":16.644731,"is_passed":false},{"stop_id":"U1521Z2","name":"Proškovo náměstí","arrival_time":"14:10:00","departure_time":"14:10:00","lat":49.21983,"lon":16.643286,"is_passed":false},{"stop_id":"U1358Z1","name":"Maloměřický most","arrival_time":"14:11:00","departure_time":"14:11:00","lat":49.21558,"lon":16.642601,"is_passed":false},{"stop_id":"U1668Z2","name":"Tomkovo náměstí","arrival_time":"14:13:00","departure_time":"14:13:00","lat":49.213819,"lon":16.636067,"is_passed":false},{"stop_id":"U1422Z2","name":"Náměstí Republiky","arrival_time":"14:14:00","departure_time":"14:14:00","lat":49.211428,"lon":16.634106,"is_passed":false},{"stop_id":"U1434Z2","name":"Vozovna Husovice","arrival_time":"14:15:00","departure_time":"14:15:00","lat":49.208534,"lon":16.629847,"is_passed":false},{"stop_id":"U1398Z2","name":"Mostecká","arrival_time":"14:17:00","departure_time":"14:17:00","lat":49.206873,"lon":16.626866,"is_passed":false},{"stop_id":"U1676Z2","name":"Trávníčkova","arrival_time":"14:18:00","departure_time":"14:18:00","lat":49.204401,"lon":16.625637,"is_passed":false},{"stop_id":"U1663Z2","name":"Tkalcovská","arrival_time":"14:21:00","departure_time":"14:21:00","lat":49.199805,"lon":16.625934,"is_passed":false},{"stop_id":"U1271Z2","name":"Körnerova","arrival_time":"14:23:00","departure_time":"14:23:00","lat":49.198152,"lon":16.619504,"is_passed":false},{"stop_id":"U1357Z1","name":"Malinovského náměstí","arrival_time":"14:26:00","departure_time":"14:26:00","lat":49.195492,"lon":16.61386,"is_passed":false},{"stop_id":"U1146Z1","name":"Hlavní nádraží","arrival_time":"14:29:00","departure_time":"14:29:00","lat":49.191185,"lon":16.611879,"is_passed":false},{"stop_id":"U1784Z2","name":"Zelný trh","arrival_time":"14:30:00","departure_time":"14:30:00","lat":49.19333,"lon":16.609624,"is_passed":false},{"stop_id":"U1423Z2","name":"Náměstí Svobody","arrival_time":"14:32:00","departure_time":"14:32:00","lat":49.195682,"lon":16.608015,"is_passed":false},{"stop_id":"U1073Z1","name":"Česká","arrival_time":"14:34:00","departure_time":"14:34:00","lat":49.197618,"lon":16.605584,"is_passed":false},{"stop_id":"U1257Z1","name":"Komenského náměstí","arrival_time":"14:35:00","departure_time":"14:35:00","lat":49.197047,"lon":16.601844,"is_passed":false},{"stop_id":"U1442Z1","name":"Obilní trh","arrival_time":"14:36:00","departure_time":"14:36:00","lat":49.198221,"lon":16.597478,"is_passed":false},{"stop_id":"U1712Z1","name":"Úvoz","arrival_time":"14:37:00","departure_time":"14:37:00","lat":49.19829,"lon":16.59265,"is_passed":false},{"stop_id":"U1762Z1","name":"Všetičkova","arrival_time":"14:38:00","departure_time":"14:38:00","lat":49.198749,"lon":16.588757,"is_passed":false},{"stop_id":"U1371Z1","name":"Náměstí Míru","arrival_time":"14:41:00","departure_time":"14:49:00","lat":49.202197,"lon":16.582014,"is_passed":false}],"49920":[{"stop_id":"U1371Z2","name":"Náměstí Míru","arrival_time":"14:49:00","departure_time":"14:49:00","lat":49.201971,"lon":16.581885,"is_passed":false},{"stop_id":"U1137Z1","name":"Heinrichova","arrival_time":"14:49:00","departure_time":"14:49:00","lat":49.200413,"lon":16.584511,"is_passed":false},{"stop_id":"U1762Z2","name":"Všetičkova","arrival_time":"14:51:00","departure_time":"14:51:00","lat":49.198648,"lon":16.589335,"is_passed":false},{"stop_id":"U1712Z2","name":"Úvoz","arrival_time":"14:52:00","departure_time":"14:52:00","lat":49.198275,"lon":16.593189,"is_passed":false},{"stop_id":"U1442Z2","name":"Obilní trh","arrival_time":"14:53:00","departure_time":"14:53:00","lat":49.198022,"lon":16.598215,"is_passed":false},{"stop_id":"U1257Z2","name":"Komenského náměstí","arrival_time":"14:55:00","departure_time":"14:55:00","lat":49.197135,"lon":16.602612,"is_passed":false},{"stop_id":"U1073Z2","name":"Česká","arrival_time":"14:57:00","departure_time":"14:57:00","lat":49.197702,"lon":16.606463,"is_passed":false},{"stop_id":"U1423Z1","name":"Náměstí Svobody","arrival_time":"14:58:00","departure_time":"14:58:00","lat":49.19564,"lon":16.607991,"is_passed":false},{"stop_id":"U1784Z1","name":"Zelný trh","arrival_time":"15:00:00","departure_time":"15:00:00","lat":49.192725,"lon":16.610226,"is_passed":false},{"stop_id":"U1146Z2","name":"Hlavní nádraží","arrival_time":"15:02:00","departure_time":"15:02:00","lat":49.191394,"lon":16.612548,"is_passed":false},{"stop_id":"U1357Z2","name":"Malinovského náměstí","arrival_time":"15:04:00","departure_time":"15:04:00","lat":49.195034,"lon":16.614825,"is_passed":false},{"stop_id":"U1271Z1","name":"Körnerova","arrival_time":"15:06:00","departure_time":"15:06:00","lat":49.19828,"lon":16.619945,"is_passed":false},{"stop_id":"U1663Z1","name":"Tkalcovská","arrival_time":"15:08:00","departure_time":"15:08:00","lat":49.200261,"lon":16.626109,"is_passed":false},{"stop_id":"U1676Z1","name":"Trávníčkova","arrival_time":"15:10:00","departure_time":"15:10:00","lat":49.204439,"lon":16.625679,"is_passed":false},{"stop_id":"U1398Z1","name":"Mostecká","arrival_time":"15:11:00","departure_time":"15:11:00","lat":49.20703,"lon":16.627792,"is_passed":false},{"stop_id":"U1434Z1","name":"Vozovna Husovice","arrival_time":"15:12:00","departure_time":"15:12:00","lat":49.208331,"lon":16.629789,"is_passed":false},{"stop_id":"U1422Z1","name":"Náměstí Republiky","arrival_time":"15:13:00","departure_time":"15:13:00","lat":49.210591,"lon":16.633523,"is_passed":false},{"stop_id":"U1668Z1","name":"Tomkovo náměstí","arrival_time":"15:15:00","departure_time":"15:15:00","lat":49.214035,"lon":16.636587,"is_passed":false},{"stop_id":"U1358Z2","name":"Maloměřický most","arrival_time":"15:16:00","departure_time":"15:16:00","lat":49.215518,"lon":16.642987,"is_passed":false},{"stop_id":"U1521Z1","name":"Proškovo náměstí","arrival_time":"15:17:00","departure_time":"15:17:00","lat":49.220207,"lon":16.643397,"is_passed":false},{"stop_id":"U1447Z1","name":"Obřanská - u školy","arrival_time":"15:18:00","departure_time":"15:18:00","lat":49.222872,"lon":16.644811,"is_passed":false},{"stop_id":"U1077Z1","name":"Čtvery hony","arrival_time":"15:19:00","departure_time":"15:19:00","lat":49.226227,"lon":16.645584,"is_passed":false},{"stop_id":"U1448Z1","name":"Obřanský most","arrival_time":"15:20:00","departure_time":"15:20:00","lat":49.227602,"lon":16.650226,"is_passed":false},{"stop_id":"U1014Z1","name":"Babická","arrival_time":"15:22:00","departure_time":"15:40:00","lat":49.228004,"lon":16.652555,"is_passed":false}],"49921":[{"stop_id":"U1014Z2","name":"Babická","arrival_time":"15:40:00","departure_time":"15:40:00","lat":49.228129,"lon":16.652126,"is_passed":false},{"stop_id":"U1448Z2","name":"Obřanský most","arrival_time":"15:40:00","departure_time":"15:40:00","lat":49.227463,"lon":16.649577,"is_passed":false},{"stop_id":"U1077Z2","name":"Čtvery hony","arrival_time":"15:41:00","departure_time":"15:41:00","lat":49.225534,"lon":16.644942,"is_passed":false},{"stop_id":"U1447Z2","name":"Obřanská - u školy","arrival_time":"15:42:00","departure_time":"15:42:00","lat":49.22256,"lon":16.644731,"is_passed":false},{"stop_id":"U1521Z2","name":"Proškovo náměstí","arrival_time":"15:43:00","departure_time":"15:43:00","lat":49.21983,"lon":16.643286,"is_passed":false},{"stop_id":"U1358Z1","name":"Maloměřický most","arrival_time":"15:44:00","departure_time":"15:44:00","lat":49.21558,"lon":16.642601,"is_passed":false},{"stop_id":"U1668Z2","name":"Tomkovo náměstí","arrival_time":"15:46:00","departure_time":"15:46:00","lat":49.213819,"lon":16.636067,"is_passed":false},{"stop_id":"U1422Z2","name":"Náměstí Republiky","arrival_time":"15:47:00","departure_time":"15:47:00","lat":49.211428,"lon":16.634106,"is_passed":false},{"stop_id":"U1434Z2","name":"Vozovna Husovice","arrival_time":"15:48:00","departure_time":"15:48:00","lat":49.208534,"lon":16.629847,"is_passed":false},{"stop_id":"U1398Z2","name":"Mostecká","arrival_time":"15:50:00","departure_time":"15:50:00","lat":49.206873,"lon":16.626866,"is_passed":false},{"stop_id":"U1676Z2","name":"Trávníčkova","arrival_time":"15:51:00","departure_time":"15:51:00","lat":49.204401,"lon":16.625637,"is_passed":false},{"stop_id":"U1663Z2","name":"Tkalcovská","arrival_time":"15:54:00","departure_time":"15:54:00","lat":49.199805,"lon":16.625934,"is_passed":false},{"stop_id":"U1271Z2","name":"Körnerova","arrival_time":"15:56:00","departure_time":"15:56:00","lat":49.198152,"lon":16.619504,"is_passed":false},{"stop_id":"U1357Z1","name":"Malinovského náměstí","arrival_time":"15:59:00","departure_time":"15:59:00","lat":49.195492,"lon":16.61386,"is_passed":false},{"stop_id":"U1146Z1","name":"Hlavní nádraží","arrival_time":"16:02:00","departure_time":"16:02:00","lat":49.191185,"lon":16.611879,"is_passed":false},{"stop_id":"U1784Z2","name":"Zelný trh","arrival_time":"16:03:00","departure_time":"16:03:00","lat":49.19333,"lon":16.609624,"is_passed":false},{"stop_id":"U1423Z2","name":"Náměstí Svobody","arrival_time":"16:05:00","departure_time":"16:05:00","lat":49.195682,"lon":16.608015,"is_passed":false},{"stop_id":"U1073Z1","name":"Česká","arrival_time":"16:07:00","departure_time":"16:07:00","lat":49.197618,"lon":16.605584,"is_passed":false},{"stop_id":"U1257Z1","name":"Komenského náměstí","arrival_time":"16:08:00","departure_time":"16:08:00","lat":49.197047,"lon":16.601844,"is_passed":false},{"stop_id":"U1442Z1","name":"Obilní trh","arrival_time":"16:09:00","departure_time":"16:09:00","lat":49.198221,"lon":16.597478,"is_passed":false},{"stop_id":"U1712Z1","name":"Úvoz","arrival_time":"16:10:00","departure_time":"16:10:00","lat":49.19829,"lon":16.59265,"is_passed":false},{"stop_id":"U1762Z1","name":"Všetičkova","arrival_time":"16:11:00","departure_time":"16:11:00","lat":49.198749,"lon":16.588757,"is_passed":false},{"stop_id":"U1371Z1","name":"Náměstí Míru","arrival_time":"16:14:00","departure_time":"16:23:00","lat":49.202197,"lon":16.582014,"is_passed":false}],"49922":[{"stop_id":"U1371Z2","name":"Náměstí Míru","arrival_time":"16:23:00","departure_time":"16:23:00","lat":49.201971,"lon":16.581885,"is_passed":false},{"stop_id":"U1137Z1","name":"Heinrichova","arrival_time":"16:23:00","departure_time":"16:23:00","lat":49.200413,"lon":16.584511,"is_passed":false},{"stop_id":"U1762Z2","name":"Všetičkova","arrival_time":"16:25:00","departure_time":"16:25:00","lat":49.198648,"lon":16.589335,"is_passed":false},{"stop_id":"U1712Z2","name":"Úvoz","arrival_time":"16:26:00","departure_time":"16:26:00","lat":49.198275,"lon":16.593189,"is_passed":false},{"stop_id":"U1442Z2","name":"Obilní trh","arrival_time":"16:27:00","departure_time":"16:27:00","lat":49.198022,"lon":16.598215,"is_passed":false},{"stop_id":"U1257Z2","name":"Komenského náměstí","arrival_time":"16:29:00","departure_time":"16:29:00","lat":49.197135,"lon":16.602612,"is_passed":false},{"stop_id":"U1073Z2","name":"Česká","arrival_time":"16:31:00","departure_time":"16:31:00","lat":49.197702,"lon":16.606463,"is_passed":false},{"stop_id":"U1423Z1","name":"Náměstí Svobody","arrival_time":"16:32:00","departure_time":"16:32:00","lat":49.19564,"lon":16.607991,"is_passed":false},{"stop_id":"U1784Z1","name":"Zelný trh","arrival_time":"16:34:00","departure_time":"16:34:00","lat":49.192725,"lon":16.610226,"is_passed":false},{"stop_id":"U1146Z2","name":"Hlavní nádraží","arrival_time":"16:36:00","departure_time":"16:36:00","lat":49.191394,"lon":16.612548,"is_passed":false},{"stop_id":"U1357Z2","name":"Malinovského náměstí","arrival_time":"16:38:00","departure_time":"16:38:00","lat":49.195034,"lon":16.614825,"is_passed":false},{"stop_id":"U1271Z1","name":"Körnerova","arrival_time":"16:40:00","departure_time":"16:40:00","lat":49.19828,"lon":16.619945,"is_passed":false},{"stop_id":"U1663Z1","name":"Tkalcovská","arrival_time":"16:42:00","departure_time":"16:42:00","lat":49.200261,"lon":16.626109,"is_passed":false},{"stop_id":"U1676Z1","name":"Trávníčkova","arrival_time":"16:44:00","departure_time":"16:44:00","lat":49.204439,"lon":16.625679,"is_passed":false},{"stop_id":"U1398Z1","name":"Mostecká","arrival_time":"16:45:00","departure_time":"16:45:00","lat":49.20703,"lon":16.627792,"is_passed":false},{"stop_id":"U1434Z1","name":"Vozovna Husovice","arrival_time":"16:46:00","departure_time":"16:46:00","lat":49.208331,"lon":16.629789,"is_passed":false},{"stop_id":"U1422Z1","name":"Náměstí Republiky","arrival_time":"16:47:00","departure_time":"16:47:00","lat":49.210591,"lon":16.633523,"is_passed":false},{"stop_id":"U1668Z1","name":"Tomkovo náměstí","arrival_time":"16:49:00","departure_time":"16:49:00","lat":49.214035,"lon":16.636587,"is_passed":false},{"stop_id":"U1358Z2","name":"Maloměřický most","arrival_time":"16:50:00","departure_time":"16:50:00","lat":49.215518,"lon":16.642987,"is_passed":false},{"stop_id":"U1521Z1","name":"Proškovo náměstí","arrival_time":"16:51:00","departure_time":"16:51:00","lat":49.220207,"lon":16.643397,"is_passed":false},{"stop_id":"U1447Z1","name":"Obřanská - u školy","arrival_time":"16:52:00","departure_time":"16:52:00","lat":49.222872,"lon":16.644811,"is_passed":false},{"stop_id":"U1077Z1","name":"Čtvery hony","arrival_time":"16:53:00","departure_time":"16:53:00","lat":49.226227,"lon":16.645584,"is_passed":false},{"stop_id":"U1448Z1","name":"Obřanský most","arrival_time":"16:54:00","departure_time":"16:54:00","lat":49.227602,"lon":16.650226,"is_passed":false},{"stop_id":"U1014Z1","name":"Babická","arrival_time":"16:56:00","departure_time":"17:14:00","lat":49.228004,"lon":16.652555,"is_passed":false}],"49923":[{"stop_id":"U1014Z2","name":"Babická","arrival_time":"17:14:00","departure_time":"17:14:00","lat":49.228129,"lon":16.652126,"is_passed":false},{"stop_id":"U1448Z2","name":"Obřanský most","arrival_time":"17:14:00","departure_time":"17:14:00","lat":49.227463,"lon":16.649577,"is_passed":false},{"stop_id":"U1077Z2","name":"Čtvery hony","arrival_time":"17:15:00","departure_time":"17:15:00","lat":49.225534,"lon":16.644942,"is_passed":false},{"stop_id":"U1447Z2","name":"Obřanská - u školy","arrival_time":"17:16:00","departure_time":"17:16:00","lat":49.22256,"lon":16.644731,"is_passed":false},{"stop_id":"U1521Z2","name":"Proškovo náměstí","arrival_time":"17:17:00","departure_time":"17:17:00","lat":49.21983,"lon":16.643286,"is_passed":false},{"stop_id":"U1358Z1","name":"Maloměřický most","arrival_time":"17:18:00","departure_time":"17:18:00","lat":49.21558,"lon":16.642601,"is_passed":false},{"stop_id":"U1668Z2","name":"Tomkovo náměstí","arrival_time":"17:20:00","departure_time":"17:20:00","lat":49.213819,"lon":16.636067,"is_passed":false},{"stop_id":"U1422Z2","name":"Náměstí Republiky","arrival_time":"17:21:00","departure_time":"17:21:00","lat":49.211428,"lon":16.634106,"is_passed":false},{"stop_id":"U1434Z2","name":"Vozovna Husovice","arrival_time":"17:22:00","departure_time":"17:22:00","lat":49.208534,"lon":16.629847,"is_passed":false},{"stop_id":"U1398Z2","name":"Mostecká","arrival_time":"17:24:00","departure_time":"17:24:00","lat":49.206873,"lon":16.626866,"is_passed":false},{"stop_id":"U1676Z2","name":"Trávníčkova","arrival_time":"17:25:00","departure_time":"17:25:00","lat":49.204401,"lon":16.625637,"is_passed":false},{"stop_id":"U1663Z2","name":"Tkalcovská","arrival_time":"17:28:00","departure_time":"17:28:00","lat":49.199805,"lon":16.625934,"is_passed":false},{"stop_id":"U1271Z2","name":"Körnerova","arrival_time":"17:30:00","departure_time":"17:30:00","lat":49.198152,"lon":16.619504,"is_passed":false},{"stop_id":"U1357Z1","name":"Malinovského náměstí","arrival_time":"17:33:00","departure_time":"17:33:00","lat":49.195492,"lon":16.61386,"is_passed":false},{"stop_id":"U1146Z1","name":"Hlavní nádraží","arrival_time":"17:36:00","departure_time":"17:36:00","lat":49.191185,"lon":16.611879,"is_passed":false},{"stop_id":"U1784Z2","name":"Zelný trh","arrival_time":"17:37:00","departure_time":"17:37:00","lat":49.19333,"lon":16.609624,"is_passed":false},{"stop_id":"U1423Z2","name":"Náměstí Svobody","arrival_time":"17:39:00","departure_time":"17:39:00","lat":49.195682,"lon":16.608015,"is_passed":false},{"stop_id":"U1073Z1","name":"Česká","arrival_time":"17:41:00","departure_time":"17:41:00","lat":49.197618,"lon":16.605584,"is_passed":false},{"stop_id":"U1257Z1","name":"Komenského náměstí","arrival_time":"17:42:00","departure_time":"17:42:00","lat":49.197047,"lon":16.601844,"is_passed":false},{"stop_id":"U1442Z1","name":"Obilní trh","arrival_time":"17:43:00","departure_time":"17:43:00","lat":49.198221,"lon":16.597478,"is_passed":false},{"stop_id":"U1712Z1","name":"Úvoz","arrival_time":"17:44:00","departure_time":"17:44:00","lat":49.19829,"lon":16.59265,"is_passed":false},{"stop_id":"U1762Z1","name":"Všetičkova","arrival_time":"17:45:00","departure_time":"17:45:00","lat":49.198749,"lon":16.588757,"is_passed":false},{"stop_id":"U1371Z1","name":"Náměstí Míru","arrival_time":"17:48:00","departure_time":"17:56:00","lat":49.202197,"lon":16.582014,"is_passed":false}],"49924":[{"stop_id":"U1371Z2","name":"Náměstí Míru","arrival_time":"17:56:00","departure_time":"17:56:00","lat":49.201971,"lon":16.581885,"is_passed":false},{"stop_id":"U1137Z1","name":"Heinrichova","arrival_time":"17:56:00","departure_time":"17:56:00","lat":49.200413,"lon":16.584511,"is_passed":false},{"stop_id":"U1762Z2","name":"Všetičkova","arrival_time":"17:58:00","departure_time":"17:58:00","lat":49.198648,"lon":16.589335,"is_passed":false},{"stop_id":"U1712Z2","name":"Úvoz","arrival_time":"17:59:00","departure_time":"17:59:00","lat":49.198275,"lon":16.593189,"is_passed":false},{"stop_id":"U1442Z2","name":"Obilní trh","arrival_time":"18:00:00","departure_time":"18:00:00","lat":49.198022,"lon":16.598215,"is_passed":false},{"stop_id":"U1257Z2","name":"Komenského náměstí","arrival_time":"18:02:00","departure_time":"18:02:00","lat":49.197135,"lon":16.602612,"is_passed":false},{"stop_id":"U1073Z2","name":"Česká","arrival_time":"18:04:00","departure_time":"18:04:00","lat":49.197702,"lon":16.606463,"is_passed":false},{"stop_id":"U1423Z1","name":"Náměstí Svobody","arrival_time":"18:05:00","departure_time":"18:05:00","lat":49.19564,"lon":16.607991,"is_passed":false},{"stop_id":"U1784Z1","name":"Zelný trh","arrival_time":"18:07:00","departure_time":"18:07:00","lat":49.192725,"lon":16.610226,"is_passed":false},{"stop_id":"U1146Z2","name":"Hlavní nádraží","arrival_time":"18:09:00","departure_time":"18:09:00","lat":49.191394,"lon":16.612548,"is_passed":false},{"stop_id":"U1357Z2","name":"Malinovského náměstí","arrival_time":"18:11:00","departure_time":"18:11:00","lat":49.195034,"lon":16.614825,"is_passed":false},{"stop_id":"U1271Z1","name":"Körnerova","arrival_time":"18:13:00","departure_time":"18:13:00","lat":49.19828,"lon":16.619945,"is_passed":false},{"stop_id":"U1663Z1","name":"Tkalcovská","arrival_time":"18:15:00","departure_time":"18:15:00","lat":49.200261,"lon":16.626109,"is_passed":false},{"stop_id":"U1676Z1","name":"Trávníčkova","arrival_time":"18:17:00","departure_time":"18:17:00","lat":49.204439,"lon":16.625679,"is_passed":false},{"stop_id":"U1398Z1","name":"Mostecká","arrival_time":"18:18:00","departure_time":"18:18:00","lat":49.20703,"lon":16.627792,"is_passed":false},{"stop_id":"U1434Z1","name":"Vozovna Husovice","arrival_time":"18:19:00","departure_time":"18:19:00","lat":49.208331,"lon":16.629789,"is_passed":false},{"stop_id":"U1422Z1","name":"Náměstí Republiky","arrival_time":"18:20:00","departure_time":"18:20:00","lat":49.210591,"lon":16.633523,"is_passed":false},