[{"stop_id":"U1696Z15","name":"ÚAN Zvonařka","arrival_time":"5:46:00","departure_time":"5:46:00","lat":49.185475,"lon":16.617567,"is_passed":false},{"stop_id":"U1807Z1","name":"Železniční","arrival_time":"5:47:00","departure_time":"5:47:00","lat":49.18274,"lon":16.619609,"is_passed":false},{"stop_id":"U1266Z3","name":"Konopná","arrival_time":"5:48:00","departure_time":"5:48:00","lat":49.180126,"lon":16.621339,"is_passed":false},{"stop_id":"U1256Z3","name":"Komárov","arrival_time":"5:50:00","departure_time":"5:50:00","lat":49.17444,"lon":16.622448,"is_passed":false},{"stop_id":"U1148Z1","name":"Hněvkovského","arrival_time":"5:51:00","departure_time":"5:51:00","lat":49.169807,"lon":16.625991,"is_passed":false},{"stop_id":"U1781Z2","name":"Zámecká","arrival_time":"5:56:00","departure_time":"5:56:00","lat":49.132518,"lon":16.642875,"is_passed":false},{"stop_id":"U1644Z2","name":"Šromova","arrival_time":"5:57:00","departure_time":"5:57:00","lat":49.13398,"lon":16.651446,"is_passed":false},{"stop_id":"U1187Z4","name":"Chrlické náměstí","arrival_time":"5:58:00","departure_time":"5:58:00","lat":49.135767,"lon":16.653213,"is_passed":false},{"stop_id":"U1718Z2","name":"V rejích","arrival_time":"6:00:00","departure_time":"6:00:00","lat":49.138975,"lon":16.65507,"is_passed":false},{"stop_id":"U1151Z2","name":"Holásky","arrival_time":"6:01:00","departure_time":"6:01:00","lat":49.142863,"lon":16.651287,"is_passed":false},{"stop_id":"U1543Z1","name":"Rolencova","arrival_time":"6:02:00","departure_time":"6:02:00","lat":49.145069,"lon":16.655039,"is_passed":false},{"stop_id":"U1154Z2","name":"Holásecká","arrival_time":"6:03:00","departure_time":"6:03:00","lat":49.147689,"lon":16.661673,"is_passed":false},{"stop_id":"U1131Z1","name":"Hanácká","arrival_time":"6:05:00","departure_time":"6:05:00","lat":49.146954,"lon":16.667509,"is_passed":false},{"stop_id":"U1186Z1","name":"Chrlická","arrival_time":"6:06:00","departure_time":"6:06:00","lat":49.144276,"lon":16.66513,"is_passed":false},{"stop_id":"U1681Z3","name":"Tuřany, smyčka","arrival_time":"6:07:00","departure_time":"6:07:00","lat":49.141407,"lon":16.667828,"is_passed":false},{"stop_id":"U1592Z3","name":"Sokolnická","arrival_time":"6:09:00","departure_time":"6:09:00","lat":49.131372,"lon":16.684457,"is_passed":false},{"stop_id":"U16147Z1","name":"Sokolnice, rozvodna","arrival_time":"6:11:00","departure_time":"6:11:00","lat":49.115062,"lon":16.704663,"is_passed":false},{"stop_id":"U16173Z1","name":"Sokolnice, Brněnská","arrival_time":"6:12:00","departure_time":"6:12:00","lat":49.114191,"lon":16.714345,"is_passed":false},{"stop_id":"U16145Z1","name":"Sokolnice, obecní úřad","arrival_time":"6:14:00","departure_time":"6:14:00","lat":49.113855,"lon":16.722054,"is_passed":false},{"stop_id":"U16149Z1","name":"Sokolnice, železniční stanice","arrival_time":"6:16:00","departure_time":"6:16:00","lat":49.108328,"lon":16.73367,"is_passed":false},{"stop_id":"U16157Z1","name":"Újezd u Brna, Revoluční","arrival_time":"6:18:00","departure_time":"6:18:00","lat":49.106258,"lon":16.749987,"is_passed":false},{"stop_id":"U16156Z3","name":"Újezd u Brna, městský úřad","arrival_time":"6:20:00","departure_time":"7:08:00","lat":49.103863,"lon":16.757613,"is_passed":false}]