{"501":[{"stop_id":"U16228Z12","name":"Holubice, žel.st.","arrival_time":"15:53:00","departure_time":"15:53:00","lat":49.179869,"lon":16.824654,"is_passed":false},{"stop_id":"U16212Z10","name":"Křenovice, hor. žel. st.","arrival_time":"15:57:00","departure_time":"15:58:00","lat":49.143553,"lon":16.824564,"is_passed":false},{"stop_id":"U26201Z1","name":"Zbýšov","arrival_time":"16:00:00","departure_time":"16:01:00","lat":49.132691,"lon":16.806859,"is_passed":false},{"stop_id":"U26102Z1","name":"Hostěrádky-Rešov","arrival_time":"16:03:00","departure_time":"16:04:00","lat":49.119822,"lon":16.782755,"is_passed":false},{"stop_id":"U26101Z1","name":"Újezd u Brna","arrival_time":"16:07:00","departure_time":"16:07:00","lat":49.107297,"lon":16.745564,"is_passed":false},{"stop_id":"U16149Z10","name":"Sokolnice, železniční stanice","arrival_time":"16:09:00","departure_time":"16:10:00","lat":49.108029,"lon":16.733459,"is_passed":false},{"stop_id":"U1183Z10","name":"Chrlice, nádraží","arrival_time":"16:15:00","departure_time":"16:16:00","lat":49.132031,"lon":16.657232,"is_passed":false},{"stop_id":"U1146Z99","name":"Hlavní nádraží","arrival_time":"16:26:00","departure_time":"16:29:00","lat":49.19035,"lon":16.612342,"is_passed":false},{"stop_id":"U1809Z10","name":"Židenice, nádraží","arrival_time":"16:33:00","departure_time":"16:34:00","lat":49.204282,"lon":16.636042,"is_passed":false},{"stop_id":"U12158Z10","name":"Bílovice nad Svitavou, žel. stanice","arrival_time":"16:39:00","departure_time":"16:40:00","lat":49.242715,"lon":16.673677,"is_passed":false},{"stop_id":"U22101Z1","name":"Babice nad Svitavou","arrival_time":"16:44:00","departure_time":"16:44:00","lat":49.276645,"lon":16.673012,"is_passed":false},{"stop_id":"U12230Z10","name":"Adamov, železniční stanice","arrival_time":"16:47:00","departure_time":"16:48:00","lat":49.295341,"lon":16.663538,"is_passed":false},{"stop_id":"U12231Z10","name":"Adamov, železniční zastávka","arrival_time":"16:50:00","departure_time":"16:50:00","lat":49.300671,"lon":16.650653,"is_passed":false},{"stop_id":"U12342Z30","name":"Blansko, aut. st.","arrival_time":"16:56:00","departure_time":"16:57:00","lat":49.352753,"lon":16.646848,"is_passed":false},{"stop_id":"U22302Z1","name":"Blansko město","arrival_time":"16:59:00","departure_time":"17:00:00","lat":49.360996,"lon":16.639464,"is_passed":false},{"stop_id":"U22301Z1","name":"Dolní Lhota","arrival_time":"17:02:00","departure_time":"17:03:00","lat":49.386917,"lon":16.633978,"is_passed":false},{"stop_id":"U12439Z50","name":"Rájec-Jestřebí, železniční stanice","arrival_time":"17:06:00","departure_time":"17:10:00","lat":49.408206,"lon":16.627711,"is_passed":false},{"stop_id":"U12511Z50","name":"Doubravice, žel.st.","arrival_time":"17:13:00","departure_time":"17:13:00","lat":49.438707,"lon":16.621809,"is_passed":false},{"stop_id":"U12676Z50","name":"Skalice nad Svitavou, žel.st.","arrival_time":"17:19:00","departure_time":"17:40:00","lat":49.480123,"lon":16.609726,"is_passed":false}],"5010":[{"stop_id":"U1703Z6","name":"Ústřední hřbitov","arrival_time":"8:22:00","departure_time":"8:22:00","lat":49.170744,"lon":16.597612,"is_passed":false},{"stop_id":"U1466Z5","name":"Ořechovská","arrival_time":"8:25:00","departure_time":"8:25:00","lat":49.156238,"lon":16.599375,"is_passed":false},{"stop_id":"U1549Z1","name":"Rozhraní","arrival_time":"8:26:00","departure_time":"8:26:00","lat":49.155854,"lon":16.592288,"is_passed":false},{"stop_id":"U15113Z1","name":"Moravany, Bohunická cesta","arrival_time":"8:27:00","departure_time":"8:27:00","lat":49.15089,"lon":16.583503,"is_passed":false},{"stop_id":"U15114Z1","name":"Moravany, Hlavní","arrival_time":"8:28:00","departure_time":"8:28:00","lat":49.147228,"lon":16.578896,"is_passed":false},{"stop_id":"U15115Z1","name":"Moravany, Nebovidská","arrival_time":"8:29:00","departure_time":"8:29:00","lat":49.147983,"lon":16.569237,"is_passed":false},{"stop_id":"U15118Z1","name":"Nebovidy, u kostela","arrival_time":"8:31:00","departure_time":"8:31:00","lat":49.141636,"lon":16.553667,"is_passed":false},{"stop_id":"U15116Z1","name":"Nebovidy, dolní konec","arrival_time":"8:32:00","departure_time":"8:32:00","lat":49.142128,"lon":16.549075,"is_passed":false},{"stop_id":"U15117Z1","name":"Nebovidy, rozcestí Střelice","arrival_time":"8:34:00","departure_time":"8:34:00","lat":49.144946,"lon":16.530984,"is_passed":false},{"stop_id":"U15119Z1","name":"Nebovidy, Závist","arrival_time":"8:36:00","departure_time":"8:36:00","lat":49.13415,"lon":16.529119,"is_passed":false},{"stop_id":"U14202Z1","name":"Ořechov, Kerendov","arrival_time":"8:39:00","departure_time":"8:39:00","lat":49.117361,"lon":16.525717,"is_passed":false},{"stop_id":"U14205Z1","name":"Ořechov, orlovna","arrival_time":"8:40:00","departure_time":"8:40:00","lat":49.111073,"lon":16.526063,"is_passed":false},{"stop_id":"U14204Z1","name":"Ořechov, obecní úřad","arrival_time":"8:41:00","departure_time":"8:41:00","lat":49.111535,"lon":16.518505,"is_passed":false},{"stop_id":"U14201Z3","name":"Ořechov, Jeřábkova","arrival_time":"8:42:00","departure_time":"10:22:00","lat":49.108927,"lon":16.512613,"is_passed":false}],"5011":[{"stop_id":"U14201Z2","name":"Ořechov, Jeřábkova","arrival_time":"10:22:00","departure_time":"10:22:00","lat":49.108927,"lon":16.512613,"is_passed":false},{"stop_id":"U14204Z2","name":"Ořechov, obecní úřad","arrival_time":"10:24:00","departure_time":"10:24:00","lat":49.111497,"lon":16.51816,"is_passed":false},{"stop_id":"U14205Z2","name":"Ořechov, orlovna","arrival_time":"10:25:00","departure_time":"10:25:00","lat":49.111083,"lon":16.526193,"is_passed":false},{"stop_id":"U14202Z2","name":"Ořechov, Kerendov","arrival_time":"10:27:00","departure_time":"10:27:00","lat":49.11742,"lon":16.52586,"is_passed":false},{"stop_id":"U15119Z2","name":"Nebovidy, Závist","arrival_time":"10:30:00","departure_time":"10:30:00","lat":49.1347,"lon":16.528614,"is_passed":false},{"stop_id":"U15117Z2","name":"Nebovidy, rozcestí Střelice","arrival_time":"10:32:00","departure_time":"10:32:00","lat":49.145888,"lon":16.532103,"is_passed":false},{"stop_id":"U15116Z2","name":"Nebovidy, dolní konec","arrival_time":"10:34:00","departure_time":"10:34:00","lat":49.141953,"lon":16.54915,"is_passed":false},{"stop_id":"U15118Z2","name":"Nebovidy, u kostela","arrival_time":"10:35:00","departure_time":"10:35:00","lat":49.141783,"lon":16.554006,"is_passed":false},{"stop_id":"U15114Z2","name":"Moravany, Hlavní","arrival_time":"10:39:00","departure_time":"10:39:00","lat":49.147097,"lon":16.578552,"is_passed":false},{"stop_id":"U15113Z2","name":"Moravany, Bohunická cesta","arrival_time":"10:40:00","departure_time":"10:40:00","lat":49.151006,"lon":16.583777,"is_passed":false},{"stop_id":"U1549Z2","name":"Rozhraní","arrival_time":"10:41:00","departure_time":"10:41:00","lat":49.155698,"lon":16.592118,"is_passed":false},{"stop_id":"U1466Z55","name":"Ořechovská","arrival_time":"10:43:00","departure_time":"10:43:00","lat":49.156238,"lon":16.599375,"is_passed":false},{"stop_id":"U1141Z2","name":"Heršpická","arrival_time":"10:46:00","departure_time":"10:46:00","lat":49.170473,"lon":16.599896,"is_passed":false},{"stop_id":"U1703Z5","name":"Ústřední hřbitov","arrival_time":"10:50:00","departure_time":"12:12:00","lat":49.171604,"lon":16.597316,"is_passed":false}],"5012":[{"stop_id":"U1703Z6","name":"Ústřední hřbitov","arrival_time":"12:12:00","departure_time":"12:12:00","lat":49.170744,"lon":16.597612,"is_passed":false},{"stop_id":"U1466Z5","name":"Ořechovská","arrival_time":"12:15:00","departure_time":"12:15:00","lat":49.156238,"lon":16.599375,"is_passed":false},{"stop_id":"U1549Z1","name":"Rozhraní","arrival_time":"12:16:00","departure_time":"12:16:00","lat":49.155854,"lon":16.592288,"is_passed":false},{"stop_id":"U15113Z1","name":"Moravany, Bohunická cesta","arrival_time":"12:17:00","departure_time":"12:17:00","lat":49.15089,"lon":16.583503,"is_passed":false},{"stop_id":"U15114Z1","name":"Moravany, Hlavní","arrival_time":"12:18:00","departure_time":"12:18:00","lat":49.147228,"lon":16.578896,"is_passed":false},{"stop_id":"U15115Z1","name":"Moravany, Nebovidská","arrival_time":"12:19:00","departure_time":"12:19:00","lat":49.147983,"lon":16.569237,"is_passed":false},{"stop_id":"U15118Z1","name":"Nebovidy, u kostela","arrival_time":"12:21:00","departure_time":"12:21:00","lat":49.141636,"lon":16.553667,"is_passed":false},{"stop_id":"U15116Z1","name":"Nebovidy, dolní konec","arrival_time":"12:22:00","departure_time":"12:22:00","lat":49.142128,"lon":16.549075,"is_passed":false},{"stop_id":"U15117Z1","name":"Nebovidy, rozcestí Střelice","arrival_time":"12:24:00","departure_time":"12:24:00","lat":49.144946,"lon":16.530984,"is_passed":false},{"stop_id":"U15119Z1","name":"Nebovidy, Závist","arrival_time":"12:26:00","departure_time":"12:26:00","lat":49.13415,"lon":16.529119,"is_passed":false},{"stop_id":"U14202Z1","name":"Ořechov, Kerendov","arrival_time":"12:29:00","departure_time":"12:29:00","lat":49.117361,"lon":16.525717,"is_passed":false},{"stop_id":"U14205Z1","name":"Ořechov, orlovna","arrival_time":"12:30:00","departure_time":"12:30:00","lat":49.111073,"lon":16.526063,"is_passed":false},{"stop_id":"U14204Z1","name":"Ořechov, obecní úřad","arrival_time":"12:31:00","departure_time":"12:31:00","lat":49.111535,"lon":16.518505,"is_passed":false},{"stop_id":"U14201Z3","name":"Ořechov, Jeřábkova","arrival_time":"12:32:00","departure_time":"13:17:00","lat":49.108927,"lon":16.512613,"is_passed":false}],"5013":[{"stop_id":"U14201Z2","name":"Ořechov, Jeřábkova","arrival_time":"13:17:00","departure_time":"13:17:00","lat":49.108927,"lon":16.512613,"is_passed":false},{"stop_id":"U14204Z2","name":"Ořechov, obecní úřad","arrival_time":"13:19:00","departure_time":"13:19:00","lat":49.111497,"lon":16.51816,"is_passed":false},{"stop_id":"U14205Z2","name":"Ořechov, orlovna","arrival_time":"13:20:00","departure_time":"13:20:00","lat":49.111083,"lon":16.526193,"is_passed":false},{"stop_id":"U14202Z2","name":"Ořechov, Kerendov","arrival_time":"13:22:00","departure_time":"13:22:00","lat":49.11742,"lon":16.52586,"is_passed":false},{"stop_id":"U15119Z2","name":"Nebovidy, Závist","arrival_time":"13:25:00","departure_time":"13:25:00","lat":49.1347,"lon":16.528614,"is_passed":false},{"stop_id":"U15117Z2","name":"Nebovidy, rozcestí Střelice","arrival_time":"13:27:00","departure_time":"13:27:00","lat":49.145888,"lon":16.532103,"is_passed":false},{"stop_id":"U15116Z2","name":"Nebovidy, dolní konec","arrival_time":"13:29:00","departure_time":"13:29:00","lat":49.141953,"lon":16.54915,"is_passed":false},{"stop_id":"U15118Z2","name":"Nebovidy, u kostela","arrival_time":"13:30:00","departure_time":"13:30:00","lat":49.141783,"lon":16.554006,"is_passed":false},{"stop_id":"U15114Z2","name":"Moravany, Hlavní","arrival_time":"13:34:00","departure_time":"13:34:00","lat":49.147097,"lon":16.578552,"is_passed":false},{"stop_id":"U15113Z2","name":"Moravany, Bohunická cesta","arrival_time":"13:35:00","departure_time":"13:35:00","lat":49.151006,"lon":16.583777,"is_passed":false},{"stop_id":"U1549Z2","name":"Rozhraní","arrival_time":"13:36:00","departure_time":"13:36:00","lat":49.155698,"lon":16.592118,"is_passed":false},{"stop_id":"U1466Z55","name":"Ořechovská","arrival_time":"13:38:00","departure_time":"13:38:00","lat":49.156238,"lon":16.599375,"is_passed":false},{"stop_id":"U1141Z2","name":"Heršpická","arrival_time":"13:41:00","departure_time":"13:41:00","lat":49.170473,"lon":16.599896,"is_passed":false},{"stop_id":"U1703Z5","name":"Ústřední hřbitov","arrival_time":"13:45:00","departure_time":"14:02:00","lat":49.171604,"lon":16.597316,"is_passed":false}],"5014":[{"stop_id":"U1703Z6","name":"Ústřední hřbitov","arrival_time":"14:02:00","departure_time":"14:02:00","lat":49.170744,"lon":16.597612,"is_passed":false},{"stop_id":"U1466Z5","name":"Ořechovská","arrival_time":"14:05:00","departure_time":"14:05:00","lat":49.156238,"lon":16.599375,"is_passed":false},{"stop_id":"U1549Z1","name":"Rozhraní","arrival_time":"14:06:00","departure_time":"14:06:00","lat":49.155854,"lon":16.592288,"is_passed":false},{"stop_id":"U15113Z1","name":"Moravany, Bohunická cesta","arrival_time":"14:07:00","departure_time":"14:07:00","lat":49.15089,"lon":16.583503,"is_passed":false},{"stop_id":"U15114Z1","name":"Moravany, Hlavní","arrival_time":"14:08:00","departure_time":"14:08:00","lat":49.147228,"lon":16.578896,"is_passed":false},{"stop_id":"U15115Z1","name":"Moravany, Nebovidská","arrival_time":"14:09:00","departure_time":"14:09:00","lat":49.147983,"lon":16.569237,"is_passed":false},{"stop_id":"U15118Z1","name":"Nebovidy, u kostela","arrival_time":"14:11:00","departure_time":"14:11:00","lat":49.141636,"lon":16.553667,"is_passed":false},{"stop_id":"U15116Z1","name":"Nebovidy, dolní konec","arrival_time":"14:12:00","departure_time":"14:39:00","lat":49.142128,"lon":16.549075,"is_passed":false}],"5015":[{"stop_id":"U15116Z2","name":"Nebovidy, dolní konec","arrival_time":"14:39:00","departure_time":"14:39:00","lat":49.141953,"lon":16.54915,"is_passed":false},{"stop_id":"U15118Z2","name":"Nebovidy, u kostela","arrival_time":"14:40:00","departure_time":"14:40:00","lat":49.141783,"lon":16.554006,"is_passed":false},{"stop_id":"U15114Z2","name":"Moravany, Hlavní","arrival_time":"14:44:00","departure_time":"14:44:00","lat":49.147097,"lon":16.578552,"is_passed":false},{"stop_id":"U15113Z2","name":"Moravany, Bohunická cesta","arrival_time":"14:45:00","departure_time":"14:45:00","lat":49.151006,"lon":16.583777,"is_passed":false},{"stop_id":"U1549Z2","name":"Rozhraní","arrival_time":"14:46:00","departure_time":"14:46:00","lat":49.155698,"lon":16.592118,"is_passed":false},{"stop_id":"U1466Z55","name":"Ořechovská","arrival_time":"14:48:00","departure_time":"14:48:00","lat":49.156238,"lon":16.599375,"is_passed":false},{"stop_id":"U1141Z2","name":"Heršpická","arrival_time":"14:51:00","departure_time":"14:51:00","lat":49.170473,"lon":16.599896,"is_passed":false},{"stop_id":"U1703Z5","name":"Ústřední hřbitov","arrival_time":"14:55:00","departure_time":"14:55:00","lat":49.171604,"lon":16.597316,"is_passed":false}],"5016":[{"stop_id":"U1703Z6","name":"Ústřední hřbitov","arrival_time":"15:22:00","departure_time":"15:22:00","lat":49.170744,"lon":16.597612,"is_passed":false},{"stop_id":"U1466Z5","name":"Ořechovská","arrival_time":"15:25:00","departure_time":"15:25:00","lat":49.156238,"lon":16.599375,"is_passed":false},{"stop_id":"U1549Z1","name":"Rozhraní","arrival_time":"15:26:00","departure_time":"15:26:00","lat":49.155854,"lon":16.592288,"is_passed":false},{"stop_id":"U15113Z1","name":"Moravany, Bohunická cesta","arrival_time":"15:27:00","departure_time":"15:27:00","lat":49.15089,"lon":16.583503,"is_passed":false},{"stop_id":"U15114Z1","name":"Moravany, Hlavní","arrival_time":"15:28:00","departure_time":"15:28:00","lat":49.147228,"lon":16.578896,"is_passed":false},{"stop_id":"U15115Z1","name":"Moravany, Nebovidská","arrival_time":"15:29:00","departure_time":"15:29:00","lat":49.147983,"lon":16.569237,"is_passed":false},{"stop_id":"U14105Z2","name":"Ostopovice, smyčka","arrival_time":"15:36:00","departure_time":"15:36:00","lat":49.164301,"lon":16.540971,"is_passed":false},{"stop_id":"U14104Z2","name":"Ostopovice, rozcestí","arrival_time":"15:36:00","departure_time":"15:36:00","lat":49.163133,"lon":16.542749,"is_passed":false},{"stop_id":"U14103Z2","name":"Ostopovice, U Kaple","arrival_time":"15:37:00","departure_time":"15:37:00","lat":49.161088,"lon":16.545566,"is_passed":false},{"stop_id":"U14101Z2","name":"Ostopovice, Branky","arrival_time":"15:38:00","departure_time":"15:38:00","lat":49.159942,"lon":16.548414,"is_passed":false},{"stop_id":"U1488Z2","name":"Pod dálnicí","arrival_time":"15:39:00","departure_time":"15:39:00","lat":49.163539,"lon":16.55541,"is_passed":false},{"stop_id":"U1687Z1","name":"U hřiště","arrival_time":"15:40:00","departure_time":"15:40:00","lat":49.166214,"lon":16.558668,"is_passed":false},{"stop_id":"U1722Z3","name":"Valašská","arrival_time":"15:41:00","departure_time":"15:41:00","lat":49.166746,"lon":16.562866,"is_passed":false},{"stop_id":"U1472Z7","name":"Osová","arrival_time":"15:42:00","departure_time":"15:42:00","lat":49.168951,"lon":16.566714,"is_passed":false},{"stop_id":"U7050Z1","name":"ZŠ Vedlejší","arrival_time":"15:42:00","departure_time":"15:42:00","lat":49.171054,"lon":16.569191,"is_passed":false},{"stop_id":"U1492Z1","name":"Pod nemocnicí","arrival_time":"15:43:00","departure_time":"15:43:00","lat":49.172412,"lon":16.569624,"is_passed":false},{"stop_id":"U1429Z7","name":"Nemocnice Bohunice","arrival_time":"15:45:00","departure_time":"16:03:00","lat":49.176176,"lon":16.567045,"is_passed":false}],"5017":[{"stop_id":"U1429Z5","name":"Nemocnice Bohunice","arrival_time":"16:03:00","departure_time":"16:03:00","lat":49.175206,"lon":16.56694,"is_passed":false},{"stop_id":"U1492Z2","name":"Pod nemocnicí","arrival_time":"16:05:00","departure_time":"16:05:00","lat":49.172338,"lon":16.569417,"is_passed":false},{"stop_id":"U1472Z8","name":"Osová","arrival_time":"16:07:00","departure_time":"16:07:00","lat":49.168617,"lon":16.566306,"is_passed":false},{"stop_id":"U1273Z2","name":"Kosmonautů","arrival_time":"16:07:00","departure_time":"16:07:00","lat":49.167124,"lon":16.56745,"is_passed":false},{"stop_id":"U1627Z1","name":"Svah","arrival_time":"16:08:00","departure_time":"16:08:00","lat":49.165199,"lon":16.567969,"is_passed":false},{"stop_id":"U1061Z1","name":"Čermákova","arrival_time":"16:08:00","departure_time":"16:08:00","lat":49.164336,"lon":16.565516,"is_passed":false},{"stop_id":"U1666Z1","name":"Točná","arrival_time":"16:09:00","departure_time":"16:09:00","lat":49.16476,"lon":16.561692,"is_passed":false},{"stop_id":"U1488Z1","name":"Pod dálnicí","arrival_time":"16:10:00","departure_time":"16:10:00","lat":49.163512,"lon":16.555152,"is_passed":false},{"stop_id":"U14101Z1","name":"Ostopovice, Branky","arrival_time":"16:11:00","departure_time":"16:11:00","lat":49.159937,"lon":16.548801,"is_passed":false},{"stop_id":"U14103Z1","name":"Ostopovice, U Kaple","arrival_time":"16:12:00","departure_time":"16:12:00","lat":49.161083,"lon":16.545743,"is_passed":false},{"stop_id":"U14104Z1","name":"Ostopovice, rozcestí","arrival_time":"16:12:00","departure_time":"16:12:00","lat":49.163046,"lon":16.542924,"is_passed":false},{"stop_id":"U14105Z2","name":"Ostopovice, smyčka","arrival_time":"16:13:00","departure_time":"16:13:00","lat":49.164301,"lon":16.540971,"is_passed":false},{"stop_id":"U15114Z2","name":"Moravany, Hlavní","arrival_time":"16:19:00","departure_time":"16:19:00","lat":49.147097,"lon":16.578552,"is_passed":false},{"stop_id":"U15113Z2","name":"Moravany, Bohunická cesta","arrival_time":"16:20:00","departure_time":"16:20:00","lat":49.151006,"lon":16.583777,"is_passed":false},{"stop_id":"U1549Z2","name":"Rozhraní","arrival_time":"16:21:00","departure_time":"16:21:00","lat":49.155698,"lon":16.592118,"is_passed":false},{"stop_id":"U1466Z55","name":"Ořechovská","arrival_time":"16:23:00","departure_time":"16:23:00","lat":49.156238,"lon":16.599375,"is_passed":false},{"stop_id":"U1141Z2","name":"Heršpická","arrival_time":"16:26:00","departure_time":"16:26:00","lat":49.170473,"lon":16.599896,"is_passed":false},{"stop_id":"U1703Z5","name":"Ústřední hřbitov","arrival_time":"16:30:00","departure_time":"17:22:00","lat":49.171604,"lon":16.597316,"is_passed":false}],"5018":[{"stop_id":"U1703Z6","name":"Ústřední hřbitov","arrival_time":"17:22:00","departure_time":"17:22:00","lat":49.170744,"lon":16.597612,"is_passed":false},{"stop_id":"U1466Z5","name":"Ořechovská","arrival_time":"17:25:00","departure_time":"17:25:00","lat":49.156238,"lon":16.599375,"is_passed":false},{"stop_id":"U1549Z1","name":"Rozhraní","arrival_time":"17:26:00","departure_time":"17:26:00","lat":49.155854,"lon":16.592288,"is_passed":false},{"stop_id":"U15113Z1","name":"Moravany, Bohunická cesta","arrival_time":"17:27:00","departure_time":"17:27:00","lat":49.15089,"lon":16.583503,"is_passed":false},{"stop_id":"U15114Z1","name":"Moravany, Hlavní","arrival_time":"17:28:00","departure_time":"17:28:00","lat":49.147228,"lon":16.578896,"is_passed":false},{"stop_id":"U15115Z1","name":"Moravany, Nebovidská","arrival_time":"17:29:00","departure_time":"17:29:00","lat":49.147983,"lon":16.569237,"is_passed":false},{"stop_id":"U14105Z2","name":"Ostopovice, smyčka","arrival_time":"17:36:00","departure_time":"17:36:00","lat":49.164301,"lon":16.540971,"is_passed":false},{"stop_id":"U14104Z2","name":"Ostopovice, rozcestí","arrival_time":"17:36:00","departure_time":"17:36:00","lat":49.163133,"lon":16.542749,"is_passed":false},{"stop_id":"U14103Z2","name":"Ostopovice, U Kaple","arrival_time":"17:37:00","departure_time":"17:37:00","lat":49.161088,"lon":16.545566,"is_passed":false},{"stop_id":"U14101Z2","name":"Ostopovice, Branky","arrival_time":"17:38:00","departure_time":"17:38:00","lat":49.159942,"lon":16.548414,"is_passed":false},{"stop_id":"U1488Z2","name":"Pod dálnicí","arrival_time":"17:39:00","departure_time":"17:39:00","lat":49.163539,"lon":16.55541,"is_passed":false},{"stop_id":"U1687Z1","name":"U hřiště","arrival_time":"17:40:00","departure_time":"17:40:00","lat":49.166214,"lon":16.558668,"is_passed":false},{"stop_id":"U1722Z3","name":"Valašská","arrival_time":"17:41:00","departure_time":"17:41:00","lat":49.166746,"lon":16.562866,"is_passed":false},{"stop_id":"U1472Z7","name":"Osová","arrival_time":"17:42:00","departure_time":"17:42:00","lat":49.168951,"lon":16.566714,"is_passed":false},{"stop_id":"U7050Z1","name":"ZŠ Vedlejší","arrival_time":"17:42:00","departure_time":"17:42:00","lat":49.171054,"lon":16.569191,"is_passed":false},{"stop_id":"U1492Z1","name":"Pod nemocnicí","arrival_time":"17:43:00","departure_time":"17:43:00","lat":49.172412,"lon":16.569624,"is_passed":false},{"stop_id":"U1429Z7","name":"Nemocnice Bohunice","arrival_time":"17:45:00","departure_time":"17:45:00","lat":49.176176,"lon":16.567045,"is_passed":false}],"5019":[{"stop_id":"U1703Z6","name":"Ústřední hřbitov","arrival_time":"18:02:00","departure_time":"18:02:00","lat":49.170744,"lon":16.597612,"is_passed":false},{"stop_id":"U1466Z5","name":"Ořechovská","arrival_time":"18:05:00","departure_time":"18:05:00","lat":49.156238,"lon":16.599375,"is_passed":false},{"stop_id":"U1549Z1","name":"Rozhraní","arrival_time":"18:06:00","departure_time":"18:06:00","lat":49.155854,"lon":16.592288,"is_passed":false},{"stop_id":"U15113Z1","name":"Moravany, Bohunická cesta","arrival_time":"18:07:00","departure_time":"18:07:00","lat":49.15089,"lon":16.583503,"is_passed":false},{"stop_id":"U15114Z1","name":"Moravany, Hlavní","arrival_time":"18:08:00","departure_time":"18:08:00","lat":49.147228,"lon":16.578896,"is_passed":false},{"stop_id":"U15115Z1","name":"Moravany, Nebovidská","arrival_time":"18:09:00","departure_time":"18:09:00","lat":49.147983,"lon":16.569237,"is_passed":false},{"stop_id":"U15118Z1","name":"Nebovidy, u kostela","arrival_time":"18:11:00","departure_time":"18:11:00","lat":49.141636,"lon":16.553667,"is_passed":false},{"stop_id":"U15116Z1","name":"Nebovidy, dolní konec","arrival_time":"18:12:00","departure_time":"18:39:00","lat":49.142128,"lon":16.549075,"is_passed":false}],"50100":[{"stop_id":"U1796Z7","name":"Zoologická zahrada","arrival_time":"20:05:00","departure_time":"20:05:00","lat":49.227823,"lon":16.531364,"is_passed":false},{"stop_id":"U1796Z3","name":"Zoologická zahrada","arrival_time":"20:06:00","departure_time":"20:06:00","lat":49.228465,"lon":16.531116,"is_passed":false},{"stop_id":"U1527Z3","name":"Přístaviště","arrival_time":"20:08:00","departure_time":"20:08:00","lat":49.228139,"lon":16.522365,"is_passed":false},{"stop_id":"U1537Z3","name":"Rakovecká","arrival_time":"20:09:00","departure_time":"20:09:00","lat":49.225834,"lon":16.518322,"is_passed":false},{"stop_id":"U1312Z5","name":"Kubíčkova","arrival_time":"20:10:00","departure_time":"20:10:00","lat":49.221996,"lon":16.519339,"is_passed":false},{"stop_id":"U1461Z3","name":"Ondrouškova","arrival_time":"20:11:00","departure_time":"20:11:00","lat":49.217721,"lon":16.517208,"is_passed":false},{"stop_id":"U1102Z3","name":"Ečerova","arrival_time":"20:13:00","departure_time":"20:13:00","lat":49.218746,"lon":16.50885,"is_passed":false},{"stop_id":"U1550Z1","name":"Ruda","arrival_time":"20:14:00","departure_time":"20:14:00","lat":49.220738,"lon":16.503998,"is_passed":false},{"stop_id":"U1559Z51","name":"Říčanská","arrival_time":"20:15:00","departure_time":"20:15:00","lat":49.219414,"lon":16.497216,"is_passed":false},{"stop_id":"U1230Z1","name":"Kavčí","arrival_time":"20:16:00","departure_time":"20:16:00","lat":49.216417,"lon":16.501128,"is_passed":false},{"stop_id":"U1185Z1","name":"Chvalovka","arrival_time":"20:17:00","departure_time":"20:17:00","lat":49.214783,"lon":16.499512,"is_passed":false},{"stop_id":"U1221Z51","name":"Kamechy","arrival_time":"20:18:00","departure_time":"20:18:00","lat":49.215222,"lon":16.496604,"is_passed":false}],"50101":[{"stop_id":"U1221Z51","name":"Kamechy","arrival_time":"20:18:00","departure_time":"20:18:00","lat":49.215222,"lon":16.496604,"is_passed":false},{"stop_id":"U1559Z52","name":"Říčanská","arrival_time":"20:20:00","departure_time":"20:20:00","lat":49.219429,"lon":16.497339,"is_passed":false},{"stop_id":"U1550Z2","name":"Ruda","arrival_time":"20:21:00","departure_time":"20:21:00","lat":49.220473,"lon":16.502554,"is_passed":false},{"stop_id":"U1102Z4","name":"Ečerova","arrival_time":"20:23:00","departure_time":"20:23:00","lat":49.218044,"lon":16.509781,"is_passed":false},{"stop_id":"U1461Z4","name":"Ondrouškova","arrival_time":"20:24:00","departure_time":"20:24:00","lat":49.217906,"lon":16.518033,"is_passed":false},{"stop_id":"U1312Z6","name":"Kubíčkova","arrival_time":"20:25:00","departure_time":"20:25:00","lat":49.22159,"lon":16.519454,"is_passed":false},{"stop_id":"U1537Z4","name":"Rakovecká","arrival_time":"20:26:00","departure_time":"20:26:00","lat":49.226308,"lon":16.518652,"is_passed":false},{"stop_id":"U1527Z4","name":"Přístaviště","arrival_time":"20:27:00","departure_time":"20:27:00","lat":49.228127,"lon":16.522637,"is_passed":false},{"stop_id":"U1796Z6","name":"Zoologická zahrada","arrival_time":"20:29:00","departure_time":"20:31:00","lat":49.227675,"lon":16.531519,"is_passed":false}],"50102":[{"stop_id":"U15134Z1","name":"Modřice, smyčka","arrival_time":"6:29:00","departure_time":"6:29:00","lat":49.127138,"lon":16.604706,"is_passed":false},{"stop_id":"U15122Z2","name":"Modřice, Brněnská","arrival_time":"6:29:00","departure_time":"6:29:00","lat":49.129392,"lon":16.604987,"is_passed":false},{"stop_id":"U15140Z5","name":"Modřice, železniční stanice","arrival_time":"6:30:00","departure_time":"6:30:00","lat":49.133039,"lon":16.607436,"is_passed":false},{"stop_id":"U15126Z2","name":"Modřice, Husova","arrival_time":"6:31:00","departure_time":"6:31:00","lat":49.132153,"lon":16.612307,"is_passed":false},{"stop_id":"U15141Z2","name":"Modřice, Žižkova","arrival_time":"6:33:00","departure_time":"6:33:00","lat":49.13395,"lon":16.615133,"is_passed":false},{"stop_id":"U1387Z2","name":"Modřická","arrival_time":"6:33:00","departure_time":"6:33:00","lat":49.138071,"lon":16.616433,"is_passed":false},{"stop_id":"U1204Z2","name":"Jezerní","arrival_time":"6:34:00","departure_time":"6:34:00","lat":49.142059,"lon":16.617426,"is_passed":false},{"stop_id":"U1531Z2","name":"Přízřenice","arrival_time":"6:35:00","departure_time":"6:35:00","lat":49.145114,"lon":16.620118,"is_passed":false},{"stop_id":"U1354Z2","name":"Malá","arrival_time":"6:35:00","departure_time":"6:35:00","lat":49.149337,"lon":16.62186,"is_passed":false},{"stop_id":"U1092Z2","name":"Dolní Heršpice","arrival_time":"6:36:00","departure_time":"6:36:00","lat":49.152103,"lon":16.621657,"is_passed":false},{"stop_id":"U1136Z2","name":"Havránkova","arrival_time":"6:37:00","departure_time":"6:37:00","lat":49.157905,"lon":16.621394,"is_passed":false},{"stop_id":"U1778Z52","name":"Záhumenice","arrival_time":"6:38:00","departure_time":"6:38:00","lat":49.163125,"lon":16.613192,"is_passed":false},{"stop_id":"U1156Z2","name":"Horní Heršpice","arrival_time":"6:40:00","departure_time":"6:40:00","lat":49.167029,"lon":16.616537,"is_passed":false},{"stop_id":"U1308Z2","name":"Kšírova","arrival_time":"6:40:00","departure_time":"6:40:00","lat":49.171726,"lon":16.615746,"is_passed":false},{"stop_id":"U1256Z6","name":"Komárov","arrival_time":"6:42:00","departure_time":"6:42:00","lat":49.174812,"lon":16.620877,"is_passed":false},{"stop_id":"U1361Z2","name":"Mariánské náměstí","arrival_time":"6:43:00","departure_time":"6:43:00","lat":49.176238,"lon":16.622949,"is_passed":false},{"stop_id":"U1066Z2","name":"Černovická","arrival_time":"6:43:00","departure_time":"6:43:00","lat":49.176797,"lon":16.628417,"is_passed":false},{"stop_id":"U1386Z1","name":"Mírová","arrival_time":"6:44:00","departure_time":"6:44:00","lat":49.176358,"lon":16.632738,"is_passed":false},{"stop_id":"U1127Z3","name":"Hájecká","arrival_time":"6:45:00","departure_time":"6:45:00","lat":49.174525,"lon":16.64123,"is_passed":false},{"stop_id":"U1106Z2","name":"Faměrovo náměstí","arrival_time":"6:46:00","departure_time":"6:46:00","lat":49.176954,"lon":16.640512,"is_passed":false},{"stop_id":"U1662Z2","name":"Škola Charbulova","arrival_time":"6:47:00","departure_time":"6:47:00","lat":49.18111,"lon":16.63826,"is_passed":false},{"stop_id":"U1563Z2","name":"Psychiatrická nemocnice","arrival_time":"6:48:00","departure_time":"6:48:00","lat":49.185039,"lon":16.636538,"is_passed":false},{"stop_id":"U1207Z2","name":"Jiránkova","arrival_time":"6:48:00","departure_time":"6:48:00","lat":49.187576,"lon":16.633483,"is_passed":false},{"stop_id":"U1677Z2","name":"Tržní","arrival_time":"6:50:00","departure_time":"6:50:00","lat":49.189407,"lon":16.629972,"is_passed":false},{"stop_id":"U1144Z2","name":"Hladíkova","arrival_time":"6:50:00","departure_time":"6:50:00","lat":49.187865,"lon":16.625741,"is_passed":false},{"stop_id":"U1798Z5","name":"Zvonařka","arrival_time":"6:51:00","departure_time":"6:51:00","lat":49.18754,"lon":16.620139,"is_passed":false},{"stop_id":"U1716Z6","name":"Úzká","arrival_time":"6:53:00","departure_time":"6:53:00","lat":49.188996,"lon":16.612968,"is_passed":false},{"stop_id":"U1146Z2","name":"Hlavní nádraží","arrival_time":"6:56:00","departure_time":"7:00:00","lat":49.191394,"lon":16.612548,"is_passed":false},{"stop_id":"U1357Z2","name":"Malinovského náměstí","arrival_time":"7:01:00","departure_time":"7:01:00","lat":49.195034,"lon":16.614825,"is_passed":false},{"stop_id":"U1271Z1","name":"Körnerova","arrival_time":"7:02:00","departure_time":"7:02:00","lat":49.19828,"lon":16.619945,"is_passed":false},{"stop_id":"U1663Z1","name":"Tkalcovská","arrival_time":"7:03:00","departure_time":"7:03:00","lat":49.200261,"lon":16.626109,"is_passed":false},{"stop_id":"U1676Z1","name":"Trávníčkova","arrival_time":"7:04:00","departure_time":"7:04:00","lat":49.204439,"lon":16.625679,"is_passed":false},{"stop_id":"U1398Z1","name":"Mostecká","arrival_time":"7:05:00","departure_time":"7:05:00","lat":49.20703,"lon":16.627792,"is_passed":false},{"stop_id":"U1434Z1","name":"Vozovna Husovice","arrival_time":"7:06:00","departure_time":"7:06:00","lat":49.208331,"lon":16.629789,"is_passed":false},{"stop_id":"U1422Z1","name":"Náměstí Republiky","arrival_time":"7:07:00","departure_time":"7:07:00","lat":49.210591,"lon":16.633523,"is_passed":false},{"stop_id":"U1668Z3","name":"Tomkovo náměstí","arrival_time":"7:08:00","departure_time":"7:08:00","lat":49.213205,"lon":16.636652,"is_passed":false},{"stop_id":"U1231Z1","name":"Karlova","arrival_time":"7:09:00","departure_time":"7:09:00","lat":49.213487,"lon":16.643814,"is_passed":false},{"stop_id":"U1358Z6","name":"Maloměřický most","arrival_time":"7:09:00","departure_time":"7:09:00","lat":49.21555,"lon":16.644043,"is_passed":false},{"stop_id":"U1521Z1","name":"Proškovo náměstí","arrival_time":"7:10:00","departure_time":"7:10:00","lat":49.220207,"lon":16.643397,"is_passed":false},{"stop_id":"U1447Z1","name":"Obřanská - u školy","arrival_time":"7:11:00","departure_time":"7:11:00","lat":49.222872,"lon":16.644811,"is_passed":false},{"stop_id":"U1077Z1","name":"Čtvery hony","arrival_time":"7:12:00","departure_time":"7:12:00","lat":49.226227,"lon":16.645584,"is_passed":false},{"stop_id":"U1448Z1","name":"Obřanský most","arrival_time":"7:13:00","departure_time":"7:13:00","lat":49.227602,"lon":16.650226,"is_passed":false},{"stop_id":"U1014Z1","name":"Babická","arrival_time":"7:14:00","departure_time":"7:16:00","lat":49.228004,"lon":16.652555,"is_passed":false}],"50103":[{"stop_id":"U1132Z3","name":"Haškova","arrival_time":"7:35:00","departure_time":"7:35:00","lat":49.233588,"lon":16.623836,"is_passed":false},{"stop_id":"U1043Z2","name":"Brechtova","arrival_time":"7:36:00","departure_time":"7:36:00","lat":49.233462,"lon":16.629437,"is_passed":false},{"stop_id":"U1028Z2","name":"Blažkova","arrival_time":"7:37:00","departure_time":"7:37:00","lat":49.229597,"lon":16.631063,"is_passed":false},{"stop_id":"U1008Z2","name":"Arbesova","arrival_time":"7:37:00","departure_time":"7:37:00","lat":49.225668,"lon":16.630461,"is_passed":false},{"stop_id":"U1138Z2","name":"Heleny Malířové","arrival_time":"7:38:00","departure_time":"7:38:00","lat":49.223075,"lon":16.629159,"is_passed":false},{"stop_id":"U1331Z2","name":"Lesná, nádraží","arrival_time":"7:39:00","departure_time":"7:39:00","lat":49.220094,"lon":16.62942,"is_passed":false},{"stop_id":"U1646Z4","name":"Štefánikova čtvrť","arrival_time":"7:40:00","departure_time":"7:40:00","lat":49.217288,"lon":16.627693,"is_passed":false},{"stop_id":"U1522Z1","name":"Provazníkova","arrival_time":"7:41:00","departure_time":"7:41:00","lat":49.214516,"lon":16.623874,"is_passed":false},{"stop_id":"U1336Z4","name":"Lesnická","arrival_time":"7:43:00","departure_time":"7:43:00","lat":49.212882,"lon":16.617847,"is_passed":false},{"stop_id":"U1786Z2","name":"Zemědělská","arrival_time":"7:44:00","departure_time":"7:44:00","lat":49.210627,"lon":16.618463,"is_passed":false},{"stop_id":"U1100Z1","name":"Erbenova","arrival_time":"7:45:00","departure_time":"7:50:00","lat":49.209592,"lon":16.615921,"is_passed":false}],"50104":[{"stop_id":"U1100Z2","name":"Erbenova","arrival_time":"7:50:00","departure_time":"7:50:00","lat":49.209438,"lon":16.615481,"is_passed":false},{"stop_id":"U1786Z3","name":"Zemědělská","arrival_time":"7:51:00","departure_time":"7:51:00","lat":49.210812,"lon":16.618421,"is_passed":false},{"stop_id":"U1336Z3","name":"Lesnická","arrival_time":"7:52:00","departure_time":"7:52:00","lat":49.213089,"lon":16.619037,"is_passed":false},{"stop_id":"U1522Z2","name":"Provazníkova","arrival_time":"7:53:00","departure_time":"7:53:00","lat":49.214473,"lon":16.624002,"is_passed":false},{"stop_id":"U1646Z3","name":"Štefánikova čtvrť","arrival_time":"7:55:00","departure_time":"7:55:00","lat":49.216958,"lon":16.627543,"is_passed":false},{"stop_id":"U1331Z1","name":"Lesná, nádraží","arrival_time":"7:56:00","departure_time":"7:56:00","lat":49.220041,"lon":16.629534,"is_passed":false},{"stop_id":"U1138Z1","name":"Heleny Malířové","arrival_time":"7:56:00","departure_time":"7:56:00","lat":49.223481,"lon":16.629567,"is_passed":false},{"stop_id":"U1008Z1","name":"Arbesova","arrival_time":"7:57:00","departure_time":"7:57:00","lat":49.226286,"lon":16.630842,"is_passed":false},{"stop_id":"U1028Z1","name":"Blažkova","arrival_time":"7:58:00","departure_time":"7:58:00","lat":49.230568,"lon":16.631,"is_passed":false},{"stop_id":"U1043Z1","name":"Brechtova","arrival_time":"7:59:00","departure_time":"7:59:00","lat":49.234039,"lon":16.629206,"is_passed":false},{"stop_id":"U1132Z2","name":"Haškova","arrival_time":"8:00:00","departure_time":"8:00:00","lat":49.233801,"lon":16.624796,"is_passed":false}],"50105":[{"stop_id":"U1132Z3","name":"Haškova","arrival_time":"8:02:00","departure_time":"8:02:00","lat":49.233588,"lon":16.623836,"is_passed":false},{"stop_id":"U1348Z2","name":"Loosova","arrival_time":"8:03:00","departure_time":"8:03:00","lat":49.231571,"lon":16.618938,"is_passed":false},{"stop_id":"U1111Z2","name":"Fillova","arrival_time":"8:03:00","departure_time":"8:03:00","lat":49.229347,"lon":16.616979,"is_passed":false},{"stop_id":"U1582Z2","name":"Slavíčkova","arrival_time":"8:04:00","departure_time":"8:04:00","lat":49.225821,"lon":16.617957,"is_passed":false},{"stop_id":"U1128Z4","name":"Halasovo náměstí","arrival_time":"8:05:00","departure_time":"8:05:00","lat":49.22314,"lon":16.622438,"is_passed":false},{"stop_id":"U1112Z4","name":"Fügnerova","arrival_time":"8:06:00","departure_time":"8:06:00","lat":49.220474,"lon":16.619678,"is_passed":false},{"stop_id":"U1023Z4","name":"Bieblova","arrival_time":"8:07:00","departure_time":"8:07:00","lat":49.215815,"lon":16.615231,"is_passed":false},{"stop_id":"U1336Z3","name":"Lesnická","arrival_time":"8:08:00","departure_time":"8:08:00","lat":49.213089,"lon":16.619037,"is_passed":false}],"50106":[{"stop_id":"U1336Z3","name":"Lesnická","arrival_time":"8:08:00","departure_time":"8:08:00","lat":49.213089,"lon":16.619037,"is_passed":false},{"stop_id":"U1522Z2","name":"Provazníkova","arrival_time":"8:09:00","departure_time":"8:09:00","lat":49.214473,"lon":16.624002,"is_passed":false},{"stop_id":"U1646Z3","name":"Štefánikova čtvrť","arrival_time":"8:11:00","departure_time":"8:11:00","lat":49.216958,"lon":16.627543,"is_passed":false},{"stop_id":"U1331Z1","name":"Lesná, nádraží","arrival_time":"8:12:00","departure_time":"8:12:00","lat":49.220041,"lon":16.629534,"is_passed":false},{"stop_id":"U1506Z1","name":"Poliklinika Lesná","arrival_time":"8:13:00","departure_time":"8:13:00","lat":49.222513,"lon":16.625643,"is_passed":false},{"stop_id":"U1128Z3","name":"Halasovo náměstí","arrival_time":"8:14:00","departure_time":"8:14:00","lat":49.223406,"lon":16.622237,"is_passed":false},{"stop_id":"U1582Z1","name":"Slavíčkova","arrival_time":"8:15:00","departure_time":"8:15:00","lat":49.226088,"lon":16.617914,"is_passed":false},{"stop_id":"U1111Z1","name":"Fillova","arrival_time":"8:16:00","departure_time":"8:16:00","lat":49.229105,"lon":16.616814,"is_passed":false},{"stop_id":"U1348Z1","name":"Loosova","arrival_time":"8:17:00","departure_time":"8:17:00","lat":49.232374,"lon":16.619952,"is_passed":false},{"stop_id":"U1132Z1","name":"Haškova","arrival_time":"8:18:00","departure_time":"8:18:00","lat":49.233582,"lon":16.624766,"is_passed":false},{"stop_id":"U1317Z1","name":"Kupkova","arrival_time":"8:19:00","departure_time":"8:19:00","lat":49.236519,"lon":16.627603,"is_passed":false},{"stop_id":"U1691Z1","name":"U rozvodny","arrival_time":"8:20:00","departure_time":"8:20:00","lat":49.240973,"lon":16.62736,"is_passed":false},{"stop_id":"U1479Z1","name":"Panská lícha","arrival_time":"8:20:00","departure_time":"8:20:00","lat":49.24527,"lon":16.624807,"is_passed":false},{"stop_id":"U1647Z1","name":"Štěpánkova","arrival_time":"8:21:00","departure_time":"8:21:00","lat":49.251649,"lon":16.62312,"is_passed":false},{"stop_id":"U1548Z1","name":"Rozárka","arrival_time":"8:22:00","departure_time":"8:22:00","lat":49.254486,"lon":16.622791,"is_passed":false},{"stop_id":"U1235Z1","name":"Klarisky","arrival_time":"8:24:00","departure_time":"8:24:00","lat":49.256961,"lon":16.622588,"is_passed":false},{"stop_id":"U1355Z1","name":"Malinová","arrival_time":"8:24:00","departure_time":"8:24:00","lat":49.259433,"lon":16.624027,"is_passed":false},{"stop_id":"U1333Z1","name":"Lesní školka","arrival_time":"8:25:00","departure_time":"8:25:00","lat":49.263185,"lon":16.625985,"is_passed":false},{"stop_id":"U1694Z1","name":"U jezírka","arrival_time":"8:26:00","departure_time":"8:26:00","lat":49.269695,"lon":16.6293,"is_passed":false},{"stop_id":"U1684Z1","name":"U buku","arrival_time":"8:27:00","departure_time":"8:27:00","lat":49.276348,"lon":16.630361,"is_passed":false},{"stop_id":"U1554Z1","name":"Rozcestí","arrival_time":"8:29:00","departure_time":"8:29:00","lat":49.285805,"lon":16.63179,"is_passed":false},{"stop_id":"U1707Z1","name":"Útěchov","arrival_time":"8:30:00","departure_time":"9:04:00","lat":49.288456,"lon":16.630493,"is_passed":false}],"50107":[{"stop_id":"U1707Z2","name":"Útěchov","arrival_time":"9:04:00","departure_time":"9:04:00","lat":49.28821,"lon":16.630705,"is_passed":false},{"stop_id":"U1554Z2","name":"Rozcestí","arrival_time":"9:04:00","departure_time":"9:04:00","lat":49.285548,"lon":16.631807,"is_passed":false},{"stop_id":"U1684Z2","name":"U buku","arrival_time":"9:06:00","departure_time":"9:06:00","lat":49.276379,"lon":16.630333,"is_passed":false},{"stop_id":"U1694Z2","name":"U jezírka","arrival_time":"9:07:00","departure_time":"9:07:00","lat":49.269918,"lon":16.629017,"is_passed":false},{"stop_id":"U1333Z2","name":"Lesní školka","arrival_time":"9:08:00","departure_time":"9:08:00","lat":49.26305,"lon":16.625897,"is_passed":false},{"stop_id":"U1355Z2","name":"Malinová","arrival_time":"9:09:00","departure_time":"9:09:00","lat":49.259186,"lon":16.623587,"is_passed":false},{"stop_id":"U1235Z2","name":"Klarisky","arrival_time":"9:11:00","departure_time":"9:13:00","lat":49.257223,"lon":16.622493,"is_passed":false},{"stop_id":"U1548Z2","name":"Rozárka","arrival_time":"9:13:00","departure_time":"9:13:00","lat":49.254088,"lon":16.622556,"is_passed":false},{"stop_id":"U1647Z2","name":"Štěpánkova","arrival_time":"9:14:00","departure_time":"9:14:00","lat":49.251234,"lon":16.623308,"is_passed":false},{"stop_id":"U1479Z2","name":"Panská lícha","arrival_time":"9:15:00","departure_time":"9:15:00","lat":49.245102,"lon":16.624834,"is_passed":false},{"stop_id":"U1691Z2","name":"U rozvodny","arrival_time":"9:16:00","departure_time":"9:16:00","lat":49.24075,"lon":16.627342,"is_passed":false},{"stop_id":"U1317Z2","name":"Kupkova","arrival_time":"9:17:00","departure_time":"9:17:00","lat":49.236128,"lon":16.627756,"is_passed":false},{"stop_id":"U1132Z3","name":"Haškova","arrival_time":"9:19:00","departure_time":"9:19:00","lat":49.233588,"lon":16.623836,"is_passed":false},{"stop_id":"U1348Z2","name":"Loosova","arrival_time":"9:20:00","departure_time":"9:20:00","lat":49.231571,"lon":16.618938,"is_passed":false},{"stop_id":"U1111Z2","name":"Fillova","arrival_time":"9:21:00","departure_time":"9:21:00","lat":49.229347,"lon":16.616979,"is_passed":false},{"stop_id":"U1582Z2","name":"Slavíčkova","arrival_time":"9:22:00","departure_time":"9:22:00","lat":49.225821,"lon":16.617957,"is_passed":false},{"stop_id":"U1128Z4","name":"Halasovo náměstí","arrival_time":"9:23:00","departure_time":"9:23:00","lat":49.22314,"lon":16.622438,"is_passed":false},{"stop_id":"U1506Z2","name":"Poliklinika Lesná","arrival_time":"9:24:00","departure_time":"9:24:00","lat":49.222411,"lon":16.625672,"is_passed":false},{"stop_id":"U1331Z2","name":"Lesná, nádraží","arrival_time":"9:25:00","departure_time":"9:25:00","lat":49.220094,"lon":16.62942,"is_passed":false},{"stop_id":"U1646Z4","name":"Štefánikova čtvrť","arrival_time":"9:26:00","departure_time":"9:26:00","lat":49.217288,"lon":16.627693,"is_passed":false},{"stop_id":"U1381Z1","name":"Merhautova","arrival_time":"9:27:00","departure_time":"9:27:00","lat":49.21485,"lon":16.627477,"is_passed":false},{"stop_id":"U1668Z1","name":"Tomkovo náměstí","arrival_time":"9:29:00","departure_time":"9:29:00","lat":49.214035,"lon":16.636587,"is_passed":false},{"stop_id":"U1358Z5","name":"Maloměřický most","arrival_time":"9:30:00","departure_time":"9:30:00","lat":49.2152,"lon":16.643926,"is_passed":false}],"50108":[{"stop_id":"U1358Z5","name":"Maloměřický most","arrival_time":"9:30:00","departure_time":"9:30:00","lat":49.2152,"lon":16.643926,"is_passed":false},{"stop_id":"U1231Z2","name":"Karlova","arrival_time":"9:31:00","departure_time":"9:31:00","lat":49.212343,"lon":16.643285,"is_passed":false},{"stop_id":"U1668Z4","name":"Tomkovo náměstí","arrival_time":"9:33:00","departure_time":"9:33:00","lat":49.214128,"lon":16.634545,"is_passed":false},{"stop_id":"U1381Z2","name":"Merhautova","arrival_time":"9:34:00","departure_time":"9:34:00","lat":49.215,"lon":16.627633,"is_passed":false},{"stop_id":"U1646Z3","name":"Štefánikova čtvrť","arrival_time":"9:35:00","departure_time":"9:35:00","lat":49.216958,"lon":16.627543,"is_passed":false},{"stop_id":"U1331Z1","name":"Lesná, nádraží","arrival_time":"9:36:00","departure_time":"9:36:00","lat":49.220041,"lon":16.629534,"is_passed":false},{"stop_id":"U1506Z1","name":"Poliklinika Lesná","arrival_time":"9:37:00","departure_time":"9:37:00","lat":49.222513,"lon":16.625643,"is_passed":false},{"stop_id":"U1128Z3","name":"Halasovo náměstí","arrival_time":"9:38:00","departure_time":"9:39:00","lat":49.223406,"lon":16.622237,"is_passed":false},{"stop_id":"U1582Z1","name":"Slavíčkova","arrival_time":"9:40:00","departure_time":"9:40:00","lat":49.226088,"lon":16.617914,"is_passed":false},{"stop_id":"U1111Z1","name":"Fillova","arrival_time":"9:41:00","departure_time":"9:41:00","lat":49.229105,"lon":16.616814,"is_passed":false},{"stop_id":"U1348Z1","name":"Loosova","arrival_time":"9:42:00","departure_time":"9:42:00","lat":49.232374,"lon":16.619952,"is_passed":false},{"stop_id":"U1132Z2","name":"Haškova","arrival_time":"9:43:00","departure_time":"9:43:00","lat":49.233801,"lon":16.624796,"is_passed":false}],"50109":[{"stop_id":"U1132Z3","name":"Haškova","arrival_time":"9:58:00","departure_time":"9:58:00","lat":49.233588,"lon":16.623836,"is_passed":false},{"stop_id":"U1043Z2","name":"Brechtova","arrival_time":"9:59:00","departure_time":"9:59:00","lat":49.233462,"lon":16.629437,"is_passed":false},{"stop_id":"U1028Z2","name":"Blažkova","arrival_time":"10:00:00","departure_time":"10:00:00","lat":49.229597,"lon":16.631063,"is_passed":false},{"stop_id":"U1008Z2","name":"Arbesova","arrival_time":"10:01:00","departure_time":"10:01:00","lat":49.225668,"lon":16.630461,"is_passed":false},{"stop_id":"U1138Z2","name":"Heleny Malířové","arrival_time":"10:02:00","departure_time":"10:02:00","lat":49.223075,"lon":16.629159,"is_passed":false},{"stop_id":"U1331Z2","name":"Lesná, nádraží","arrival_time":"10:03:00","departure_time":"10:03:00","lat":49.220094,"lon":16.62942,"is_passed":false},{"stop_id":"U1646Z4","name":"Štefánikova čtvrť","arrival_time":"10:04:00","departure_time":"10:04:00","lat":49.217288,"lon":16.627693,"is_passed":false},{"stop_id":"U1522Z1","name":"Provazníkova","arrival_time":"10:05:00","departure_time":"10:05:00","lat":49.214516,"lon":16.623874,"is_passed":false},{"stop_id":"U1336Z4","name":"Lesnická","arrival_time":"10:07:00","departure_time":"10:07:00","lat":49.212882,"lon":16.617847,"is_passed":false},{"stop_id":"U1786Z2","name":"Zemědělská","arrival_time":"10:08:00","departure_time":"10:08:00","lat":49.210627,"lon":16.618463,"is_passed":false},{"stop_id":"U1100Z1","name":"Erbenova","arrival_time":"10:09:00","departure_time":"10:10:00","lat":49.209592,"lon":16.615921,"is_passed":false}],"50110":[{"stop_id":"U1100Z2","name":"Erbenova","arrival_time":"10:10:00","departure_time":"10:10:00","lat":49.209438,"lon":16.615481,"is_passed":false},{"stop_id":"U1786Z3","name":"Zemědělská","arrival_time":"10:11:00","departure_time":"10:11:00","lat":49.210812,"lon":16.618421,"is_passed":false},{"stop_id":"U1336Z3","name":"Lesnická","arrival_time":"10:12:00","departure_time":"10:12:00","lat":49.213089,"lon":16.619037,"is_passed":false},{"stop_id":"U1522Z2","name":"Provazníkova","arrival_time":"10:13:00","departure_time":"10:13:00","lat":49.214473,"lon":16.624002,"is_passed":false},{"stop_id":"U1646Z3","name":"Štefánikova čtvrť","arrival_time":"10:15:00","departure_time":"10:15:00","lat":49.216958,"lon":16.627543,"is_passed":false},{"stop_id":"U1331Z1","name":"Lesná, nádraží","arrival_time":"10:16:00","departure_time":"10:16:00","lat":49.220041,"lon":16.629534,"is_passed":false},{"stop_id":"U1138Z1","name":"Heleny Malířové","arrival_time":"10:17:00","departure_time":"10:17:00","lat":49.223481,"lon":16.629567,"is_passed":false},{"stop_id":"U1008Z1","name":"Arbesova","arrival_time":"10:18:00","departure_time":"10:18:00","lat":49.226286,"lon":16.630842,"is_passed":false},{"stop_id":"U1028Z1","name":"Blažkova","arrival_time":"10:19:00","departure_time":"10:19:00","lat":49.230568,"lon":16.631,"is_passed":false},{"stop_id":"U1043Z1","name":"Brechtova","arrival_time":"10:20:00","departure_time":"10:20:00","lat":49.234039,"lon":16.629206,"is_passed":false},{"stop_id":"U1132Z2","name":"Haškova","arrival_time":"10:21:00","departure_time":"10:43:00","lat":49.233801,"lon":16.624796,"is_passed":false}],"50111":[{"stop_id":"U1132Z3","name":"Haškova","arrival_time":"10:43:00","departure_time":"10:43:00","lat":49.233588,"lon":16.623836,"is_passed":false},{"stop_id":"U1043Z2","name":"Brechtova","arrival_time":"10:44:00","departure_time":"10:44:00","lat":49.233462,"lon":16.629437,"is_passed":false},{"stop_id":"U1028Z2","name":"Blažkova","arrival_time":"10:45:00","departure_time":"10:45:00","lat":49.229597,"lon":16.631063,"is_passed":false},{"stop_id":"U1008Z2","name":"Arbesova","arrival_time":"10:46:00","departure_time":"10:46:00","lat":49.225668,"lon":16.630461,"is_passed":false},{"stop_id":"U1138Z2","name":"Heleny Malířové","arrival_time":"10:47:00","departure_time":"10:47:00","lat":49.223075,"lon":16.629159,"is_passed":false},{"stop_id":"U1331Z2","name":"Lesná, nádraží","arrival_time":"10:48:00","departure_time":"10:48:00","lat":49.220094,"lon":16.62942,"is_passed":false},{"stop_id":"U1646Z4","name":"Štefánikova čtvrť","arrival_time":"10:49:00","departure_time":"10:49:00","lat":49.217288,"lon":16.627693,"is_passed":false},{"stop_id":"U1522Z1","name":"Provazníkova","arrival_time":"10:50:00","departure_time":"10:50:00","lat":49.214516,"lon":16.623874,"is_passed":false},{"stop_id":"U1336Z4","name":"Lesnická","arrival_time":"10:52:00","departure_time":"10:52:00","lat":49.212882,"lon":16.617847,"is_passed":false},{"stop_id":"U1786Z2","name":"Zemědělská","arrival_time":"10:53:00","departure_time":"10:53:00","lat":49.210627,"lon":16.618463,"is_passed":false},{"stop_id":"U1100Z1","name":"Erbenova","arrival_time":"10:54:00","departure_time":"10:55:00","lat":49.209592,"lon":16.615921,"is_passed":false}],"50112":[{"stop_id":"U1100Z2","name":"Erbenova","arrival_time":"10:55:00","departure_time":"10:55:00","lat":49.209438,"lon":16.615481,"is_passed":false},{"stop_id":"U1786Z3","name":"Zemědělská","arrival_time":"10:56:00","departure_time":"10:56:00","lat":49.210812,"lon":16.618421,"is_passed":false},{"stop_id":"U1336Z3","name":"Lesnická","arrival_time":"10:57:00","departure_time":"10:57:00","lat":49.213089,"lon":16.619037,"is_passed":false},{"stop_id":"U1522Z2","name":"Provazníkova","arrival_time":"10:58:00","departure_time":"10:58:00","lat":49.214473,"lon":16.624002,"is_passed":false},{"stop_id":"U1646Z3","name":"Štefánikova čtvrť","arrival_time":"11:00:00","departure_time":"11:00:00","lat":49.216958,"lon":16.627543,"is_passed":false},{"stop_id":"U1331Z1","name":"Lesná, nádraží","arrival_time":"11:01:00","departure_time":"11:01:00","lat":49.220041,"lon":16.629534,"is_passed":false},{"stop_id":"U1138Z1","name":"Heleny Malířové","arrival_time":"11:02:00","departure_time":"11:02:00","lat":49.223481,"lon":16.629567,"is_passed":false},{"stop_id":"U1008Z1","name":"Arbesova","arrival_time":"11:03:00","departure_time":"11:03:00","lat":49.226286,"lon":16.630842,"is_passed":false},{"stop_id":"U1028Z1","name":"Blažkova","arrival_time":"11:04:00","departure_time":"11:04:00","lat":49.230568,"lon":16.631,"is_passed":false},{"stop_id":"U1043Z1","name":"Brechtova","arrival_time":"11:05:00","departure_time":"11:05:00","lat":49.234039,"lon":16.629206,"is_passed":false},{"stop_id":"U1132Z2","name":"Haškova","arrival_time":"11:06:00","departure_time":"11:06:00","lat":49.233801,"lon":16.624796,"is_passed":false}],"50113":[{"stop_id":"U1132Z3","name":"Haškova","arrival_time":"11:09:00","departure_time":"11:09:00","lat":49.233588,"lon":16.623836,"is_passed":false},{"stop_id":"U1348Z2","name":"Loosova","arrival_time":"11:10:00","departure_time":"11:10:00","lat":49.231571,"lon":16.618938,"is_passed":false},{"stop_id":"U1111Z2","name":"Fillova","arrival_time":"11:11:00","departure_time":"11:11:00","lat":49.229347,"lon":16.616979,"is_passed":false},{"stop_id":"U1582Z2","name":"Slavíčkova","arrival_time":"11:12:00","departure_time":"11:12:00","lat":49.225821,"lon":16.617957,"is_passed":false},{"stop_id":"U1128Z4","name":"Halasovo náměstí","arrival_time":"11:13:00","departure_time":"11:13:00","lat":49.22314,"lon":16.622438,"is_passed":false},{"stop_id":"U1506Z2","name":"Poliklinika Lesná","arrival_time":"11:14:00","departure_time":"11:14:00","lat":49.222411,"lon":16.625672,"is_passed":false},{"stop_id":"U1331Z2","name":"Lesná, nádraží","arrival_time":"11:15:00","departure_time":"11:15:00","lat":49.220094,"lon":16.62942,"is_passed":false},{"stop_id":"U1646Z4","name":"Štefánikova čtvrť","arrival_time":"11:16:00","departure_time":"11:16:00","lat":49.217288,"lon":16.627693,"is_passed":false},{"stop_id":"U1381Z1","name":"Merhautova","arrival_time":"11:17:00","departure_time":"11:17:00","lat":49.21485,"lon":16.627477,"is_passed":false},{"stop_id":"U1668Z1","name":"Tomkovo náměstí","arrival_time":"11:19:00","departure_time":"11:19:00","lat":49.214035,"lon":16.636587,"is_passed":false},{"stop_id":"U1358Z5","name":"Maloměřický most","arrival_time":"11:20:00","departure_time":"11:20:00","lat":49.2152,"lon":16.643926,"is_passed":false}],"50114":[{"stop_id":"U1358Z5","name":"Maloměřický most","arrival_time":"11:20:00","departure_time":"11:20:00","lat":49.2152,"lon":16.643926,"is_passed":false},{"stop_id":"U1231Z2","name":"Karlova","arrival_time":"11:21:00","departure_time":"11:21:00","lat":49.212343,"lon":16.643285,"is_passed":false},{"stop_id":"U1668Z4","name":"Tomkovo náměstí","arrival_time":"11:23:00","departure_time":"11:23:00","lat":49.214128,"lon":16.634545,"is_passed":false},{"stop_id":"U1381Z2","name":"Merhautova","arrival_time":"11:24:00","departure_time":"11:24:00","lat":49.215,"lon":16.627633,"is_passed":false},{"stop_id":"U1646Z3","name":"Štefánikova čtvrť","arrival_time":"11:25:00","departure_time":"11:25:00","lat":49.216958,"lon":16.627543,"is_passed":false},{"stop_id":"U1331Z1","name":"Lesná, nádraží","arrival_time":"11:26:00","departure_time":"11:26:00","lat":49.220041,"lon":16.629534,"is_passed":false},{"stop_id":"U1506Z1","name":"Poliklinika Lesná","arrival_time":"11:27:00","departure_time":"11:27:00","lat":49.222513,"lon":16.625643,"is_passed":false},{"stop_id":"U1128Z3","name":"Halasovo náměstí","arrival_time":"11:28:00","departure_time":"11:29:00","lat":49.223406,"lon":16.622237,"is_passed":false},{"stop_id":"U1582Z1","name":"Slavíčkova","arrival_time":"11:30:00","departure_time":"11:30:00","lat":49.226088,"lon":16.617914,"is_passed":false},{"stop_id":"U1111Z1","name":"Fillova","arrival_time":"11:31:00","departure_time":"11:31:00","lat":49.229105,"lon":16.616814,"is_passed":false},{"stop_id":"U1348Z1","name":"Loosova","arrival_time":"11:32:00","departure_time":"11:32:00","lat":49.232374,"lon":16.619952,"is_passed":false},{"stop_id":"U1132Z1","name":"Haškova","arrival_time":"11:33:00","departure_time":"11:33:00","lat":49.233582,"lon":16.624766,"is_passed":false},{"stop_id":"U1317Z1","name":"Kupkova","arrival_time":"11:34:00","departure_time":"11:34:00","lat":49.236519,"lon":16.627603,"is_passed":false},{"stop_id":"U1691Z1","name":"U rozvodny","arrival_time":"11:35:00","departure_time":"11:35:00","lat":49.240973,"lon":16.62736,"is_passed":false},{"stop_id":"U1479Z1","name":"Panská lícha","arrival_time":"11:36:00","departure_time":"11:36:00","lat":49.24527,"lon":16.624807,"is_passed":false},{"stop_id":"U1647Z1","name":"Štěpánkova","arrival_time":"11:37:00","departure_time":"11:37:00","lat":49.251649,"lon":16.62312,"is_passed":false},{"stop_id":"U1548Z1","name":"Rozárka","arrival_time":"11:38:00","departure_time":"11:38:00","lat":49.254486,"lon":16.622791,"is_passed":false},{"stop_id":"U1235Z1","name":"Klarisky","arrival_time":"11:40:00","departure_time":"11:41:00","lat":49.256961,"lon":16.622588,"is_passed":false},{"stop_id":"U1355Z1","name":"Malinová","arrival_time":"11:41:00","departure_time":"11:41:00","lat":49.259433,"lon":16.624027,"is_passed":false},{"stop_id":"U1333Z1","name":"Lesní školka","arrival_time":"11:42:00","departure_time":"11:42:00","lat":49.263185,"lon":16.625985,"is_passed":false},{"stop_id":"U1694Z1","name":"U jezírka","arrival_time":"11:43:00","departure_time":"11:43:00","lat":49.269695,"lon":16.6293,"is_passed":false},{"stop_id":"U1684Z1","name":"U buku","arrival_time":"11:44:00","departure_time":"11:44:00","lat":49.276348,"lon":16.630361,"is_passed":false},{"stop_id":"U1554Z1","name":"Rozcestí","arrival_time":"11:46:00","departure_time":"11:46:00","lat":49.285805,"lon":16.63179,"is_passed":false},{"stop_id":"U1707Z1","name":"Útěchov","arrival_time":"11:47:00","departure_time":"12:15:00","lat":49.288456,"lon":16.630493,"is_passed":false}],"50115":[{"stop_id":"U1707Z2","name":"Útěchov","arrival_time":"12:15:00","departure_time":"12:15:00","lat":49.28821,"lon":16.630705,"is_passed":false},{"stop_id":"U1554Z2","name":"Rozcestí","arrival_time":"12:15:00","departure_time":"12:15:00","lat":49.285548,"lon":16.631807,"is_passed":false},{"stop_id":"U1684Z2","name":"U buku","arrival_time":"12:17:00","departure_time":"12:17:00","lat":49.276379,"lon":16.630333,"is_passed":false},{"stop_id":"U1694Z2","name":"U jezírka","arrival_time":"12:18:00","departure_time":"12:18:00","lat":49.269918,"lon":16.629017,"is_passed":false},{"stop_id":"U1333Z2","name":"Lesní školka","arrival_time":"12:19:00","departure_time":"12:19:00","lat":49.26305,"lon":16.625897,"is_passed":false},{"stop_id":"U1355Z2","name":"Malinová","arrival_time":"12:20:00","departure_time":"12:20:00","lat":49.259186,"lon":16.623587,"is_passed":false},{"stop_id":"U1235Z2","name":"Klarisky","arrival_time":"12:22:00","departure_time":"12:23:00","lat":49.257223,"lon":16.622493,"is_passed":false},{"stop_id":"U1548Z2","name":"Rozárka","arrival_time":"12:23:00","departure_time":"12:23:00","lat":49.254088,"lon":16.622556,"is_passed":false},{"stop_id":"U1647Z2","name":"Štěpánkova","arrival_time":"12:24:00","departure_time":"12:24:00","lat":49.251234,"lon":16.623308,"is_passed":false},{"stop_id":"U1479Z2","name":"Panská lícha","arrival_time":"12:25:00","departure_time":"12:25:00","lat":49.245102,"lon":16.624834,"is_passed":false},{"stop_id":"U1691Z2","name":"U rozvodny","arrival_time":"12:26:00","departure_time":"12:26:00","lat":49.24075,"lon":16.627342,"is_passed":false},{"stop_id":"U1317Z2","name":"Kupkova","arrival_time":"12:27:00","departure_time":"12:27:00","lat":49.236128,"lon":16.627756,"is_passed":false},{"stop_id":"U1132Z3","name":"Haškova","arrival_time":"12:29:00","departure_time":"12:29:00","lat":49.233588,"lon":16.623836,"is_passed":false},{"stop_id":"U1348Z2","name":"Loosova","arrival_time":"12:30:00","departure_time":"12:30:00","lat":49.231571,"lon":16.618938,"is_passed":false},{"stop_id":"U1111Z2","name":"Fillova","arrival_time":"12:31:00","departure_time":"12:31:00","lat":49.229347,"lon":16.616979,"is_passed":false},{"stop_id":"U1582Z2","name":"Slavíčkova","arrival_time":"12:32:00","departure_time":"12:32:00","lat":49.225821,"lon":16.617957,"is_passed":false},{"stop_id":"U1128Z4","name":"Halasovo náměstí","arrival_time":"12:33:00","departure_time":"12:33:00","lat":49.22314,"lon":16.622438,"is_passed":false},{"stop_id":"U1506Z2","name":"Poliklinika Lesná","arrival_time":"12:34:00","departure_time":"12:34:00","lat":49.222411,"lon":16.625672,"is_passed":false},{"stop_id":"U1331Z2","name":"Lesná, nádraží","arrival_time":"12:35:00","departure_time":"12:35:00","lat":49.220094,"lon":16.62942,"is_passed":false},{"stop_id":"U1646Z4","name":"Štefánikova čtvrť","arrival_time":"12:36:00","departure_time":"12:36:00","lat":49.217288,"lon":16.627693,"is_passed":false},{"stop_id":"U1381Z1","name":"Merhautova","arrival_time":"12:37:00","departure_time":"12:37:00","lat":49.21485,"lon":16.627477,"is_passed":false},{"stop_id":"U1668Z1","name":"Tomkovo náměstí","arrival_time":"12:39:00","departure_time":"12:39:00","lat":49.214035,"lon":16.636587,"is_passed":false},{"stop_id":"U1358Z5","name":"Maloměřický most","arrival_time":"12:40:00","departure_time":"12:40:00","lat":49.2152,"lon":16.643926,"is_passed":false}],"50116":[{"stop_id":"U1358Z5","name":"Maloměřický most","arrival_time":"12:40:00","departure_time":"12:40:00","lat":49.2152,"lon":16.643926,"is_passed":false},{"stop_id":"U1231Z2","name":"Karlova","arrival_time":"12:41:00","departure_time":"12:41:00","lat":49.212343,"lon":16.643285,"is_passed":false},{"stop_id":"U1668Z4","name":"Tomkovo náměstí","arrival_time":"12:43:00","departure_time":"12:43:00","lat":49.214128,"lon":16.634545,"is_passed":false},{"stop_id":"U1381Z2","name":"Merhautova","arrival_time":"12:44:00","departure_time":"12:44:00","lat":49.215,"lon":16.627633,"is_passed":false},{"stop_id":"U1646Z3","name":"Štefánikova čtvrť","arrival_time":"12:45:00","departure_time":"12:45:00","lat":49.216958,"lon":16.627543,"is_passed":false},{"stop_id":"U1331Z1","name":"Lesná, nádraží","arrival_time":"12:46:00","departure_time":"12:46:00","lat":49.220041,"lon":16.629534,"is_passed":false},{"stop_id":"U1506Z1","name":"Poliklinika Lesná","arrival_time":"12:47:00","departure_time":"12:47:00","lat":49.222513,"lon":16.625643,"is_passed":false},{"stop_id":"U1128Z3","name":"Halasovo náměstí","arrival_time":"12:48:00","departure_time":"12:49:00","lat":49.223406,"lon":16.622237,"is_passed":false},{"stop_id":"U1582Z1","name":"Slavíčkova","arrival_time":"12:50:00","departure_time":"12:50:00","lat":49.226088,"lon":16.617914,"is_passed":false},{"stop_id":"U1111Z1","name":"Fillova","arrival_time":"12:51:00","departure_time":"12:51:00","lat":49.229105,"lon":16.616814,"is_passed":false},{"stop_id":"U1348Z1","name":"Loosova","arrival_time":"12:52:00","departure_time":"12:52:00","lat":49.232374,"lon":16.619952,"is_passed":false},{"stop_id":"U1132Z1","name":"Haškova","arrival_time":"12:53:00","departure_time":"12:53:00","lat":49.233582,"lon":16.624766,"is_passed":false},{"stop_id":"U1317Z1","name":"Kupkova","arrival_time":"12:54:00","departure_time":"12:54:00","lat":49.236519,"lon":16.627603,"is_passed":false},{"stop_id":"U1691Z1","name":"U rozvodny","arrival_time":"12:55:00","departure_time":"12:55:00","lat":49.240973,"lon":16.62736,"is_passed":false},{"stop_id":"U1479Z1","name":"Panská lícha","arrival_time":"12:56:00","departure_time":"12:56:00","lat":49.24527,"lon":16.624807,"is_passed":false},{"stop_id":"U1647Z1","name":"Štěpánkova","arrival_time":"12:57:00","departure_time":"12:57:00","lat":49.251649,"lon":16.62312,"is_passed":false},{"stop_id":"U1548Z1","name":"Rozárka","arrival_time":"12:58:00","departure_time":"12:58:00","lat":49.254486,"lon":16.622791,"is_passed":false},{"stop_id":"U1235Z1","name":"Klarisky","arrival_time":"13:00:00","departure_time":"13:01:00","lat":49.256961,"lon":16.622588,"is_passed":false},{"stop_id":"U1355Z1","name":"Malinová","arrival_time":"13:01:00","departure_time":"13:01:00","lat":49.259433,"lon":16.624027,"is_passed":false},{"stop_id":"U1333Z1","name":"Lesní školka","arrival_time":"13:02:00","departure_time":"13:02:00","lat":49.263185,"lon":16.625985,"is_passed":false},{"stop_id":"U1694Z1","name":"U jezírka","arrival_time":"13:03:00","departure_time":"13:03:00","lat":49.269695,"lon":16.6293,"is_passed":false},{"stop_id":"U1684Z1","name":"U buku","arrival_time":"13:04:00","departure_time":"13:04:00","lat":49.276348,"lon":16.630361,"is_passed":false},{"stop_id":"U1554Z1","name":"Rozcestí","arrival_time":"13:06:00","departure_time":"13:06:00","lat":49.285805,"lon":16.63179,"is_passed":false},{"stop_id":"U1707Z1","name":"Útěchov","arrival_time":"13:07:00","departure_time":"13:15:00","lat":49.288456,"lon":16.630493,"is_passed":false}],"50117":[{"stop_id":"U1707Z2","name":"Útěchov","arrival_time":"13:15:00","departure_time":"13:15:00","lat":49.28821,"lon":16.630705,"is_passed":false},{"stop_id":"U1554Z2","name":"Rozcestí","arrival_time":"13:15:00","departure_time":"13:15:00","lat":49.285548,"lon":16.631807,"is_passed":false},{"stop_id":"U1684Z2","name":"U buku","arrival_time":"13:17:00","departure_time":"13:17:00","lat":49.276379,"lon":16.630333,"is_passed":false},{"stop_id":"U1694Z2","name":"U jezírka","arrival_time":"13:18:00","departure_time":"13:18:00","lat":49.269918,"lon":16.629017,"is_passed":false},{"stop_id":"U1333Z2","name":"Lesní školka","arrival_time":"13:19:00","departure_time":"13:19:00","lat":49.26305,"lon":16.625897,"is_passed":false},{"stop_id":"U1355Z2","name":"Malinová","arrival_time":"13:20:00","departure_time":"13:20:00","lat":49.259186,"lon":16.623587,"is_passed":false},{"stop_id":"U1235Z2","name":"Klarisky","arrival_time":"13:22:00","departure_time":"13:23:00","lat":49.257223,"lon":16.622493,"is_passed":false},{"stop_id":"U1548Z2","name":"Rozárka","arrival_time":"13:23:00","departure_time":"13:23:00","lat":49.254088,"lon":16.622556,"is_passed":false},{"stop_id":"U1647Z2","name":"Štěpánkova","arrival_time":"13:24:00","departure_time":"13:24:00","lat":49.251234,"lon":16.623308,"is_passed":false},{"stop_id":"U1479Z2","name":"Panská lícha","arrival_time":"13:25:00","departure_time":"13:25:00","lat":49.245102,"lon":16.624834,"is_passed":false},{"stop_id":"U1691Z2","name":"U rozvodny","arrival_time":"13:26:00","departure_time":"13:26:00","lat":49.24075,"lon":16.627342,"is_passed":false},{"stop_id":"U1317Z2","name":"Kupkova","arrival_time":"13:27:00","departure_time":"13:27:00","lat":49.236128,"lon":16.627756,"is_passed":false},{"stop_id":"U1132Z3","name":"Haškova","arrival_time":"13:29:00","departure_time":"13:29:00","lat":49.233588,"lon":16.623836,"is_passed":false},{"stop_id":"U1348Z2","name":"Loosova","arrival_time":"13:30:00","departure_time":"13:30:00","lat":49.231571,"lon":16.618938,"is_passed":false},{"stop_id":"U1111Z2","name":"Fillova","arrival_time":"13:31:00","departure_time":"13:31:00","lat":49.229347,"lon":16.616979,"is_passed":false},{"stop_id":"U1582Z2","name":"Slavíčkova","arrival_time":"13:32:00","departure_time":"13:32:00","lat":49.225821,"lon":16.617957,"is_passed":false},{"stop_id":"U1128Z4","name":"Halasovo náměstí","arrival_time":"13:33:00","departure_time":"13:33:00","lat":49.22314,"lon":16.622438,"is_passed":false},{"stop_id":"U1506Z2","name":"Poliklinika Lesná","arrival_time":"13:34:00","departure_time":"13:34:00","lat":49.222411,"lon":16.625672,"is_passed":false},{"stop_id":"U1331Z2","name":"Lesná, nádraží","arrival_time":"13:35:00","departure_time":"13:35:00","lat":49.220094,"lon":16.62942,"is_passed":false},{"stop_id":"U1646Z4","name":"Štefánikova čtvrť","arrival_time":"13:36:00","departure_time":"13:36:00","lat":49.217288,"lon":16.627693,"is_passed":false},{"stop_id":"U1381Z1","name":"Merhautova","arrival_time":"13:37:00","departure_time":"13:37:00","lat":49.21485,"lon":16.627477,"is_passed":false},{"stop_id":"U1668Z1","name":"Tomkovo náměstí","arrival_time":"13:39:00","departure_time":"13:39:00","lat":49.214035,"lon":16.636587,"is_passed":false},{"stop_id":"U1358Z5","name":"Maloměřický most","arrival_time":"13:40:00","departure_time":"13:40:00","lat":49.2152,"lon":16.643926,"is_passed":false}],"50118":[{"stop_id":"U1358Z5","name":"Maloměřický most","arrival_time":"13:40:00","departure_time":"13:40:00","lat":49.2152,"lon":16.643926,"is_passed":false},{"stop_id":"U1231Z2","name":"Karlova","arrival_time":"13:41:00","departure_time":"13:41:00","lat":49.212343,"lon":16.643285,"is_passed":false},{"stop_id":"U1668Z4","name":"Tomkovo náměstí","arrival_time":"13:43:00","departure_time":"13:43:00","lat":49.214128,"lon":16.634545,"is_passed":false},{"stop_id":"U1381Z2","name":"Merhautova","arrival_time":"13:44:00","departure_time":"13:44:00","lat":49.215,"lon":16.627633,"is_passed":false},{"stop_id":"U1646Z3","name":"Štefánikova čtvrť","arrival_time":"13:45:00","departure_time":"13:45:00","lat":49.216958,"lon":16.627543,"is_passed":false},{"stop_id":"U1331Z1","name":"Lesná, nádraží","arrival_time":"13:46:00","departure_time":"13:46:00","lat":49.220041,"lon":16.629534,"is_passed":false},{"stop_id":"U1506Z1","name":"Poliklinika Lesná","arrival_time":"13:47:00","departure_time":"13:47:00","lat":49.222513,"lon":16.625643,"is_passed":false},{"stop_id":"U1128Z3","name":"Halasovo náměstí","arrival_time":"13:48:00","departure_time":"13:49:00","lat":49.223406,"lon":16.622237,"is_passed":false},{"stop_id":"U1582Z1","name":"Slavíčkova","arrival_time":"13:50:00","departure_time":"13:50:00","lat":49.226088,"lon":16.617914,"is_passed":false},{"stop_id":"U1111Z1","name":"Fillova","arrival_time":"13:51:00","departure_time":"13:51:00","lat":49.229105,"lon":16.616814,"is_passed":false},{"stop_id":"U1348Z1","name":"Loosova","arrival_time":"13:52:00","departure_time":"13:52:00","lat":49.232374,"lon":16.619952,"is_passed":false},{"stop_id":"U1132Z1","name":"Haškova","arrival_time":"13:53:00","departure_time":"13:53:00","lat":49.233582,"lon":16.624766,"is_passed":false},{"stop_id":"U1317Z1","name":"Kupkova","arrival_time":"13:54:00","departure_time":"13:54:00","lat":49.236519,"lon":16.627603,"is_passed":false},{"stop_id":"U1691Z1","name":"U rozvodny","arrival_time":"13:55:00","departure_time":"13:55:00","lat":49.240973,"lon":16.62736,"is_passed":false},{"stop_id":"U1479Z1","name":"Panská lícha","arrival_time":"13:56:00","departure_time":"13:56:00","lat":49.24527,"lon":16.624807,"is_passed":false},{"stop_id":"U1647Z1","name":"Štěpánkova","arrival_time":"13:57:00","departure_time":"13:57:00","lat":49.251649,"lon":16.62312,"is_passed":false},{"stop_id":"U1548Z1","name":"Rozárka","arrival_time":"13:58:00","departure_time":"13:58:00","lat":49.254486,"lon":16.622791,"is_passed":false},{"stop_id":"U1235Z1","name":"Klarisky","arrival_time":"14:00:00","departure_time":"14:01:00","lat":49.256961,"lon":16.622588,"is_passed":false},{"stop_id":"U1355Z1","name":"Malinová","arrival_time":"14:01:00","departure_time":"14:01:00","lat":49.259433,"lon":16.624027,"is_passed":false},{"stop_id":"U1333Z1","name":"Lesní školka","arrival_time":"14:02:00","departure_time":"14:02:00","lat":49.263185,"lon":16.625985,"is_passed":false},{"stop_id":"U1694Z1","name":"U jezírka","arrival_time":"14:03:00","departure_time":"14:03:00","lat":49.269695,"lon":16.6293,"is_passed":false},{"stop_id":"U1684Z1","name":"U buku","arrival_time":"14:04:00","departure_time":"14:04:00","lat":49.276348,"lon":16.630361,"is_passed":false},{"stop_id":"U1554Z1","name":"Rozcestí","arrival_time":"14:06:00","departure_time":"14:06:00","lat":49.285805,"lon":16.63179,"is_passed":false},{"stop_id":"U1707Z1","name":"Útěchov","arrival_time":"14:07:00","departure_time":"14:34:00","lat":49.288456,"lon":16.630493,"is_passed":false}],"50119":[{"stop_id":"U1707Z2","name":"Útěchov","arrival_time":"14:34:00","departure_time":"14:34:00","lat":49.28821,"lon":16.630705,"is_passed":false},{"stop_id":"U1554Z2","name":"Rozcestí","arrival_time":"14:34:00","departure_time":"14:34:00","lat":49.285548,"lon":16.631807,"is_passed":false},{"stop_id":"U1684Z2","name":"U buku","arrival_time":"14:36:00","departure_time":"14:36:00","lat":49.276379,"lon":16.630333,"is_passed":false},{"stop_id":"U1694Z2","name":"U jezírka","arrival_time":"14:37:00","departure_time":"14:37:00","lat":49.269918,"lon":16.629017,"is_passed":false},{"stop_id":"U1333Z2","name":"Lesní školka","arrival_time":"14:38:00","departure_time":"14:38:00","lat":49.26305,"lon":16.625897,"is_passed":false},{"stop_id":"U1355Z2","name":"Malinová","arrival_time":"14:39:00","departure_time":"14:39:00","lat":49.259186,"lon":16.623587,"is_passed":false},{"stop_id":"U1235Z2","name":"Klarisky","arrival_time":"14:41:00","departure_time":"14:43:00","lat":49.257223,"lon":16.622493,"is_passed":false},{"stop_id":"U1548Z2","name":"Rozárka","arrival_time":"14:43:00","departure_time":"14:43:00","lat":49.254088,"lon":16.622556,"is_passed":false},{"stop_id":"U1647Z2","name":"Štěpánkova","arrival_time":"14:44:00","departure_time":"14:44:00","lat":49.251234,"lon":16.623308,"is_passed":false},{"stop_id":"U1479Z2","name":"Panská lícha","arrival_time":"14:45:00","departure_time":"14:45:00","lat":49.245102,"lon":16.624834,"is_passed":false},{"stop_id":"U1691Z2","name":"U rozvodny","arrival_time":"14:46:00","departure_time":"14:46:00","lat":49.24075,"lon":16.627342,"is_passed":false},{"stop_id":"U1317Z2","name":"Kupkova","arrival_time":"14:47:00","departure_time":"14:47:00","lat":49.236128,"lon":16.627756,"is_passed":false},{"stop_id":"U1132Z3","name":"Haškova","arrival_time":"14:49:00","departure_time":"14:49:00","lat":49.233588,"lon":16.623836,"is_passed":false},{"stop_id":"U1348Z2","name":"Loosova","arrival_time":"14:50:00","departure_time":"14:50:00","lat":49.231571,"lon":16.618938,"is_passed":false},{"stop_id":"U1111Z2","name":"Fillova","arrival_time":"14:51:00","departure_time":"14:51:00","lat":49.229347,"lon":16.616979,"is_passed":false},{"stop_id":"U1582Z2","name":"Slavíčkova","arrival_time":"14:52:00","departure_time":"14:52:00","lat":49.225821,"lon":16.617957,"is_passed":false},{"stop_id":"U1128Z4","name":"Halasovo náměstí","arrival_time":"14:53:00","departure_time":"14:53:00","lat":49.22314,"lon":16.622438,"is_passed":false},{"stop_id":"U1506Z2","name":"Poliklinika Lesná","arrival_time":"14:54:00","departure_time":"14:54:00","lat":49.222411,"lon":16.625672,"is_passed":false},{"stop_id":"U1331Z2","name":"Lesná, nádraží","arrival_time":"14:55:00","departure_time":"14:55:00","lat":49.220094,"lon":16.62942,"is_passed":false},{"stop_id":"U1646Z4","name":"Štefánikova čtvrť","arrival_time":"14:56:00","departure_time":"14:56:00","lat":49.217288,"lon":16.627693,"is_passed":false},{"stop_id":"U1381Z1","name":"Merhautova","arrival_time":"14:57:00","departure_time":"14:57:00","lat":49.21485,"lon":16.627477,"is_passed":false},{"stop_id":"U1668Z1","name":"Tomkovo náměstí","arrival_time":"14:59:00","departure_time":"14:59:00","lat":49.214035,"lon":16.636587,"is_passed":false},{"stop_id":"U1358Z5","name":"Maloměřický most","arrival_time":"15:00:00","departure_time":"15:00:00","lat":49.2152,"lon":16.643926,"is_passed":false}],"50120":[{"stop_id":"U1358Z5","name":"Maloměřický most","arrival_time":"15:00:00","departure_time":"15:00:00","lat":49.2152,"lon":16.643926,"is_passed":false},{"stop_id":"U1231Z2","name":"Karlova","arrival_time":"15:01:00","departure_time":"15:01:00","lat":49.212343,"lon":16.643285,"is_passed":false},{"stop_id":"U1668Z4","name":"Tomkovo náměstí","arrival_time":"15:03:00","departure_time":"15:03:00","lat":49.214128,"lon":16.634545,"is_passed":false},{"stop_id":"U1381Z2","name":"Merhautova","arrival_time":"15:04:00","departure_time":"15:04:00","lat":49.215,"lon":16.627633,"is_passed":false},{"stop_id":"U1646Z3","name":"Štefánikova čtvrť","arrival_time":"15:05:00","departure_time":"15:05:00","lat":49.216958,"lon":16.627543,"is_passed":false},{"stop_id":"U1331Z1","name":"Lesná, nádraží","arrival_time":"15:06:00","departure_time":"15:06:00","lat":49.220041,"lon":16.629534,"is_passed":false},{"stop_id":"U1506Z1","name":"Poliklinika Lesná","arrival_time":"15:07:00","departure_time":"15:07:00","lat":49.222513,"lon":16.625643,"is_passed":false},{"stop_id":"U1128Z3","name":"Halasovo náměstí","arrival_time":"15:08:00","departure_time":"15:09:00","lat":49.223406,"lon":16.622237,"is_passed":false},{"stop_id":"U1582Z1","name":"Slavíčkova","arrival_time":"15:10:00","departure_time":"15:10:00","lat":49.226088,"lon":16.617914,"is_passed":false},{"stop_id":"U1111Z1","name":"Fillova","arrival_time":"15:11:00","departure_time":"15:11:00","lat":49.229105,"lon":16.616814,"is_passed":false},{"stop_id":"U1348Z1","name":"Loosova","arrival_time":"15:12:00","departure_time":"15:12:00","lat":49.232374,"lon":16.619952,"is_passed":false},{"stop_id":"U1132Z2","name":"Haškova","arrival_time":"15:13:00","departure_time":"15:13:00","lat":49.233801,"lon":16.624796,"is_passed":false}],"50121":[{"stop_id":"U1132Z3","name":"Haškova","arrival_time":"15:28:00","departure_time":"15:28:00","lat":49.233588,"lon":16.623836,"is_passed":false},{"stop_id":"U1043Z2","name":"Brechtova","arrival_time":"15:29:00","departure_time":"15:29:00","lat":49.233462,"lon":16.629437,"is_passed":false},{"stop_id":"U1028Z2","name":"Blažkova","arrival_time":"15:30:00","departure_time":"15:30:00","lat":49.229597,"lon":16.631063,"is_passed":false},{"stop_id":"U1008Z2","name":"Arbesova","arrival_time":"15:31:00","departure_time":"15:31:00","lat":49.225668,"lon":16.630461,"is_passed":false},{"stop_id":"U1138Z2","name":"Heleny Malířové","arrival_time":"15:32:00","departure_time":"15:32:00","lat":49.223075,"lon":16.629159,"is_passed":false},{"stop_id":"U1331Z2","name":"Lesná, nádraží","arrival_time":"15:33:00","departure_time":"15:33:00","lat":49.220094,"lon":16.62942,"is_passed":false},{"stop_id":"U1646Z4","name":"Štefánikova čtvrť","arrival_time":"15:34:00","departure_time":"15:34:00","lat":49.217288,"lon":16.627693,"is_passed":false},{"stop_id":"U1522Z1","name":"Provazníkova","arrival_time":"15:35:00","departure_time":"15:35:00","lat":49.214516,"lon":16.623874,"is_passed":false},{"stop_id":"U1336Z4","name":"Lesnická","arrival_time":"15:37:00","departure_time":"15:37:00","lat":49.212882,"lon":16.617847,"is_passed":false},{"stop_id":"U1786Z2","name":"Zemědělská","arrival_time":"15:38:00","departure_time":"15:38:00","lat":49.210627,"lon":16.618463,"is_passed":false},{"stop_id":"U1100Z1","name":"Erbenova","arrival_time":"15:39:00","departure_time":"15:40:00","lat":49.209592,"lon":16.615921,"is_passed":false}],"50122":[{"stop_id":"U1100Z2","name":"Erbenova","arrival_time":"15:40:00","departure_time":"15:40:00","lat":49.209438,"lon":16.615481,"is_passed":false},{"stop_id":"U1786Z3","name":"Zemědělská","arrival_time":"15:41:00","departure_time":"15:41:00","lat":49.210812,"lon":16.618421,"is_passed":false},{"stop_id":"U1336Z3","name":"Lesnická","arrival_time":"15:42:00","departure_time":"15:42:00","lat":49.213089,"lon":16.619037,"is_passed":false},{"stop_id":"U1522Z2","name":"Provazníkova","arrival_time":"15:43:00","departure_time":"15:43:00","lat":49.214473,"lon":16.624002,"is_passed":false},{"stop_id":"U1646Z3","name":"Štefánikova čtvrť","arrival_time":"15:45:00","departure_time":"15:45:00","lat":49.216958,"lon":16.627543,"is_passed":false},{"stop_id":"U1331Z1","name":"Lesná, nádraží","arrival_time":"15:46:00","departure_time":"15:46:00","lat":49.220041,"lon":16.629534,"is_passed":false},{"stop_id":"U1138Z1","name":"Heleny Malířové","arrival_time":"15:47:00","departure_time":"15:47:00","lat":49.223481,"lon":16.629567,"is_passed":false},{"stop_id":"U1008Z1","name":"Arbesova","arrival_time":"15:48:00","departure_time":"15:48:00","lat":49.226286,"lon":16.630842,"is_passed":false},{"stop_id":"U1028Z1","name":"Blažkova","arrival_time":"15:49:00","departure_time":"15:49:00","lat":49.230568,"lon":16.631,"is_passed":false},{"stop_id":"U1043Z1","name":"Brechtova","arrival_time":"15:50:00","departure_time":"15:50:00","lat":49.234039,"lon":16.629206,"is_passed":false},{"stop_id":"U1132Z2","name":"Haškova","arrival_time":"15:51:00","departure_time":"16:13:00","lat":49.233801,"lon":16.624796,"is_passed":false}],"50123":[{"stop_id":"U1132Z3","name":"Haškova","arrival_time":"16:13:00","departure_time":"16:13:00","lat":49.233588,"lon":16.623836,"is_passed":false},{"stop_id":"U1043Z2","name":"Brechtova","arrival_time":"16:14:00","departure_time":"16:14:00","lat":49.233462,"lon":16.629437,"is_passed":false},{"stop_id":"U1028Z2","name":"Blažkova","arrival_time":"16:15:00","departure_time":"16:15:00","lat":49.229597,"lon":16.631063,"is_passed":false},{"stop_id":"U1008Z2","name":"Arbesova","arrival_time":"16:16:00","departure_time":"16:16:00","lat":49.225668,"lon":16.630461,"is_passed":false},{"stop_id":"U1138Z2","name":"Heleny Malířové","arrival_time":"16:17:00","departure_time":"16:17:00","lat":49.223075,"lon":16.629159,"is_passed":false},{"stop_id":"U1331Z2","name":"Lesná, nádraží","arrival_time":"16:18:00","departure_time":"16:18:00","lat":49.220094,"lon":16.62942,"is_passed":false},{"stop_id":"U1646Z4","name":"Štefánikova čtvrť","arrival_time":"16:19:00","departure_time":"16:19:00","lat":49.217288,"lon":16.627693,"is_passed":false},{"stop_id":"U1522Z1","name":"Provazníkova","arrival_time":"16:20:00","departure_time":"16:20:00","lat":49.214516,"lon":16.623874,"is_passed":false},{"stop_id":"U1336Z4","name":"Lesnická","arrival_time":"16:22:00","departure_time":"16:22:00","lat":49.212882,"lon":16.617847,"is_passed":false},{"stop_id":"U1786Z2","name":"Zemědělská","arrival_time":"16:23:00","departure_time":"16:23:00","lat":49.210627,"lon":16.618463,"is_passed":false},{"stop_id":"U1100Z1","name":"Erbenova","arrival_time":"16:24:00","departure_time":"16:25:00","lat":49.209592,"lon":16.615921,"is_passed":false}],"50124":[{"stop_id":"U1100Z2","name":"Erbenova","arrival_time":"16:25:00","departure_time":"16:25:00","lat":49.209438,"lon":16.615481,"is_passed":false},{"stop_id":"U1786Z3","name":"Zemědělská","arrival_time":"16:26:00","departure_time":"16:26:00","lat":49.210812,"lon":16.618421,"is_passed":false},{"stop_id":"U1336Z3","name":"Lesnická","arrival_time":"16:27:00","departure_time":"16:27:00","lat":49.213089,"lon":16.619037,"is_passed":false},{"stop_id":"U1522Z2","name":"Provazníkova","arrival_time":"16:28:00","departure_time":"16:28:00","lat":49.214473,"lon":16.624002,"is_passed":false},{"stop_id":"U1646Z3","name":"Štefánikova čtvrť","arrival_time":"16:30:00","departure_time":"16:30:00","lat":49.216958,"lon":16.627543,"is_passed":false},{"stop_id":"U1331Z1","name":"Lesná, nádraží","arrival_time":"16:31:00","departure_time":"16:31:00","lat":49.220041,"lon":16.629534,"is_passed":false},{"stop_id":"U1138Z1","name":"Heleny Malířové","arrival_time":"16:32:00","departure_time":"16:32:00","lat":49.223481,"lon":16.629567,"is_passed":false},{"stop_id":"U1008Z1","name":"Arbesova","arrival_time":"16:33:00","departure_time":"16:33:00","lat":49.226286,"lon":16.630842,"is_passed":false},{"stop_id":"U1028Z1","name":"Blažkova","arrival_time":"16:34:00","departure_time":"16:34:00","lat":49.230568,"lon":16.631,"is_passed":false},{"stop_id":"U1043Z1","name":"Brechtova","arrival_time":"16:35:00","departure_time":"16:35:00","lat":49.234039,"lon":16.629206,"is_passed":false},{"stop_id":"U1132Z2","name":"Haškova","arrival_time":"16:36:00","departure_time":"16:36:00","lat":49.233801,"lon":16.624796,"is_passed":false}],"50125":[{"stop_id":"U1132Z3","name":"Haškova","arrival_time":"16:39:00","departure_time":"16:39:00","lat":49.233588,"lon":16.623836,"is_passed":false},{"stop_id":"U1348Z2","name":"Loosova","arrival_time":"16:40:00","departure_time":"16:40:00","lat":49.231571,"lon":16.618938,"is_passed":false},{"stop_id":"U1111Z2","name":"Fillova","arrival_time":"16:41:00","departure_time":"16:41:00","lat":49.229347,"lon":16.616979,"is_passed":false},{"stop_id":"U1582Z2","name":"Slavíčkova","arrival_time":"16:42:00","departure_time":"16:42:00","lat":49.225821,"lon":16.617957,"is_passed":false},{"stop_id":"U1128Z4","name":"Halasovo náměstí","arrival_time":"16:43:00","departure_time":"16:43:00","lat":49.22314,"lon":16.622438,"is_passed":false},{"stop_id":"U1506Z2","name":"Poliklinika Lesná","arrival_time":"16:44:00","departure_time":"16:44:00","lat":49.222411,"lon":16.625672,"is_passed":false},{"stop_id":"U1331Z2","name":"Lesná, nádraží","arrival_time":"16:45:00","departure_time":"16:45:00","lat":49.220094,"lon":16.62942,"is_passed":false},{"stop_id":"U1646Z4","name":"Štefánikova čtvrť","arrival_time":"16:46:00","departure_time":"16:46:00","lat":49.217288,"lon":16.627693,"is_passed":false},{"stop_id":"U1381Z1","name":"Merhautova","arrival_time":"16:47:00","departure_time":"16:47:00","lat":49.21485,"lon":16.627477,"is_passed":false},{"stop_id":"U1668Z1","name":"Tomkovo náměstí","arrival_time":"16:49:00","departure_time":"16:49:00","lat":49.214035,"lon":16.636587,"is_passed":false},{"stop_id":"U1358Z5","name":"Maloměřický most","arrival_time":"16:50:00","departure_time":"16:50:00","lat":49.2152,"lon":16.643926,"is_passed":false}],"50126":[{"stop_id":"U1358Z5","name":"Maloměřický most","arrival_time":"16:50:00","departure_time":"16:50:00","lat":49.2152,"lon":16.643926,"is_passed":false},{"stop_id":"U1231Z2","name":"Karlova","arrival_time":"16:51:00","departure_time":"16:51:00","lat":49.212343,"lon":16.643285,"is_passed":false},{"stop_id":"U1668Z4","name":"Tomkovo náměstí","arrival_time":"16:53:00","departure_time":"16:53:00","lat":49.214128,"lon":16.634545,"is_passed":false},{"stop_id":"U1381Z2","name":"Merhautova","arrival_time":"16:54:00","departure_time":"16:54:00","lat":49.215,"lon":16.627633,"is_passed":false},{"stop_id":"U1646Z3","name":"Štefánikova čtvrť","arrival_time":"16:55:00","departure_time":"16:55:00","lat":49.216958,"lon":16.627543,"is_passed":false},{"stop_id":"U1331Z1","name":"Lesná, nádraží","arrival_time":"16:56:00","departure_time":"16:56:00","lat":49.220041,"lon":16.629534,"is_passed":false},{"stop_id":"U1506Z1","name":"Poliklinika Lesná","arrival_time":"16:57:00","departure_time":"16:57:00","lat":49.222513,"lon":16.625643,"is_passed":false},{"stop_id":"U1128Z3","name":"Halasovo náměstí","arrival_time":"16:58:00","departure_time":"16:59:00","lat":49.223406,"lon":16.622237,"is_passed":false},{"stop_id":"U1582Z1","name":"Slavíčkova","arrival_time":"17:00:00","departure_time":"17:00:00","lat":49.226088,"lon":16.617914,"is_passed":false},{"stop_id":"U1111Z1","name":"Fillova","arrival_time":"17:01:00","departure_time":"17:01:00","lat":49.229105,"lon":16.616814,"is_passed":false},{"stop_id":"U1348Z1","name":"Loosova","arrival_time":"17:02:00","departure_time":"17:02:00","lat":49.232374,"lon":16.619952,"is_passed":false},{"stop_id":"U1132Z1","name":"Haškova","arrival_time":"17:03:00","departure_time":"17:03:00","lat":49.233582,"lon":16.624766,"is_passed":false},{"stop_id":"U1317Z1","name":"Kupkova","arrival_time":"17:04:00","departure_time":"17:04:00","lat":49.236519,"lon":16.627603,"is_passed":false},{"stop_id":"U1691Z1","name":"U rozvodny","arrival_time":"17:05:00","departure_time":"17:05:00","lat":49.240973,"lon":16.62736,"is_passed":false},{"stop_id":"U1479Z1","name":"Panská lícha","arrival_time":"17:06:00","departure_time":"17:06:00","lat":49.24527,"lon":16.624807,"is_passed":false},{"stop_id":"U1647Z1","name":"Štěpánkova","arrival_time":"17:07:00","departure_time":"17:07:00","lat":49.251649,"lon":16.62312,"is_passed":false},{"stop_id":"U1548Z1","name":"Rozárka","arrival_time":"17:08:00","departure_time":"17:08:00","lat":49.254486,"lon":16.622791,"is_passed":false},{"stop_id":"U1235Z1","name":"Klarisky","arrival_time":"17:10:00","departure_time":"17:11:00","lat":49.256961,"lon":16.622588,"is_passed":false},{"stop_id":"U1355Z1","name":"Malinová","arrival_time":"17:11:00","departure_time":"17:11:00","lat":49.259433,"lon":16.624027,"is_passed":false},{"stop_id":"U1333Z1","name":"Lesní školka","arrival_time":"17:12:00","departure_time":"17:12:00","lat":49.263185,"lon":16.625985,"is_passed":false},{"stop_id":"U1694Z1","name":"U jezírka","arrival_time":"17:13:00","departure_time":"17:13:00","lat":49.269695,"lon":16.6293,"is_passed":false},{"stop_id":"U1684Z1","name":"U buku","arrival_time":"17:14:00","departure_time":"17:14:00","lat":49.276348,"lon":16.630361,"is_passed":false},{"stop_id":"U1554Z1","name":"Rozcestí","arrival_time":"17:16:00","departure_time":"17:16:00","lat":49.285805,"lon":16.63179,"is_passed":false},{"stop_id":"U1707Z3","name":"Útěchov","arrival_time":"17:17:00","departure_time":"17:17:00","lat":49.289637,"lon":16.630401,"is_passed":false},{"stop_id":"U13181Z1","name":"Vranov, hřbitov","arrival_time":"17:20:00","departure_time":"17:20:00","lat":49.305827,"lon":16.622567,"is_passed":false},{"stop_id":"U13185Z1","name":"Vranov, myslivna","arrival_time":"17:21:00","departure_time":"17:23:00","lat":49.308583,"lon":16.621781,"is_passed":false}],"50127":[{"stop_id":"U13185Z1","name":"Vranov, myslivna","arrival_time":"17:23:00","departure_time":"17:23:00","lat":49.308583,"lon":16.621781,"is_passed":false},{"stop_id":"U13183Z1","name":"Vranov, křižovatka","arrival_time":"17:24:00","departure_time":"17:25:00","lat":49.31025,"lon":16.612232,"is_passed":false},{"stop_id":"U13157Z2","name":"Lelekovice, u kříže","arrival_time":"17:31:00","departure_time":"17:31:00","lat":49.290209,"lon":16.587266,"is_passed":false},{"stop_id":"U13151Z2","name":"Lelekovice, náves","arrival_time":"17:33:00","departure_time":"17:36:00","lat":49.291105,"lon":16.579443,"is_passed":false},{"stop_id":"U13153Z2","name":"Lelekovice, škola","arrival_time":"17:37:00","departure_time":"17:37:00","lat":49.289922,"lon":16.575168,"is_passed":false},{"stop_id":"U13155Z2","name":"Lelekovice, u Hrazdírů","arrival_time":"17:38:00","departure_time":"17:38:00","lat":49.287312,"lon":16.572463,"is_passed":false},{"stop_id":"U13109Z2","name":"Česká, železniční stanice","arrival_time":"17:39:00","departure_time":"17:39:00","lat":49.283963,"lon":16.567584,"is_passed":false},{"stop_id":"U13103Z2","name":"Česká, křižovatka","arrival_time":"17:39:00","departure_time":"17:39:00","lat":49.282907,"lon":16.565216,"is_passed":false},{"stop_id":"U13101Z2","name":"Česká, Hlavní","arrival_time":"17:40:00","departure_time":"17:45:00","lat":49.280512,"lon":16.565392,"is_passed":false},{"stop_id":"U13105Z2","name":"Česká, Nádavky","arrival_time":"17:46:00","departure_time":"17:46:00","lat":49.274161,"lon":16.567946,"is_passed":false},{"stop_id":"U1351Z1","name":"Mácova","arrival_time":"17:48:00","departure_time":"17:48:00","lat":49.265819,"lon":16.569345,"is_passed":false},{"stop_id":"U1280Z1","name":"Kouty","arrival_time":"17:49:00","departure_time":"17:49:00","lat":49.264372,"lon":16.565032,"is_passed":false},{"stop_id":"U1526Z1","name":"Příjezdová","arrival_time":"17:49:00","departure_time":"17:49:00","lat":49.261553,"lon":16.569939,"is_passed":false},{"stop_id":"U1063Z2","name":"Černohorská","arrival_time":"17:50:00","departure_time":"17:50:00","lat":49.258654,"lon":16.57133,"is_passed":false},{"stop_id":"U1085Z2","name":"Díly","arrival_time":"17:51:00","departure_time":"17:51:00","lat":49.25425,"lon":16.574421,"is_passed":false},{"stop_id":"U1812Z2","name":"Žilkova","arrival_time":"17:52:00","departure_time":"17:52:00","lat":49.252181,"lon":16.576027,"is_passed":false},{"stop_id":"U1553Z4","name":"Řečkovice","arrival_time":"17:53:00","departure_time":"17:53:00","lat":49.246674,"lon":16.579384,"is_passed":false},{"stop_id":"U1457Z2","name":"Olšanského","arrival_time":"17:54:00","departure_time":"17:54:00","lat":49.24422,"lon":16.577351,"is_passed":false},{"stop_id":"U1376Z2","name":"Medlánky","arrival_time":"17:56:00","departure_time":"17:56:00","lat":49.240459,"lon":16.573676,"is_passed":false},{"stop_id":"U1377Z2","name":"Medlánky, škola","arrival_time":"17:57:00","departure_time":"17:57:00","lat":49.238196,"lon":16.57841,"is_passed":false},{"stop_id":"U1756Z4","name":"Vozovna Medlánky","arrival_time":"17:58:00","departure_time":"17:58:00","lat":49.235569,"lon":16.585596,"is_passed":false},{"stop_id":"U1683Z4","name":"Tylova","arrival_time":"17:59:00","departure_time":"17:59:00","lat":49.231926,"lon":16.589459,"is_passed":false},{"stop_id":"U1566Z4","name":"Semilasso","arrival_time":"18:01:00","departure_time":"18:01:00","lat":49.228055,"lon":16.593438,"is_passed":false},{"stop_id":"U1286Z8","name":"Královo Pole, nádraží","arrival_time":"18:03:00","departure_time":"18:16:00","lat":49.230335,"lon":16.595523,"is_passed":false}],"50128":[{"stop_id":"U1286Z5","name":"Královo Pole, nádraží","arrival_time":"18:16:00","departure_time":"18:16:00","lat":49.229633,"lon":16.595447,"is_passed":false},{"stop_id":"U1566Z6","name":"Semilasso","arrival_time":"18:17:00","departure_time":"18:17:00","lat":49.228248,"lon":16.593466,"is_passed":false},{"stop_id":"U1683Z3","name":"Tylova","arrival_time":"18:18:00","departure_time":"18:18:00","lat":49.23069,"lon":16.590539,"is_passed":false},{"stop_id":"U1167Z1","name":"Hudcova","arrival_time":"18:19:00","departure_time":"18:19:00","lat":49.235202,"lon":16.587471,"is_passed":false},{"stop_id":"U1756Z3","name":"Vozovna Medlánky","arrival_time":"18:20:00","departure_time":"18:20:00","lat":49.235779,"lon":16.585218,"is_passed":false},{"stop_id":"U1377Z1","name":"Medlánky, škola","arrival_time":"18:21:00","departure_time":"18:21:00","lat":49.238431,"lon":16.578024,"is_passed":false},{"stop_id":"U1376Z1","name":"Medlánky","arrival_time":"18:22:00","departure_time":"18:22:00","lat":49.240555,"lon":16.573723,"is_passed":false},{"stop_id":"U1457Z1","name":"Olšanského","arrival_time":"18:23:00","departure_time":"18:23:00","lat":49.244367,"lon":16.577644,"is_passed":false},{"stop_id":"U1553Z3","name":"Řečkovice","arrival_time":"18:24:00","departure_time":"18:24:00","lat":49.246501,"lon":16.579153,"is_passed":false},{"stop_id":"U1812Z1","name":"Žilkova","arrival_time":"18:26:00","departure_time":"18:26:00","lat":49.253039,"lon":16.575488,"is_passed":false},{"stop_id":"U1063Z1","name":"Černohorská","arrival_time":"18:27:00","departure_time":"18:27:00","lat":49.258761,"lon":16.571447,"is_passed":false},{"stop_id":"U1526Z2","name":"Příjezdová","arrival_time":"18:28:00","departure_time":"18:28:00","lat":49.262121,"lon":16.568985,"is_passed":false},{"stop_id":"U1280Z2","name":"Kouty","arrival_time":"18:29:00","departure_time":"18:29:00","lat":49.26483,"lon":16.565227,"is_passed":false},{"stop_id":"U1351Z2","name":"Mácova","arrival_time":"18:30:00","departure_time":"18:30:00","lat":49.265791,"lon":16.568905,"is_passed":false},{"stop_id":"U1367Z2","name":"Maříkova","arrival_time":"18:32:00","departure_time":"18:32:00","lat":49.259514,"lon":16.579139,"is_passed":false},{"stop_id":"U1189Z1","name":"Ivanovice, Globus","arrival_time":"18:34:00","departure_time":"18:36:00","lat":49.262826,"lon":16.5783,"is_passed":false}],"50129":[{"stop_id":"U1286Z5","name":"Královo Pole, nádraží","arrival_time":"19:16:00","departure_time":"19:16:00","lat":49.229633,"lon":16.595447,"is_passed":false},{"stop_id":"U1566Z6","name":"Semilasso","arrival_time":"19:17:00","departure_time":"19:17:00","lat":49.228248,"lon":16.593466,"is_passed":false},{"stop_id":"U1683Z3","name":"Tylova","arrival_time":"19:18:00","departure_time":"19:18:00","lat":49.23069,"lon":16.590539,"is_passed":false},{"stop_id":"U1167Z1","name":"Hudcova","arrival_time":"19:19:00","departure_time":"19:19:00","lat":49.235202,"lon":16.587471,"is_passed":false},{"stop_id":"U1756Z3","name":"Vozovna Medlánky","arrival_time":"19:20:00","departure_time":"19:20:00","lat":49.235779,"lon":16.585218,"is_passed":false},{"stop_id":"U1377Z1","name":"Medlánky, škola","arrival_time":"19:21:00","departure_time":"19:21:00","lat":49.238431,"lon":16.578024,"is_passed":false},{"stop_id":"U1376Z1","name":"Medlánky","arrival_time":"19:22:00","departure_time":"19:22:00","lat":49.240555,"lon":16.573723,"is_passed":false},{"stop_id":"U1457Z1","name":"Olšanského","arrival_time":"19:23:00","departure_time":"19:23:00","lat":49.244367,"lon":16.577644,"is_passed":false},{"stop_id":"U1553Z3","name":"Řečkovice","arrival_time":"19:24:00","departure_time":"19:24:00","lat":49.246501,"lon":16.579153,"is_passed":false},{"stop_id":"U1812Z1","name":"Žilkova","arrival_time":"19:26:00","departure_time":"19:26:00","lat":49.253039,"lon":16.575488,"is_passed":false},{"stop_id":"U1063Z1","name":"Černohorská","arrival_time":"19:27:00","departure_time":"19:27:00","lat":49.258761,"lon":16.571447,"is_passed":false},{"stop_id":"U1351Z1","name":"Mácova","arrival_time":"19:28:00","departure_time":"19:28:00","lat":49.265819,"lon":16.569345,"is_passed":false}],"50130":[{"stop_id":"U1351Z1","name":"Mácova","arrival_time":"19:28:00","departure_time":"19:28:00","lat":49.265819,"lon":16.569345,"is_passed":false},{"stop_id":"U1280Z1","name":"Kouty","arrival_time":"19:29:00","departure_time":"19:29:00","lat":49.264372,"lon":16.565032,"is_passed":false},{"stop_id":"U1526Z1","name":"Příjezdová","arrival_time":"19:29:00","departure_time":"19:29:00","lat":49.261553,"lon":16.569939,"is_passed":false},{"stop_id":"U1063Z2","name":"Černohorská","arrival_time":"19:30:00","departure_time":"19:30:00","lat":49.258654,"lon":16.57133,"is_passed":false},{"stop_id":"U1085Z2","name":"Díly","arrival_time":"19:31:00","departure_time":"19:31:00","lat":49.25425,"lon":16.574421,"is_passed":false},{"stop_id":"U1812Z2","name":"Žilkova","arrival_time":"19:32:00","departure_time":"19:32:00","lat":49.252181,"lon":16.576027,"is_passed":false},{"stop_id":"U1553Z4","name":"Řečkovice","arrival_time":"19:33:00","departure_time":"19:33:00","lat":49.246674,"lon":16.579384,"is_passed":false},{"stop_id":"U1457Z2","name":"Olšanského","arrival_time":"19:34:00","departure_time":"19:34:00","lat":49.24422,"lon":16.577351,"is_passed":false},{"stop_id":"U1376Z2","name":"Medlánky","arrival_time":"19:36:00","departure_time":"19:36:00","lat":49.240459,"lon":16.573676,"is_passed":false},{"stop_id":"U1377Z2","name":"Medlánky, škola","arrival_time":"19:37:00","departure_time":"19:37:00","lat":49.238196,"lon":16.57841,"is_passed":false},{"stop_id":"U1756Z4","name":"Vozovna Medlánky","arrival_time":"19:38:00","departure_time":"19:38:00","lat":49.235569,"lon":16.585596,"is_passed":false},{"stop_id":"U1683Z4","name":"Tylova","arrival_time":"19:39:00","departure_time":"19:39:00","lat":49.231926,"lon":16.589459,"is_passed":false},{"stop_id":"U1566Z4","name":"Semilasso","arrival_time":"19:41:00","departure_time":"19:41:00","lat":49.228055,"lon":16.593438,"is_passed":false},{"stop_id":"U1286Z8","name":"Královo Pole, nádraží","arrival_time":"19:43:00","departure_time":"19:56:00","lat":49.230335,"lon":16.595523,"is_passed":false}],"50131":[{"stop_id":"U1286Z5","name":"Královo Pole, nádraží","arrival_time":"19:56:00","departure_time":"19:56:00","lat":49.229633,"lon":16.595447,"is_passed":false},{"stop_id":"U1566Z6","name":"Semilasso","arrival_time":"19:57:00","departure_time":"19:57:00","lat":49.228248,"lon":16.593466,"is_passed":false},{"stop_id":"U1683Z3","name":"Tylova","arrival_time":"19:58:00","departure_time":"19:58:00","lat":49.23069,"lon":16.590539,"is_passed":false},{"stop_id":"U1167Z1","name":"Hudcova","arrival_time":"19:59:00","departure_time":"19:59:00","lat":49.235202,"lon":16.587471,"is_passed":false},{"stop_id":"U1756Z3","name":"Vozovna Medlánky","arrival_time":"20:00:00","departure_time":"20:00:00","lat":49.235779,"lon":16.585218,"is_passed":false},{"stop_id":"U1377Z1","name":"Medlánky, škola","arrival_time":"20:01:00","departure_time":"20:01:00","lat":49.238431,"lon":16.578024,"is_passed":false},{"stop_id":"U1376Z1","name":"Medlánky","arrival_time":"20:02:00","departure_time":"20:02:00","lat":49.240555,"lon":16.573723,"is_passed":false},{"stop_id":"U1457Z1","name":"Olšanského","arrival_time":"20:03:00","departure_time":"20:03:00","lat":49.244367,"lon":16.577644,"is_passed":false},{"stop_id":"U1553Z3","name":"Řečkovice","arrival_time":"20:04:00","departure_time":"20:04:00","lat":49.246501,"lon":16.579153,"is_passed":false},{"stop_id":"U1812Z1","name":"Žilkova","arrival_time":"20:06:00","departure_time":"20:06:00","lat":49.253039,"lon":16.575488,"is_passed":false},{"stop_id":"U1063Z1","name":"Černohorská","arrival_time":"20:07:00","departure_time":"20:07:00","lat":49.258761,"lon":16.571447,"is_passed":false},{"stop_id":"U1526Z2","name":"Příjezdová","arrival_time":"20:08:00","departure_time":"20:08:00","lat":49.262121,"lon":16.568985,"is_passed":false},{"stop_id":"U1280Z2","name":"Kouty","arrival_time":"20:09:00","departure_time":"20:09:00","lat":49.26483,"lon":16.565227,"is_passed":false},{"stop_id":"U1351Z2","name":"Mácova","arrival_time":"20:10:00","departure_time":"20:10:00","lat":49.265791,"lon":16.568905,"is_passed":false},{"stop_id":"U13105Z1","name":"Česká, Nádavky","arrival_time":"20:11:00","departure_time":"20:11:00","lat":49.274959,"lon":16.567699,"is_passed":false},{"stop_id":"U13101Z1","name":"Česká, Hlavní","arrival_time":"20:13:00","departure_time":"20:18:00","lat":49.281825,"lon":16.565033,"is_passed":false},{"stop_id":"U13103Z1","name":"Česká, křižovatka","arrival_time":"20:18:00","departure_time":"20:18:00","lat":49.282973,"lon":16.565489,"is_passed":false},