{"501":[{"stop_id":"U12736Z51","name":"Letovice, železniční stanice","arrival_time":"9:57:00","departure_time":"9:57:00","lat":49.555973,"lon":16.570906,"is_passed":false},{"stop_id":"U22702Z2","name":"Letovice zastávka","arrival_time":"9:59:00","departure_time":"10:00:00","lat":49.536152,"lon":16.576186,"is_passed":false},{"stop_id":"U22701Z2","name":"Zboněk","arrival_time":"10:02:00","departure_time":"10:02:00","lat":49.520482,"lon":16.584439,"is_passed":false},{"stop_id":"U22602Z2","name":"Svitávka","arrival_time":"10:05:00","departure_time":"10:05:00","lat":49.499434,"lon":16.599208,"is_passed":false},{"stop_id":"U12676Z51","name":"Skalice nad Svitavou, žel.st.","arrival_time":"10:08:00","departure_time":"10:13:00","lat":49.480123,"lon":16.609726,"is_passed":false},{"stop_id":"U12511Z51","name":"Doubravice, žel.st.","arrival_time":"10:18:00","departure_time":"10:18:00","lat":49.438707,"lon":16.621809,"is_passed":false},{"stop_id":"U12439Z51","name":"Rájec-Jestřebí, železniční stanice","arrival_time":"10:21:00","departure_time":"10:22:00","lat":49.408206,"lon":16.627711,"is_passed":false},{"stop_id":"U22301Z2","name":"Dolní Lhota","arrival_time":"10:24:00","departure_time":"10:25:00","lat":49.386917,"lon":16.633978,"is_passed":false},{"stop_id":"U22302Z2","name":"Blansko město","arrival_time":"10:27:00","departure_time":"10:28:00","lat":49.360996,"lon":16.639464,"is_passed":false},{"stop_id":"U12342Z29","name":"Blansko, aut. st.","arrival_time":"10:30:00","departure_time":"10:31:00","lat":49.352753,"lon":16.646848,"is_passed":false},{"stop_id":"U12231Z11","name":"Adamov, železniční zastávka","arrival_time":"10:36:00","departure_time":"10:37:00","lat":49.300671,"lon":16.650653,"is_passed":false},{"stop_id":"U12230Z11","name":"Adamov, železniční stanice","arrival_time":"10:38:00","departure_time":"10:39:00","lat":49.295341,"lon":16.663538,"is_passed":false},{"stop_id":"U22101Z2","name":"Babice nad Svitavou","arrival_time":"10:42:00","departure_time":"10:42:00","lat":49.276645,"lon":16.673012,"is_passed":false},{"stop_id":"U12158Z11","name":"Bílovice nad Svitavou, žel. stanice","arrival_time":"10:46:00","departure_time":"10:47:00","lat":49.242715,"lon":16.673677,"is_passed":false},{"stop_id":"U1809Z11","name":"Židenice, nádraží","arrival_time":"10:52:00","departure_time":"10:52:00","lat":49.204282,"lon":16.636042,"is_passed":false},{"stop_id":"U1146Z98","name":"Hlavní nádraží","arrival_time":"10:59:00","departure_time":"11:06:00","lat":49.19035,"lon":16.612342,"is_passed":false},{"stop_id":"U1183Z11","name":"Chrlice, nádraží","arrival_time":"11:14:00","departure_time":"11:17:00","lat":49.132031,"lon":16.657232,"is_passed":false},{"stop_id":"U16149Z11","name":"Sokolnice, železniční stanice","arrival_time":"11:23:00","departure_time":"11:24:00","lat":49.108029,"lon":16.733459,"is_passed":false},{"stop_id":"U26101Z2","name":"Újezd u Brna","arrival_time":"11:25:00","departure_time":"11:26:00","lat":49.107297,"lon":16.745564,"is_passed":false},{"stop_id":"U26102Z2","name":"Hostěrádky-Rešov","arrival_time":"11:29:00","departure_time":"11:29:00","lat":49.119822,"lon":16.782755,"is_passed":false},{"stop_id":"U26201Z2","name":"Zbýšov","arrival_time":"11:32:00","departure_time":"11:32:00","lat":49.132691,"lon":16.806859,"is_passed":false},{"stop_id":"U16212Z11","name":"Křenovice, hor. žel. st.","arrival_time":"11:35:00","departure_time":"11:58:00","lat":49.143553,"lon":16.824564,"is_passed":false}],"5010":[{"stop_id":"U14323Z2","name":"Lukovany, točna","arrival_time":"4:40:00","departure_time":"4:40:00","lat":49.163362,"lon":16.295969,"is_passed":false},{"stop_id":"U14322Z2","name":"Lukovany, na dolině","arrival_time":"4:41:00","departure_time":"4:41:00","lat":49.162876,"lon":16.299755,"is_passed":false},{"stop_id":"U14324Z2","name":"Lukovany, u kapličky","arrival_time":"4:42:00","departure_time":"4:42:00","lat":49.163265,"lon":16.302909,"is_passed":false},{"stop_id":"U14332Z2","name":"Zakřany, ZD","arrival_time":"4:44:00","departure_time":"4:44:00","lat":49.169187,"lon":16.319818,"is_passed":false},{"stop_id":"U14331Z2","name":"Zakřany, obecní úřad","arrival_time":"4:46:00","departure_time":"4:46:00","lat":49.170265,"lon":16.325898,"is_passed":false},{"stop_id":"U14330Z2","name":"Zakřany, Jednota","arrival_time":"4:48:00","departure_time":"4:48:00","lat":49.168722,"lon":16.331437,"is_passed":false},{"stop_id":"U14335Z2","name":"Zbýšov, Jednota","arrival_time":"4:50:00","departure_time":"4:50:00","lat":49.161319,"lon":16.342814,"is_passed":false},{"stop_id":"U14338Z2","name":"Zbýšov, Sička","arrival_time":"4:54:00","departure_time":"4:54:00","lat":49.16693,"lon":16.353128,"is_passed":false},{"stop_id":"U14224Z2","name":"Babice u Rosic","arrival_time":"4:56:00","departure_time":"4:56:00","lat":49.171089,"lon":16.359275,"is_passed":false},{"stop_id":"U14242Z10","name":"Zastávka, železniční stanice","arrival_time":"5:02:00","departure_time":"5:19:00","lat":49.187164,"lon":16.360086,"is_passed":false}],"5011":[{"stop_id":"U14242Z4","name":"Zastávka, železniční stanice","arrival_time":"5:19:00","departure_time":"5:19:00","lat":49.187553,"lon":16.359243,"is_passed":false},{"stop_id":"U14224Z1","name":"Babice u Rosic","arrival_time":"5:22:00","departure_time":"5:22:00","lat":49.171094,"lon":16.359022,"is_passed":false},{"stop_id":"U14338Z1","name":"Zbýšov, Sička","arrival_time":"5:24:00","departure_time":"5:24:00","lat":49.166783,"lon":16.353281,"is_passed":false},{"stop_id":"U14335Z1","name":"Zbýšov, Jednota","arrival_time":"5:27:00","departure_time":"5:27:00","lat":49.161582,"lon":16.342693,"is_passed":false},{"stop_id":"U14330Z1","name":"Zakřany, Jednota","arrival_time":"5:30:00","departure_time":"5:30:00","lat":49.168713,"lon":16.331422,"is_passed":false},{"stop_id":"U14331Z1","name":"Zakřany, obecní úřad","arrival_time":"5:31:00","departure_time":"5:31:00","lat":49.170393,"lon":16.325588,"is_passed":false},{"stop_id":"U14332Z1","name":"Zakřany, ZD","arrival_time":"5:32:00","departure_time":"5:32:00","lat":49.169187,"lon":16.319818,"is_passed":false},{"stop_id":"U14324Z1","name":"Lukovany, u kapličky","arrival_time":"5:34:00","departure_time":"5:34:00","lat":49.163321,"lon":16.3027,"is_passed":false},{"stop_id":"U14322Z1","name":"Lukovany, na dolině","arrival_time":"5:35:00","departure_time":"5:35:00","lat":49.162995,"lon":16.299642,"is_passed":false},{"stop_id":"U14323Z1","name":"Lukovany, točna","arrival_time":"5:36:00","departure_time":"5:40:00","lat":49.163362,"lon":16.295969,"is_passed":false}],"5012":[{"stop_id":"U14323Z2","name":"Lukovany, točna","arrival_time":"5:40:00","departure_time":"5:40:00","lat":49.163362,"lon":16.295969,"is_passed":false},{"stop_id":"U14322Z2","name":"Lukovany, na dolině","arrival_time":"5:41:00","departure_time":"5:41:00","lat":49.162876,"lon":16.299755,"is_passed":false},{"stop_id":"U14324Z2","name":"Lukovany, u kapličky","arrival_time":"5:42:00","departure_time":"5:42:00","lat":49.163265,"lon":16.302909,"is_passed":false},{"stop_id":"U14332Z2","name":"Zakřany, ZD","arrival_time":"5:44:00","departure_time":"5:44:00","lat":49.169187,"lon":16.319818,"is_passed":false},{"stop_id":"U14331Z2","name":"Zakřany, obecní úřad","arrival_time":"5:46:00","departure_time":"5:46:00","lat":49.170265,"lon":16.325898,"is_passed":false},{"stop_id":"U14330Z2","name":"Zakřany, Jednota","arrival_time":"5:48:00","departure_time":"5:48:00","lat":49.168722,"lon":16.331437,"is_passed":false},{"stop_id":"U14335Z2","name":"Zbýšov, Jednota","arrival_time":"5:50:00","departure_time":"5:50:00","lat":49.161319,"lon":16.342814,"is_passed":false},{"stop_id":"U14338Z2","name":"Zbýšov, Sička","arrival_time":"5:54:00","departure_time":"5:54:00","lat":49.16693,"lon":16.353128,"is_passed":false},{"stop_id":"U14224Z2","name":"Babice u Rosic","arrival_time":"5:56:00","departure_time":"5:56:00","lat":49.171089,"lon":16.359275,"is_passed":false},{"stop_id":"U14242Z10","name":"Zastávka, železniční stanice","arrival_time":"6:02:00","departure_time":"6:19:00","lat":49.187164,"lon":16.360086,"is_passed":false}],"5013":[{"stop_id":"U14242Z4","name":"Zastávka, železniční stanice","arrival_time":"6:19:00","departure_time":"6:19:00","lat":49.187553,"lon":16.359243,"is_passed":false},{"stop_id":"U14224Z1","name":"Babice u Rosic","arrival_time":"6:22:00","departure_time":"6:22:00","lat":49.171094,"lon":16.359022,"is_passed":false},{"stop_id":"U14338Z1","name":"Zbýšov, Sička","arrival_time":"6:24:00","departure_time":"6:24:00","lat":49.166783,"lon":16.353281,"is_passed":false},{"stop_id":"U14335Z1","name":"Zbýšov, Jednota","arrival_time":"6:27:00","departure_time":"6:27:00","lat":49.161582,"lon":16.342693,"is_passed":false},{"stop_id":"U14330Z1","name":"Zakřany, Jednota","arrival_time":"6:30:00","departure_time":"6:30:00","lat":49.168713,"lon":16.331422,"is_passed":false},{"stop_id":"U14331Z1","name":"Zakřany, obecní úřad","arrival_time":"6:31:00","departure_time":"6:31:00","lat":49.170393,"lon":16.325588,"is_passed":false},{"stop_id":"U14332Z1","name":"Zakřany, ZD","arrival_time":"6:32:00","departure_time":"6:32:00","lat":49.169187,"lon":16.319818,"is_passed":false},{"stop_id":"U14324Z1","name":"Lukovany, u kapličky","arrival_time":"6:34:00","departure_time":"6:34:00","lat":49.163321,"lon":16.3027,"is_passed":false},{"stop_id":"U14322Z1","name":"Lukovany, na dolině","arrival_time":"6:35:00","departure_time":"6:35:00","lat":49.162995,"lon":16.299642,"is_passed":false},{"stop_id":"U14323Z1","name":"Lukovany, točna","arrival_time":"6:36:00","departure_time":"6:40:00","lat":49.163362,"lon":16.295969,"is_passed":false}],"5014":[{"stop_id":"U14323Z2","name":"Lukovany, točna","arrival_time":"6:40:00","departure_time":"6:40:00","lat":49.163362,"lon":16.295969,"is_passed":false},{"stop_id":"U14322Z2","name":"Lukovany, na dolině","arrival_time":"6:41:00","departure_time":"6:41:00","lat":49.162876,"lon":16.299755,"is_passed":false},{"stop_id":"U14324Z2","name":"Lukovany, u kapličky","arrival_time":"6:42:00","departure_time":"6:42:00","lat":49.163265,"lon":16.302909,"is_passed":false},{"stop_id":"U14332Z2","name":"Zakřany, ZD","arrival_time":"6:44:00","departure_time":"6:44:00","lat":49.169187,"lon":16.319818,"is_passed":false},{"stop_id":"U14331Z2","name":"Zakřany, obecní úřad","arrival_time":"6:46:00","departure_time":"6:46:00","lat":49.170265,"lon":16.325898,"is_passed":false},{"stop_id":"U14330Z2","name":"Zakřany, Jednota","arrival_time":"6:48:00","departure_time":"6:48:00","lat":49.168722,"lon":16.331437,"is_passed":false},{"stop_id":"U14335Z2","name":"Zbýšov, Jednota","arrival_time":"6:50:00","departure_time":"6:50:00","lat":49.161319,"lon":16.342814,"is_passed":false},{"stop_id":"U14338Z2","name":"Zbýšov, Sička","arrival_time":"6:54:00","departure_time":"6:54:00","lat":49.16693,"lon":16.353128,"is_passed":false},{"stop_id":"U14224Z2","name":"Babice u Rosic","arrival_time":"6:56:00","departure_time":"6:56:00","lat":49.171089,"lon":16.359275,"is_passed":false},{"stop_id":"U14242Z10","name":"Zastávka, železniční stanice","arrival_time":"7:02:00","departure_time":"7:02:00","lat":49.187164,"lon":16.360086,"is_passed":false}],"5015":[{"stop_id":"U14242Z5","name":"Zastávka, železniční stanice","arrival_time":"7:19:00","departure_time":"7:19:00","lat":49.187451,"lon":16.359464,"is_passed":false},{"stop_id":"U14224Z1","name":"Babice u Rosic","arrival_time":"7:22:00","departure_time":"7:22:00","lat":49.171094,"lon":16.359022,"is_passed":false},{"stop_id":"U14321Z1","name":"Kratochvilka","arrival_time":"7:25:00","departure_time":"7:25:00","lat":49.15696,"lon":16.37693,"is_passed":false},{"stop_id":"U14326Z1","name":"Neslovice, škola","arrival_time":"7:27:00","departure_time":"7:27:00","lat":49.145957,"lon":16.387267,"is_passed":false},{"stop_id":"U14325Z1","name":"Neslovice","arrival_time":"7:29:00","departure_time":"7:30:00","lat":49.14255,"lon":16.387508,"is_passed":false},{"stop_id":"U14320Z1","name":"Hlína, samota","arrival_time":"7:35:00","departure_time":"7:35:00","lat":49.123094,"lon":16.421006,"is_passed":false},{"stop_id":"U14319Z1","name":"Hlína","arrival_time":"7:37:00","departure_time":"8:09:00","lat":49.114511,"lon":16.427406,"is_passed":false}],"5016":[{"stop_id":"U14319Z11","name":"Hlína","arrival_time":"8:09:00","departure_time":"8:09:00","lat":49.114511,"lon":16.427406,"is_passed":false},{"stop_id":"U14320Z2","name":"Hlína, samota","arrival_time":"8:11:00","departure_time":"8:11:00","lat":49.123189,"lon":16.421014,"is_passed":false},{"stop_id":"U14325Z2","name":"Neslovice","arrival_time":"8:17:00","departure_time":"8:25:00","lat":49.142605,"lon":16.387307,"is_passed":false},{"stop_id":"U14326Z2","name":"Neslovice, škola","arrival_time":"8:26:00","departure_time":"8:26:00","lat":49.145858,"lon":16.387305,"is_passed":false},{"stop_id":"U14321Z2","name":"Kratochvilka","arrival_time":"8:29:00","departure_time":"8:29:00","lat":49.157147,"lon":16.376968,"is_passed":false},{"stop_id":"U14224Z2","name":"Babice u Rosic","arrival_time":"8:33:00","departure_time":"8:33:00","lat":49.171089,"lon":16.359275,"is_passed":false},{"stop_id":"U14242Z10","name":"Zastávka, železniční stanice","arrival_time":"8:37:00","departure_time":"8:37:00","lat":49.187164,"lon":16.360086,"is_passed":false}],"5017":[{"stop_id":"U14242Z4","name":"Zastávka, železniční stanice","arrival_time":"10:19:00","departure_time":"10:19:00","lat":49.187553,"lon":16.359243,"is_passed":false},{"stop_id":"U14224Z1","name":"Babice u Rosic","arrival_time":"10:22:00","departure_time":"10:22:00","lat":49.171094,"lon":16.359022,"is_passed":false},{"stop_id":"U14338Z1","name":"Zbýšov, Sička","arrival_time":"10:24:00","departure_time":"10:24:00","lat":49.166783,"lon":16.353281,"is_passed":false},{"stop_id":"U14335Z1","name":"Zbýšov, Jednota","arrival_time":"10:27:00","departure_time":"10:27:00","lat":49.161582,"lon":16.342693,"is_passed":false},{"stop_id":"U14330Z1","name":"Zakřany, Jednota","arrival_time":"10:30:00","departure_time":"10:30:00","lat":49.168713,"lon":16.331422,"is_passed":false},{"stop_id":"U14331Z1","name":"Zakřany, obecní úřad","arrival_time":"10:31:00","departure_time":"10:31:00","lat":49.170393,"lon":16.325588,"is_passed":false},{"stop_id":"U14332Z1","name":"Zakřany, ZD","arrival_time":"10:32:00","departure_time":"10:32:00","lat":49.169187,"lon":16.319818,"is_passed":false},{"stop_id":"U14324Z1","name":"Lukovany, u kapličky","arrival_time":"10:34:00","departure_time":"10:34:00","lat":49.163321,"lon":16.3027,"is_passed":false},{"stop_id":"U14322Z1","name":"Lukovany, na dolině","arrival_time":"10:35:00","departure_time":"10:35:00","lat":49.162995,"lon":16.299642,"is_passed":false},{"stop_id":"U14323Z1","name":"Lukovany, točna","arrival_time":"10:36:00","departure_time":"11:10:00","lat":49.163362,"lon":16.295969,"is_passed":false}],"5018":[{"stop_id":"U14323Z2","name":"Lukovany, točna","arrival_time":"11:10:00","departure_time":"11:10:00","lat":49.163362,"lon":16.295969,"is_passed":false},{"stop_id":"U14322Z2","name":"Lukovany, na dolině","arrival_time":"11:11:00","departure_time":"11:11:00","lat":49.162876,"lon":16.299755,"is_passed":false},{"stop_id":"U14324Z2","name":"Lukovany, u kapličky","arrival_time":"11:12:00","departure_time":"11:12:00","lat":49.163265,"lon":16.302909,"is_passed":false},{"stop_id":"U14332Z2","name":"Zakřany, ZD","arrival_time":"11:14:00","departure_time":"11:14:00","lat":49.169187,"lon":16.319818,"is_passed":false},{"stop_id":"U14331Z2","name":"Zakřany, obecní úřad","arrival_time":"11:16:00","departure_time":"11:16:00","lat":49.170265,"lon":16.325898,"is_passed":false},{"stop_id":"U14330Z2","name":"Zakřany, Jednota","arrival_time":"11:18:00","departure_time":"11:18:00","lat":49.168722,"lon":16.331437,"is_passed":false},{"stop_id":"U14335Z2","name":"Zbýšov, Jednota","arrival_time":"11:20:00","departure_time":"11:20:00","lat":49.161319,"lon":16.342814,"is_passed":false},{"stop_id":"U14338Z2","name":"Zbýšov, Sička","arrival_time":"11:24:00","departure_time":"11:24:00","lat":49.16693,"lon":16.353128,"is_passed":false},{"stop_id":"U14224Z2","name":"Babice u Rosic","arrival_time":"11:26:00","departure_time":"11:26:00","lat":49.171089,"lon":16.359275,"is_passed":false},{"stop_id":"U14242Z10","name":"Zastávka, železniční stanice","arrival_time":"11:32:00","departure_time":"11:49:00","lat":49.187164,"lon":16.360086,"is_passed":false}],"5019":[{"stop_id":"U14242Z4","name":"Zastávka, železniční stanice","arrival_time":"11:49:00","departure_time":"11:49:00","lat":49.187553,"lon":16.359243,"is_passed":false},{"stop_id":"U14224Z1","name":"Babice u Rosic","arrival_time":"11:52:00","departure_time":"11:52:00","lat":49.171094,"lon":16.359022,"is_passed":false},{"stop_id":"U14338Z1","name":"Zbýšov, Sička","arrival_time":"11:54:00","departure_time":"11:54:00","lat":49.166783,"lon":16.353281,"is_passed":false},{"stop_id":"U14335Z1","name":"Zbýšov, Jednota","arrival_time":"11:57:00","departure_time":"11:57:00","lat":49.161582,"lon":16.342693,"is_passed":false},{"stop_id":"U14330Z1","name":"Zakřany, Jednota","arrival_time":"12:00:00","departure_time":"12:00:00","lat":49.168713,"lon":16.331422,"is_passed":false},{"stop_id":"U14331Z1","name":"Zakřany, obecní úřad","arrival_time":"12:01:00","departure_time":"12:01:00","lat":49.170393,"lon":16.325588,"is_passed":false},{"stop_id":"U14332Z1","name":"Zakřany, ZD","arrival_time":"12:02:00","departure_time":"12:02:00","lat":49.169187,"lon":16.319818,"is_passed":false},{"stop_id":"U14324Z1","name":"Lukovany, u kapličky","arrival_time":"12:04:00","departure_time":"12:04:00","lat":49.163321,"lon":16.3027,"is_passed":false},{"stop_id":"U14322Z1","name":"Lukovany, na dolině","arrival_time":"12:05:00","departure_time":"12:05:00","lat":49.162995,"lon":16.299642,"is_passed":false},{"stop_id":"U14323Z1","name":"Lukovany, točna","arrival_time":"12:06:00","departure_time":"12:10:00","lat":49.163362,"lon":16.295969,"is_passed":false}],"50100":[{"stop_id":"U15130Z2","name":"Modřice, Olympia","arrival_time":"17:46:00","departure_time":"17:46:00","lat":49.139255,"lon":16.634291,"is_passed":false},{"stop_id":"U15132Z2","name":"Modřice, Olympia jih","arrival_time":"17:47:00","departure_time":"17:47:00","lat":49.135069,"lon":16.633864,"is_passed":false},{"stop_id":"U15185Z1","name":"Modřice, Decathlon","arrival_time":"17:50:00","departure_time":"17:50:00","lat":49.137598,"lon":16.637297,"is_passed":false},{"stop_id":"U15186Z1","name":"Modřice, XXXLutz","arrival_time":"17:51:00","departure_time":"17:51:00","lat":49.138934,"lon":16.637263,"is_passed":false},{"stop_id":"U1781Z2","name":"Zámecká","arrival_time":"17:53:00","departure_time":"17:53:00","lat":49.132518,"lon":16.642875,"is_passed":false},{"stop_id":"U1644Z2","name":"Šromova","arrival_time":"17:55:00","departure_time":"17:55:00","lat":49.13398,"lon":16.651446,"is_passed":false},{"stop_id":"U1187Z4","name":"Chrlické náměstí","arrival_time":"17:56:00","departure_time":"17:56:00","lat":49.135767,"lon":16.653213,"is_passed":false},{"stop_id":"U1693Z2","name":"U viaduktu","arrival_time":"17:57:00","departure_time":"17:57:00","lat":49.139248,"lon":16.66101,"is_passed":false},{"stop_id":"U1186Z2","name":"Chrlická","arrival_time":"17:58:00","departure_time":"17:58:00","lat":49.143983,"lon":16.665097,"is_passed":false},{"stop_id":"U1131Z2","name":"Hanácká","arrival_time":"17:59:00","departure_time":"17:59:00","lat":49.146706,"lon":16.667371,"is_passed":false},{"stop_id":"U1772Z2","name":"Za křížem","arrival_time":"18:01:00","departure_time":"18:01:00","lat":49.15905,"lon":16.670815,"is_passed":false},{"stop_id":"U1581Z2","name":"Areál Slatina","arrival_time":"18:03:00","departure_time":"18:03:00","lat":49.168677,"lon":16.678416,"is_passed":false},{"stop_id":"U1562Z3","name":"Řípská","arrival_time":"18:04:00","departure_time":"18:04:00","lat":49.172528,"lon":16.682138,"is_passed":false},{"stop_id":"U1300Z1","name":"Křehlíkova","arrival_time":"18:05:00","departure_time":"18:05:00","lat":49.174839,"lon":16.685145,"is_passed":false},{"stop_id":"U1525Z1","name":"Přemyslovo náměstí","arrival_time":"18:06:00","departure_time":"18:06:00","lat":49.176289,"lon":16.687296,"is_passed":false},{"stop_id":"U1292Z1","name":"Krejčího","arrival_time":"18:07:00","departure_time":"18:07:00","lat":49.177441,"lon":16.690968,"is_passed":false},{"stop_id":"U1576Z2","name":"Slatina, rozcestí","arrival_time":"18:09:00","departure_time":"18:09:00","lat":49.183366,"lon":16.691884,"is_passed":false},{"stop_id":"U1356Z2","name":"Malečkova","arrival_time":"18:09:00","departure_time":"18:09:00","lat":49.185667,"lon":16.692678,"is_passed":false},{"stop_id":"U1152Z2","name":"Holzova","arrival_time":"18:10:00","departure_time":"18:10:00","lat":49.194897,"lon":16.696973,"is_passed":false},{"stop_id":"U1339Z2","name":"Letecká","arrival_time":"18:11:00","departure_time":"18:11:00","lat":49.197812,"lon":16.695816,"is_passed":false},{"stop_id":"U1406Z2","name":"Muzeum dopravy","arrival_time":"18:12:00","departure_time":"18:12:00","lat":49.201777,"lon":16.694455,"is_passed":false},{"stop_id":"U1421Z1","name":"Náměstí Karla IV.","arrival_time":"18:13:00","departure_time":"18:13:00","lat":49.206363,"lon":16.694621,"is_passed":false},{"stop_id":"U1384Z3","name":"Mifkova","arrival_time":"18:13:00","departure_time":"18:13:00","lat":49.20716,"lon":16.692152,"is_passed":false},{"stop_id":"U1208Z5","name":"Jírova","arrival_time":"18:15:00","departure_time":"18:15:00","lat":49.209891,"lon":16.688265,"is_passed":false},{"stop_id":"U1392Z2","name":"Molákova","arrival_time":"18:16:00","departure_time":"18:16:00","lat":49.212602,"lon":16.687063,"is_passed":false},{"stop_id":"U1489Z2","name":"Podbělová","arrival_time":"18:17:00","departure_time":"18:17:00","lat":49.214049,"lon":16.681384,"is_passed":false},{"stop_id":"U1157Z2","name":"Horníkova","arrival_time":"18:18:00","departure_time":"18:18:00","lat":49.211809,"lon":16.67649,"is_passed":false},{"stop_id":"U1103Z2","name":"Elplova","arrival_time":"18:19:00","departure_time":"18:19:00","lat":49.210409,"lon":16.674871,"is_passed":false},{"stop_id":"U1623Z2","name":"Strnadova","arrival_time":"18:20:00","departure_time":"18:20:00","lat":49.205821,"lon":16.668465,"is_passed":false},{"stop_id":"U1383Z2","name":"Mikulovská","arrival_time":"18:21:00","departure_time":"18:21:00","lat":49.206311,"lon":16.664823,"is_passed":false},{"stop_id":"U1052Z1","name":"Bzenecká","arrival_time":"18:23:00","departure_time":"18:23:00","lat":49.206117,"lon":16.660595,"is_passed":false},{"stop_id":"U1477Z3","name":"Pálavské náměstí","arrival_time":"18:24:00","departure_time":"18:24:00","lat":49.20612,"lon":16.657683,"is_passed":false},{"stop_id":"U1403Z1","name":"Mutěnická","arrival_time":"18:25:00","departure_time":"18:25:00","lat":49.20299,"lon":16.654796,"is_passed":false},{"stop_id":"U1036Z1","name":"Bořetická","arrival_time":"18:26:00","departure_time":"18:26:00","lat":49.201326,"lon":16.659292,"is_passed":false},{"stop_id":"U1058Z1","name":"Čejkovická","arrival_time":"18:27:00","departure_time":"18:27:00","lat":49.200178,"lon":16.662528,"is_passed":false},{"stop_id":"U1353Z2","name":"Malá Klajdovka","arrival_time":"18:27:00","departure_time":"18:27:00","lat":49.199214,"lon":16.662929,"is_passed":false},{"stop_id":"U1212Z4","name":"Juliánov","arrival_time":"18:29:00","departure_time":"18:29:00","lat":49.196413,"lon":16.655783,"is_passed":false},{"stop_id":"U1082Z2","name":"Dělnický dům","arrival_time":"18:30:00","departure_time":"18:30:00","lat":49.195559,"lon":16.64956,"is_passed":false},{"stop_id":"U1113Z2","name":"Gajdošova","arrival_time":"18:31:00","departure_time":"18:31:00","lat":49.198286,"lon":16.645995,"is_passed":false},{"stop_id":"U1611Z6","name":"Stará osada","arrival_time":"18:33:00","departure_time":"18:33:00","lat":49.201731,"lon":16.642184,"is_passed":false},{"stop_id":"U1809Z1","name":"Židenice, nádraží","arrival_time":"18:35:00","departure_time":"18:35:00","lat":49.20162,"lon":16.635716,"is_passed":false}],"50101":[{"stop_id":"U1809Z3","name":"Židenice, nádraží","arrival_time":"18:45:00","departure_time":"18:45:00","lat":49.203338,"lon":16.636772,"is_passed":false},{"stop_id":"U1611Z8","name":"Stará osada","arrival_time":"18:48:00","departure_time":"18:48:00","lat":49.202294,"lon":16.642001,"is_passed":false},{"stop_id":"U1113Z1","name":"Gajdošova","arrival_time":"18:49:00","departure_time":"18:49:00","lat":49.19868,"lon":16.645552,"is_passed":false},{"stop_id":"U1082Z1","name":"Dělnický dům","arrival_time":"18:51:00","departure_time":"18:51:00","lat":49.195559,"lon":16.650177,"is_passed":false},{"stop_id":"U1496Z1","name":"Podlomní","arrival_time":"18:52:00","departure_time":"18:52:00","lat":49.192252,"lon":16.655367,"is_passed":false},{"stop_id":"U1642Z1","name":"Špačkova","arrival_time":"18:53:00","departure_time":"18:53:00","lat":49.190929,"lon":16.658793,"is_passed":false},{"stop_id":"U1018Z6","name":"Bělohorská","arrival_time":"18:54:00","departure_time":"18:54:00","lat":49.189603,"lon":16.662473,"is_passed":false},{"stop_id":"U1026Z3","name":"Bílá hora","arrival_time":"18:55:00","departure_time":"18:55:00","lat":49.194009,"lon":16.668034,"is_passed":false},{"stop_id":"U1551Z1","name":"Růženin dvůr","arrival_time":"18:57:00","departure_time":"18:57:00","lat":49.203651,"lon":16.666867,"is_passed":false},{"stop_id":"U1623Z1","name":"Strnadova","arrival_time":"18:58:00","departure_time":"18:58:00","lat":49.205754,"lon":16.66904,"is_passed":false},{"stop_id":"U1103Z1","name":"Elplova","arrival_time":"19:00:00","departure_time":"19:00:00","lat":49.210484,"lon":16.675106,"is_passed":false},{"stop_id":"U1157Z1","name":"Horníkova","arrival_time":"19:01:00","departure_time":"19:01:00","lat":49.212138,"lon":16.676622,"is_passed":false},{"stop_id":"U1489Z1","name":"Podbělová","arrival_time":"19:02:00","departure_time":"19:02:00","lat":49.213881,"lon":16.681661,"is_passed":false},{"stop_id":"U1392Z1","name":"Molákova","arrival_time":"19:03:00","departure_time":"19:03:00","lat":49.212873,"lon":16.686835,"is_passed":false},{"stop_id":"U1208Z4","name":"Jírova","arrival_time":"19:04:00","departure_time":"19:04:00","lat":49.209099,"lon":16.688056,"is_passed":false},{"stop_id":"U1421Z3","name":"Náměstí Karla IV.","arrival_time":"19:05:00","departure_time":"19:05:00","lat":49.206713,"lon":16.694241,"is_passed":false},{"stop_id":"U1350Z1","name":"Macháčkova","arrival_time":"19:07:00","departure_time":"19:07:00","lat":49.206052,"lon":16.70193,"is_passed":false},{"stop_id":"U1726Z1","name":"Velatická","arrival_time":"19:08:00","departure_time":"19:08:00","lat":49.204129,"lon":16.708116,"is_passed":false},{"stop_id":"U1497Z1","name":"Podolská","arrival_time":"19:09:00","departure_time":"19:09:00","lat":49.203029,"lon":16.714223,"is_passed":false},{"stop_id":"U1362Z1","name":"Mariánské údolí","arrival_time":"19:11:00","departure_time":"19:21:00","lat":49.203331,"lon":16.716449,"is_passed":false}],"50102":[{"stop_id":"U1362Z2","name":"Mariánské údolí","arrival_time":"19:21:00","departure_time":"19:21:00","lat":49.20332,"lon":16.71587,"is_passed":false},{"stop_id":"U1497Z2","name":"Podolská","arrival_time":"19:21:00","departure_time":"19:21:00","lat":49.20311,"lon":16.713363,"is_passed":false},{"stop_id":"U1726Z2","name":"Velatická","arrival_time":"19:22:00","departure_time":"19:22:00","lat":49.204666,"lon":16.707253,"is_passed":false},{"stop_id":"U1350Z2","name":"Macháčkova","arrival_time":"19:23:00","departure_time":"19:23:00","lat":49.206174,"lon":16.701931,"is_passed":false},{"stop_id":"U1421Z4","name":"Náměstí Karla IV.","arrival_time":"19:24:00","departure_time":"19:24:00","lat":49.206991,"lon":16.695508,"is_passed":false},{"stop_id":"U1384Z3","name":"Mifkova","arrival_time":"19:25:00","departure_time":"19:25:00","lat":49.20716,"lon":16.692152,"is_passed":false},{"stop_id":"U1208Z5","name":"Jírova","arrival_time":"19:27:00","departure_time":"19:27:00","lat":49.209891,"lon":16.688265,"is_passed":false},{"stop_id":"U1392Z2","name":"Molákova","arrival_time":"19:28:00","departure_time":"19:28:00","lat":49.212602,"lon":16.687063,"is_passed":false},{"stop_id":"U1489Z2","name":"Podbělová","arrival_time":"19:29:00","departure_time":"19:29:00","lat":49.214049,"lon":16.681384,"is_passed":false},{"stop_id":"U1157Z2","name":"Horníkova","arrival_time":"19:30:00","departure_time":"19:30:00","lat":49.211809,"lon":16.67649,"is_passed":false},{"stop_id":"U1103Z2","name":"Elplova","arrival_time":"19:31:00","departure_time":"19:31:00","lat":49.210409,"lon":16.674871,"is_passed":false},{"stop_id":"U1623Z2","name":"Strnadova","arrival_time":"19:32:00","departure_time":"19:32:00","lat":49.205821,"lon":16.668465,"is_passed":false},{"stop_id":"U1551Z2","name":"Růženin dvůr","arrival_time":"19:34:00","departure_time":"19:34:00","lat":49.203263,"lon":16.666525,"is_passed":false},{"stop_id":"U1026Z4","name":"Bílá hora","arrival_time":"19:35:00","departure_time":"19:35:00","lat":49.193975,"lon":16.667677,"is_passed":false},{"stop_id":"U1018Z4","name":"Bělohorská","arrival_time":"19:37:00","departure_time":"19:37:00","lat":49.189904,"lon":16.662135,"is_passed":false},{"stop_id":"U1642Z2","name":"Špačkova","arrival_time":"19:38:00","departure_time":"19:38:00","lat":49.190815,"lon":16.659552,"is_passed":false},{"stop_id":"U1496Z2","name":"Podlomní","arrival_time":"19:39:00","departure_time":"19:39:00","lat":49.192497,"lon":16.654989,"is_passed":false},{"stop_id":"U1082Z2","name":"Dělnický dům","arrival_time":"19:40:00","departure_time":"19:40:00","lat":49.195559,"lon":16.64956,"is_passed":false},{"stop_id":"U1113Z2","name":"Gajdošova","arrival_time":"19:41:00","departure_time":"19:41:00","lat":49.198286,"lon":16.645995,"is_passed":false},{"stop_id":"U1611Z6","name":"Stará osada","arrival_time":"19:43:00","departure_time":"19:43:00","lat":49.201731,"lon":16.642184,"is_passed":false},{"stop_id":"U1809Z1","name":"Židenice, nádraží","arrival_time":"19:45:00","departure_time":"19:45:00","lat":49.20162,"lon":16.635716,"is_passed":false}],"50103":[{"stop_id":"U1809Z3","name":"Židenice, nádraží","arrival_time":"19:55:00","departure_time":"19:55:00","lat":49.203338,"lon":16.636772,"is_passed":false},{"stop_id":"U1611Z8","name":"Stará osada","arrival_time":"19:58:00","departure_time":"19:58:00","lat":49.202294,"lon":16.642001,"is_passed":false},{"stop_id":"U1113Z1","name":"Gajdošova","arrival_time":"19:59:00","departure_time":"19:59:00","lat":49.19868,"lon":16.645552,"is_passed":false},{"stop_id":"U1082Z1","name":"Dělnický dům","arrival_time":"20:01:00","departure_time":"20:01:00","lat":49.195559,"lon":16.650177,"is_passed":false},{"stop_id":"U1212Z3","name":"Juliánov","arrival_time":"20:02:00","departure_time":"20:02:00","lat":49.196124,"lon":16.654392,"is_passed":false},{"stop_id":"U1353Z1","name":"Malá Klajdovka","arrival_time":"20:03:00","departure_time":"20:03:00","lat":49.199045,"lon":16.662888,"is_passed":false},{"stop_id":"U1058Z2","name":"Čejkovická","arrival_time":"20:04:00","departure_time":"20:04:00","lat":49.200493,"lon":16.661793,"is_passed":false},{"stop_id":"U1036Z2","name":"Bořetická","arrival_time":"20:05:00","departure_time":"20:05:00","lat":49.201495,"lon":16.658055,"is_passed":false},{"stop_id":"U1403Z2","name":"Mutěnická","arrival_time":"20:06:00","departure_time":"20:06:00","lat":49.203951,"lon":16.654889,"is_passed":false},{"stop_id":"U1477Z2","name":"Pálavské náměstí","arrival_time":"20:07:00","departure_time":"20:07:00","lat":49.20538,"lon":16.658103,"is_passed":false},{"stop_id":"U1052Z2","name":"Bzenecká","arrival_time":"20:08:00","departure_time":"20:08:00","lat":49.205822,"lon":16.661645,"is_passed":false},{"stop_id":"U1383Z1","name":"Mikulovská","arrival_time":"20:09:00","departure_time":"20:09:00","lat":49.2055,"lon":16.665833,"is_passed":false},{"stop_id":"U1623Z1","name":"Strnadova","arrival_time":"20:10:00","departure_time":"20:10:00","lat":49.205754,"lon":16.66904,"is_passed":false},{"stop_id":"U1103Z1","name":"Elplova","arrival_time":"20:12:00","departure_time":"20:12:00","lat":49.210484,"lon":16.675106,"is_passed":false},{"stop_id":"U1157Z1","name":"Horníkova","arrival_time":"20:13:00","departure_time":"20:13:00","lat":49.212138,"lon":16.676622,"is_passed":false},{"stop_id":"U1489Z1","name":"Podbělová","arrival_time":"20:14:00","departure_time":"20:14:00","lat":49.213881,"lon":16.681661,"is_passed":false},{"stop_id":"U1392Z1","name":"Molákova","arrival_time":"20:15:00","departure_time":"20:15:00","lat":49.212873,"lon":16.686835,"is_passed":false},{"stop_id":"U1208Z4","name":"Jírova","arrival_time":"20:16:00","departure_time":"20:16:00","lat":49.209099,"lon":16.688056,"is_passed":false},{"stop_id":"U1421Z2","name":"Náměstí Karla IV.","arrival_time":"20:17:00","departure_time":"20:17:00","lat":49.206113,"lon":16.69444,"is_passed":false},{"stop_id":"U1232Z2","name":"Karolíny Světlé","arrival_time":"20:18:00","departure_time":"20:18:00","lat":49.203721,"lon":16.694074,"is_passed":false},{"stop_id":"U1406Z1","name":"Muzeum dopravy","arrival_time":"20:19:00","departure_time":"20:19:00","lat":49.201045,"lon":16.69455,"is_passed":false},{"stop_id":"U1339Z1","name":"Letecká","arrival_time":"20:20:00","departure_time":"20:20:00","lat":49.197603,"lon":16.695882,"is_passed":false},{"stop_id":"U1152Z1","name":"Holzova","arrival_time":"20:21:00","departure_time":"20:21:00","lat":49.194703,"lon":16.696956,"is_passed":false},{"stop_id":"U1356Z1","name":"Malečkova","arrival_time":"20:22:00","departure_time":"20:22:00","lat":49.18583,"lon":16.69265,"is_passed":false},{"stop_id":"U1576Z1","name":"Slatina, rozcestí","arrival_time":"20:24:00","departure_time":"20:24:00","lat":49.181647,"lon":16.691923,"is_passed":false},{"stop_id":"U1292Z2","name":"Krejčího","arrival_time":"20:25:00","departure_time":"20:25:00","lat":49.177496,"lon":16.690785,"is_passed":false},{"stop_id":"U1525Z2","name":"Přemyslovo náměstí","arrival_time":"20:25:00","departure_time":"20:25:00","lat":49.176456,"lon":16.687324,"is_passed":false},{"stop_id":"U1300Z2","name":"Křehlíkova","arrival_time":"20:26:00","departure_time":"20:26:00","lat":49.174794,"lon":16.685267,"is_passed":false},{"stop_id":"U1562Z4","name":"Řípská","arrival_time":"20:28:00","departure_time":"20:28:00","lat":49.172829,"lon":16.682244,"is_passed":false},{"stop_id":"U1581Z1","name":"Areál Slatina","arrival_time":"20:29:00","departure_time":"20:29:00","lat":49.168614,"lon":16.67804,"is_passed":false},{"stop_id":"U1772Z1","name":"Za křížem","arrival_time":"20:30:00","departure_time":"20:30:00","lat":49.15982,"lon":16.670772,"is_passed":false},{"stop_id":"U1131Z1","name":"Hanácká","arrival_time":"20:32:00","departure_time":"20:32:00","lat":49.146954,"lon":16.667509,"is_passed":false},{"stop_id":"U1186Z1","name":"Chrlická","arrival_time":"20:33:00","departure_time":"20:33:00","lat":49.144276,"lon":16.66513,"is_passed":false},{"stop_id":"U1693Z1","name":"U viaduktu","arrival_time":"20:34:00","departure_time":"20:34:00","lat":49.13875,"lon":16.659846,"is_passed":false},{"stop_id":"U1187Z3","name":"Chrlické náměstí","arrival_time":"20:35:00","departure_time":"20:35:00","lat":49.135906,"lon":16.65314,"is_passed":false},{"stop_id":"U1644Z1","name":"Šromova","arrival_time":"20:36:00","departure_time":"20:36:00","lat":49.13376,"lon":16.650299,"is_passed":false},{"stop_id":"U1781Z1","name":"Zámecká","arrival_time":"20:37:00","departure_time":"20:37:00","lat":49.132776,"lon":16.642479,"is_passed":false},{"stop_id":"U15185Z2","name":"Modřice, Decathlon","arrival_time":"20:39:00","departure_time":"20:39:00","lat":49.137598,"lon":16.637297,"is_passed":false},{"stop_id":"U15186Z2","name":"Modřice, XXXLutz","arrival_time":"20:40:00","departure_time":"20:40:00","lat":49.138934,"lon":16.637263,"is_passed":false},{"stop_id":"U15130Z3","name":"Modřice, Olympia","arrival_time":"20:45:00","departure_time":"21:36:00","lat":49.139507,"lon":16.633749,"is_passed":false}],"50104":[{"stop_id":"U15130Z2","name":"Modřice, Olympia","arrival_time":"21:36:00","departure_time":"21:36:00","lat":49.139255,"lon":16.634291,"is_passed":false},{"stop_id":"U15132Z2","name":"Modřice, Olympia jih","arrival_time":"21:37:00","departure_time":"21:37:00","lat":49.135069,"lon":16.633864,"is_passed":false},{"stop_id":"U15185Z1","name":"Modřice, Decathlon","arrival_time":"21:40:00","departure_time":"21:40:00","lat":49.137598,"lon":16.637297,"is_passed":false},{"stop_id":"U15186Z1","name":"Modřice, XXXLutz","arrival_time":"21:41:00","departure_time":"21:41:00","lat":49.138934,"lon":16.637263,"is_passed":false},{"stop_id":"U1781Z2","name":"Zámecká","arrival_time":"21:43:00","departure_time":"21:43:00","lat":49.132518,"lon":16.642875,"is_passed":false},{"stop_id":"U1644Z2","name":"Šromova","arrival_time":"21:44:00","departure_time":"21:44:00","lat":49.13398,"lon":16.651446,"is_passed":false},{"stop_id":"U1187Z4","name":"Chrlické náměstí","arrival_time":"21:45:00","departure_time":"21:45:00","lat":49.135767,"lon":16.653213,"is_passed":false},{"stop_id":"U1693Z2","name":"U viaduktu","arrival_time":"21:46:00","departure_time":"21:46:00","lat":49.139248,"lon":16.66101,"is_passed":false},{"stop_id":"U1186Z2","name":"Chrlická","arrival_time":"21:47:00","departure_time":"21:47:00","lat":49.143983,"lon":16.665097,"is_passed":false},{"stop_id":"U1131Z2","name":"Hanácká","arrival_time":"21:48:00","departure_time":"21:48:00","lat":49.146706,"lon":16.667371,"is_passed":false},{"stop_id":"U1772Z2","name":"Za křížem","arrival_time":"21:49:00","departure_time":"21:49:00","lat":49.15905,"lon":16.670815,"is_passed":false},{"stop_id":"U1581Z2","name":"Areál Slatina","arrival_time":"21:51:00","departure_time":"21:51:00","lat":49.168677,"lon":16.678416,"is_passed":false},{"stop_id":"U1562Z3","name":"Řípská","arrival_time":"21:52:00","departure_time":"21:52:00","lat":49.172528,"lon":16.682138,"is_passed":false},{"stop_id":"U1300Z1","name":"Křehlíkova","arrival_time":"21:53:00","departure_time":"21:53:00","lat":49.174839,"lon":16.685145,"is_passed":false},{"stop_id":"U1525Z1","name":"Přemyslovo náměstí","arrival_time":"21:54:00","departure_time":"21:54:00","lat":49.176289,"lon":16.687296,"is_passed":false},{"stop_id":"U1292Z1","name":"Krejčího","arrival_time":"21:55:00","departure_time":"21:55:00","lat":49.177441,"lon":16.690968,"is_passed":false},{"stop_id":"U1576Z2","name":"Slatina, rozcestí","arrival_time":"21:57:00","departure_time":"21:57:00","lat":49.183366,"lon":16.691884,"is_passed":false},{"stop_id":"U1356Z2","name":"Malečkova","arrival_time":"21:57:00","departure_time":"21:57:00","lat":49.185667,"lon":16.692678,"is_passed":false},{"stop_id":"U1152Z2","name":"Holzova","arrival_time":"21:58:00","departure_time":"21:58:00","lat":49.194897,"lon":16.696973,"is_passed":false},{"stop_id":"U1339Z2","name":"Letecká","arrival_time":"21:59:00","departure_time":"21:59:00","lat":49.197812,"lon":16.695816,"is_passed":false},{"stop_id":"U1406Z2","name":"Muzeum dopravy","arrival_time":"22:00:00","departure_time":"22:00:00","lat":49.201777,"lon":16.694455,"is_passed":false},{"stop_id":"U1421Z1","name":"Náměstí Karla IV.","arrival_time":"22:01:00","departure_time":"22:01:00","lat":49.206363,"lon":16.694621,"is_passed":false},{"stop_id":"U1384Z3","name":"Mifkova","arrival_time":"22:01:00","departure_time":"22:01:00","lat":49.20716,"lon":16.692152,"is_passed":false},{"stop_id":"U1208Z5","name":"Jírova","arrival_time":"22:03:00","departure_time":"22:03:00","lat":49.209891,"lon":16.688265,"is_passed":false},{"stop_id":"U1392Z2","name":"Molákova","arrival_time":"22:04:00","departure_time":"22:04:00","lat":49.212602,"lon":16.687063,"is_passed":false},{"stop_id":"U1489Z2","name":"Podbělová","arrival_time":"22:05:00","departure_time":"22:05:00","lat":49.214049,"lon":16.681384,"is_passed":false},{"stop_id":"U1157Z2","name":"Horníkova","arrival_time":"22:06:00","departure_time":"22:06:00","lat":49.211809,"lon":16.67649,"is_passed":false},{"stop_id":"U1103Z2","name":"Elplova","arrival_time":"22:07:00","departure_time":"22:07:00","lat":49.210409,"lon":16.674871,"is_passed":false},{"stop_id":"U1623Z2","name":"Strnadova","arrival_time":"22:08:00","departure_time":"22:08:00","lat":49.205821,"lon":16.668465,"is_passed":false},{"stop_id":"U1383Z2","name":"Mikulovská","arrival_time":"22:09:00","departure_time":"22:09:00","lat":49.206311,"lon":16.664823,"is_passed":false},{"stop_id":"U1052Z1","name":"Bzenecká","arrival_time":"22:10:00","departure_time":"22:10:00","lat":49.206117,"lon":16.660595,"is_passed":false},{"stop_id":"U1477Z3","name":"Pálavské náměstí","arrival_time":"22:11:00","departure_time":"22:11:00","lat":49.20612,"lon":16.657683,"is_passed":false},{"stop_id":"U1403Z1","name":"Mutěnická","arrival_time":"22:12:00","departure_time":"22:12:00","lat":49.20299,"lon":16.654796,"is_passed":false},{"stop_id":"U1036Z1","name":"Bořetická","arrival_time":"22:13:00","departure_time":"22:13:00","lat":49.201326,"lon":16.659292,"is_passed":false},{"stop_id":"U1058Z1","name":"Čejkovická","arrival_time":"22:14:00","departure_time":"22:14:00","lat":49.200178,"lon":16.662528,"is_passed":false},{"stop_id":"U1353Z2","name":"Malá Klajdovka","arrival_time":"22:14:00","departure_time":"22:14:00","lat":49.199214,"lon":16.662929,"is_passed":false},{"stop_id":"U1212Z4","name":"Juliánov","arrival_time":"22:15:00","departure_time":"22:15:00","lat":49.196413,"lon":16.655783,"is_passed":false},{"stop_id":"U1082Z2","name":"Dělnický dům","arrival_time":"22:16:00","departure_time":"22:16:00","lat":49.195559,"lon":16.64956,"is_passed":false},{"stop_id":"U1113Z2","name":"Gajdošova","arrival_time":"22:17:00","departure_time":"22:17:00","lat":49.198286,"lon":16.645995,"is_passed":false},{"stop_id":"U1611Z6","name":"Stará osada","arrival_time":"22:19:00","departure_time":"22:19:00","lat":49.201731,"lon":16.642184,"is_passed":false},{"stop_id":"U1809Z1","name":"Židenice, nádraží","arrival_time":"22:21:00","departure_time":"22:23:00","lat":49.20162,"lon":16.635716,"is_passed":false}],"50105":[{"stop_id":"U1208Z5","name":"Jírova","arrival_time":"5:05:00","departure_time":"5:05:00","lat":49.209891,"lon":16.688265,"is_passed":false},{"stop_id":"U1392Z2","name":"Molákova","arrival_time":"5:05:00","departure_time":"5:05:00","lat":49.212602,"lon":16.687063,"is_passed":false},{"stop_id":"U1489Z2","name":"Podbělová","arrival_time":"5:06:00","departure_time":"5:06:00","lat":49.214049,"lon":16.681384,"is_passed":false},{"stop_id":"U1157Z2","name":"Horníkova","arrival_time":"5:07:00","departure_time":"5:07:00","lat":49.211809,"lon":16.67649,"is_passed":false},{"stop_id":"U1103Z2","name":"Elplova","arrival_time":"5:08:00","departure_time":"5:08:00","lat":49.210409,"lon":16.674871,"is_passed":false},{"stop_id":"U1623Z2","name":"Strnadova","arrival_time":"5:09:00","departure_time":"5:09:00","lat":49.205821,"lon":16.668465,"is_passed":false},{"stop_id":"U1551Z2","name":"Růženin dvůr","arrival_time":"5:10:00","departure_time":"5:10:00","lat":49.203263,"lon":16.666525,"is_passed":false},{"stop_id":"U1026Z4","name":"Bílá hora","arrival_time":"5:12:00","departure_time":"5:12:00","lat":49.193975,"lon":16.667677,"is_passed":false},{"stop_id":"U1018Z4","name":"Bělohorská","arrival_time":"5:14:00","departure_time":"5:14:00","lat":49.189904,"lon":16.662135,"is_passed":false},{"stop_id":"U1642Z2","name":"Špačkova","arrival_time":"5:14:00","departure_time":"5:14:00","lat":49.190815,"lon":16.659552,"is_passed":false},{"stop_id":"U1496Z2","name":"Podlomní","arrival_time":"5:15:00","departure_time":"5:15:00","lat":49.192497,"lon":16.654989,"is_passed":false},{"stop_id":"U1082Z2","name":"Dělnický dům","arrival_time":"5:16:00","departure_time":"5:16:00","lat":49.195559,"lon":16.64956,"is_passed":false},{"stop_id":"U1473Z2","name":"Otakara Ševčíka","arrival_time":"5:17:00","departure_time":"5:17:00","lat":49.195268,"lon":16.645381,"is_passed":false},{"stop_id":"U1048Z2","name":"Buzkova","arrival_time":"5:18:00","departure_time":"5:18:00","lat":49.19414,"lon":16.641027,"is_passed":false},{"stop_id":"U1116Z2","name":"Geislerova","arrival_time":"5:19:00","departure_time":"5:19:00","lat":49.192754,"lon":16.634757,"is_passed":false},{"stop_id":"U1814Z2","name":"Životského","arrival_time":"5:20:00","departure_time":"5:20:00","lat":49.190687,"lon":16.633889,"is_passed":false},{"stop_id":"U1372Z2","name":"Masná","arrival_time":"5:21:00","departure_time":"5:21:00","lat":49.191283,"lon":16.6245,"is_passed":false},{"stop_id":"U1746Z2","name":"Vlhká","arrival_time":"5:22:00","departure_time":"5:22:00","lat":49.191852,"lon":16.619157,"is_passed":false},{"stop_id":"U1146Z1","name":"Hlavní nádraží","arrival_time":"5:25:00","departure_time":"5:30:00","lat":49.191185,"lon":16.611879,"is_passed":false},{"stop_id":"U1176Z1","name":"Hybešova","arrival_time":"5:31:00","departure_time":"5:31:00","lat":49.189322,"lon":16.602863,"is_passed":false},{"stop_id":"U1721Z1","name":"Václavská","arrival_time":"5:32:00","departure_time":"5:32:00","lat":49.188681,"lon":16.597217,"is_passed":false},{"stop_id":"U1378Z9","name":"Mendlovo náměstí","arrival_time":"5:34:00","departure_time":"5:34:00","lat":49.190456,"lon":16.593122,"is_passed":false},{"stop_id":"U1307Z2","name":"Křížkovského","arrival_time":"5:35:00","departure_time":"5:35:00","lat":49.18713,"lon":16.58669,"is_passed":false},{"stop_id":"U1728Z2","name":"Velodrom","arrival_time":"5:36:00","departure_time":"5:36:00","lat":49.184406,"lon":16.576944,"is_passed":false},{"stop_id":"U1541Z2","name":"Riviéra","arrival_time":"5:37:00","departure_time":"5:37:00","lat":49.187764,"lon":16.572566,"is_passed":false},{"stop_id":"U1487Z7","name":"Pisárky","arrival_time":"5:38:00","departure_time":"5:38:00","lat":49.193452,"lon":16.569802,"is_passed":false},{"stop_id":"U1007Z1","name":"Anthropos","arrival_time":"5:40:00","departure_time":"5:40:00","lat":49.193461,"lon":16.565902,"is_passed":false},{"stop_id":"U1490Z1","name":"Pod Jurankou","arrival_time":"5:41:00","departure_time":"5:41:00","lat":49.199371,"lon":16.566405,"is_passed":false},{"stop_id":"U1732Z1","name":"Veslařská","arrival_time":"5:41:00","departure_time":"5:41:00","lat":49.202697,"lon":16.565265,"is_passed":false},{"stop_id":"U1216Z1","name":"Jundrov, hřiště","arrival_time":"5:42:00","departure_time":"5:42:00","lat":49.204651,"lon":16.560232,"is_passed":false},{"stop_id":"U1214Z1","name":"Jundrovský most","arrival_time":"5:43:00","departure_time":"5:43:00","lat":49.209437,"lon":16.556755,"is_passed":false},{"stop_id":"U1215Z1","name":"Jundrovská","arrival_time":"5:44:00","departure_time":"5:44:00","lat":49.211867,"lon":16.560093,"is_passed":false},{"stop_id":"U1633Z5","name":"Svratecká","arrival_time":"5:48:00","departure_time":"5:48:00","lat":49.218278,"lon":16.552802,"is_passed":false},{"stop_id":"U1796Z3","name":"Zoologická zahrada","arrival_time":"5:51:00","departure_time":"5:51:00","lat":49.228465,"lon":16.531116,"is_passed":false},{"stop_id":"U1527Z3","name":"Přístaviště","arrival_time":"5:52:00","departure_time":"5:52:00","lat":49.228139,"lon":16.522365,"is_passed":false},{"stop_id":"U1537Z3","name":"Rakovecká","arrival_time":"5:53:00","departure_time":"5:53:00","lat":49.225834,"lon":16.518322,"is_passed":false},{"stop_id":"U1312Z5","name":"Kubíčkova","arrival_time":"5:54:00","departure_time":"5:54:00","lat":49.221996,"lon":16.519339,"is_passed":false},{"stop_id":"U1461Z3","name":"Ondrouškova","arrival_time":"5:55:00","departure_time":"5:55:00","lat":49.217721,"lon":16.517208,"is_passed":false},{"stop_id":"U1102Z3","name":"Ečerova","arrival_time":"5:57:00","departure_time":"5:57:00","lat":49.218746,"lon":16.50885,"is_passed":false},{"stop_id":"U1550Z1","name":"Ruda","arrival_time":"5:58:00","departure_time":"5:58:00","lat":49.220738,"lon":16.503998,"is_passed":false},{"stop_id":"U1559Z1","name":"Říčanská","arrival_time":"5:59:00","departure_time":"5:59:00","lat":49.218679,"lon":16.497368,"is_passed":false},{"stop_id":"U1230Z1","name":"Kavčí","arrival_time":"6:00:00","departure_time":"6:00:00","lat":49.216417,"lon":16.501128,"is_passed":false},{"stop_id":"U1185Z1","name":"Chvalovka","arrival_time":"6:00:00","departure_time":"6:00:00","lat":49.214783,"lon":16.499512,"is_passed":false},{"stop_id":"U1221Z1","name":"Kamechy","arrival_time":"6:01:00","departure_time":"6:01:00","lat":49.216243,"lon":16.493973,"is_passed":false},{"stop_id":"U1802Z1","name":"Žebětínský rybník","arrival_time":"6:02:00","departure_time":"6:02:00","lat":49.215096,"lon":16.49364,"is_passed":false},{"stop_id":"U1096Z1","name":"Drdy","arrival_time":"6:03:00","departure_time":"6:03:00","lat":49.209636,"lon":16.492567,"is_passed":false},{"stop_id":"U1302Z1","name":"Křivánkovo náměstí","arrival_time":"6:04:00","departure_time":"6:04:00","lat":49.20718,"lon":16.487513,"is_passed":false},{"stop_id":"U1800Z1","name":"Žebětín, hřbitov","arrival_time":"6:05:00","departure_time":"6:05:00","lat":49.204634,"lon":16.487304,"is_passed":false},{"stop_id":"U1015Z1","name":"Bartolomějská","arrival_time":"6:06:00","departure_time":"6:18:00","lat":49.20362,"lon":16.489502,"is_passed":false}],"50106":[{"stop_id":"U1015Z2","name":"Bartolomějská","arrival_time":"6:18:00","departure_time":"6:18:00","lat":49.203579,"lon":16.489347,"is_passed":false},{"stop_id":"U1302Z2","name":"Křivánkovo náměstí","arrival_time":"6:19:00","departure_time":"6:19:00","lat":49.20688,"lon":16.4876,"is_passed":false},{"stop_id":"U1096Z2","name":"Drdy","arrival_time":"6:20:00","departure_time":"6:20:00","lat":49.209191,"lon":16.492285,"is_passed":false},{"stop_id":"U1802Z2","name":"Žebětínský rybník","arrival_time":"6:20:00","departure_time":"6:20:00","lat":49.215544,"lon":16.493531,"is_passed":false},{"stop_id":"U1221Z2","name":"Kamechy","arrival_time":"6:21:00","departure_time":"6:21:00","lat":49.214794,"lon":16.49742,"is_passed":false},{"stop_id":"U1185Z2","name":"Chvalovka","arrival_time":"6:21:00","departure_time":"6:21:00","lat":49.21492,"lon":16.500086,"is_passed":false},{"stop_id":"U1230Z2","name":"Kavčí","arrival_time":"6:22:00","departure_time":"6:22:00","lat":49.216872,"lon":16.500241,"is_passed":false},{"stop_id":"U1559Z2","name":"Říčanská","arrival_time":"6:23:00","departure_time":"6:23:00","lat":49.218456,"lon":16.497582,"is_passed":false},{"stop_id":"U1550Z2","name":"Ruda","arrival_time":"6:24:00","departure_time":"6:24:00","lat":49.220473,"lon":16.502554,"is_passed":false},{"stop_id":"U1102Z4","name":"Ečerova","arrival_time":"6:26:00","departure_time":"6:27:00","lat":49.218044,"lon":16.509781,"is_passed":false},{"stop_id":"U1461Z4","name":"Ondrouškova","arrival_time":"6:28:00","departure_time":"6:28:00","lat":49.217906,"lon":16.518033,"is_passed":false},{"stop_id":"U1312Z6","name":"Kubíčkova","arrival_time":"6:29:00","departure_time":"6:29:00","lat":49.22159,"lon":16.519454,"is_passed":false},{"stop_id":"U1537Z4","name":"Rakovecká","arrival_time":"6:30:00","departure_time":"6:30:00","lat":49.226308,"lon":16.518652,"is_passed":false},{"stop_id":"U1527Z4","name":"Přístaviště","arrival_time":"6:31:00","departure_time":"6:31:00","lat":49.228127,"lon":16.522637,"is_passed":false},{"stop_id":"U1796Z4","name":"Zoologická zahrada","arrival_time":"6:32:00","departure_time":"6:32:00","lat":49.227471,"lon":16.531889,"is_passed":false},{"stop_id":"U1633Z6","name":"Svratecká","arrival_time":"6:36:00","departure_time":"6:36:00","lat":49.21759,"lon":16.553789,"is_passed":false},{"stop_id":"U1215Z2","name":"Jundrovská","arrival_time":"6:37:00","departure_time":"6:37:00","lat":49.211911,"lon":16.560194,"is_passed":false},{"stop_id":"U1214Z2","name":"Jundrovský most","arrival_time":"6:37:00","departure_time":"6:37:00","lat":49.210699,"lon":16.558163,"is_passed":false},{"stop_id":"U1462Z4","name":"Optátova","arrival_time":"6:38:00","departure_time":"6:38:00","lat":49.208328,"lon":16.555591,"is_passed":false},{"stop_id":"U1216Z2","name":"Jundrov, hřiště","arrival_time":"6:39:00","departure_time":"6:39:00","lat":49.204674,"lon":16.56001,"is_passed":false},{"stop_id":"U1732Z2","name":"Veslařská","arrival_time":"6:40:00","departure_time":"6:40:00","lat":49.20282,"lon":16.564736,"is_passed":false},{"stop_id":"U1490Z2","name":"Pod Jurankou","arrival_time":"6:41:00","departure_time":"6:41:00","lat":49.198955,"lon":16.566182,"is_passed":false},{"stop_id":"U1007Z4","name":"Anthropos","arrival_time":"6:44:00","departure_time":"6:44:00","lat":49.193356,"lon":16.56677,"is_passed":false},{"stop_id":"U1487Z8","name":"Pisárky","arrival_time":"6:45:00","departure_time":"6:45:00","lat":49.193578,"lon":16.569575,"is_passed":false},{"stop_id":"U1541Z1","name":"Riviéra","arrival_time":"6:46:00","departure_time":"6:46:00","lat":49.187168,"lon":16.571915,"is_passed":false},{"stop_id":"U1728Z1","name":"Velodrom","arrival_time":"6:47:00","departure_time":"6:47:00","lat":49.18551,"lon":16.586723,"is_passed":false},{"stop_id":"U1307Z1","name":"Křížkovského","arrival_time":"6:48:00","departure_time":"6:48:00","lat":49.187627,"lon":16.587682,"is_passed":false},{"stop_id":"U1378Z8","name":"Mendlovo náměstí","arrival_time":"6:49:00","departure_time":"6:49:00","lat":49.189768,"lon":16.593426,"is_passed":false},{"stop_id":"U1721Z2","name":"Václavská","arrival_time":"6:50:00","departure_time":"6:50:00","lat":49.188715,"lon":16.596878,"is_passed":false},{"stop_id":"U1176Z2","name":"Hybešova","arrival_time":"6:51:00","departure_time":"6:51:00","lat":49.189209,"lon":16.603364,"is_passed":false},{"stop_id":"U1146Z4","name":"Hlavní nádraží","arrival_time":"6:54:00","departure_time":"7:00:00","lat":49.19125,"lon":16.612674,"is_passed":false},{"stop_id":"U1746Z1","name":"Vlhká","arrival_time":"7:01:00","departure_time":"7:01:00","lat":49.191847,"lon":16.618976,"is_passed":false},{"stop_id":"U1372Z1","name":"Masná","arrival_time":"7:02:00","departure_time":"7:02:00","lat":49.191244,"lon":16.625642,"is_passed":false},{"stop_id":"U1814Z1","name":"Životského","arrival_time":"7:03:00","departure_time":"7:03:00","lat":49.191036,"lon":16.633968,"is_passed":false},{"stop_id":"U1116Z1","name":"Geislerova","arrival_time":"7:04:00","departure_time":"7:04:00","lat":49.19278,"lon":16.635345,"is_passed":false},{"stop_id":"U1048Z1","name":"Buzkova","arrival_time":"7:05:00","departure_time":"7:05:00","lat":49.194159,"lon":16.641228,"is_passed":false},{"stop_id":"U1473Z1","name":"Otakara Ševčíka","arrival_time":"7:06:00","departure_time":"7:06:00","lat":49.19523,"lon":16.645949,"is_passed":false},{"stop_id":"U1082Z1","name":"Dělnický dům","arrival_time":"7:07:00","departure_time":"7:07:00","lat":49.195559,"lon":16.650177,"is_passed":false},{"stop_id":"U1496Z1","name":"Podlomní","arrival_time":"7:08:00","departure_time":"7:08:00","lat":49.192252,"lon":16.655367,"is_passed":false},{"stop_id":"U1642Z1","name":"Špačkova","arrival_time":"7:08:00","departure_time":"7:08:00","lat":49.190929,"lon":16.658793,"is_passed":false},{"stop_id":"U1018Z6","name":"Bělohorská","arrival_time":"7:09:00","departure_time":"7:09:00","lat":49.189603,"lon":16.662473,"is_passed":false},{"stop_id":"U1026Z3","name":"Bílá hora","arrival_time":"7:10:00","departure_time":"7:10:00","lat":49.194009,"lon":16.668034,"is_passed":false},{"stop_id":"U1551Z1","name":"Růženin dvůr","arrival_time":"7:12:00","departure_time":"7:12:00","lat":49.203651,"lon":16.666867,"is_passed":false},{"stop_id":"U1623Z1","name":"Strnadova","arrival_time":"7:13:00","departure_time":"7:13:00","lat":49.205754,"lon":16.66904,"is_passed":false},{"stop_id":"U1103Z1","name":"Elplova","arrival_time":"7:14:00","departure_time":"7:14:00","lat":49.210484,"lon":16.675106,"is_passed":false},{"stop_id":"U1157Z1","name":"Horníkova","arrival_time":"7:15:00","departure_time":"7:15:00","lat":49.212138,"lon":16.676622,"is_passed":false},{"stop_id":"U1489Z1","name":"Podbělová","arrival_time":"7:16:00","departure_time":"7:16:00","lat":49.213881,"lon":16.681661,"is_passed":false},{"stop_id":"U1392Z1","name":"Molákova","arrival_time":"7:17:00","departure_time":"7:17:00","lat":49.212873,"lon":16.686835,"is_passed":false},{"stop_id":"U1208Z4","name":"Jírova","arrival_time":"7:19:00","departure_time":"7:19:00","lat":49.209099,"lon":16.688056,"is_passed":false},{"stop_id":"U1421Z3","name":"Náměstí Karla IV.","arrival_time":"7:20:00","departure_time":"7:20:00","lat":49.206713,"lon":16.694241,"is_passed":false},{"stop_id":"U1350Z1","name":"Macháčkova","arrival_time":"7:21:00","departure_time":"7:21:00","lat":49.206052,"lon":16.70193,"is_passed":false},{"stop_id":"U1726Z1","name":"Velatická","arrival_time":"7:22:00","departure_time":"7:22:00","lat":49.204129,"lon":16.708116,"is_passed":false},{"stop_id":"U1497Z1","name":"Podolská","arrival_time":"7:23:00","departure_time":"7:23:00","lat":49.203029,"lon":16.714223,"is_passed":false},{"stop_id":"U1362Z1","name":"Mariánské údolí","arrival_time":"7:24:00","departure_time":"7:24:00","lat":49.203331,"lon":16.716449,"is_passed":false}],"50107":[{"stop_id":"U1362Z2","name":"Mariánské údolí","arrival_time":"7:44:00","departure_time":"7:44:00","lat":49.20332,"lon":16.71587,"is_passed":false},{"stop_id":"U1497Z2","name":"Podolská","arrival_time":"7:44:00","departure_time":"7:44:00","lat":49.20311,"lon":16.713363,"is_passed":false},{"stop_id":"U1726Z2","name":"Velatická","arrival_time":"7:45:00","departure_time":"7:45:00","lat":49.204666,"lon":16.707253,"is_passed":false},{"stop_id":"U1350Z2","name":"Macháčkova","arrival_time":"7:46:00","departure_time":"7:46:00","lat":49.206174,"lon":16.701931,"is_passed":false},{"stop_id":"U1421Z4","name":"Náměstí Karla IV.","arrival_time":"7:47:00","departure_time":"7:47:00","lat":49.206991,"lon":16.695508,"is_passed":false},{"stop_id":"U1384Z3","name":"Mifkova","arrival_time":"7:47:00","departure_time":"7:47:00","lat":49.20716,"lon":16.692152,"is_passed":false},{"stop_id":"U1208Z5","name":"Jírova","arrival_time":"7:49:00","departure_time":"7:49:00","lat":49.209891,"lon":16.688265,"is_passed":false},{"stop_id":"U1392Z2","name":"Molákova","arrival_time":"7:50:00","departure_time":"7:50:00","lat":49.212602,"lon":16.687063,"is_passed":false},{"stop_id":"U1489Z2","name":"Podbělová","arrival_time":"7:51:00","departure_time":"7:51:00","lat":49.214049,"lon":16.681384,"is_passed":false},{"stop_id":"U1157Z2","name":"Horníkova","arrival_time":"7:52:00","departure_time":"7:52:00","lat":49.211809,"lon":16.67649,"is_passed":false},{"stop_id":"U1103Z2","name":"Elplova","arrival_time":"7:53:00","departure_time":"7:53:00","lat":49.210409,"lon":16.674871,"is_passed":false},{"stop_id":"U1623Z2","name":"Strnadova","arrival_time":"7:54:00","departure_time":"7:54:00","lat":49.205821,"lon":16.668465,"is_passed":false},{"stop_id":"U1551Z2","name":"Růženin dvůr","arrival_time":"7:56:00","departure_time":"7:56:00","lat":49.203263,"lon":16.666525,"is_passed":false},{"stop_id":"U1026Z4","name":"Bílá hora","arrival_time":"7:57:00","departure_time":"7:57:00","lat":49.193975,"lon":16.667677,"is_passed":false},{"stop_id":"U1018Z4","name":"Bělohorská","arrival_time":"7:59:00","departure_time":"7:59:00","lat":49.189904,"lon":16.662135,"is_passed":false},{"stop_id":"U1642Z2","name":"Špačkova","arrival_time":"7:59:00","departure_time":"7:59:00","lat":49.190815,"lon":16.659552,"is_passed":false},{"stop_id":"U1496Z2","name":"Podlomní","arrival_time":"8:00:00","departure_time":"8:00:00","lat":49.192497,"lon":16.654989,"is_passed":false},{"stop_id":"U1082Z2","name":"Dělnický dům","arrival_time":"8:01:00","departure_time":"8:01:00","lat":49.195559,"lon":16.64956,"is_passed":false},{"stop_id":"U1113Z2","name":"Gajdošova","arrival_time":"8:02:00","departure_time":"8:02:00","lat":49.198286,"lon":16.645995,"is_passed":false},{"stop_id":"U1611Z6","name":"Stará osada","arrival_time":"8:04:00","departure_time":"8:04:00","lat":49.201731,"lon":16.642184,"is_passed":false},{"stop_id":"U1809Z1","name":"Židenice, nádraží","arrival_time":"8:06:00","departure_time":"8:12:00","lat":49.20162,"lon":16.635716,"is_passed":false}],"50108":[{"stop_id":"U1809Z3","name":"Židenice, nádraží","arrival_time":"8:12:00","departure_time":"8:12:00","lat":49.203338,"lon":16.636772,"is_passed":false},{"stop_id":"U1611Z8","name":"Stará osada","arrival_time":"8:14:00","departure_time":"8:14:00","lat":49.202294,"lon":16.642001,"is_passed":false},{"stop_id":"U1113Z1","name":"Gajdošova","arrival_time":"8:15:00","departure_time":"8:15:00","lat":49.19868,"lon":16.645552,"is_passed":false},{"stop_id":"U1082Z1","name":"Dělnický dům","arrival_time":"8:17:00","departure_time":"8:17:00","lat":49.195559,"lon":16.650177,"is_passed":false},{"stop_id":"U1496Z1","name":"Podlomní","arrival_time":"8:18:00","departure_time":"8:18:00","lat":49.192252,"lon":16.655367,"is_passed":false},{"stop_id":"U1642Z1","name":"Špačkova","arrival_time":"8:19:00","departure_time":"8:19:00","lat":49.190929,"lon":16.658793,"is_passed":false},{"stop_id":"U1018Z6","name":"Bělohorská","arrival_time":"8:20:00","departure_time":"8:20:00","lat":49.189603,"lon":16.662473,"is_passed":false},{"stop_id":"U1026Z3","name":"Bílá hora","arrival_time":"8:21:00","departure_time":"8:21:00","lat":49.194009,"lon":16.668034,"is_passed":false},{"stop_id":"U1551Z1","name":"Růženin dvůr","arrival_time":"8:23:00","departure_time":"8:23:00","lat":49.203651,"lon":16.666867,"is_passed":false},{"stop_id":"U1623Z1","name":"Strnadova","arrival_time":"8:24:00","departure_time":"8:24:00","lat":49.205754,"lon":16.66904,"is_passed":false},{"stop_id":"U1103Z1","name":"Elplova","arrival_time":"8:26:00","departure_time":"8:26:00","lat":49.210484,"lon":16.675106,"is_passed":false},{"stop_id":"U1157Z1","name":"Horníkova","arrival_time":"8:27:00","departure_time":"8:27:00","lat":49.212138,"lon":16.676622,"is_passed":false},{"stop_id":"U1489Z1","name":"Podbělová","arrival_time":"8:28:00","departure_time":"8:28:00","lat":49.213881,"lon":16.681661,"is_passed":false},{"stop_id":"U1392Z1","name":"Molákova","arrival_time":"8:29:00","departure_time":"8:29:00","lat":49.212873,"lon":16.686835,"is_passed":false},{"stop_id":"U1208Z4","name":"Jírova","arrival_time":"8:30:00","departure_time":"8:30:00","lat":49.209099,"lon":16.688056,"is_passed":false},{"stop_id":"U1421Z3","name":"Náměstí Karla IV.","arrival_time":"8:31:00","departure_time":"8:31:00","lat":49.206713,"lon":16.694241,"is_passed":false},{"stop_id":"U1350Z1","name":"Macháčkova","arrival_time":"8:32:00","departure_time":"8:32:00","lat":49.206052,"lon":16.70193,"is_passed":false},{"stop_id":"U1726Z1","name":"Velatická","arrival_time":"8:33:00","departure_time":"8:33:00","lat":49.204129,"lon":16.708116,"is_passed":false},{"stop_id":"U1497Z1","name":"Podolská","arrival_time":"8:34:00","departure_time":"8:34:00","lat":49.203029,"lon":16.714223,"is_passed":false},{"stop_id":"U1362Z1","name":"Mariánské údolí","arrival_time":"8:36:00","departure_time":"9:01:00","lat":49.203331,"lon":16.716449,"is_passed":false}],"50109":[{"stop_id":"U1362Z2","name":"Mariánské údolí","arrival_time":"9:01:00","departure_time":"9:01:00","lat":49.20332,"lon":16.71587,"is_passed":false},{"stop_id":"U1497Z2","name":"Podolská","arrival_time":"9:01:00","departure_time":"9:01:00","lat":49.20311,"lon":16.713363,"is_passed":false},{"stop_id":"U1726Z2","name":"Velatická","arrival_time":"9:02:00","departure_time":"9:02:00","lat":49.204666,"lon":16.707253,"is_passed":false},{"stop_id":"U1350Z2","name":"Macháčkova","arrival_time":"9:03:00","departure_time":"9:03:00","lat":49.206174,"lon":16.701931,"is_passed":false},{"stop_id":"U1421Z4","name":"Náměstí Karla IV.","arrival_time":"9:04:00","departure_time":"9:04:00","lat":49.206991,"lon":16.695508,"is_passed":false},{"stop_id":"U1384Z3","name":"Mifkova","arrival_time":"9:05:00","departure_time":"9:05:00","lat":49.20716,"lon":16.692152,"is_passed":false},{"stop_id":"U1208Z5","name":"Jírova","arrival_time":"9:07:00","departure_time":"9:07:00","lat":49.209891,"lon":16.688265,"is_passed":false},{"stop_id":"U1392Z2","name":"Molákova","arrival_time":"9:08:00","departure_time":"9:08:00","lat":49.212602,"lon":16.687063,"is_passed":false},{"stop_id":"U1489Z2","name":"Podbělová","arrival_time":"9:09:00","departure_time":"9:09:00","lat":49.214049,"lon":16.681384,"is_passed":false},{"stop_id":"U1157Z2","name":"Horníkova","arrival_time":"9:10:00","departure_time":"9:10:00","lat":49.211809,"lon":16.67649,"is_passed":false},{"stop_id":"U1103Z2","name":"Elplova","arrival_time":"9:11:00","departure_time":"9:11:00","lat":49.210409,"lon":16.674871,"is_passed":false},{"stop_id":"U1623Z2","name":"Strnadova","arrival_time":"9:12:00","departure_time":"9:12:00","lat":49.205821,"lon":16.668465,"is_passed":false},{"stop_id":"U1551Z2","name":"Růženin dvůr","arrival_time":"9:14:00","departure_time":"9:14:00","lat":49.203263,"lon":16.666525,"is_passed":false},{"stop_id":"U1026Z4","name":"Bílá hora","arrival_time":"9:15:00","departure_time":"9:15:00","lat":49.193975,"lon":16.667677,"is_passed":false},{"stop_id":"U1018Z4","name":"Bělohorská","arrival_time":"9:17:00","departure_time":"9:17:00","lat":49.189904,"lon":16.662135,"is_passed":false},{"stop_id":"U1642Z2","name":"Špačkova","arrival_time":"9:18:00","departure_time":"9:18:00","lat":49.190815,"lon":16.659552,"is_passed":false},{"stop_id":"U1496Z2","name":"Podlomní","arrival_time":"9:19:00","departure_time":"9:19:00","lat":49.192497,"lon":16.654989,"is_passed":false},{"stop_id":"U1082Z2","name":"Dělnický dům","arrival_time":"9:20:00","departure_time":"9:20:00","lat":49.195559,"lon":16.64956,"is_passed":false},{"stop_id":"U1113Z2","name":"Gajdošova","arrival_time":"9:21:00","departure_time":"9:21:00","lat":49.198286,"lon":16.645995,"is_passed":false},{"stop_id":"U1611Z6","name":"Stará osada","arrival_time":"9:23:00","departure_time":"9:23:00","lat":49.201731,"lon":16.642184,"is_passed":false},{"stop_id":"U1809Z1","name":"Židenice, nádraží","arrival_time":"9:25:00","departure_time":"9:25:00","lat":49.20162,"lon":16.635716,"is_passed":false}],"50110":[{"stop_id":"U1809Z3","name":"Židenice, nádraží","arrival_time":"9:35:00","departure_time":"9:35:00","lat":49.203338,"lon":16.636772,"is_passed":false},{"stop_id":"U1611Z8","name":"Stará osada","arrival_time":"9:38:00","departure_time":"9:38:00","lat":49.202294,"lon":16.642001,"is_passed":false},{"stop_id":"U1113Z1","name":"Gajdošova","arrival_time":"9:39:00","departure_time":"9:39:00","lat":49.19868,"lon":16.645552,"is_passed":false},{"stop_id":"U1082Z1","name":"Dělnický dům","arrival_time":"9:41:00","departure_time":"9:41:00","lat":49.195559,"lon":16.650177,"is_passed":false},{"stop_id":"U1212Z3","name":"Juliánov","arrival_time":"9:42:00","departure_time":"9:42:00","lat":49.196124,"lon":16.654392,"is_passed":false},{"stop_id":"U1353Z1","name":"Malá Klajdovka","arrival_time":"9:43:00","departure_time":"9:43:00","lat":49.199045,"lon":16.662888,"is_passed":false},{"stop_id":"U1058Z2","name":"Čejkovická","arrival_time":"9:44:00","departure_time":"9:44:00","lat":49.200493,"lon":16.661793,"is_passed":false},{"stop_id":"U1036Z2","name":"Bořetická","arrival_time":"9:45:00","departure_time":"9:45:00","lat":49.201495,"lon":16.658055,"is_passed":false},{"stop_id":"U1403Z2","name":"Mutěnická","arrival_time":"9:46:00","departure_time":"9:46:00","lat":49.203951,"lon":16.654889,"is_passed":false},{"stop_id":"U1477Z2","name":"Pálavské náměstí","arrival_time":"9:47:00","departure_time":"9:47:00","lat":49.20538,"lon":16.658103,"is_passed":false},{"stop_id":"U1052Z2","name":"Bzenecká","arrival_time":"9:48:00","departure_time":"9:48:00","lat":49.205822,"lon":16.661645,"is_passed":false},{"stop_id":"U1383Z1","name":"Mikulovská","arrival_time":"9:49:00","departure_time":"9:49:00","lat":49.2055,"lon":16.665833,"is_passed":false},{"stop_id":"U1623Z1","name":"Strnadova","arrival_time":"9:50:00","departure_time":"9:50:00","lat":49.205754,"lon":16.66904,"is_passed":false},{"stop_id":"U1103Z1","name":"Elplova","arrival_time":"9:52:00","departure_time":"9:52:00","lat":49.210484,"lon":16.675106,"is_passed":false},{"stop_id":"U1157Z1","name":"Horníkova","arrival_time":"9:53:00","departure_time":"9:53:00","lat":49.212138,"lon":16.676622,"is_passed":false},{"stop_id":"U1489Z1","name":"Podbělová","arrival_time":"9:54:00","departure_time":"9:54:00","lat":49.213881,"lon":16.681661,"is_passed":false},{"stop_id":"U1392Z1","name":"Molákova","arrival_time":"9:55:00","departure_time":"9:55:00","lat":49.212873,"lon":16.686835,"is_passed":false},{"stop_id":"U1208Z4","name":"Jírova","arrival_time":"9:56:00","departure_time":"9:56:00","lat":49.209099,"lon":16.688056,"is_passed":false},{"stop_id":"U1421Z2","name":"Náměstí Karla IV.","arrival_time":"9:57:00","departure_time":"9:57:00","lat":49.206113,"lon":16.69444,"is_passed":false},{"stop_id":"U1232Z2","name":"Karolíny Světlé","arrival_time":"9:58:00","departure_time":"9:58:00","lat":49.203721,"lon":16.694074,"is_passed":false},{"stop_id":"U1406Z1","name":"Muzeum dopravy","arrival_time":"9:59:00","departure_time":"9:59:00","lat":49.201045,"lon":16.69455,"is_passed":false},{"stop_id":"U1339Z1","name":"Letecká","arrival_time":"10:00:00","departure_time":"10:00:00","lat":49.197603,"lon":16.695882,"is_passed":false},{"stop_id":"U1152Z1","name":"Holzova","arrival_time":"10:01:00","departure_time":"10:01:00","lat":49.194703,"lon":16.696956,"is_passed":false},{"stop_id":"U1356Z1","name":"Malečkova","arrival_time":"10:02:00","departure_time":"10:02:00","lat":49.18583,"lon":16.69265,"is_passed":false},{"stop_id":"U1576Z1","name":"Slatina, rozcestí","arrival_time":"10:04:00","departure_time":"10:04:00","lat":49.181647,"lon":16.691923,"is_passed":false},{"stop_id":"U1292Z2","name":"Krejčího","arrival_time":"10:05:00","departure_time":"10:05:00","lat":49.177496,"lon":16.690785,"is_passed":false},{"stop_id":"U1525Z2","name":"Přemyslovo náměstí","arrival_time":"10:05:00","departure_time":"10:05:00","lat":49.176456,"lon":16.687324,"is_passed":false},{"stop_id":"U1300Z2","name":"Křehlíkova","arrival_time":"10:06:00","departure_time":"10:06:00","lat":49.174794,"lon":16.685267,"is_passed":false},{"stop_id":"U1562Z4","name":"Řípská","arrival_time":"10:08:00","departure_time":"10:08:00","lat":49.172829,"lon":16.682244,"is_passed":false},{"stop_id":"U1581Z1","name":"Areál Slatina","arrival_time":"10:09:00","departure_time":"10:09:00","lat":49.168614,"lon":16.67804,"is_passed":false},{"stop_id":"U1772Z1","name":"Za křížem","arrival_time":"10:10:00","departure_time":"10:10:00","lat":49.15982,"lon":16.670772,"is_passed":false},{"stop_id":"U1131Z1","name":"Hanácká","arrival_time":"10:12:00","departure_time":"10:12:00","lat":49.146954,"lon":16.667509,"is_passed":false},{"stop_id":"U1186Z1","name":"Chrlická","arrival_time":"10:13:00","departure_time":"10:13:00","lat":49.144276,"lon":16.66513,"is_passed":false},{"stop_id":"U1693Z1","name":"U viaduktu","arrival_time":"10:14:00","departure_time":"10:14:00","lat":49.13875,"lon":16.659846,"is_passed":false},{"stop_id":"U1187Z3","name":"Chrlické náměstí","arrival_time":"10:15:00","departure_time":"10:15:00","lat":49.135906,"lon":16.65314,"is_passed":false},{"stop_id":"U1644Z1","name":"Šromova","arrival_time":"10:16:00","departure_time":"10:16:00","lat":49.13376,"lon":16.650299,"is_passed":false},{"stop_id":"U1781Z1","name":"Zámecká","arrival_time":"10:17:00","departure_time":"10:17:00","lat":49.132776,"lon":16.642479,"is_passed":false},{"stop_id":"U15185Z2","name":"Modřice, Decathlon","arrival_time":"10:19:00","departure_time":"10:19:00","lat":49.137598,"lon":16.637297,"is_passed":false},{"stop_id":"U15186Z2","name":"Modřice, XXXLutz","arrival_time":"10:20:00","departure_time":"10:20:00","lat":49.138934,"lon":16.637263,"is_passed":false},{"stop_id":"U15130Z3","name":"Modřice, Olympia","arrival_time":"10:25:00","departure_time":"11:06:00","lat":49.139507,"lon":16.633749,"is_passed":false}],"50111":[{"stop_id":"U15130Z2","name":"Modřice, Olympia","arrival_time":"11:06:00","departure_time":"11:06:00","lat":49.139255,"lon":16.634291,"is_passed":false},{"stop_id":"U15132Z2","name":"Modřice, Olympia jih","arrival_time":"11:07:00","departure_time":"11:07:00","lat":49.135069,"lon":16.633864,"is_passed":false},{"stop_id":"U15185Z1","name":"Modřice, Decathlon","arrival_time":"11:10:00","departure_time":"11:10:00","lat":49.137598,"lon":16.637297,"is_passed":false},{"stop_id":"U15186Z1","name":"Modřice, XXXLutz","arrival_time":"11:11:00","departure_time":"11:11:00","lat":49.138934,"lon":16.637263,"is_passed":false},{"stop_id":"U1781Z2","name":"Zámecká","arrival_time":"11:13:00","departure_time":"11:13:00","lat":49.132518,"lon":16.642875,"is_passed":false},{"stop_id":"U1644Z2","name":"Šromova","arrival_time":"11:15:00","departure_time":"11:15:00","lat":49.13398,"lon":16.651446,"is_passed":false},{"stop_id":"U1187Z4","name":"Chrlické náměstí","arrival_time":"11:16:00","departure_time":"11:16:00","lat":49.135767,"lon":16.653213,"is_passed":false},{"stop_id":"U1693Z2","name":"U viaduktu","arrival_time":"11:17:00","departure_time":"11:17:00","lat":49.139248,"lon":16.66101,"is_passed":false},{"stop_id":"U1186Z2","name":"Chrlická","arrival_time":"11:18:00","departure_time":"11:18:00","lat":49.143983,"lon":16.665097,"is_passed":false},{"stop_id":"U1131Z2","name":"Hanácká","arrival_time":"11:19:00","departure_time":"11:19:00","lat":49.146706,"lon":16.667371,"is_passed":false},{"stop_id":"U1772Z2","name":"Za křížem","arrival_time":"11:21:00","departure_time":"11:21:00","lat":49.15905,"lon":16.670815,"is_passed":false},{"stop_id":"U1581Z2","name":"Areál Slatina","arrival_time":"11:23:00","departure_time":"11:23:00","lat":49.168677,"lon":16.678416,"is_passed":false},{"stop_id":"U1562Z3","name":"Řípská","arrival_time":"11:24:00","departure_time":"11:24:00","lat":49.172528,"lon":16.682138,"is_passed":false},{"stop_id":"U1300Z1","name":"Křehlíkova","arrival_time":"11:25:00","departure_time":"11:25:00","lat":49.174839,"lon":16.685145,"is_passed":false},{"stop_id":"U1525Z1","name":"Přemyslovo náměstí","arrival_time":"11:26:00","departure_time":"11:26:00","lat":49.176289,"lon":16.687296,"is_passed":false},{"stop_id":"U1292Z1","name":"Krejčího","arrival_time":"11:27:00","departure_time":"11:27:00","lat":49.177441,"lon":16.690968,"is_passed":false},{"stop_id":"U1576Z2","name":"Slatina, rozcestí","arrival_time":"11:29:00","departure_time":"11:29:00","lat":49.183366,"lon":16.691884,"is_passed":false},{"stop_id":"U1356Z2","name":"Malečkova","arrival_time":"11:29:00","departure_time":"11:29:00","lat":49.185667,"lon":16.692678,"is_passed":false},{"stop_id":"U1152Z2","name":"Holzova","arrival_time":"11:30:00","departure_time":"11:30:00","lat":49.194897,"lon":16.696973,"is_passed":false},{"stop_id":"U1339Z2","name":"Letecká","arrival_time":"11:31:00","departure_time":"11:31:00","lat":49.197812,"lon":16.695816,"is_passed":false},{"stop_id":"U1406Z2","name":"Muzeum dopravy","arrival_time":"11:32:00","departure_time":"11:32:00","lat":49.201777,"lon":16.694455,"is_passed":false},{"stop_id":"U1421Z1","name":"Náměstí Karla IV.","arrival_time":"11:33:00","departure_time":"11:33:00","lat":49.206363,"lon":16.694621,"is_passed":false},{"stop_id":"U1384Z3","name":"Mifkova","arrival_time":"11:33:00","departure_time":"11:33:00","lat":49.20716,"lon":16.692152,"is_passed":false},{"stop_id":"U1208Z5","name":"Jírova","arrival_time":"11:35:00","departure_time":"11:35:00","lat":49.209891,"lon":16.688265,"is_passed":false},{"stop_id":"U1392Z2","name":"Molákova","arrival_time":"11:36:00","departure_time":"11:36:00","lat":49.212602,"lon":16.687063,"is_passed":false},{"stop_id":"U1489Z2","name":"Podbělová","arrival_time":"11:37:00","departure_time":"11:37:00","lat":49.214049,"lon":16.681384,"is_passed":false},{"stop_id":"U1157Z2","name":"Horníkova","arrival_time":"11:38:00","departure_time":"11:38:00","lat":49.211809,"lon":16.67649,"is_passed":false},{"stop_id":"U1103Z2","name":"Elplova","arrival_time":"11:39:00","departure_time":"11:39:00","lat":49.210409,"lon":16.674871,"is_passed":false},{"stop_id":"U1623Z2","name":"Strnadova","arrival_time":"11:40:00","departure_time":"11:40:00","lat":49.205821,"lon":16.668465,"is_passed":false},{"stop_id":"U1383Z2","name":"Mikulovská","arrival_time":"11:41:00","departure_time":"11:41:00","lat":49.206311,"lon":16.664823,"is_passed":false},{"stop_id":"U1052Z1","name":"Bzenecká","arrival_time":"11:43:00","departure_time":"11:43:00","lat":49.206117,"lon":16.660595,"is_passed":false},{"stop_id":"U1477Z3","name":"Pálavské náměstí","arrival_time":"11:44:00","departure_time":"11:44:00","lat":49.20612,"lon":16.657683,"is_passed":false},{"stop_id":"U1403Z1","name":"Mutěnická","arrival_time":"11:45:00","departure_time":"11:45:00","lat":49.20299,"lon":16.654796,"is_passed":false},{"stop_id":"U1036Z1","name":"Bořetická","arrival_time":"11:46:00","departure_time":"11:46:00","lat":49.201326,"lon":16.659292,"is_passed":false},{"stop_id":"U1058Z1","name":"Čejkovická","arrival_time":"11:47:00","departure_time":"11:47:00","lat":49.200178,"lon":16.662528,"is_passed":false},{"stop_id":"U1353Z2","name":"Malá Klajdovka","arrival_time":"11:47:00","departure_time":"11:47:00","lat":49.199214,"lon":16.662929,"is_passed":false},{"stop_id":"U1212Z4","name":"Juliánov","arrival_time":"11:49:00","departure_time":"11:49:00","lat":49.196413,"lon":16.655783,"is_passed":false},{"stop_id":"U1082Z2","name":"Dělnický dům","arrival_time":"11:50:00","departure_time":"11:50:00","lat":49.195559,"lon":16.64956,"is_passed":false},{"stop_id":"U1113Z2","name":"Gajdošova","arrival_time":"11:51:00","departure_time":"11:51:00","lat":49.198286,"lon":16.645995,"is_passed":false},{"stop_id":"U1611Z6","name":"Stará osada","arrival_time":"11:53:00","departure_time":"11:53:00","lat":49.201731,"lon":16.642184,"is_passed":false},{"stop_id":"U1809Z1","name":"Židenice, nádraží","arrival_time":"11:55:00","departure_time":"11:55:00","lat":49.20162,"lon":16.635716,"is_passed":false}],"50112":[{"stop_id":"U1809Z3","name":"Židenice, nádraží","arrival_time":"12:05:00","departure_time":"12:05:00","lat":49.203338,"lon":16.636772,"is_passed":false},{"stop_id":"U1611Z8","name":"Stará osada","arrival_time":"12:08:00","departure_time":"12:08:00","lat":49.202294,"lon":16.642001,"is_passed":false},{"stop_id":"U1113Z1","name":"Gajdošova","arrival_time":"12:09:00","departure_time":"12:09:00","lat":49.19868,"lon":16.645552,"is_passed":false},{"stop_id":"U1082Z1","name":"Dělnický dům","arrival_time":"12:11:00","departure_time":"12:11:00","lat":49.195559,"lon":16.650177,"is_passed":false},{"stop_id":"U1496Z1","name":"Podlomní","arrival_time":"12:12:00","departure_time":"12:12:00","lat":49.192252,"lon":16.655367,"is_passed":false},{"stop_id":"U1642Z1","name":"Špačkova","arrival_time":"12:13:00","departure_time":"12:13:00","lat":49.190929,"lon":16.658793,"is_passed":false},{"stop_id":"U1018Z6","name":"Bělohorská","arrival_time":"12:14:00","departure_time":"12:14:00","lat":49.189603,"lon":16.662473,"is_passed":false},{"stop_id":"U1026Z3","name":"Bílá hora","arrival_time":"12:15:00","departure_time":"12:15:00","lat":49.194009,"lon":16.668034,"is_passed":false},{"stop_id":"U1551Z1","name":"Růženin dvůr","arrival_time":"12:17:00","departure_time":"12:17:00","lat":49.203651,"lon":16.666867,"is_passed":false},{"stop_id":"U1623Z1","name":"Strnadova","arrival_time":"12:18:00","departure_time":"12:18:00","lat":49.205754,"lon":16.66904,"is_passed":false},{"stop_id":"U1103Z1","name":"Elplova","arrival_time":"12:20:00","departure_time":"12:20:00","lat":49.210484,"lon":16.675106,"is_passed":false},{"stop_id":"U1157Z1","name":"Horníkova","arrival_time":"12:21:00","departure_time":"12:21:00","lat":49.212138,"lon":16.676622,"is_passed":false},{"stop_id":"U1489Z1","name":"Podbělová","arrival_time":"12:22:00","departure_time":"12:22:00","lat":49.213881,"lon":16.681661,"is_passed":false},{"stop_id":"U1392Z1","name":"Molákova","arrival_time":"12:23:00","departure_time":"12:23:00","lat":49.212873,"lon":16.686835,"is_passed":false},{"stop_id":"U1208Z4","name":"Jírova","arrival_time":"12:24:00","departure_time":"12:24:00","lat":49.209099,"lon":16.688056,"is_passed":false},{"stop_id":"U1421Z3","name":"Náměstí Karla IV.","arrival_time":"12:25:00","departure_time":"12:25:00","lat":49.206713,"lon":16.694241,"is_passed":false},{"stop_id":"U1350Z1","name":"Macháčkova","arrival_time":"12:27:00","departure_time":"12:27:00","lat":49.206052,"lon":16.70193,"is_passed":false},{"stop_id":"U1726Z1","name":"Velatická","arrival_time":"12:28:00","departure_time":"12:28:00","lat":49.204129,"lon":16.708116,"is_passed":false},{"stop_id":"U1497Z1","name":"Podolská","arrival_time":"12:29:00","departure_time":"12:29:00","lat":49.203029,"lon":16.714223,"is_passed":false},{"stop_id":"U1362Z1","name":"Mariánské údolí","arrival_time":"12:31:00","departure_time":"12:41:00","lat":49.203331,"lon":16.716449,"is_passed":false}],"50113":[{"stop_id":"U1362Z2","name":"Mariánské údolí","arrival_time":"12:41:00","departure_time":"12:41:00","lat":49.20332,"lon":16.71587,"is_passed":false},{"stop_id":"U1497Z2","name":"Podolská","arrival_time":"12:41:00","departure_time":"12:41:00","lat":49.20311,"lon":16.713363,"is_passed":false},{"stop_id":"U1726Z2","name":"Velatická","arrival_time":"12:42:00","departure_time":"12:42:00","lat":49.204666,"lon":16.707253,"is_passed":false},{"stop_id":"U1350Z2","name":"Macháčkova","arrival_time":"12:43:00","departure_time":"12:43:00","lat":49.206174,"lon":16.701931,"is_passed":false},{"stop_id":"U1421Z4","name":"Náměstí Karla IV.","arrival_time":"12:44:00","departure_time":"12:44:00","lat":49.206991,"lon":16.695508,"is_passed":false},{"stop_id":"U1384Z3","name":"Mifkova","arrival_time":"12:45:00","departure_time":"12:45:00","lat":49.20716,"lon":16.692152,"is_passed":false},{"stop_id":"U1208Z5","name":"Jírova","arrival_time":"12:47:00","departure_time":"12:47:00","lat":49.209891,"lon":16.688265,"is_passed":false},{"stop_id":"U1392Z2","name":"Molákova","arrival_time":"12:48:00","departure_time":"12:48:00","lat":49.212602,"lon":16.687063,"is_passed":false},{"stop_id":"U1489Z2","name":"Podbělová","arrival_time":"12:49:00","departure_time":"12:49:00","lat":49.214049,"lon":16.681384,"is_passed":false},{"stop_id":"U1157Z2","name":"Horníkova","arrival_time":"12:50:00","departure_time":"12:50:00","lat":49.211809,"lon":16.67649,"is_passed":false},{"stop_id":"U1103Z2","name":"Elplova","arrival_time":"12:51:00","departure_time":"12:51:00","lat":49.210409,"lon":16.674871,"is_passed":false},{"stop_id":"U1623Z2","name":"Strnadova","arrival_time":"12:52:00","departure_time":"12:52:00","lat":49.205821,"lon":16.668465,"is_passed":false},{"stop_id":"U1551Z2","name":"Růženin dvůr","arrival_time":"12:54:00","departure_time":"12:54:00","lat":49.203263,"lon":16.666525,"is_passed":false},{"stop_id":"U1026Z4","name":"Bílá hora","arrival_time":"12:55:00","departure_time":"12:55:00","lat":49.193975,"lon":16.667677,"is_passed":false},{"stop_id":"U1018Z4","name":"Bělohorská","arrival_time":"12:57:00","departure_time":"12:57:00","lat":49.189904,"lon":16.662135,"is_passed":false},{"stop_id":"U1642Z2","name":"Špačkova","arrival_time":"12:58:00","departure_time":"12:58:00","lat":49.190815,"lon":16.659552,"is_passed":false},{"stop_id":"U1496Z2","name":"Podlomní","arrival_time":"12:59:00","departure_time":"12:59:00","lat":49.192497,"lon":16.654989,"is_passed":false},{"stop_id":"U1082Z2","name":"Dělnický dům","arrival_time":"13:00:00","departure_time":"13:00:00","lat":49.195559,"lon":16.64956,"is_passed":false},{"stop_id":"U1113Z2","name":"Gajdošova","arrival_time":"13:01:00","departure_time":"13:01:00","lat":49.198286,"lon":16.645995,"is_passed":false},{"stop_id":"U1611Z6","name":"Stará osada","arrival_time":"13:03:00","departure_time":"13:03:00","lat":49.201731,"lon":16.642184,"is_passed":false},{"stop_id":"U1809Z1","name":"Židenice, nádraží","arrival_time":"13:05:00","departure_time":"13:05:00","lat":49.20162,"lon":16.635716,"is_passed":false}],"50114":[{"stop_id":"U1809Z3","name":"Židenice, nádraží","arrival_time":"13:15:00","departure_time":"13:15:00","lat":49.203338,"lon":16.636772,"is_passed":false},{"stop_id":"U1611Z8","name":"Stará osada","arrival_time":"13:18:00","departure_time":"13:18:00","lat":49.202294,"lon":16.642001,"is_passed":false},{"stop_id":"U1113Z1","name":"Gajdošova","arrival_time":"13:19:00","departure_time":"13:19:00","lat":49.19868,"lon":16.645552,"is_passed":false},{"stop_id":"U1082Z1","name":"Dělnický dům","arrival_time":"13:21:00","departure_time":"13:21:00","lat":49.195559,"lon":16.650177,"is_passed":false},{"stop_id":"U1212Z3","name":"Juliánov","arrival_time":"13:22:00","departure_time":"13:22:00","lat":49.196124,"lon":16.654392,"is_passed":false},{"stop_id":"U1353Z1","name":"Malá Klajdovka","arrival_time":"13:23:00","departure_time":"13:23:00","lat":49.199045,"lon":16.662888,"is_passed":false},{"stop_id":"U1058Z2","name":"Čejkovická","arrival_time":"13:24:00","departure_time":"13:24:00","lat":49.200493,"lon":16.661793,"is_passed":false},{"stop_id":"U1036Z2","name":"Bořetická","arrival_time":"13:25:00","departure_time":"13:25:00","lat":49.201495,"lon":16.658055,"is_passed":false},{"stop_id":"U1403Z2","name":"Mutěnická","arrival_time":"13:26:00","departure_time":"13:26:00","lat":49.203951,"lon":16.654889,"is_passed":false},{"stop_id":"U1477Z2","name":"Pálavské náměstí","arrival_time":"13:27:00","departure_time":"13:27:00","lat":49.20538,"lon":16.658103,"is_passed":false},{"stop_id":"U1052Z2","name":"Bzenecká","arrival_time":"13:28:00","departure_time":"13:28:00","lat":49.205822,"lon":16.661645,"is_passed":false},{"stop_id":"U1383Z1","name":"Mikulovská","arrival_time":"13:29:00","departure_time":"13:29:00","lat":49.2055,"lon":16.665833,"is_passed":false},{"stop_id":"U1623Z1","name":"Strnadova","arrival_time":"13:30:00","departure_time":"13:30:00","lat":49.205754,"lon":16.66904,"is_passed":false},{"stop_id":"U1103Z1","name":"Elplova","arrival_time":"13:32:00","departure_time":"13:32:00","lat":49.210484,"lon":16.675106,"is_passed":false},{"stop_id":"U1157Z1","name":"Horníkova","arrival_time":"13:33:00","departure_time":"13:33:00","lat":49.212138,"lon":16.676622,"is_passed":false},{"stop_id":"U1489Z1","name":"Podbělová","arrival_time":"13:34:00","departure_time":"13:34:00","lat":49.213881,"lon":16.681661,"is_passed":false},{"stop_id":"U1392Z1","name":"Molákova","arrival_time":"13:35:00","departure_time":"13:35:00","lat":49.212873,"lon":16.686835,"is_passed":false},{"stop_id":"U1208Z4","name":"Jírova","arrival_time":"13:36:00","departure_time":"13:36:00","lat":49.209099,"lon":16.688056,"is_passed":false},{"stop_id":"U1421Z2","name":"Náměstí Karla IV.","arrival_time":"13:37:00","departure_time":"13:37:00","lat":49.206113,"lon":16.69444,"is_passed":false},{"stop_id":"U1232Z2","name":"Karolíny Světlé","arrival_time":"13:38:00","departure_time":"13:38:00","lat":49.203721,"lon":16.694074,"is_passed":false},{"stop_id":"U1406Z1","name":"Muzeum dopravy","arrival_time":"13:39:00","departure_time":"13:39:00","lat":49.201045,"lon":16.69455,"is_passed":false},{"stop_id":"U1339Z1","name":"Letecká","arrival_time":"13:40:00","departure_time":"13:40:00","lat":49.197603,"lon":16.695882,"is_passed":false},{"stop_id":"U1152Z1","name":"Holzova","arrival_time":"13:41:00","departure_time":"13:41:00","lat":49.194703,"lon":16.696956,"is_passed":false},{"stop_id":"U1356Z1","name":"Malečkova","arrival_time":"13:42:00","departure_time":"13:42:00","lat":49.18583,"lon":16.69265,"is_passed":false},{"stop_id":"U1576Z1","name":"Slatina, rozcestí","arrival_time":"13:44:00","departure_time":"13:44:00","lat":49.181647,"lon":16.691923,"is_passed":false},{"stop_id":"U1292Z2","name":"Krejčího","arrival_time":"13:45:00","departure_time":"13:45:00","lat":49.177496,"lon":16.690785,"is_passed":false},{"stop_id":"U1525Z2","name":"Přemyslovo náměstí","arrival_time":"13:45:00","departure_time":"13:45:00","lat":49.176456,"lon":16.687324,"is_passed":false},{"stop_id":"U1300Z2","name":"Křehlíkova","arrival_time":"13:46:00","departure_time":"13:46:00","lat":49.174794,"lon":16.685267,"is_passed":false},{"stop_id":"U1562Z4","name":"Řípská","arrival_time":"13:48:00","departure_time":"13:48:00","lat":49.172829,"lon":16.682244,"is_passed":false},{"stop_id":"U1581Z1","name":"Areál Slatina","arrival_time":"13:49:00","departure_time":"13:49:00","lat":49.168614,"lon":16.67804,"is_passed":false},{"stop_id":"U1772Z1","name":"Za křížem","arrival_time":"13:50:00","departure_time":"13:50:00","lat":49.15982,"lon":16.670772,"is_passed":false},{"stop_id":"U1131Z1","name":"Hanácká","arrival_time":"13:52:00","departure_time":"13:52:00","lat":49.146954,"lon":16.667509,"is_passed":false},{"stop_id":"U1186Z1","name":"Chrlická","arrival_time":"13:53:00","departure_time":"13:53:00","lat":49.144276,"lon":16.66513,"is_passed":false},{"stop_id":"U1693Z1","name":"U viaduktu","arrival_time":"13:54:00","departure_time":"13:54:00","lat":49.13875,"lon":16.659846,"is_passed":false},{"stop_id":"U1187Z3","name":"Chrlické náměstí","arrival_time":"13:55:00","departure_time":"13:55:00","lat":49.135906,"lon":16.65314,"is_passed":false},{"stop_id":"U1644Z1","name":"Šromova","arrival_time":"13:56:00","departure_time":"13:56:00","lat":49.13376,"lon":16.650299,"is_passed":false},{"stop_id":"U1781Z1","name":"Zámecká","arrival_time":"13:57:00","departure_time":"13:57:00","lat":49.132776,"lon":16.642479,"is_passed":false},{"stop_id":"U15185Z2","name":"Modřice, Decathlon","arrival_time":"13:59:00","departure_time":"13:59:00","lat":49.137598,"lon":16.637297,"is_passed":false},{"stop_id":"U15186Z2","name":"Modřice, XXXLutz","arrival_time":"14:00:00","departure_time":"14:00:00","lat":49.138934,"lon":16.637263,"is_passed":false},{"stop_id":"U15130Z3","name":"Modřice, Olympia","arrival_time":"14:05:00","departure_time":"14:26:00","lat":49.139507,"lon":16.633749,"is_passed":false}],"50115":[{"stop_id":"U15130Z2","name":"Modřice, Olympia","arrival_time":"14:26:00","departure_time":"14:26:00","lat":49.139255,"lon":16.634291,"is_passed":false},{"stop_id":"U15132Z2","name":"Modřice, Olympia jih","arrival_time":"14:27:00","departure_time":"14:27:00","lat":49.135069,"lon":16.633864,"is_passed":false},{"stop_id":"U15185Z1","name":"Modřice, Decathlon","arrival_time":"14:30:00","departure_time":"14:30:00","lat":49.137598,"lon":16.637297,"is_passed":false},{"stop_id":"U15186Z1","name":"Modřice, XXXLutz","arrival_time":"14:31:00","departure_time":"14:31:00","lat":49.138934,"lon":16.637263,"is_passed":false},{"stop_id":"U1781Z2","name":"Zámecká","arrival_time":"14:33:00","departure_time":"14:33:00","lat":49.132518,"lon":16.642875,"is_passed":false},{"stop_id":"U1644Z2","name":"Šromova","arrival_time":"14:35:00","departure_time":"14:35:00","lat":49.13398,"lon":16.651446,"is_passed":false},{"stop_id":"U1187Z4","name":"Chrlické náměstí","arrival_time":"14:36:00","departure_time":"14:36:00","lat":49.135767,"lon":16.653213,"is_passed":false},{"stop_id":"U1693Z2","name":"U viaduktu","arrival_time":"14:37:00","departure_time":"14:37:00","lat":49.139248,"lon":16.66101,"is_passed":false},{"stop_id":"U1186Z2","name":"Chrlická","arrival_time":"14:38:00","departure_time":"14:38:00","lat":49.143983,"lon":16.665097,"is_passed":false},{"stop_id":"U1131Z2","name":"Hanácká","arrival_time":"14:39:00","departure_time":"14:39:00","lat":49.146706,"lon":16.667371,"is_passed":false},{"stop_id":"U1772Z2","name":"Za křížem","arrival_time":"14:41:00","departure_time":"14:41:00","lat":49.15905,"lon":16.670815,"is_passed":false},{"stop_id":"U1581Z2","name":"Areál Slatina","arrival_time":"14:43:00","departure_time":"14:43:00","lat":49.168677,"lon":16.678416,"is_passed":false},{"stop_id":"U1562Z3","name":"Řípská","arrival_time":"14:44:00","departure_time":"14:44:00","lat":49.172528,"lon":16.682138,"is_passed":false},{"stop_id":"U1300Z1","name":"Křehlíkova","arrival_time":"14:45:00","departure_time":"14:45:00","lat":49.174839,"lon":16.685145,"is_passed":false},{"stop_id":"U1525Z1","name":"Přemyslovo náměstí","arrival_time":"14:46:00","departure_time":"14:46:00","lat":49.176289,"lon":16.687296,"is_passed":false},{"stop_id":"U1292Z1","name":"Krejčího","arrival_time":"14:47:00","departure_time":"14:47:00","lat":49.177441,"lon":16.690968,"is_passed":false},{"stop_id":"U1576Z2","name":"Slatina, rozcestí","arrival_time":"14:49:00","departure_time":"14:49:00","lat":49.183366,"lon":16.691884,"is_passed":false},{"stop_id":"U1356Z2","name":"Malečkova","arrival_time":"14:49:00","departure_time":"14:49:00","lat":49.185667,"lon":16.692678,"is_passed":false},{"stop_id":"U1152Z2","name":"Holzova","arrival_time":"14:50:00","departure_time":"14:50:00","lat":49.194897,"lon":16.696973,"is_passed":false},{"stop_id":"U1339Z2","name":"Letecká","arrival_time":"14:51:00","departure_time":"14:51:00","lat":49.197812,"lon":16.695816,"is_passed":false},{"stop_id":"U1406Z2","name":"Muzeum dopravy","arrival_time":"14:52:00","departure_time":"14:52:00","lat":49.201777,"lon":16.694455,"is_passed":false},{"stop_id":"U1421Z1","name":"Náměstí Karla IV.","arrival_time":"14:53:00","departure_time":"14:53:00","lat":49.206363,"lon":16.694621,"is_passed":false},{"stop_id":"U1384Z3","name":"Mifkova","arrival_time":"14:53:00","departure_time":"14:53:00","lat":49.20716,"lon":16.692152,"is_passed":false},{"stop_id":"U1208Z5","name":"Jírova","arrival_time":"14:55:00","departure_time":"14:55:00","lat":49.209891,"lon":16.688265,"is_passed":false},{"stop_id":"U1392Z2","name":"Molákova","arrival_time":"14:56:00","departure_time":"14:56:00","lat":49.212602,"lon":16.687063,"is_passed":false},{"stop_id":"U1489Z2","name":"Podbělová","arrival_time":"14:57:00","departure_time":"14:57:00","lat":49.214049,"lon":16.681384,"is_passed":false},{"stop_id":"U1157Z2","name":"Horníkova","arrival_time":"14:58:00","departure_time":"14:58:00","lat":49.211809,"lon":16.67649,"is_passed":false},{"stop_id":"U1103Z2","name":"Elplova","arrival_time":"14:59:00","departure_time":"14:59:00","lat":49.210409,"lon":16.674871,"is_passed":false},{"stop_id":"U1623Z2","name":"Strnadova","arrival_time":"15:00:00","departure_time":"15:00:00","lat":49.205821,"lon":16.668465,"is_passed":false},{"stop_id":"U1383Z2","name":"Mikulovská","arrival_time":"15:01:00","departure_time":"15:01:00","lat":49.206311,"lon":16.664823,"is_passed":false},{"stop_id":"U1052Z1","name":"Bzenecká","arrival_time":"15:03:00","departure_time":"15:03:00","lat":49.206117,"lon":16.660595,"is_passed":false},{"stop_id":"U1477Z3","name":"Pálavské náměstí","arrival_time":"15:04:00","departure_time":"15:04:00","lat":49.20612,"lon":16.657683,"is_passed":false},{"stop_id":"U1403Z1","name":"Mutěnická","arrival_time":"15:05:00","departure_time":"15:05:00","lat":49.20299,"lon":16.654796,"is_passed":false},{"stop_id":"U1036Z1","name":"Bořetická","arrival_time":"15:06:00","departure_time":"15:06:00","lat":49.201326,"lon":16.659292,"is_passed":false},{"stop_id":"U1058Z1","name":"Čejkovická","arrival_time":"15:07:00","departure_time":"15:07:00","lat":49.200178,"lon":16.662528,"is_passed":false},{"stop_id":"U1353Z2","name":"Malá Klajdovka","arrival_time":"15:07:00","departure_time":"15:07:00","lat":49.199214,"lon":16.662929,"is_passed":false},{"stop_id":"U1212Z4","name":"Juliánov","arrival_time":"15:09:00","departure_time":"15:09:00","lat":49.196413,"lon":16.655783,"is_passed":false},{"stop_id":"U1082Z2","name":"Dělnický dům","arrival_time":"15:10:00","departure_time":"15:10:00","lat":49.195559,"lon":16.64956,"is_passed":false},{"stop_id":"U1113Z2","name":"Gajdošova","arrival_time":"15:11:00","departure_time":"15:11:00","lat":49.198286,"lon":16.645995,"is_passed":false},{"stop_id":"U1611Z6","name":"Stará osada","arrival_time":"15:13:00","departure_time":"15:13:00","lat":49.201731,"lon":16.642184,"is_passed":false},{"stop_id":"U1809Z1","name":"Židenice, nádraží","arrival_time":"15:15:00","departure_time":"15:15:00","lat":49.20162,"lon":16.635716,"is_passed":false}],"50116":[{"stop_id":"U1809Z3","name":"Židenice, nádraží","arrival_time":"15:25:00","departure_time":"15:25:00","lat":49.203338,"lon":16.636772,"is_passed":false},{"stop_id":"U1611Z8","name":"Stará osada","arrival_time":"15:28:00","departure_time":"15:28:00","lat":49.202294,"lon":16.642001,"is_passed":false},{"stop_id":"U1113Z1","name":"Gajdošova","arrival_time":"15:29:00","departure_time":"15:29:00","lat":49.19868,"lon":16.645552,"is_passed":false},{"stop_id":"U1082Z1","name":"Dělnický dům","arrival_time":"15:31:00","departure_time":"15:31:00","lat":49.195559,"lon":16.650177,"is_passed":false},{"stop_id":"U1496Z1","name":"Podlomní","arrival_time":"15:32:00","departure_time":"15:32:00","lat":49.192252,"lon":16.655367,"is_passed":false},{"stop_id":"U1642Z1","name":"Špačkova","arrival_time":"15:33:00","departure_time":"15:33:00","lat":49.190929,"lon":16.658793,"is_passed":false},{"stop_id":"U1018Z6","name":"Bělohorská","arrival_time":"15:34:00","departure_time":"15:34:00","lat":49.189603,"lon":16.662473,"is_passed":false},{"stop_id":"U1026Z3","name":"Bílá hora","arrival_time":"15:35:00","departure_time":"15:35:00","lat":49.194009,"lon":16.668034,"is_passed":false},{"stop_id":"U1551Z1","name":"Růženin dvůr","arrival_time":"15:37:00","departure_time":"15:37:00","lat":49.203651,"lon":16.666867,"is_passed":false},{"stop_id":"U1623Z1","name":"Strnadova","arrival_time":"15:38:00","departure_time":"15:38:00","lat":49.205754,"lon":16.66904,"is_passed":false},{"stop_id":"U1103Z1","name":"Elplova","arrival_time":"15:40:00","departure_time":"15:40:00","lat":49.210484,"lon":16.675106,"is_passed":false},{"stop_id":"U1157Z1","name":"Horníkova","arrival_time":"15:41:00","departure_time":"15:41:00","lat":49.212138,"lon":16.676622,"is_passed":false},{"stop_id":"U1489Z1","name":"Podbělová","arrival_time":"15:42:00","departure_time":"15:42:00","lat":49.213881,"lon":16.681661,"is_passed":false},{"stop_id":"U1392Z1","name":"Molákova","arrival_time":"15:43:00","departure_time":"15:43:00","lat":49.212873,"lon":16.686835,"is_passed":false},{"stop_id":"U1208Z4","name":"Jírova","arrival_time":"15:44:00","departure_time":"15:44:00","lat":49.209099,"lon":16.688056,"is_passed":false},{"stop_id":"U1421Z3","name":"Náměstí Karla IV.","arrival_time":"15:45:00","departure_time":"15:45:00","lat":49.206713,"lon":16.694241,"is_passed":false},{"stop_id":"U1350Z1","name":"Macháčkova","arrival_time":"15:47:00","departure_time":"15:47:00","lat":49.206052,"lon":16.70193,"is_passed":false},{"stop_id":"U1726Z1","name":"Velatická","arrival_time":"15:48:00","departure_time":"15:48:00","lat":49.204129,"lon":16.708116,"is_passed":false},{"stop_id":"U1497Z1","name":"Podolská","arrival_time":"15:49:00","departure_time":"15:49:00","lat":49.203029,"lon":16.714223,"is_passed":false},{"stop_id":"U1362Z1","name":"Mariánské údolí","arrival_time":"15:51:00","departure_time":"16:01:00","lat":49.203331,"lon":16.716449,"is_passed":false}],"50117":[{"stop_id":"U1362Z2","name":"Mariánské údolí","arrival_time":"16:01:00","departure_time":"16:01:00","lat":49.20332,"lon":16.71587,"is_passed":false},{"stop_id":"U1497Z2","name":"Podolská","arrival_time":"16:01:00","departure_time":"16:01:00","lat":49.20311,"lon":16.713363,"is_passed":false},{"stop_id":"U1726Z2","name":"Velatická","arrival_time":"16:02:00","departure_time":"16:02:00","lat":49.204666,"lon":16.707253,"is_passed":false},{"stop_id":"U1350Z2","name":"Macháčkova","arrival_time":"16:03:00","departure_time":"16:03:00","lat":49.206174,"lon":16.701931,"is_passed":false},{"stop_id":"U1421Z4","name":"Náměstí Karla IV.","arrival_time":"16:04:00","departure_time":"16:04:00","lat":49.206991,"lon":16.695508,"is_passed":false},{"stop_id":"U1384Z3","name":"Mifkova","arrival_time":"16:05:00","departure_time":"16:05:00","lat":49.20716,"lon":16.692152,"is_passed":false},{"stop_id":"U1208Z5","name":"Jírova","arrival_time":"16:07:00","departure_time":"16:07:00","lat":49.209891,"lon":16.688265,"is_passed":false},{"stop_id":"U1392Z2","name":"Molákova","arrival_time":"16:08:00","departure_time":"16:08:00","lat":49.212602,"lon":16.687063,"is_passed":false},{"stop_id":"U1489Z2","name":"Podbělová","arrival_time":"16:09:00","departure_time":"16:09:00","lat":49.214049,"lon":16.681384,"is_passed":false},{"stop_id":"U1157Z2","name":"Horníkova","arrival_time":"16:10:00","departure_time":"16:10:00","lat":49.211809,"lon":16.67649,"is_passed":false},{"stop_id":"U1103Z2","name":"Elplova","arrival_time":"16:11:00","departure_time":"16:11:00","lat":49.210409,"lon":16.674871,"is_passed":false},{"stop_id":"U1623Z2","name":"Strnadova","arrival_time":"16:12:00","departure_time":"16:12:00","lat":49.205821,"lon":16.668465,"is_passed":false},