[{"stop_id":"U1208Z3","name":"Jírova","arrival_time":"5:05:00","departure_time":"5:05:00","lat":49.208886,"lon":16.687979,"is_passed":false},{"stop_id":"U1546Z2","name":"Rotreklova","arrival_time":"5:05:00","departure_time":"5:05:00","lat":49.206534,"lon":16.684689,"is_passed":false},{"stop_id":"U1012Z2","name":"Bartákova","arrival_time":"5:06:00","departure_time":"5:06:00","lat":49.204255,"lon":16.679185,"is_passed":false},{"stop_id":"U1438Z4","name":"Novolíšeňská","arrival_time":"5:07:00","departure_time":"5:07:00","lat":49.201792,"lon":16.670352,"is_passed":false},{"stop_id":"U1058Z2","name":"Čejkovická","arrival_time":"5:08:00","departure_time":"5:08:00","lat":49.200493,"lon":16.661793,"is_passed":false},{"stop_id":"U1036Z2","name":"Bořetická","arrival_time":"5:09:00","departure_time":"5:09:00","lat":49.201495,"lon":16.658055,"is_passed":false},{"stop_id":"U1403Z2","name":"Mutěnická","arrival_time":"5:10:00","departure_time":"5:10:00","lat":49.203951,"lon":16.654889,"is_passed":false},{"stop_id":"U1477Z2","name":"Pálavské náměstí","arrival_time":"5:11:00","departure_time":"5:11:00","lat":49.20538,"lon":16.658103,"is_passed":false},{"stop_id":"U1052Z2","name":"Bzenecká","arrival_time":"5:12:00","departure_time":"5:12:00","lat":49.205822,"lon":16.661645,"is_passed":false},{"stop_id":"U1523Z2","name":"Prušánecká","arrival_time":"5:13:00","departure_time":"5:13:00","lat":49.209503,"lon":16.663369,"is_passed":false},{"stop_id":"U1743Z2","name":"Vlčnovská","arrival_time":"5:13:00","departure_time":"5:13:00","lat":49.211166,"lon":16.659638,"is_passed":false},{"stop_id":"U1002Z2","name":"Akátky","arrival_time":"5:14:00","departure_time":"5:14:00","lat":49.208751,"lon":16.648718,"is_passed":false},{"stop_id":"U1698Z2","name":"Údolíček","arrival_time":"5:14:00","departure_time":"5:14:00","lat":49.206553,"lon":16.643865,"is_passed":false},{"stop_id":"U1631Z1","name":"Svatoplukova","arrival_time":"5:15:00","departure_time":"5:15:00","lat":49.2051,"lon":16.641425,"is_passed":false},{"stop_id":"U1611Z6","name":"Stará osada","arrival_time":"5:17:00","departure_time":"5:17:00","lat":49.201731,"lon":16.642184,"is_passed":false},{"stop_id":"U1313Z2","name":"Kuldova","arrival_time":"5:18:00","departure_time":"5:18:00","lat":49.201319,"lon":16.634551,"is_passed":false},{"stop_id":"U1773Z2","name":"Vojenská nemocnice","arrival_time":"5:19:00","departure_time":"5:19:00","lat":49.202306,"lon":16.62966,"is_passed":false},{"stop_id":"U1663Z2","name":"Tkalcovská","arrival_time":"5:20:00","departure_time":"5:20:00","lat":49.199805,"lon":16.625934,"is_passed":false},{"stop_id":"U1271Z2","name":"Körnerova","arrival_time":"5:21:00","departure_time":"5:21:00","lat":49.198152,"lon":16.619504,"is_passed":false},{"stop_id":"U1357Z1","name":"Malinovského náměstí","arrival_time":"5:23:00","departure_time":"5:23:00","lat":49.195492,"lon":16.61386,"is_passed":false},{"stop_id":"U1146Z3","name":"Hlavní nádraží","arrival_time":"5:26:00","departure_time":"5:30:00","lat":49.191063,"lon":16.611972,"is_passed":false},{"stop_id":"U1637Z2","name":"Šilingrovo náměstí","arrival_time":"5:31:00","departure_time":"5:31:00","lat":49.192027,"lon":16.605234,"is_passed":false},{"stop_id":"U1073Z4","name":"Česká","arrival_time":"5:33:00","departure_time":"5:33:00","lat":49.198134,"lon":16.605041,"is_passed":false},{"stop_id":"U1121Z1","name":"Grohova","arrival_time":"5:34:00","departure_time":"5:34:00","lat":49.201153,"lon":16.599729,"is_passed":false},{"stop_id":"U1262Z1","name":"Konečného náměstí","arrival_time":"5:35:00","departure_time":"5:35:00","lat":49.204484,"lon":16.595426,"is_passed":false},{"stop_id":"U1431Z1","name":"Nerudova","arrival_time":"5:36:00","departure_time":"5:36:00","lat":49.206566,"lon":16.595654,"is_passed":false},{"stop_id":"U1242Z1","name":"Klusáčkova","arrival_time":"5:37:00","departure_time":"5:37:00","lat":49.212365,"lon":16.592666,"is_passed":false},{"stop_id":"U1661Z1","name":"Tererova","arrival_time":"5:38:00","departure_time":"5:38:00","lat":49.21589,"lon":16.589173,"is_passed":false},{"stop_id":"U1088Z1","name":"Dobrovského","arrival_time":"5:39:00","departure_time":"5:39:00","lat":49.217769,"lon":16.587876,"is_passed":false},{"stop_id":"U1567Z1","name":"Skácelova","arrival_time":"5:40:00","departure_time":"5:40:00","lat":49.221069,"lon":16.585612,"is_passed":false},{"stop_id":"U1072Z1","name":"Červinkova","arrival_time":"5:41:00","departure_time":"5:41:00","lat":49.22545,"lon":16.582624,"is_passed":false},{"stop_id":"U1664Z1","name":"Technické muzeum","arrival_time":"5:42:00","departure_time":"5:42:00","lat":49.228047,"lon":16.582285,"is_passed":false},{"stop_id":"U1104Z1","name":"Edisonova","arrival_time":"5:43:00","departure_time":"5:43:00","lat":49.22828,"lon":16.576461,"is_passed":false},{"stop_id":"U1252Z2","name":"Kolejní","arrival_time":"5:44:00","departure_time":"5:44:00","lat":49.230641,"lon":16.57191,"is_passed":false},{"stop_id":"U1733Z1","name":"Vědeckotechnický park","arrival_time":"5:45:00","departure_time":"5:45:00","lat":49.2326,"lon":16.574806,"is_passed":false},{"stop_id":"U1659Z3","name":"Technologický park","arrival_time":"5:46:00","departure_time":"6:10:00","lat":49.23192,"lon":16.576848,"is_passed":false}]