[{"stop_id":"U1611Z8","name":"Stará osada","arrival_time":"13:02:00","departure_time":"13:02:00","lat":49.202294,"lon":16.642001,"is_passed":false},{"stop_id":"U1113Z1","name":"Gajdošova","arrival_time":"13:03:00","departure_time":"13:03:00","lat":49.19868,"lon":16.645552,"is_passed":false},{"stop_id":"U1473Z3","name":"Otakara Ševčíka","arrival_time":"13:04:00","departure_time":"13:04:00","lat":49.194578,"lon":16.646459,"is_passed":false},{"stop_id":"U1641Z2","name":"Škroupova","arrival_time":"13:05:00","departure_time":"13:05:00","lat":49.191985,"lon":16.647843,"is_passed":false},{"stop_id":"U1677Z2","name":"Tržní","arrival_time":"13:08:00","departure_time":"13:08:00","lat":49.189407,"lon":16.629972,"is_passed":false},{"stop_id":"U1144Z2","name":"Hladíkova","arrival_time":"13:08:00","departure_time":"13:08:00","lat":49.187865,"lon":16.625741,"is_passed":false},{"stop_id":"U1011Z3","name":"Autobusové nádraží","arrival_time":"13:10:00","departure_time":"13:10:00","lat":49.186909,"lon":16.617974,"is_passed":false},{"stop_id":"U1463Z1","name":"Opuštěná","arrival_time":"13:11:00","departure_time":"13:11:00","lat":49.185877,"lon":16.61397,"is_passed":false},{"stop_id":"U1149Z2","name":"Holandská","arrival_time":"13:14:00","departure_time":"13:14:00","lat":49.179934,"lon":16.604368,"is_passed":false},{"stop_id":"U1024Z2","name":"Bidláky","arrival_time":"13:15:00","departure_time":"13:15:00","lat":49.177915,"lon":16.606108,"is_passed":false},{"stop_id":"U1622Z1","name":"Strážní","arrival_time":"13:16:00","departure_time":"13:16:00","lat":49.178207,"lon":16.603976,"is_passed":false},{"stop_id":"U1301Z6","name":"Křídlovická","arrival_time":"13:18:00","departure_time":"13:18:00","lat":49.185396,"lon":16.600706,"is_passed":false},{"stop_id":"U1512Z2","name":"Poříčí","arrival_time":"13:20:00","departure_time":"13:20:00","lat":49.187409,"lon":16.594512,"is_passed":false},{"stop_id":"U1378Z9","name":"Mendlovo náměstí","arrival_time":"13:24:00","departure_time":"13:24:00","lat":49.190456,"lon":16.593122,"is_passed":false},{"stop_id":"U1307Z2","name":"Křížkovského","arrival_time":"13:25:00","departure_time":"13:25:00","lat":49.18713,"lon":16.58669,"is_passed":false},{"stop_id":"U1728Z2","name":"Velodrom","arrival_time":"13:26:00","departure_time":"13:26:00","lat":49.184406,"lon":16.576944,"is_passed":false},{"stop_id":"U1541Z2","name":"Riviéra","arrival_time":"13:27:00","departure_time":"13:27:00","lat":49.187764,"lon":16.572566,"is_passed":false},{"stop_id":"U1487Z7","name":"Pisárky","arrival_time":"13:29:00","departure_time":"13:29:00","lat":49.193452,"lon":16.569802,"is_passed":false},{"stop_id":"U1007Z1","name":"Anthropos","arrival_time":"13:30:00","departure_time":"13:30:00","lat":49.193461,"lon":16.565902,"is_passed":false},{"stop_id":"U1490Z1","name":"Pod Jurankou","arrival_time":"13:31:00","departure_time":"13:31:00","lat":49.199371,"lon":16.566405,"is_passed":false},{"stop_id":"U1732Z1","name":"Veslařská","arrival_time":"13:32:00","departure_time":"13:32:00","lat":49.202697,"lon":16.565265,"is_passed":false},{"stop_id":"U1216Z1","name":"Jundrov, hřiště","arrival_time":"13:33:00","departure_time":"13:33:00","lat":49.204651,"lon":16.560232,"is_passed":false},{"stop_id":"U1214Z1","name":"Jundrovský most","arrival_time":"13:35:00","departure_time":"13:35:00","lat":49.209437,"lon":16.556755,"is_passed":false},{"stop_id":"U1217Z4","name":"Vozovna Komín","arrival_time":"13:36:00","departure_time":"13:36:00","lat":49.213659,"lon":16.559498,"is_passed":false},{"stop_id":"U1143Z2","name":"Hlavní","arrival_time":"13:37:00","departure_time":"13:37:00","lat":49.21715,"lon":16.560506,"is_passed":false},{"stop_id":"U1651Z2","name":"Štursova","arrival_time":"13:38:00","departure_time":"13:38:00","lat":49.215854,"lon":16.564522,"is_passed":false},{"stop_id":"U1544Z4","name":"Rosického náměstí","arrival_time":"13:39:00","departure_time":"13:39:00","lat":49.214881,"lon":16.568314,"is_passed":false},{"stop_id":"U1528Z4","name":"Přívrat","arrival_time":"13:41:00","departure_time":"13:41:00","lat":49.218647,"lon":16.574085,"is_passed":false},{"stop_id":"U1777Z2","name":"Záhřebská","arrival_time":"13:42:00","departure_time":"13:42:00","lat":49.219845,"lon":16.580415,"is_passed":false},{"stop_id":"U1567Z6","name":"Skácelova","arrival_time":"13:44:00","departure_time":"13:44:00","lat":49.22163,"lon":16.585935,"is_passed":false},{"stop_id":"U1586Z4","name":"Slovanské náměstí","arrival_time":"13:45:00","departure_time":"13:45:00","lat":49.222774,"lon":16.591332,"is_passed":false},{"stop_id":"U1171Z3","name":"Husitská","arrival_time":"13:46:00","departure_time":"13:46:00","lat":49.223851,"lon":16.594116,"is_passed":false},{"stop_id":"U1566Z4","name":"Semilasso","arrival_time":"13:48:00","departure_time":"13:48:00","lat":49.228055,"lon":16.593438,"is_passed":false},{"stop_id":"U1286Z3","name":"Královo Pole, nádraží","arrival_time":"13:49:00","departure_time":"13:49:00","lat":49.229218,"lon":16.596271,"is_passed":false},{"stop_id":"U1388Z2","name":"Mojmírovo náměstí","arrival_time":"13:50:00","departure_time":"13:50:00","lat":49.226499,"lon":16.598423,"is_passed":false},{"stop_id":"U1246Z1","name":"Kociánka","arrival_time":"13:51:00","departure_time":"13:51:00","lat":49.225575,"lon":16.601869,"is_passed":false},{"stop_id":"U1288Z1","name":"Královopolská strojírna","arrival_time":"13:52:00","departure_time":"13:52:00","lat":49.223948,"lon":16.60736,"is_passed":false},{"stop_id":"U1087Z1","name":"Divišova čtvrť","arrival_time":"13:53:00","departure_time":"13:53:00","lat":49.223493,"lon":16.613643,"is_passed":false},{"stop_id":"U1692Z1","name":"U tunýlku","arrival_time":"13:53:00","departure_time":"13:53:00","lat":49.222688,"lon":16.617771,"is_passed":false},{"stop_id":"U1128Z4","name":"Halasovo náměstí","arrival_time":"13:55:00","departure_time":"13:55:00","lat":49.22314,"lon":16.622438,"is_passed":false},{"stop_id":"U1506Z2","name":"Poliklinika Lesná","arrival_time":"13:56:00","departure_time":"13:56:00","lat":49.222411,"lon":16.625672,"is_passed":false},{"stop_id":"U1331Z2","name":"Lesná, nádraží","arrival_time":"13:57:00","departure_time":"13:57:00","lat":49.220094,"lon":16.62942,"is_passed":false},{"stop_id":"U1646Z4","name":"Štefánikova čtvrť","arrival_time":"13:58:00","departure_time":"13:58:00","lat":49.217288,"lon":16.627693,"is_passed":false},{"stop_id":"U1381Z1","name":"Merhautova","arrival_time":"13:59:00","departure_time":"13:59:00","lat":49.21485,"lon":16.627477,"is_passed":false},{"stop_id":"U1668Z3","name":"Tomkovo náměstí","arrival_time":"14:01:00","departure_time":"14:01:00","lat":49.213205,"lon":16.636652,"is_passed":false},{"stop_id":"U1811Z2","name":"Židenice, kasárna","arrival_time":"14:03:00","departure_time":"14:03:00","lat":49.20856,"lon":16.642247,"is_passed":false},{"stop_id":"U1611Z10","name":"Stará osada","arrival_time":"14:05:00","departure_time":"14:17:00","lat":49.202952,"lon":16.642174,"is_passed":false}]