[{"stop_id":"U14242Z4","name":"Zastávka, železniční stanice","arrival_time":"17:49:00","departure_time":"17:49:00","lat":49.187553,"lon":16.359243,"is_passed":false},{"stop_id":"U14224Z1","name":"Babice u Rosic","arrival_time":"17:52:00","departure_time":"17:52:00","lat":49.171094,"lon":16.359022,"is_passed":false},{"stop_id":"U14338Z1","name":"Zbýšov, Sička","arrival_time":"17:54:00","departure_time":"17:54:00","lat":49.166783,"lon":16.353281,"is_passed":false},{"stop_id":"U14335Z1","name":"Zbýšov, Jednota","arrival_time":"17:57:00","departure_time":"17:57:00","lat":49.161582,"lon":16.342693,"is_passed":false},{"stop_id":"U14330Z1","name":"Zakřany, Jednota","arrival_time":"18:00:00","departure_time":"18:00:00","lat":49.168713,"lon":16.331422,"is_passed":false},{"stop_id":"U14331Z1","name":"Zakřany, obecní úřad","arrival_time":"18:01:00","departure_time":"18:01:00","lat":49.170393,"lon":16.325588,"is_passed":false},{"stop_id":"U14332Z1","name":"Zakřany, ZD","arrival_time":"18:02:00","departure_time":"18:02:00","lat":49.169187,"lon":16.319818,"is_passed":false},{"stop_id":"U14324Z1","name":"Lukovany, u kapličky","arrival_time":"18:04:00","departure_time":"18:04:00","lat":49.163321,"lon":16.3027,"is_passed":false},{"stop_id":"U14322Z1","name":"Lukovany, na dolině","arrival_time":"18:05:00","departure_time":"18:05:00","lat":49.162995,"lon":16.299642,"is_passed":false},{"stop_id":"U14323Z1","name":"Lukovany, točna","arrival_time":"18:06:00","departure_time":"19:10:00","lat":49.163362,"lon":16.295969,"is_passed":false}]