{"506":[{"stop_id":"U12736Z51","name":"Letovice, železniční stanice","arrival_time":"22:59:00","departure_time":"22:59:00","lat":49.555973,"lon":16.570906,"is_passed":false},{"stop_id":"U22702Z2","name":"Letovice zastávka","arrival_time":"23:01:00","departure_time":"23:02:00","lat":49.536152,"lon":16.576186,"is_passed":false},{"stop_id":"U22602Z2","name":"Svitávka","arrival_time":"23:06:00","departure_time":"23:06:00","lat":49.499434,"lon":16.599208,"is_passed":false},{"stop_id":"U12676Z51","name":"Skalice nad Svitavou, žel.st.","arrival_time":"23:09:00","departure_time":"23:09:00","lat":49.480123,"lon":16.609726,"is_passed":false},{"stop_id":"U12511Z51","name":"Doubravice, žel.st.","arrival_time":"23:14:00","departure_time":"23:14:00","lat":49.438707,"lon":16.621809,"is_passed":false},{"stop_id":"U12439Z51","name":"Rájec-Jestřebí, železniční stanice","arrival_time":"23:17:00","departure_time":"23:18:00","lat":49.408206,"lon":16.627711,"is_passed":false},{"stop_id":"U22301Z2","name":"Dolní Lhota","arrival_time":"23:20:00","departure_time":"23:20:00","lat":49.386917,"lon":16.633978,"is_passed":false},{"stop_id":"U22302Z2","name":"Blansko město","arrival_time":"23:22:00","departure_time":"23:23:00","lat":49.360996,"lon":16.639464,"is_passed":false},{"stop_id":"U12342Z29","name":"Blansko, aut. st.","arrival_time":"23:24:00","departure_time":"23:25:00","lat":49.352753,"lon":16.646848,"is_passed":false},{"stop_id":"U12231Z11","name":"Adamov, železniční zastávka","arrival_time":"23:30:00","departure_time":"23:31:00","lat":49.300671,"lon":16.650653,"is_passed":false},{"stop_id":"U12230Z11","name":"Adamov, železniční stanice","arrival_time":"23:32:00","departure_time":"23:33:00","lat":49.295341,"lon":16.663538,"is_passed":false},{"stop_id":"U12158Z11","name":"Bílovice nad Svitavou, žel. stanice","arrival_time":"23:38:00","departure_time":"23:39:00","lat":49.242715,"lon":16.673677,"is_passed":false},{"stop_id":"U1809Z11","name":"Židenice, nádraží","arrival_time":"23:44:00","departure_time":"23:44:00","lat":49.204282,"lon":16.636042,"is_passed":false},{"stop_id":"U1146Z98","name":"Hlavní nádraží","arrival_time":"23:48:00","departure_time":"23:48:00","lat":49.19035,"lon":16.612342,"is_passed":false}],"5060":[{"stop_id":"U14319Z11","name":"Hlína","arrival_time":"13:47:00","departure_time":"13:47:00","lat":49.114511,"lon":16.427406,"is_passed":false},{"stop_id":"U14320Z2","name":"Hlína, samota","arrival_time":"13:49:00","departure_time":"13:49:00","lat":49.123189,"lon":16.421014,"is_passed":false},{"stop_id":"U14325Z2","name":"Neslovice","arrival_time":"13:55:00","departure_time":"13:55:00","lat":49.142605,"lon":16.387307,"is_passed":false},{"stop_id":"U14326Z2","name":"Neslovice, škola","arrival_time":"13:56:00","departure_time":"13:56:00","lat":49.145858,"lon":16.387305,"is_passed":false},{"stop_id":"U14321Z2","name":"Kratochvilka","arrival_time":"13:59:00","departure_time":"13:59:00","lat":49.157147,"lon":16.376968,"is_passed":false},{"stop_id":"U14224Z2","name":"Babice u Rosic","arrival_time":"14:03:00","departure_time":"14:03:00","lat":49.171089,"lon":16.359275,"is_passed":false},{"stop_id":"U14242Z10","name":"Zastávka, železniční stanice","arrival_time":"14:07:00","departure_time":"14:19:00","lat":49.187164,"lon":16.360086,"is_passed":false}],"5061":[{"stop_id":"U14242Z5","name":"Zastávka, železniční stanice","arrival_time":"14:19:00","departure_time":"14:19:00","lat":49.187451,"lon":16.359464,"is_passed":false},{"stop_id":"U14224Z1","name":"Babice u Rosic","arrival_time":"14:22:00","departure_time":"14:22:00","lat":49.171094,"lon":16.359022,"is_passed":false},{"stop_id":"U14321Z1","name":"Kratochvilka","arrival_time":"14:25:00","departure_time":"14:25:00","lat":49.15696,"lon":16.37693,"is_passed":false},{"stop_id":"U14326Z1","name":"Neslovice, škola","arrival_time":"14:27:00","departure_time":"14:27:00","lat":49.145957,"lon":16.387267,"is_passed":false},{"stop_id":"U14325Z1","name":"Neslovice","arrival_time":"14:29:00","departure_time":"14:37:00","lat":49.14255,"lon":16.387508,"is_passed":false},{"stop_id":"U14320Z1","name":"Hlína, samota","arrival_time":"14:42:00","departure_time":"14:42:00","lat":49.123094,"lon":16.421006,"is_passed":false},{"stop_id":"U14319Z1","name":"Hlína","arrival_time":"14:44:00","departure_time":"14:47:00","lat":49.114511,"lon":16.427406,"is_passed":false}],"5062":[{"stop_id":"U14319Z11","name":"Hlína","arrival_time":"14:47:00","departure_time":"14:47:00","lat":49.114511,"lon":16.427406,"is_passed":false},{"stop_id":"U14320Z2","name":"Hlína, samota","arrival_time":"14:49:00","departure_time":"14:49:00","lat":49.123189,"lon":16.421014,"is_passed":false},{"stop_id":"U14325Z2","name":"Neslovice","arrival_time":"14:55:00","departure_time":"14:55:00","lat":49.142605,"lon":16.387307,"is_passed":false},{"stop_id":"U14326Z2","name":"Neslovice, škola","arrival_time":"14:56:00","departure_time":"14:56:00","lat":49.145858,"lon":16.387305,"is_passed":false},{"stop_id":"U14321Z2","name":"Kratochvilka","arrival_time":"14:59:00","departure_time":"14:59:00","lat":49.157147,"lon":16.376968,"is_passed":false},{"stop_id":"U14224Z2","name":"Babice u Rosic","arrival_time":"15:03:00","departure_time":"15:03:00","lat":49.171089,"lon":16.359275,"is_passed":false},{"stop_id":"U14242Z10","name":"Zastávka, železniční stanice","arrival_time":"15:07:00","departure_time":"15:19:00","lat":49.187164,"lon":16.360086,"is_passed":false}],"5063":[{"stop_id":"U14242Z5","name":"Zastávka, železniční stanice","arrival_time":"15:19:00","departure_time":"15:19:00","lat":49.187451,"lon":16.359464,"is_passed":false},{"stop_id":"U14224Z1","name":"Babice u Rosic","arrival_time":"15:22:00","departure_time":"15:22:00","lat":49.171094,"lon":16.359022,"is_passed":false},{"stop_id":"U14321Z1","name":"Kratochvilka","arrival_time":"15:25:00","departure_time":"15:25:00","lat":49.15696,"lon":16.37693,"is_passed":false},{"stop_id":"U14326Z1","name":"Neslovice, škola","arrival_time":"15:27:00","departure_time":"15:27:00","lat":49.145957,"lon":16.387267,"is_passed":false},{"stop_id":"U14325Z1","name":"Neslovice","arrival_time":"15:29:00","departure_time":"15:37:00","lat":49.14255,"lon":16.387508,"is_passed":false},{"stop_id":"U14320Z1","name":"Hlína, samota","arrival_time":"15:42:00","departure_time":"15:42:00","lat":49.123094,"lon":16.421006,"is_passed":false},{"stop_id":"U14319Z1","name":"Hlína","arrival_time":"15:44:00","departure_time":"15:47:00","lat":49.114511,"lon":16.427406,"is_passed":false}],"5064":[{"stop_id":"U14319Z11","name":"Hlína","arrival_time":"15:47:00","departure_time":"15:47:00","lat":49.114511,"lon":16.427406,"is_passed":false},{"stop_id":"U14320Z2","name":"Hlína, samota","arrival_time":"15:49:00","departure_time":"15:49:00","lat":49.123189,"lon":16.421014,"is_passed":false},{"stop_id":"U14325Z2","name":"Neslovice","arrival_time":"15:55:00","departure_time":"15:55:00","lat":49.142605,"lon":16.387307,"is_passed":false},{"stop_id":"U14326Z2","name":"Neslovice, škola","arrival_time":"15:56:00","departure_time":"15:56:00","lat":49.145858,"lon":16.387305,"is_passed":false},{"stop_id":"U14321Z2","name":"Kratochvilka","arrival_time":"15:59:00","departure_time":"15:59:00","lat":49.157147,"lon":16.376968,"is_passed":false},{"stop_id":"U14224Z2","name":"Babice u Rosic","arrival_time":"16:03:00","departure_time":"16:03:00","lat":49.171089,"lon":16.359275,"is_passed":false},{"stop_id":"U14242Z10","name":"Zastávka, železniční stanice","arrival_time":"16:07:00","departure_time":"16:19:00","lat":49.187164,"lon":16.360086,"is_passed":false}],"5065":[{"stop_id":"U14242Z5","name":"Zastávka, železniční stanice","arrival_time":"16:19:00","departure_time":"16:19:00","lat":49.187451,"lon":16.359464,"is_passed":false},{"stop_id":"U14224Z1","name":"Babice u Rosic","arrival_time":"16:22:00","departure_time":"16:22:00","lat":49.171094,"lon":16.359022,"is_passed":false},{"stop_id":"U14321Z1","name":"Kratochvilka","arrival_time":"16:25:00","departure_time":"16:25:00","lat":49.15696,"lon":16.37693,"is_passed":false},{"stop_id":"U14326Z1","name":"Neslovice, škola","arrival_time":"16:27:00","departure_time":"16:27:00","lat":49.145957,"lon":16.387267,"is_passed":false},{"stop_id":"U14325Z1","name":"Neslovice","arrival_time":"16:29:00","departure_time":"16:37:00","lat":49.14255,"lon":16.387508,"is_passed":false},{"stop_id":"U14320Z1","name":"Hlína, samota","arrival_time":"16:42:00","departure_time":"16:42:00","lat":49.123094,"lon":16.421006,"is_passed":false},{"stop_id":"U14319Z1","name":"Hlína","arrival_time":"16:44:00","departure_time":"17:09:00","lat":49.114511,"lon":16.427406,"is_passed":false}],"5066":[{"stop_id":"U14319Z11","name":"Hlína","arrival_time":"17:09:00","departure_time":"17:09:00","lat":49.114511,"lon":16.427406,"is_passed":false},{"stop_id":"U14320Z2","name":"Hlína, samota","arrival_time":"17:11:00","departure_time":"17:11:00","lat":49.123189,"lon":16.421014,"is_passed":false},{"stop_id":"U14325Z2","name":"Neslovice","arrival_time":"17:17:00","departure_time":"17:25:00","lat":49.142605,"lon":16.387307,"is_passed":false},{"stop_id":"U14326Z2","name":"Neslovice, škola","arrival_time":"17:26:00","departure_time":"17:26:00","lat":49.145858,"lon":16.387305,"is_passed":false},{"stop_id":"U14321Z2","name":"Kratochvilka","arrival_time":"17:29:00","departure_time":"17:29:00","lat":49.157147,"lon":16.376968,"is_passed":false},{"stop_id":"U14224Z2","name":"Babice u Rosic","arrival_time":"17:33:00","departure_time":"17:33:00","lat":49.171089,"lon":16.359275,"is_passed":false},{"stop_id":"U14242Z10","name":"Zastávka, železniční stanice","arrival_time":"17:37:00","departure_time":"17:37:00","lat":49.187164,"lon":16.360086,"is_passed":false}],"5067":[{"stop_id":"U14242Z4","name":"Zastávka, železniční stanice","arrival_time":"17:49:00","departure_time":"17:49:00","lat":49.187553,"lon":16.359243,"is_passed":false},{"stop_id":"U14224Z1","name":"Babice u Rosic","arrival_time":"17:52:00","departure_time":"17:52:00","lat":49.171094,"lon":16.359022,"is_passed":false},{"stop_id":"U14338Z1","name":"Zbýšov, Sička","arrival_time":"17:54:00","departure_time":"17:54:00","lat":49.166783,"lon":16.353281,"is_passed":false},{"stop_id":"U14335Z1","name":"Zbýšov, Jednota","arrival_time":"17:57:00","departure_time":"17:57:00","lat":49.161582,"lon":16.342693,"is_passed":false},{"stop_id":"U14330Z1","name":"Zakřany, Jednota","arrival_time":"18:00:00","departure_time":"18:00:00","lat":49.168713,"lon":16.331422,"is_passed":false},{"stop_id":"U14331Z1","name":"Zakřany, obecní úřad","arrival_time":"18:01:00","departure_time":"18:01:00","lat":49.170393,"lon":16.325588,"is_passed":false},{"stop_id":"U14332Z1","name":"Zakřany, ZD","arrival_time":"18:02:00","departure_time":"18:02:00","lat":49.169187,"lon":16.319818,"is_passed":false},{"stop_id":"U14324Z1","name":"Lukovany, u kapličky","arrival_time":"18:04:00","departure_time":"18:04:00","lat":49.163321,"lon":16.3027,"is_passed":false},{"stop_id":"U14322Z1","name":"Lukovany, na dolině","arrival_time":"18:05:00","departure_time":"18:05:00","lat":49.162995,"lon":16.299642,"is_passed":false},{"stop_id":"U14323Z1","name":"Lukovany, točna","arrival_time":"18:06:00","departure_time":"19:10:00","lat":49.163362,"lon":16.295969,"is_passed":false}],"5068":[{"stop_id":"U14323Z2","name":"Lukovany, točna","arrival_time":"19:10:00","departure_time":"19:10:00","lat":49.163362,"lon":16.295969,"is_passed":false},{"stop_id":"U14322Z2","name":"Lukovany, na dolině","arrival_time":"19:11:00","departure_time":"19:11:00","lat":49.162876,"lon":16.299755,"is_passed":false},{"stop_id":"U14324Z2","name":"Lukovany, u kapličky","arrival_time":"19:12:00","departure_time":"19:12:00","lat":49.163265,"lon":16.302909,"is_passed":false},{"stop_id":"U14332Z2","name":"Zakřany, ZD","arrival_time":"19:14:00","departure_time":"19:14:00","lat":49.169187,"lon":16.319818,"is_passed":false},{"stop_id":"U14331Z2","name":"Zakřany, obecní úřad","arrival_time":"19:16:00","departure_time":"19:16:00","lat":49.170265,"lon":16.325898,"is_passed":false},{"stop_id":"U14330Z2","name":"Zakřany, Jednota","arrival_time":"19:18:00","departure_time":"19:18:00","lat":49.168722,"lon":16.331437,"is_passed":false},{"stop_id":"U14335Z2","name":"Zbýšov, Jednota","arrival_time":"19:20:00","departure_time":"19:20:00","lat":49.161319,"lon":16.342814,"is_passed":false},{"stop_id":"U14338Z2","name":"Zbýšov, Sička","arrival_time":"19:24:00","departure_time":"19:24:00","lat":49.16693,"lon":16.353128,"is_passed":false},{"stop_id":"U14224Z2","name":"Babice u Rosic","arrival_time":"19:26:00","departure_time":"19:26:00","lat":49.171089,"lon":16.359275,"is_passed":false},{"stop_id":"U14242Z10","name":"Zastávka, železniční stanice","arrival_time":"19:32:00","departure_time":"19:32:00","lat":49.187164,"lon":16.360086,"is_passed":false}],"5069":[{"stop_id":"U14502Z2","name":"Mohelno","arrival_time":"3:49:00","departure_time":"3:49:00","lat":49.114162,"lon":16.1901,"is_passed":false},{"stop_id":"U14503Z2","name":"Mohelno, sokolovna","arrival_time":"3:51:00","departure_time":"3:51:00","lat":49.115239,"lon":16.194647,"is_passed":false},{"stop_id":"U14501Z2","name":"Lhánice","arrival_time":"3:53:00","departure_time":"3:53:00","lat":49.111785,"lon":16.217625,"is_passed":false},{"stop_id":"U14504Z2","name":"Senorady","arrival_time":"3:58:00","departure_time":"3:58:00","lat":49.124017,"lon":16.244656,"is_passed":false},{"stop_id":"U14505Z2","name":"Senorady, u kovárny","arrival_time":"3:59:00","departure_time":"3:59:00","lat":49.122403,"lon":16.250997,"is_passed":false},{"stop_id":"U14439Z2","name":"Biskoupky, rozc.","arrival_time":"4:03:00","departure_time":"4:03:00","lat":49.11017,"lon":16.28592,"is_passed":false},{"stop_id":"U14438Z1","name":"Biskoupky","arrival_time":"4:06:00","departure_time":"4:06:00","lat":49.099688,"lon":16.280147,"is_passed":false},{"stop_id":"U14456Z2","name":"Nová Ves, škola","arrival_time":"4:10:00","departure_time":"4:10:00","lat":49.108635,"lon":16.309863,"is_passed":false},{"stop_id":"U14455Z2","name":"Nová Ves, host. U Slavíků","arrival_time":"4:12:00","departure_time":"4:12:00","lat":49.106547,"lon":16.314608,"is_passed":false},{"stop_id":"U14459Z2","name":"Oslavany, Dolina","arrival_time":"4:14:00","departure_time":"4:14:00","lat":49.116713,"lon":16.324797,"is_passed":false},{"stop_id":"U14457Z2","name":"Oslavany, aut. st.","arrival_time":"4:17:00","departure_time":"4:17:00","lat":49.120756,"lon":16.336297,"is_passed":false},{"stop_id":"U14466Z2","name":"Oslavany, železniční stanice","arrival_time":"4:18:00","departure_time":"4:18:00","lat":49.119346,"lon":16.344437,"is_passed":false},{"stop_id":"U14451Z2","name":"Ivančice, silo","arrival_time":"4:20:00","departure_time":"4:20:00","lat":49.108022,"lon":16.355788,"is_passed":false},{"stop_id":"U14448Z2","name":"Ivančice, Oslavanská","arrival_time":"4:21:00","departure_time":"4:21:00","lat":49.103775,"lon":16.368657,"is_passed":false},{"stop_id":"U14446Z3","name":"Ivančice, náměstí","arrival_time":"4:24:00","departure_time":"4:27:00","lat":49.102278,"lon":16.375185,"is_passed":false},{"stop_id":"U14453Z2","name":"Ivančice, škola","arrival_time":"4:28:00","departure_time":"4:28:00","lat":49.104455,"lon":16.372021,"is_passed":false},{"stop_id":"U14325Z2","name":"Neslovice","arrival_time":"4:37:00","departure_time":"4:37:00","lat":49.142605,"lon":16.387307,"is_passed":false},{"stop_id":"U14237Z2","name":"Tetčice, Neslovická","arrival_time":"4:40:00","departure_time":"4:40:00","lat":49.1663,"lon":16.401986,"is_passed":false},{"stop_id":"U14238Z2","name":"Tetčice, žel. st.","arrival_time":"4:42:00","departure_time":"4:42:00","lat":49.17187,"lon":16.408896,"is_passed":false},{"stop_id":"U14227Z2","name":"Rosice, Husova","arrival_time":"4:45:00","departure_time":"4:45:00","lat":49.181661,"lon":16.398961,"is_passed":false},{"stop_id":"U14235Z1","name":"Rosice, Trávníky","arrival_time":"4:47:00","departure_time":"4:47:00","lat":49.183539,"lon":16.390958,"is_passed":false},{"stop_id":"U14229Z1","name":"Rosice, Kamínky","arrival_time":"4:48:00","departure_time":"4:48:00","lat":49.184836,"lon":16.382997,"is_passed":false},{"stop_id":"U14230Z2","name":"Rosice, Litostrovská","arrival_time":"4:49:00","departure_time":"4:49:00","lat":49.187568,"lon":16.375709,"is_passed":false},{"stop_id":"U14231Z2","name":"Rosice, Okrouhlík","arrival_time":"4:51:00","departure_time":"4:51:00","lat":49.200849,"lon":16.362699,"is_passed":false},{"stop_id":"U14228Z2","name":"Rosice, kamenolom","arrival_time":"4:54:00","departure_time":"4:54:00","lat":49.205535,"lon":16.341153,"is_passed":false},{"stop_id":"U14308Z1","name":"Litostrov","arrival_time":"5:00:00","departure_time":"5:00:00","lat":49.227035,"lon":16.334154,"is_passed":false},{"stop_id":"U14309Z2","name":"Rudka","arrival_time":"5:03:00","departure_time":"5:03:00","lat":49.24159,"lon":16.330617,"is_passed":false},{"stop_id":"U14310Z2","name":"Rudka, u křížku","arrival_time":"5:04:00","departure_time":"5:04:00","lat":49.243503,"lon":16.335135,"is_passed":false},{"stop_id":"U14301Z5","name":"Domašov","arrival_time":"5:06:00","departure_time":"5:09:00","lat":49.245467,"lon":16.343688,"is_passed":false},{"stop_id":"U14304Z1","name":"Domašov, u hřbitova","arrival_time":"5:09:00","departure_time":"5:09:00","lat":49.247149,"lon":16.343556,"is_passed":false},{"stop_id":"U14305Z1","name":"Javůrek","arrival_time":"5:12:00","departure_time":"5:45:00","lat":49.254545,"lon":16.360777,"is_passed":false}],"50600":[{"stop_id":"U14123Z32","name":"Ostrovačice, Automotodrom","arrival_time":"19:00:00","departure_time":"19:00:00","lat":49.200274,"lon":16.447283,"is_passed":false},{"stop_id":"U14112Z2","name":"Omice, Kývalka, spojovací","arrival_time":"19:02:00","departure_time":"19:02:00","lat":49.190299,"lon":16.456016,"is_passed":false},{"stop_id":"U14133Z2","name":"Popůvky, Vintrovna","arrival_time":"19:05:00","departure_time":"19:05:00","lat":49.181645,"lon":16.49075,"is_passed":false},{"stop_id":"U14160Z2","name":"Troubsko, Veselka","arrival_time":"19:07:00","departure_time":"19:07:00","lat":49.176834,"lon":16.503674,"is_passed":false},{"stop_id":"U1516Z1","name":"Pražská","arrival_time":"19:09:00","departure_time":"19:09:00","lat":49.173478,"lon":16.531543,"is_passed":false},{"stop_id":"U1632Z2","name":"Svážná","arrival_time":"19:12:00","departure_time":"19:12:00","lat":49.173409,"lon":16.553508,"is_passed":false},{"stop_id":"U1429Z3","name":"Nemocnice Bohunice","arrival_time":"19:15:00","departure_time":"19:20:00","lat":49.175844,"lon":16.567503,"is_passed":false}],"50601":[{"stop_id":"U1429Z3","name":"Nemocnice Bohunice","arrival_time":"8:52:00","departure_time":"8:52:00","lat":49.175844,"lon":16.567503,"is_passed":false},{"stop_id":"U1632Z1","name":"Svážná","arrival_time":"8:55:00","departure_time":"8:55:00","lat":49.173544,"lon":16.553381,"is_passed":false},{"stop_id":"U1161Z3","name":"Hoštická","arrival_time":"8:57:00","departure_time":"8:57:00","lat":49.173743,"lon":16.529523,"is_passed":false},{"stop_id":"U14160Z1","name":"Troubsko, Veselka","arrival_time":"9:00:00","departure_time":"9:00:00","lat":49.176905,"lon":16.503284,"is_passed":false},{"stop_id":"U14133Z1","name":"Popůvky, Vintrovna","arrival_time":"9:02:00","departure_time":"9:02:00","lat":49.181813,"lon":16.490518,"is_passed":false},{"stop_id":"U14112Z1","name":"Omice, Kývalka, spojovací","arrival_time":"9:05:00","departure_time":"9:05:00","lat":49.19051,"lon":16.456047,"is_passed":false},{"stop_id":"U14123Z31","name":"Ostrovačice, Automotodrom","arrival_time":"9:07:00","departure_time":"9:10:00","lat":49.200274,"lon":16.447283,"is_passed":false}],"50602":[{"stop_id":"U1429Z3","name":"Nemocnice Bohunice","arrival_time":"9:52:00","departure_time":"9:52:00","lat":49.175844,"lon":16.567503,"is_passed":false},{"stop_id":"U1632Z1","name":"Svážná","arrival_time":"9:55:00","departure_time":"9:55:00","lat":49.173544,"lon":16.553381,"is_passed":false},{"stop_id":"U1161Z3","name":"Hoštická","arrival_time":"9:57:00","departure_time":"9:57:00","lat":49.173743,"lon":16.529523,"is_passed":false},{"stop_id":"U14160Z1","name":"Troubsko, Veselka","arrival_time":"10:00:00","departure_time":"10:00:00","lat":49.176905,"lon":16.503284,"is_passed":false},{"stop_id":"U14133Z1","name":"Popůvky, Vintrovna","arrival_time":"10:02:00","departure_time":"10:02:00","lat":49.181813,"lon":16.490518,"is_passed":false},{"stop_id":"U14112Z1","name":"Omice, Kývalka, spojovací","arrival_time":"10:05:00","departure_time":"10:05:00","lat":49.19051,"lon":16.456047,"is_passed":false},{"stop_id":"U14123Z31","name":"Ostrovačice, Automotodrom","arrival_time":"10:07:00","departure_time":"10:25:00","lat":49.200274,"lon":16.447283,"is_passed":false}],"50603":[{"stop_id":"U14123Z32","name":"Ostrovačice, Automotodrom","arrival_time":"10:25:00","departure_time":"10:25:00","lat":49.200274,"lon":16.447283,"is_passed":false},{"stop_id":"U14112Z2","name":"Omice, Kývalka, spojovací","arrival_time":"10:27:00","departure_time":"10:27:00","lat":49.190299,"lon":16.456016,"is_passed":false},{"stop_id":"U14133Z2","name":"Popůvky, Vintrovna","arrival_time":"10:30:00","departure_time":"10:30:00","lat":49.181645,"lon":16.49075,"is_passed":false},{"stop_id":"U14160Z2","name":"Troubsko, Veselka","arrival_time":"10:32:00","departure_time":"10:32:00","lat":49.176834,"lon":16.503674,"is_passed":false},{"stop_id":"U1516Z1","name":"Pražská","arrival_time":"10:34:00","departure_time":"10:34:00","lat":49.173478,"lon":16.531543,"is_passed":false},{"stop_id":"U1632Z2","name":"Svážná","arrival_time":"10:37:00","departure_time":"10:37:00","lat":49.173409,"lon":16.553508,"is_passed":false},{"stop_id":"U1429Z3","name":"Nemocnice Bohunice","arrival_time":"10:40:00","departure_time":"11:00:00","lat":49.175844,"lon":16.567503,"is_passed":false}],"50604":[{"stop_id":"U1429Z3","name":"Nemocnice Bohunice","arrival_time":"11:00:00","departure_time":"11:00:00","lat":49.175844,"lon":16.567503,"is_passed":false},{"stop_id":"U1632Z1","name":"Svážná","arrival_time":"11:03:00","departure_time":"11:03:00","lat":49.173544,"lon":16.553381,"is_passed":false},{"stop_id":"U1161Z3","name":"Hoštická","arrival_time":"11:05:00","departure_time":"11:05:00","lat":49.173743,"lon":16.529523,"is_passed":false},{"stop_id":"U14160Z1","name":"Troubsko, Veselka","arrival_time":"11:08:00","departure_time":"11:08:00","lat":49.176905,"lon":16.503284,"is_passed":false},{"stop_id":"U14133Z1","name":"Popůvky, Vintrovna","arrival_time":"11:10:00","departure_time":"11:10:00","lat":49.181813,"lon":16.490518,"is_passed":false},{"stop_id":"U14112Z1","name":"Omice, Kývalka, spojovací","arrival_time":"11:13:00","departure_time":"11:13:00","lat":49.19051,"lon":16.456047,"is_passed":false},{"stop_id":"U14123Z31","name":"Ostrovačice, Automotodrom","arrival_time":"11:15:00","departure_time":"11:18:00","lat":49.200274,"lon":16.447283,"is_passed":false}],"50605":[{"stop_id":"U1429Z3","name":"Nemocnice Bohunice","arrival_time":"12:30:00","departure_time":"12:30:00","lat":49.175844,"lon":16.567503,"is_passed":false},{"stop_id":"U1632Z1","name":"Svážná","arrival_time":"12:33:00","departure_time":"12:33:00","lat":49.173544,"lon":16.553381,"is_passed":false},{"stop_id":"U1161Z3","name":"Hoštická","arrival_time":"12:35:00","departure_time":"12:35:00","lat":49.173743,"lon":16.529523,"is_passed":false},{"stop_id":"U14160Z1","name":"Troubsko, Veselka","arrival_time":"12:38:00","departure_time":"12:38:00","lat":49.176905,"lon":16.503284,"is_passed":false},{"stop_id":"U14133Z1","name":"Popůvky, Vintrovna","arrival_time":"12:40:00","departure_time":"12:40:00","lat":49.181813,"lon":16.490518,"is_passed":false},{"stop_id":"U14112Z1","name":"Omice, Kývalka, spojovací","arrival_time":"12:43:00","departure_time":"12:43:00","lat":49.19051,"lon":16.456047,"is_passed":false},{"stop_id":"U14123Z31","name":"Ostrovačice, Automotodrom","arrival_time":"12:45:00","departure_time":"15:05:00","lat":49.200274,"lon":16.447283,"is_passed":false}],"50606":[{"stop_id":"U14123Z32","name":"Ostrovačice, Automotodrom","arrival_time":"15:05:00","departure_time":"15:05:00","lat":49.200274,"lon":16.447283,"is_passed":false},{"stop_id":"U14112Z2","name":"Omice, Kývalka, spojovací","arrival_time":"15:07:00","departure_time":"15:07:00","lat":49.190299,"lon":16.456016,"is_passed":false},{"stop_id":"U14133Z2","name":"Popůvky, Vintrovna","arrival_time":"15:10:00","departure_time":"15:10:00","lat":49.181645,"lon":16.49075,"is_passed":false},{"stop_id":"U14160Z2","name":"Troubsko, Veselka","arrival_time":"15:12:00","departure_time":"15:12:00","lat":49.176834,"lon":16.503674,"is_passed":false},{"stop_id":"U1516Z1","name":"Pražská","arrival_time":"15:14:00","departure_time":"15:14:00","lat":49.173478,"lon":16.531543,"is_passed":false},{"stop_id":"U1632Z2","name":"Svážná","arrival_time":"15:17:00","departure_time":"15:17:00","lat":49.173409,"lon":16.553508,"is_passed":false},{"stop_id":"U1429Z3","name":"Nemocnice Bohunice","arrival_time":"15:20:00","departure_time":"15:40:00","lat":49.175844,"lon":16.567503,"is_passed":false}],"50607":[{"stop_id":"U1429Z3","name":"Nemocnice Bohunice","arrival_time":"15:40:00","departure_time":"15:40:00","lat":49.175844,"lon":16.567503,"is_passed":false},{"stop_id":"U1632Z1","name":"Svážná","arrival_time":"15:43:00","departure_time":"15:43:00","lat":49.173544,"lon":16.553381,"is_passed":false},{"stop_id":"U1161Z3","name":"Hoštická","arrival_time":"15:45:00","departure_time":"15:45:00","lat":49.173743,"lon":16.529523,"is_passed":false},{"stop_id":"U14160Z1","name":"Troubsko, Veselka","arrival_time":"15:48:00","departure_time":"15:48:00","lat":49.176905,"lon":16.503284,"is_passed":false},{"stop_id":"U14133Z1","name":"Popůvky, Vintrovna","arrival_time":"15:50:00","departure_time":"15:50:00","lat":49.181813,"lon":16.490518,"is_passed":false},{"stop_id":"U14112Z1","name":"Omice, Kývalka, spojovací","arrival_time":"15:53:00","departure_time":"15:53:00","lat":49.19051,"lon":16.456047,"is_passed":false},{"stop_id":"U14123Z31","name":"Ostrovačice, Automotodrom","arrival_time":"15:55:00","departure_time":"16:30:00","lat":49.200274,"lon":16.447283,"is_passed":false}],"50608":[{"stop_id":"U14123Z32","name":"Ostrovačice, Automotodrom","arrival_time":"16:30:00","departure_time":"16:30:00","lat":49.200274,"lon":16.447283,"is_passed":false},{"stop_id":"U14112Z2","name":"Omice, Kývalka, spojovací","arrival_time":"16:32:00","departure_time":"16:32:00","lat":49.190299,"lon":16.456016,"is_passed":false},{"stop_id":"U14133Z2","name":"Popůvky, Vintrovna","arrival_time":"16:35:00","departure_time":"16:35:00","lat":49.181645,"lon":16.49075,"is_passed":false},{"stop_id":"U14160Z2","name":"Troubsko, Veselka","arrival_time":"16:37:00","departure_time":"16:37:00","lat":49.176834,"lon":16.503674,"is_passed":false},{"stop_id":"U1516Z1","name":"Pražská","arrival_time":"16:39:00","departure_time":"16:39:00","lat":49.173478,"lon":16.531543,"is_passed":false},{"stop_id":"U1632Z2","name":"Svážná","arrival_time":"16:42:00","departure_time":"16:42:00","lat":49.173409,"lon":16.553508,"is_passed":false},{"stop_id":"U1429Z3","name":"Nemocnice Bohunice","arrival_time":"16:45:00","departure_time":"16:48:00","lat":49.175844,"lon":16.567503,"is_passed":false}],"50609":[{"stop_id":"U14123Z32","name":"Ostrovačice, Automotodrom","arrival_time":"17:10:00","departure_time":"17:10:00","lat":49.200274,"lon":16.447283,"is_passed":false},{"stop_id":"U14112Z2","name":"Omice, Kývalka, spojovací","arrival_time":"17:12:00","departure_time":"17:12:00","lat":49.190299,"lon":16.456016,"is_passed":false},{"stop_id":"U14133Z2","name":"Popůvky, Vintrovna","arrival_time":"17:15:00","departure_time":"17:15:00","lat":49.181645,"lon":16.49075,"is_passed":false},{"stop_id":"U14160Z2","name":"Troubsko, Veselka","arrival_time":"17:17:00","departure_time":"17:17:00","lat":49.176834,"lon":16.503674,"is_passed":false},{"stop_id":"U1516Z1","name":"Pražská","arrival_time":"17:19:00","departure_time":"17:19:00","lat":49.173478,"lon":16.531543,"is_passed":false},{"stop_id":"U1632Z2","name":"Svážná","arrival_time":"17:22:00","departure_time":"17:22:00","lat":49.173409,"lon":16.553508,"is_passed":false},{"stop_id":"U1429Z3","name":"Nemocnice Bohunice","arrival_time":"17:25:00","departure_time":"17:28:00","lat":49.175844,"lon":16.567503,"is_passed":false}],"50610":[{"stop_id":"U14123Z32","name":"Ostrovačice, Automotodrom","arrival_time":"18:00:00","departure_time":"18:00:00","lat":49.200274,"lon":16.447283,"is_passed":false},{"stop_id":"U14112Z2","name":"Omice, Kývalka, spojovací","arrival_time":"18:02:00","departure_time":"18:02:00","lat":49.190299,"lon":16.456016,"is_passed":false},{"stop_id":"U14133Z2","name":"Popůvky, Vintrovna","arrival_time":"18:05:00","departure_time":"18:05:00","lat":49.181645,"lon":16.49075,"is_passed":false},{"stop_id":"U14160Z2","name":"Troubsko, Veselka","arrival_time":"18:07:00","departure_time":"18:07:00","lat":49.176834,"lon":16.503674,"is_passed":false},{"stop_id":"U1516Z1","name":"Pražská","arrival_time":"18:09:00","departure_time":"18:09:00","lat":49.173478,"lon":16.531543,"is_passed":false},{"stop_id":"U1632Z2","name":"Svážná","arrival_time":"18:12:00","departure_time":"18:12:00","lat":49.173409,"lon":16.553508,"is_passed":false},{"stop_id":"U1429Z3","name":"Nemocnice Bohunice","arrival_time":"18:15:00","departure_time":"18:30:00","lat":49.175844,"lon":16.567503,"is_passed":false}],"50611":[{"stop_id":"U1429Z3","name":"Nemocnice Bohunice","arrival_time":"18:30:00","departure_time":"18:30:00","lat":49.175844,"lon":16.567503,"is_passed":false},{"stop_id":"U1632Z1","name":"Svážná","arrival_time":"18:33:00","departure_time":"18:33:00","lat":49.173544,"lon":16.553381,"is_passed":false},{"stop_id":"U1161Z3","name":"Hoštická","arrival_time":"18:35:00","departure_time":"18:35:00","lat":49.173743,"lon":16.529523,"is_passed":false},{"stop_id":"U14160Z1","name":"Troubsko, Veselka","arrival_time":"18:38:00","departure_time":"18:38:00","lat":49.176905,"lon":16.503284,"is_passed":false},{"stop_id":"U14133Z1","name":"Popůvky, Vintrovna","arrival_time":"18:40:00","departure_time":"18:40:00","lat":49.181813,"lon":16.490518,"is_passed":false},{"stop_id":"U14112Z1","name":"Omice, Kývalka, spojovací","arrival_time":"18:43:00","departure_time":"18:43:00","lat":49.19051,"lon":16.456047,"is_passed":false},{"stop_id":"U14123Z31","name":"Ostrovačice, Automotodrom","arrival_time":"18:45:00","departure_time":"19:15:00","lat":49.200274,"lon":16.447283,"is_passed":false}],"50612":[{"stop_id":"U14123Z32","name":"Ostrovačice, Automotodrom","arrival_time":"19:15:00","departure_time":"19:15:00","lat":49.200274,"lon":16.447283,"is_passed":false},{"stop_id":"U14112Z2","name":"Omice, Kývalka, spojovací","arrival_time":"19:17:00","departure_time":"19:17:00","lat":49.190299,"lon":16.456016,"is_passed":false},{"stop_id":"U14133Z2","name":"Popůvky, Vintrovna","arrival_time":"19:20:00","departure_time":"19:20:00","lat":49.181645,"lon":16.49075,"is_passed":false},{"stop_id":"U14160Z2","name":"Troubsko, Veselka","arrival_time":"19:22:00","departure_time":"19:22:00","lat":49.176834,"lon":16.503674,"is_passed":false},{"stop_id":"U1516Z1","name":"Pražská","arrival_time":"19:24:00","departure_time":"19:24:00","lat":49.173478,"lon":16.531543,"is_passed":false},{"stop_id":"U1632Z2","name":"Svážná","arrival_time":"19:27:00","departure_time":"19:27:00","lat":49.173409,"lon":16.553508,"is_passed":false},{"stop_id":"U1429Z3","name":"Nemocnice Bohunice","arrival_time":"19:30:00","departure_time":"19:35:00","lat":49.175844,"lon":16.567503,"is_passed":false}],"50613":[{"stop_id":"U1429Z3","name":"Nemocnice Bohunice","arrival_time":"7:00:00","departure_time":"7:00:00","lat":49.175844,"lon":16.567503,"is_passed":false},{"stop_id":"U1632Z1","name":"Svážná","arrival_time":"7:03:00","departure_time":"7:03:00","lat":49.173544,"lon":16.553381,"is_passed":false},{"stop_id":"U1161Z3","name":"Hoštická","arrival_time":"7:05:00","departure_time":"7:05:00","lat":49.173743,"lon":16.529523,"is_passed":false},{"stop_id":"U14160Z1","name":"Troubsko, Veselka","arrival_time":"7:08:00","departure_time":"7:08:00","lat":49.176905,"lon":16.503284,"is_passed":false},{"stop_id":"U14133Z1","name":"Popůvky, Vintrovna","arrival_time":"7:10:00","departure_time":"7:10:00","lat":49.181813,"lon":16.490518,"is_passed":false},{"stop_id":"U14112Z1","name":"Omice, Kývalka, spojovací","arrival_time":"7:13:00","departure_time":"7:13:00","lat":49.19051,"lon":16.456047,"is_passed":false},{"stop_id":"U14123Z31","name":"Ostrovačice, Automotodrom","arrival_time":"7:15:00","departure_time":"7:18:00","lat":49.200274,"lon":16.447283,"is_passed":false}],"50614":[{"stop_id":"U1429Z3","name":"Nemocnice Bohunice","arrival_time":"8:00:00","departure_time":"8:00:00","lat":49.175844,"lon":16.567503,"is_passed":false},{"stop_id":"U1632Z1","name":"Svážná","arrival_time":"8:03:00","departure_time":"8:03:00","lat":49.173544,"lon":16.553381,"is_passed":false},{"stop_id":"U1161Z3","name":"Hoštická","arrival_time":"8:05:00","departure_time":"8:05:00","lat":49.173743,"lon":16.529523,"is_passed":false},{"stop_id":"U14160Z1","name":"Troubsko, Veselka","arrival_time":"8:08:00","departure_time":"8:08:00","lat":49.176905,"lon":16.503284,"is_passed":false},{"stop_id":"U14133Z1","name":"Popůvky, Vintrovna","arrival_time":"8:10:00","departure_time":"8:10:00","lat":49.181813,"lon":16.490518,"is_passed":false},{"stop_id":"U14112Z1","name":"Omice, Kývalka, spojovací","arrival_time":"8:13:00","departure_time":"8:13:00","lat":49.19051,"lon":16.456047,"is_passed":false},{"stop_id":"U14123Z31","name":"Ostrovačice, Automotodrom","arrival_time":"8:15:00","departure_time":"8:25:00","lat":49.200274,"lon":16.447283,"is_passed":false}],"50615":[{"stop_id":"U14123Z32","name":"Ostrovačice, Automotodrom","arrival_time":"8:25:00","departure_time":"8:25:00","lat":49.200274,"lon":16.447283,"is_passed":false},{"stop_id":"U14112Z2","name":"Omice, Kývalka, spojovací","arrival_time":"8:27:00","departure_time":"8:27:00","lat":49.190299,"lon":16.456016,"is_passed":false},{"stop_id":"U14133Z2","name":"Popůvky, Vintrovna","arrival_time":"8:30:00","departure_time":"8:30:00","lat":49.181645,"lon":16.49075,"is_passed":false},{"stop_id":"U14160Z2","name":"Troubsko, Veselka","arrival_time":"8:32:00","departure_time":"8:32:00","lat":49.176834,"lon":16.503674,"is_passed":false},{"stop_id":"U1516Z1","name":"Pražská","arrival_time":"8:34:00","departure_time":"8:34:00","lat":49.173478,"lon":16.531543,"is_passed":false},{"stop_id":"U1632Z2","name":"Svážná","arrival_time":"8:37:00","departure_time":"8:37:00","lat":49.173409,"lon":16.553508,"is_passed":false},{"stop_id":"U1429Z3","name":"Nemocnice Bohunice","arrival_time":"8:40:00","departure_time":"9:00:00","lat":49.175844,"lon":16.567503,"is_passed":false}],"50616":[{"stop_id":"U1429Z3","name":"Nemocnice Bohunice","arrival_time":"9:00:00","departure_time":"9:00:00","lat":49.175844,"lon":16.567503,"is_passed":false},{"stop_id":"U1632Z1","name":"Svážná","arrival_time":"9:03:00","departure_time":"9:03:00","lat":49.173544,"lon":16.553381,"is_passed":false},{"stop_id":"U1161Z3","name":"Hoštická","arrival_time":"9:05:00","departure_time":"9:05:00","lat":49.173743,"lon":16.529523,"is_passed":false},{"stop_id":"U14160Z1","name":"Troubsko, Veselka","arrival_time":"9:08:00","departure_time":"9:08:00","lat":49.176905,"lon":16.503284,"is_passed":false},{"stop_id":"U14133Z1","name":"Popůvky, Vintrovna","arrival_time":"9:10:00","departure_time":"9:10:00","lat":49.181813,"lon":16.490518,"is_passed":false},{"stop_id":"U14112Z1","name":"Omice, Kývalka, spojovací","arrival_time":"9:13:00","departure_time":"9:13:00","lat":49.19051,"lon":16.456047,"is_passed":false},{"stop_id":"U14123Z31","name":"Ostrovačice, Automotodrom","arrival_time":"9:15:00","departure_time":"9:25:00","lat":49.200274,"lon":16.447283,"is_passed":false}],"50617":[{"stop_id":"U14123Z32","name":"Ostrovačice, Automotodrom","arrival_time":"9:25:00","departure_time":"9:25:00","lat":49.200274,"lon":16.447283,"is_passed":false},{"stop_id":"U14112Z2","name":"Omice, Kývalka, spojovací","arrival_time":"9:27:00","departure_time":"9:27:00","lat":49.190299,"lon":16.456016,"is_passed":false},{"stop_id":"U14133Z2","name":"Popůvky, Vintrovna","arrival_time":"9:30:00","departure_time":"9:30:00","lat":49.181645,"lon":16.49075,"is_passed":false},{"stop_id":"U14160Z2","name":"Troubsko, Veselka","arrival_time":"9:32:00","departure_time":"9:32:00","lat":49.176834,"lon":16.503674,"is_passed":false},{"stop_id":"U1516Z1","name":"Pražská","arrival_time":"9:34:00","departure_time":"9:34:00","lat":49.173478,"lon":16.531543,"is_passed":false},{"stop_id":"U1632Z2","name":"Svážná","arrival_time":"9:37:00","departure_time":"9:37:00","lat":49.173409,"lon":16.553508,"is_passed":false},{"stop_id":"U1429Z3","name":"Nemocnice Bohunice","arrival_time":"9:40:00","departure_time":"10:00:00","lat":49.175844,"lon":16.567503,"is_passed":false}],"50618":[{"stop_id":"U1429Z3","name":"Nemocnice Bohunice","arrival_time":"10:00:00","departure_time":"10:00:00","lat":49.175844,"lon":16.567503,"is_passed":false},{"stop_id":"U1632Z1","name":"Svážná","arrival_time":"10:03:00","departure_time":"10:03:00","lat":49.173544,"lon":16.553381,"is_passed":false},{"stop_id":"U1161Z3","name":"Hoštická","arrival_time":"10:05:00","departure_time":"10:05:00","lat":49.173743,"lon":16.529523,"is_passed":false},{"stop_id":"U14160Z1","name":"Troubsko, Veselka","arrival_time":"10:08:00","departure_time":"10:08:00","lat":49.176905,"lon":16.503284,"is_passed":false},{"stop_id":"U14133Z1","name":"Popůvky, Vintrovna","arrival_time":"10:10:00","departure_time":"10:10:00","lat":49.181813,"lon":16.490518,"is_passed":false},{"stop_id":"U14112Z1","name":"Omice, Kývalka, spojovací","arrival_time":"10:13:00","departure_time":"10:13:00","lat":49.19051,"lon":16.456047,"is_passed":false},{"stop_id":"U14123Z31","name":"Ostrovačice, Automotodrom","arrival_time":"10:15:00","departure_time":"10:18:00","lat":49.200274,"lon":16.447283,"is_passed":false}],"50619":[{"stop_id":"U1429Z3","name":"Nemocnice Bohunice","arrival_time":"11:10:00","departure_time":"11:10:00","lat":49.175844,"lon":16.567503,"is_passed":false},{"stop_id":"U1632Z1","name":"Svážná","arrival_time":"11:13:00","departure_time":"11:13:00","lat":49.173544,"lon":16.553381,"is_passed":false},{"stop_id":"U1161Z3","name":"Hoštická","arrival_time":"11:15:00","departure_time":"11:15:00","lat":49.173743,"lon":16.529523,"is_passed":false},{"stop_id":"U14160Z1","name":"Troubsko, Veselka","arrival_time":"11:18:00","departure_time":"11:18:00","lat":49.176905,"lon":16.503284,"is_passed":false},{"stop_id":"U14133Z1","name":"Popůvky, Vintrovna","arrival_time":"11:20:00","departure_time":"11:20:00","lat":49.181813,"lon":16.490518,"is_passed":false},{"stop_id":"U14112Z1","name":"Omice, Kývalka, spojovací","arrival_time":"11:23:00","departure_time":"11:23:00","lat":49.19051,"lon":16.456047,"is_passed":false},{"stop_id":"U14123Z31","name":"Ostrovačice, Automotodrom","arrival_time":"11:25:00","departure_time":"11:45:00","lat":49.200274,"lon":16.447283,"is_passed":false}],"50620":[{"stop_id":"U14123Z32","name":"Ostrovačice, Automotodrom","arrival_time":"11:45:00","departure_time":"11:45:00","lat":49.200274,"lon":16.447283,"is_passed":false},{"stop_id":"U14112Z2","name":"Omice, Kývalka, spojovací","arrival_time":"11:47:00","departure_time":"11:47:00","lat":49.190299,"lon":16.456016,"is_passed":false},{"stop_id":"U14133Z2","name":"Popůvky, Vintrovna","arrival_time":"11:50:00","departure_time":"11:50:00","lat":49.181645,"lon":16.49075,"is_passed":false},{"stop_id":"U14160Z2","name":"Troubsko, Veselka","arrival_time":"11:52:00","departure_time":"11:52:00","lat":49.176834,"lon":16.503674,"is_passed":false},{"stop_id":"U1516Z1","name":"Pražská","arrival_time":"11:54:00","departure_time":"11:54:00","lat":49.173478,"lon":16.531543,"is_passed":false},{"stop_id":"U1632Z2","name":"Svážná","arrival_time":"11:57:00","departure_time":"11:57:00","lat":49.173409,"lon":16.553508,"is_passed":false},{"stop_id":"U1429Z3","name":"Nemocnice Bohunice","arrival_time":"12:00:00","departure_time":"12:45:00","lat":49.175844,"lon":16.567503,"is_passed":false}],"50621":[{"stop_id":"U1429Z3","name":"Nemocnice Bohunice","arrival_time":"12:45:00","departure_time":"12:45:00","lat":49.175844,"lon":16.567503,"is_passed":false},{"stop_id":"U1632Z1","name":"Svážná","arrival_time":"12:48:00","departure_time":"12:48:00","lat":49.173544,"lon":16.553381,"is_passed":false},{"stop_id":"U1161Z3","name":"Hoštická","arrival_time":"12:50:00","departure_time":"12:50:00","lat":49.173743,"lon":16.529523,"is_passed":false},{"stop_id":"U14160Z1","name":"Troubsko, Veselka","arrival_time":"12:53:00","departure_time":"12:53:00","lat":49.176905,"lon":16.503284,"is_passed":false},{"stop_id":"U14133Z1","name":"Popůvky, Vintrovna","arrival_time":"12:55:00","departure_time":"12:55:00","lat":49.181813,"lon":16.490518,"is_passed":false},{"stop_id":"U14112Z1","name":"Omice, Kývalka, spojovací","arrival_time":"12:58:00","departure_time":"12:58:00","lat":49.19051,"lon":16.456047,"is_passed":false},{"stop_id":"U14123Z31","name":"Ostrovačice, Automotodrom","arrival_time":"13:00:00","departure_time":"15:25:00","lat":49.200274,"lon":16.447283,"is_passed":false}],"50622":[{"stop_id":"U14123Z32","name":"Ostrovačice, Automotodrom","arrival_time":"15:25:00","departure_time":"15:25:00","lat":49.200274,"lon":16.447283,"is_passed":false},{"stop_id":"U14112Z2","name":"Omice, Kývalka, spojovací","arrival_time":"15:27:00","departure_time":"15:27:00","lat":49.190299,"lon":16.456016,"is_passed":false},{"stop_id":"U14133Z2","name":"Popůvky, Vintrovna","arrival_time":"15:30:00","departure_time":"15:30:00","lat":49.181645,"lon":16.49075,"is_passed":false},{"stop_id":"U14160Z2","name":"Troubsko, Veselka","arrival_time":"15:32:00","departure_time":"15:32:00","lat":49.176834,"lon":16.503674,"is_passed":false},{"stop_id":"U1516Z1","name":"Pražská","arrival_time":"15:34:00","departure_time":"15:34:00","lat":49.173478,"lon":16.531543,"is_passed":false},{"stop_id":"U1632Z2","name":"Svážná","arrival_time":"15:37:00","departure_time":"15:37:00","lat":49.173409,"lon":16.553508,"is_passed":false},{"stop_id":"U1429Z3","name":"Nemocnice Bohunice","arrival_time":"15:40:00","departure_time":"16:00:00","lat":49.175844,"lon":16.567503,"is_passed":false}],"50623":[{"stop_id":"U1429Z3","name":"Nemocnice Bohunice","arrival_time":"16:00:00","departure_time":"16:00:00","lat":49.175844,"lon":16.567503,"is_passed":false},{"stop_id":"U1632Z1","name":"Svážná","arrival_time":"16:03:00","departure_time":"16:03:00","lat":49.173544,"lon":16.553381,"is_passed":false},{"stop_id":"U1161Z3","name":"Hoštická","arrival_time":"16:05:00","departure_time":"16:05:00","lat":49.173743,"lon":16.529523,"is_passed":false},{"stop_id":"U14160Z1","name":"Troubsko, Veselka","arrival_time":"16:08:00","departure_time":"16:08:00","lat":49.176905,"lon":16.503284,"is_passed":false},{"stop_id":"U14133Z1","name":"Popůvky, Vintrovna","arrival_time":"16:10:00","departure_time":"16:10:00","lat":49.181813,"lon":16.490518,"is_passed":false},{"stop_id":"U14112Z1","name":"Omice, Kývalka, spojovací","arrival_time":"16:13:00","departure_time":"16:13:00","lat":49.19051,"lon":16.456047,"is_passed":false},{"stop_id":"U14123Z31","name":"Ostrovačice, Automotodrom","arrival_time":"16:15:00","departure_time":"16:40:00","lat":49.200274,"lon":16.447283,"is_passed":false}],"50624":[{"stop_id":"U14123Z32","name":"Ostrovačice, Automotodrom","arrival_time":"16:40:00","departure_time":"16:40:00","lat":49.200274,"lon":16.447283,"is_passed":false},{"stop_id":"U14112Z2","name":"Omice, Kývalka, spojovací","arrival_time":"16:42:00","departure_time":"16:42:00","lat":49.190299,"lon":16.456016,"is_passed":false},{"stop_id":"U14133Z2","name":"Popůvky, Vintrovna","arrival_time":"16:45:00","departure_time":"16:45:00","lat":49.181645,"lon":16.49075,"is_passed":false},{"stop_id":"U14160Z2","name":"Troubsko, Veselka","arrival_time":"16:47:00","departure_time":"16:47:00","lat":49.176834,"lon":16.503674,"is_passed":false},{"stop_id":"U1516Z1","name":"Pražská","arrival_time":"16:49:00","departure_time":"16:49:00","lat":49.173478,"lon":16.531543,"is_passed":false},{"stop_id":"U1632Z2","name":"Svážná","arrival_time":"16:52:00","departure_time":"16:52:00","lat":49.173409,"lon":16.553508,"is_passed":false},{"stop_id":"U1429Z3","name":"Nemocnice Bohunice","arrival_time":"16:55:00","departure_time":"17:00:00","lat":49.175844,"lon":16.567503,"is_passed":false}],"50625":[{"stop_id":"U1429Z3","name":"Nemocnice Bohunice","arrival_time":"17:00:00","departure_time":"17:00:00","lat":49.175844,"lon":16.567503,"is_passed":false},{"stop_id":"U1632Z1","name":"Svážná","arrival_time":"17:03:00","departure_time":"17:03:00","lat":49.173544,"lon":16.553381,"is_passed":false},{"stop_id":"U1161Z3","name":"Hoštická","arrival_time":"17:05:00","departure_time":"17:05:00","lat":49.173743,"lon":16.529523,"is_passed":false},{"stop_id":"U14160Z1","name":"Troubsko, Veselka","arrival_time":"17:08:00","departure_time":"17:08:00","lat":49.176905,"lon":16.503284,"is_passed":false},{"stop_id":"U14133Z1","name":"Popůvky, Vintrovna","arrival_time":"17:10:00","departure_time":"17:10:00","lat":49.181813,"lon":16.490518,"is_passed":false},{"stop_id":"U14112Z1","name":"Omice, Kývalka, spojovací","arrival_time":"17:13:00","departure_time":"17:13:00","lat":49.19051,"lon":16.456047,"is_passed":false},{"stop_id":"U14123Z31","name":"Ostrovačice, Automotodrom","arrival_time":"17:15:00","departure_time":"17:20:00","lat":49.200274,"lon":16.447283,"is_passed":false}],"50626":[{"stop_id":"U14123Z32","name":"Ostrovačice, Automotodrom","arrival_time":"17:20:00","departure_time":"17:20:00","lat":49.200274,"lon":16.447283,"is_passed":false},{"stop_id":"U14112Z2","name":"Omice, Kývalka, spojovací","arrival_time":"17:22:00","departure_time":"17:22:00","lat":49.190299,"lon":16.456016,"is_passed":false},{"stop_id":"U14133Z2","name":"Popůvky, Vintrovna","arrival_time":"17:25:00","departure_time":"17:25:00","lat":49.181645,"lon":16.49075,"is_passed":false},{"stop_id":"U14160Z2","name":"Troubsko, Veselka","arrival_time":"17:27:00","departure_time":"17:27:00","lat":49.176834,"lon":16.503674,"is_passed":false},{"stop_id":"U1516Z1","name":"Pražská","arrival_time":"17:29:00","departure_time":"17:29:00","lat":49.173478,"lon":16.531543,"is_passed":false},{"stop_id":"U1632Z2","name":"Svážná","arrival_time":"17:32:00","departure_time":"17:32:00","lat":49.173409,"lon":16.553508,"is_passed":false},{"stop_id":"U1429Z3","name":"Nemocnice Bohunice","arrival_time":"17:35:00","departure_time":"17:40:00","lat":49.175844,"lon":16.567503,"is_passed":false}],"50627":[{"stop_id":"U1429Z3","name":"Nemocnice Bohunice","arrival_time":"8:07:00","departure_time":"8:07:00","lat":49.175844,"lon":16.567503,"is_passed":false},{"stop_id":"U1632Z1","name":"Svážná","arrival_time":"8:10:00","departure_time":"8:10:00","lat":49.173544,"lon":16.553381,"is_passed":false},{"stop_id":"U1161Z3","name":"Hoštická","arrival_time":"8:12:00","departure_time":"8:12:00","lat":49.173743,"lon":16.529523,"is_passed":false},{"stop_id":"U14160Z1","name":"Troubsko, Veselka","arrival_time":"8:15:00","departure_time":"8:15:00","lat":49.176905,"lon":16.503284,"is_passed":false},{"stop_id":"U14133Z1","name":"Popůvky, Vintrovna","arrival_time":"8:17:00","departure_time":"8:17:00","lat":49.181813,"lon":16.490518,"is_passed":false},{"stop_id":"U14112Z1","name":"Omice, Kývalka, spojovací","arrival_time":"8:20:00","departure_time":"8:20:00","lat":49.19051,"lon":16.456047,"is_passed":false},{"stop_id":"U14123Z31","name":"Ostrovačice, Automotodrom","arrival_time":"8:22:00","departure_time":"8:26:00","lat":49.200274,"lon":16.447283,"is_passed":false}],"50628":[{"stop_id":"U1429Z3","name":"Nemocnice Bohunice","arrival_time":"9:07:00","departure_time":"9:07:00","lat":49.175844,"lon":16.567503,"is_passed":false},{"stop_id":"U1632Z1","name":"Svážná","arrival_time":"9:10:00","departure_time":"9:10:00","lat":49.173544,"lon":16.553381,"is_passed":false},{"stop_id":"U1161Z3","name":"Hoštická","arrival_time":"9:12:00","departure_time":"9:12:00","lat":49.173743,"lon":16.529523,"is_passed":false},{"stop_id":"U14160Z1","name":"Troubsko, Veselka","arrival_time":"9:15:00","departure_time":"9:15:00","lat":49.176905,"lon":16.503284,"is_passed":false},{"stop_id":"U14133Z1","name":"Popůvky, Vintrovna","arrival_time":"9:17:00","departure_time":"9:17:00","lat":49.181813,"lon":16.490518,"is_passed":false},{"stop_id":"U14112Z1","name":"Omice, Kývalka, spojovací","arrival_time":"9:20:00","departure_time":"9:20:00","lat":49.19051,"lon":16.456047,"is_passed":false},{"stop_id":"U14123Z31","name":"Ostrovačice, Automotodrom","arrival_time":"9:22:00","departure_time":"9:26:00","lat":49.200274,"lon":16.447283,"is_passed":false}],"50629":[{"stop_id":"U1429Z3","name":"Nemocnice Bohunice","arrival_time":"10:07:00","departure_time":"10:07:00","lat":49.175844,"lon":16.567503,"is_passed":false},{"stop_id":"U1632Z1","name":"Svážná","arrival_time":"10:10:00","departure_time":"10:10:00","lat":49.173544,"lon":16.553381,"is_passed":false},{"stop_id":"U1161Z3","name":"Hoštická","arrival_time":"10:12:00","departure_time":"10:12:00","lat":49.173743,"lon":16.529523,"is_passed":false},{"stop_id":"U14160Z1","name":"Troubsko, Veselka","arrival_time":"10:15:00","departure_time":"10:15:00","lat":49.176905,"lon":16.503284,"is_passed":false},{"stop_id":"U14133Z1","name":"Popůvky, Vintrovna","arrival_time":"10:17:00","departure_time":"10:17:00","lat":49.181813,"lon":16.490518,"is_passed":false},{"stop_id":"U14112Z1","name":"Omice, Kývalka, spojovací","arrival_time":"10:20:00","departure_time":"10:20:00","lat":49.19051,"lon":16.456047,"is_passed":false},{"stop_id":"U14123Z31","name":"Ostrovačice, Automotodrom","arrival_time":"10:22:00","departure_time":"10:26:00","lat":49.200274,"lon":16.447283,"is_passed":false}],"50630":[{"stop_id":"U1429Z3","name":"Nemocnice Bohunice","arrival_time":"11:20:00","departure_time":"11:20:00","lat":49.175844,"lon":16.567503,"is_passed":false},{"stop_id":"U1632Z1","name":"Svážná","arrival_time":"11:23:00","departure_time":"11:23:00","lat":49.173544,"lon":16.553381,"is_passed":false},{"stop_id":"U1161Z3","name":"Hoštická","arrival_time":"11:25:00","departure_time":"11:25:00","lat":49.173743,"lon":16.529523,"is_passed":false},{"stop_id":"U14160Z1","name":"Troubsko, Veselka","arrival_time":"11:28:00","departure_time":"11:28:00","lat":49.176905,"lon":16.503284,"is_passed":false},{"stop_id":"U14133Z1","name":"Popůvky, Vintrovna","arrival_time":"11:30:00","departure_time":"11:30:00","lat":49.181813,"lon":16.490518,"is_passed":false},{"stop_id":"U14112Z1","name":"Omice, Kývalka, spojovací","arrival_time":"11:33:00","departure_time":"11:33:00","lat":49.19051,"lon":16.456047,"is_passed":false},{"stop_id":"U14123Z31","name":"Ostrovačice, Automotodrom","arrival_time":"11:35:00","departure_time":"12:05:00","lat":49.200274,"lon":16.447283,"is_passed":false}],"50631":[{"stop_id":"U14123Z32","name":"Ostrovačice, Automotodrom","arrival_time":"12:05:00","departure_time":"12:05:00","lat":49.200274,"lon":16.447283,"is_passed":false},{"stop_id":"U14112Z2","name":"Omice, Kývalka, spojovací","arrival_time":"12:07:00","departure_time":"12:07:00","lat":49.190299,"lon":16.456016,"is_passed":false},{"stop_id":"U14133Z2","name":"Popůvky, Vintrovna","arrival_time":"12:10:00","departure_time":"12:10:00","lat":49.181645,"lon":16.49075,"is_passed":false},{"stop_id":"U14160Z2","name":"Troubsko, Veselka","arrival_time":"12:12:00","departure_time":"12:12:00","lat":49.176834,"lon":16.503674,"is_passed":false},{"stop_id":"U1516Z1","name":"Pražská","arrival_time":"12:14:00","departure_time":"12:14:00","lat":49.173478,"lon":16.531543,"is_passed":false},{"stop_id":"U1632Z2","name":"Svážná","arrival_time":"12:17:00","departure_time":"12:17:00","lat":49.173409,"lon":16.553508,"is_passed":false},{"stop_id":"U1429Z3","name":"Nemocnice Bohunice","arrival_time":"12:20:00","departure_time":"13:00:00","lat":49.175844,"lon":16.567503,"is_passed":false}],"50632":[{"stop_id":"U1429Z3","name":"Nemocnice Bohunice","arrival_time":"13:00:00","departure_time":"13:00:00","lat":49.175844,"lon":16.567503,"is_passed":false},{"stop_id":"U1632Z1","name":"Svážná","arrival_time":"13:03:00","departure_time":"13:03:00","lat":49.173544,"lon":16.553381,"is_passed":false},{"stop_id":"U1161Z3","name":"Hoštická","arrival_time":"13:05:00","departure_time":"13:05:00","lat":49.173743,"lon":16.529523,"is_passed":false},{"stop_id":"U14160Z1","name":"Troubsko, Veselka","arrival_time":"13:08:00","departure_time":"13:08:00","lat":49.176905,"lon":16.503284,"is_passed":false},{"stop_id":"U14133Z1","name":"Popůvky, Vintrovna","arrival_time":"13:10:00","departure_time":"13:10:00","lat":49.181813,"lon":16.490518,"is_passed":false},{"stop_id":"U14112Z1","name":"Omice, Kývalka, spojovací","arrival_time":"13:13:00","departure_time":"13:13:00","lat":49.19051,"lon":16.456047,"is_passed":false},{"stop_id":"U14123Z31","name":"Ostrovačice, Automotodrom","arrival_time":"13:15:00","departure_time":"15:45:00","lat":49.200274,"lon":16.447283,"is_passed":false}],"50633":[{"stop_id":"U14123Z32","name":"Ostrovačice, Automotodrom","arrival_time":"15:45:00","departure_time":"15:45:00","lat":49.200274,"lon":16.447283,"is_passed":false},{"stop_id":"U14112Z2","name":"Omice, Kývalka, spojovací","arrival_time":"15:47:00","departure_time":"15:47:00","lat":49.190299,"lon":16.456016,"is_passed":false},{"stop_id":"U14133Z2","name":"Popůvky, Vintrovna","arrival_time":"15:50:00","departure_time":"15:50:00","lat":49.181645,"lon":16.49075,"is_passed":false},{"stop_id":"U14160Z2","name":"Troubsko, Veselka","arrival_time":"15:52:00","departure_time":"15:52:00","lat":49.176834,"lon":16.503674,"is_passed":false},{"stop_id":"U1516Z1","name":"Pražská","arrival_time":"15:54:00","departure_time":"15:54:00","lat":49.173478,"lon":16.531543,"is_passed":false},{"stop_id":"U1632Z2","name":"Svážná","arrival_time":"15:57:00","departure_time":"15:57:00","lat":49.173409,"lon":16.553508,"is_passed":false},{"stop_id":"U1429Z3","name":"Nemocnice Bohunice","arrival_time":"16:00:00","departure_time":"16:02:00","lat":49.175844,"lon":16.567503,"is_passed":false}],"50634":[{"stop_id":"U14123Z32","name":"Ostrovačice, Automotodrom","arrival_time":"6:45:00","departure_time":"6:45:00","lat":49.200274,"lon":16.447283,"is_passed":false},{"stop_id":"U14112Z2","name":"Omice, Kývalka, spojovací","arrival_time":"6:47:00","departure_time":"6:47:00","lat":49.190299,"lon":16.456016,"is_passed":false},{"stop_id":"U14133Z2","name":"Popůvky, Vintrovna","arrival_time":"6:50:00","departure_time":"6:50:00","lat":49.181645,"lon":16.49075,"is_passed":false},{"stop_id":"U14160Z2","name":"Troubsko, Veselka","arrival_time":"6:52:00","departure_time":"6:52:00","lat":49.176834,"lon":16.503674,"is_passed":false},{"stop_id":"U1302Z2","name":"Křivánkovo náměstí","arrival_time":"6:58:00","departure_time":"6:58:00","lat":49.20688,"lon":16.4876,"is_passed":false}],"50635":[{"stop_id":"U1302Z2","name":"Křivánkovo náměstí","arrival_time":"6:58:00","departure_time":"6:58:00","lat":49.20688,"lon":16.4876,"is_passed":false},{"stop_id":"U8120Z1","name":"Chrpová","arrival_time":"7:00:00","departure_time":"7:00:00","lat":49.211303,"lon":16.484249,"is_passed":false},{"stop_id":"U8127Z1","name":"Camp Žebětín","arrival_time":"7:01:00","departure_time":"7:01:00","lat":49.211879,"lon":16.476885,"is_passed":false},{"stop_id":"U8126Z1","name":"Tribuna D","arrival_time":"7:04:00","departure_time":"7:04:00","lat":49.211451,"lon":16.461886,"is_passed":false},{"stop_id":"U8124Z2","name":"Tribuny A-B-C","arrival_time":"7:06:00","departure_time":"7:06:00","lat":49.210115,"lon":16.450548,"is_passed":false},{"stop_id":"U14131Z2","name":"Ostrovačice, hájenka Na Šípu","arrival_time":"7:09:00","departure_time":"7:09:00","lat":49.206445,"lon":16.438208,"is_passed":false},{"stop_id":"U14123Z31","name":"Ostrovačice, Automotodrom","arrival_time":"7:12:00","departure_time":"7:20:00","lat":49.200274,"lon":16.447283,"is_passed":false}],"50636":[{"stop_id":"U14123Z32","name":"Ostrovačice, Automotodrom","arrival_time":"7:20:00","departure_time":"7:20:00","lat":49.200274,"lon":16.447283,"is_passed":false},{"stop_id":"U14112Z2","name":"Omice, Kývalka, spojovací","arrival_time":"7:22:00","departure_time":"7:22:00","lat":49.190299,"lon":16.456016,"is_passed":false},{"stop_id":"U14133Z2","name":"Popůvky, Vintrovna","arrival_time":"7:25:00","departure_time":"7:25:00","lat":49.181645,"lon":16.49075,"is_passed":false},{"stop_id":"U14160Z2","name":"Troubsko, Veselka","arrival_time":"7:27:00","departure_time":"7:27:00","lat":49.176834,"lon":16.503674,"is_passed":false},{"stop_id":"U1302Z2","name":"Křivánkovo náměstí","arrival_time":"7:33:00","departure_time":"7:33:00","lat":49.20688,"lon":16.4876,"is_passed":false}],"50637":[{"stop_id":"U1302Z2","name":"Křivánkovo náměstí","arrival_time":"7:33:00","departure_time":"7:33:00","lat":49.20688,"lon":16.4876,"is_passed":false},{"stop_id":"U8120Z1","name":"Chrpová","arrival_time":"7:35:00","departure_time":"7:35:00","lat":49.211303,"lon":16.484249,"is_passed":false},{"stop_id":"U8127Z1","name":"Camp Žebětín","arrival_time":"7:36:00","departure_time":"7:36:00","lat":49.211879,"lon":16.476885,"is_passed":false},{"stop_id":"U8126Z1","name":"Tribuna D","arrival_time":"7:39:00","departure_time":"7:39:00","lat":49.211451,"lon":16.461886,"is_passed":false},{"stop_id":"U8124Z2","name":"Tribuny A-B-C","arrival_time":"7:41:00","departure_time":"7:41:00","lat":49.210115,"lon":16.450548,"is_passed":false},{"stop_id":"U14131Z2","name":"Ostrovačice, hájenka Na Šípu","arrival_time":"7:44:00","departure_time":"7:44:00","lat":49.206445,"lon":16.438208,"is_passed":false},{"stop_id":"U14123Z31","name":"Ostrovačice, Automotodrom","arrival_time":"7:47:00","departure_time":"8:10:00","lat":49.200274,"lon":16.447283,"is_passed":false}],"50638":[{"stop_id":"U14123Z32","name":"Ostrovačice, Automotodrom","arrival_time":"8:10:00","departure_time":"8:10:00","lat":49.200274,"lon":16.447283,"is_passed":false},{"stop_id":"U14112Z2","name":"Omice, Kývalka, spojovací","arrival_time":"8:12:00","departure_time":"8:12:00","lat":49.190299,"lon":16.456016,"is_passed":false},{"stop_id":"U14133Z2","name":"Popůvky, Vintrovna","arrival_time":"8:15:00","departure_time":"8:15:00","lat":49.181645,"lon":16.49075,"is_passed":false},{"stop_id":"U14160Z2","name":"Troubsko, Veselka","arrival_time":"8:17:00","departure_time":"8:17:00","lat":49.176834,"lon":16.503674,"is_passed":false},{"stop_id":"U1302Z2","name":"Křivánkovo náměstí","arrival_time":"8:23:00","departure_time":"8:23:00","lat":49.20688,"lon":16.4876,"is_passed":false}],"50639":[{"stop_id":"U1302Z2","name":"Křivánkovo náměstí","arrival_time":"8:23:00","departure_time":"8:23:00","lat":49.20688,"lon":16.4876,"is_passed":false},{"stop_id":"U8120Z1","name":"Chrpová","arrival_time":"8:25:00","departure_time":"8:25:00","lat":49.211303,"lon":16.484249,"is_passed":false},{"stop_id":"U8127Z1","name":"Camp Žebětín","arrival_time":"8:26:00","departure_time":"8:26:00","lat":49.211879,"lon":16.476885,"is_passed":false},{"stop_id":"U8126Z1","name":"Tribuna D","arrival_time":"8:29:00","departure_time":"8:29:00","lat":49.211451,"lon":16.461886,"is_passed":false},{"stop_id":"U8124Z2","name":"Tribuny A-B-C","arrival_time":"8:31:00","departure_time":"8:31:00","lat":49.210115,"lon":16.450548,"is_passed":false},{"stop_id":"U14131Z2","name":"Ostrovačice, hájenka Na Šípu","arrival_time":"8:34:00","departure_time":"8:34:00","lat":49.206445,"lon":16.438208,"is_passed":false},{"stop_id":"U14123Z31","name":"Ostrovačice, Automotodrom","arrival_time":"8:37:00","departure_time":"9:10:00","lat":49.200274,"lon":16.447283,"is_passed":false}],"50640":[{"stop_id":"U14123Z32","name":"Ostrovačice, Automotodrom","arrival_time":"9:10:00","departure_time":"9:10:00","lat":49.200274,"lon":16.447283,"is_passed":false},{"stop_id":"U14112Z2","name":"Omice, Kývalka, spojovací","arrival_time":"9:12:00","departure_time":"9:12:00","lat":49.190299,"lon":16.456016,"is_passed":false},{"stop_id":"U14133Z2","name":"Popůvky, Vintrovna","arrival_time":"9:15:00","departure_time":"9:15:00","lat":49.181645,"lon":16.49075,"is_passed":false},{"stop_id":"U14160Z2","name":"Troubsko, Veselka","arrival_time":"9:17:00","departure_time":"9:17:00","lat":49.176834,"lon":16.503674,"is_passed":false},{"stop_id":"U1302Z2","name":"Křivánkovo náměstí","arrival_time":"9:23:00","departure_time":"9:23:00","lat":49.20688,"lon":16.4876,"is_passed":false}],"50641":[{"stop_id":"U1302Z2","name":"Křivánkovo náměstí","arrival_time":"9:23:00","departure_time":"9:23:00","lat":49.20688,"lon":16.4876,"is_passed":false},{"stop_id":"U8120Z1","name":"Chrpová","arrival_time":"9:25:00","departure_time":"9:25:00","lat":49.211303,"lon":16.484249,"is_passed":false},{"stop_id":"U8127Z1","name":"Camp Žebětín","arrival_time":"9:26:00","departure_time":"9:26:00","lat":49.211879,"lon":16.476885,"is_passed":false},{"stop_id":"U8126Z1","name":"Tribuna D","arrival_time":"9:29:00","departure_time":"9:29:00","lat":49.211451,"lon":16.461886,"is_passed":false},{"stop_id":"U8124Z2","name":"Tribuny A-B-C","arrival_time":"9:31:00","departure_time":"9:31:00","lat":49.210115,"lon":16.450548,"is_passed":false},{"stop_id":"U14131Z2","name":"Ostrovačice, hájenka Na Šípu","arrival_time":"9:34:00","departure_time":"9:34:00","lat":49.206445,"lon":16.438208,"is_passed":false},{"stop_id":"U14123Z31","name":"Ostrovačice, Automotodrom","arrival_time":"9:37:00","departure_time":"10:10:00","lat":49.200274,"lon":16.447283,"is_passed":false}],"50642":[{"stop_id":"U14123Z32","name":"Ostrovačice, Automotodrom","arrival_time":"10:10:00","departure_time":"10:10:00","lat":49.200274,"lon":16.447283,"is_passed":false},{"stop_id":"U14112Z2","name":"Omice, Kývalka, spojovací","arrival_time":"10:12:00","departure_time":"10:12:00","lat":49.190299,"lon":16.456016,"is_passed":false},{"stop_id":"U14133Z2","name":"Popůvky, Vintrovna","arrival_time":"10:15:00","departure_time":"10:15:00","lat":49.181645,"lon":16.49075,"is_passed":false},{"stop_id":"U14160Z2","name":"Troubsko, Veselka","arrival_time":"10:17:00","departure_time":"10:17:00","lat":49.176834,"lon":16.503674,"is_passed":false},{"stop_id":"U1302Z2","name":"Křivánkovo náměstí","arrival_time":"10:23:00","departure_time":"10:23:00","lat":49.20688,"lon":16.4876,"is_passed":false}],"50643":[{"stop_id":"U1302Z2","name":"Křivánkovo náměstí","arrival_time":"10:23:00","departure_time":"10:23:00","lat":49.20688,"lon":16.4876,"is_passed":false},{"stop_id":"U8120Z1","name":"Chrpová","arrival_time":"10:25:00","departure_time":"10:25:00","lat":49.211303,"lon":16.484249,"is_passed":false},{"stop_id":"U8127Z1","name":"Camp Žebětín","arrival_time":"10:26:00","departure_time":"10:26:00","lat":49.211879,"lon":16.476885,"is_passed":false},{"stop_id":"U8126Z1","name":"Tribuna D","arrival_time":"10:29:00","departure_time":"10:29:00","lat":49.211451,"lon":16.461886,"is_passed":false},{"stop_id":"U8124Z2","name":"Tribuny A-B-C","arrival_time":"10:31:00","departure_time":"10:31:00","lat":49.210115,"lon":16.450548,"is_passed":false},{"stop_id":"U14131Z2","name":"Ostrovačice, hájenka Na Šípu","arrival_time":"10:34:00","departure_time":"10:34:00","lat":49.206445,"lon":16.438208,"is_passed":false},{"stop_id":"U14123Z31","name":"Ostrovačice, Automotodrom","arrival_time":"10:37:00","departure_time":"11:10:00","lat":49.200274,"lon":16.447283,"is_passed":false}],"50644":[{"stop_id":"U14123Z32","name":"Ostrovačice, Automotodrom","arrival_time":"11:10:00","departure_time":"11:10:00","lat":49.200274,"lon":16.447283,"is_passed":false},{"stop_id":"U14112Z2","name":"Omice, Kývalka, spojovací","arrival_time":"11:12:00","departure_time":"11:12:00","lat":49.190299,"lon":16.456016,"is_passed":false},{"stop_id":"U14133Z2","name":"Popůvky, Vintrovna","arrival_time":"11:15:00","departure_time":"11:15:00","lat":49.181645,"lon":16.49075,"is_passed":false},{"stop_id":"U14160Z2","name":"Troubsko, Veselka","arrival_time":"11:17:00","departure_time":"11:17:00","lat":49.176834,"lon":16.503674,"is_passed":false},{"stop_id":"U1302Z2","name":"Křivánkovo náměstí","arrival_time":"11:23:00","departure_time":"11:23:00","lat":49.20688,"lon":16.4876,"is_passed":false}],"50645":[{"stop_id":"U1302Z2","name":"Křivánkovo náměstí","arrival_time":"11:23:00","departure_time":"11:23:00","lat":49.20688,"lon":16.4876,"is_passed":false},{"stop_id":"U8120Z1","name":"Chrpová","arrival_time":"11:25:00","departure_time":"11:25:00","lat":49.211303,"lon":16.484249,"is_passed":false},{"stop_id":"U8127Z1","name":"Camp Žebětín","arrival_time":"11:26:00","departure_time":"11:26:00","lat":49.211879,"lon":16.476885,"is_passed":false},{"stop_id":"U8126Z1","name":"Tribuna D","arrival_time":"11:29:00","departure_time":"11:29:00","lat":49.211451,"lon":16.461886,"is_passed":false},{"stop_id":"U8124Z2","name":"Tribuny A-B-C","arrival_time":"11:31:00","departure_time":"11:31:00","lat":49.210115,"lon":16.450548,"is_passed":false},{"stop_id":"U14131Z2","name":"Ostrovačice, hájenka Na Šípu","arrival_time":"11:34:00","departure_time":"11:34:00","lat":49.206445,"lon":16.438208,"is_passed":false},{"stop_id":"U14123Z31","name":"Ostrovačice, Automotodrom","arrival_time":"11:37:00","departure_time":"11:37:00","lat":49.200274,"lon":16.447283,"is_passed":false}],"50646":[{"stop_id":"U14123Z32","name":"Ostrovačice, Automotodrom","arrival_time":"7:10:00","departure_time":"7:10:00","lat":49.200274,"lon":16.447283,"is_passed":false},{"stop_id":"U14112Z2","name":"Omice, Kývalka, spojovací","arrival_time":"7:12:00","departure_time":"7:12:00","lat":49.190299,"lon":16.456016,"is_passed":false},{"stop_id":"U14133Z2","name":"Popůvky, Vintrovna","arrival_time":"7:15:00","departure_time":"7:15:00","lat":49.181645,"lon":16.49075,"is_passed":false},{"stop_id":"U14160Z2","name":"Troubsko, Veselka","arrival_time":"7:17:00","departure_time":"7:17:00","lat":49.176834,"lon":16.503674,"is_passed":false},{"stop_id":"U1302Z2","name":"Křivánkovo náměstí","arrival_time":"7:23:00","departure_time":"7:23:00","lat":49.20688,"lon":16.4876,"is_passed":false}],"50647":[{"stop_id":"U1302Z2","name":"Křivánkovo náměstí","arrival_time":"7:23:00","departure_time":"7:23:00","lat":49.20688,"lon":16.4876,"is_passed":false},{"stop_id":"U8120Z1","name":"Chrpová","arrival_time":"7:25:00","departure_time":"7:25:00","lat":49.211303,"lon":16.484249,"is_passed":false},{"stop_id":"U8127Z1","name":"Camp Žebětín","arrival_time":"7:26:00","departure_time":"7:26:00","lat":49.211879,"lon":16.476885,"is_passed":false},{"stop_id":"U8126Z1","name":"Tribuna D","arrival_time":"7:29:00","departure_time":"7:29:00","lat":49.211451,"lon":16.461886,"is_passed":false},{"stop_id":"U8124Z2","name":"Tribuny A-B-C","arrival_time":"7:31:00","departure_time":"7:31:00","lat":49.210115,"lon":16.450548,"is_passed":false},{"stop_id":"U14131Z2","name":"Ostrovačice, hájenka Na Šípu","arrival_time":"7:34:00","departure_time":"7:34:00","lat":49.206445,"lon":16.438208,"is_passed":false},{"stop_id":"U14123Z31","name":"Ostrovačice, Automotodrom","arrival_time":"7:37:00","departure_time":"7:41:00","lat":49.200274,"lon":16.447283,"is_passed":false}],"50648":[{"stop_id":"U14123Z32","name":"Ostrovačice, Automotodrom","arrival_time":"16:00:00","departure_time":"16:00:00","lat":49.200274,"lon":16.447283,"is_passed":false},{"stop_id":"U14112Z2","name":"Omice, Kývalka, spojovací","arrival_time":"16:02:00","departure_time":"16:02:00","lat":49.190299,"lon":16.456016,"is_passed":false},{"stop_id":"U14133Z2","name":"Popůvky, Vintrovna","arrival_time":"16:05:00","departure_time":"16:05:00","lat":49.181645,"lon":16.49075,"is_passed":false},{"stop_id":"U14160Z2","name":"Troubsko, Veselka","arrival_time":"16:07:00","departure_time":"16:07:00","lat":49.176834,"lon":16.503674,"is_passed":false},{"stop_id":"U1302Z2","name":"Křivánkovo náměstí","arrival_time":"16:13:00","departure_time":"16:13:00","lat":49.20688,"lon":16.4876,"is_passed":false}],"50649":[{"stop_id":"U14123Z32","name":"Ostrovačice, Automotodrom","arrival_time":"16:50:00","departure_time":"16:50:00","lat":49.200274,"lon":16.447283,"is_passed":false},{"stop_id":"U14112Z2","name":"Omice, Kývalka, spojovací","arrival_time":"16:52:00","departure_time":"16:52:00","lat":49.190299,"lon":16.456016,"is_passed":false},{"stop_id":"U14133Z2","name":"Popůvky, Vintrovna","arrival_time":"16:55:00","departure_time":"16:55:00","lat":49.181645,"lon":16.49075,"is_passed":false},{"stop_id":"U14160Z2","name":"Troubsko, Veselka","arrival_time":"16:57:00","departure_time":"16:57:00","lat":49.176834,"lon":16.503674,"is_passed":false},{"stop_id":"U1302Z2","name":"Křivánkovo náměstí","arrival_time":"17:03:00","departure_time":"17:05:00","lat":49.20688,"lon":16.4876,"is_passed":false}],"50650":[{"stop_id":"U1429Z3","name":"Nemocnice Bohunice","arrival_time":"7:52:00","departure_time":"7:52:00","lat":49.175844,"lon":16.567503,"is_passed":false},{"stop_id":"U1632Z1","name":"Svážná","arrival_time":"7:55:00","departure_time":"7:55:00","lat":49.173544,"lon":16.553381,"is_passed":false},{"stop_id":"U1161Z3","name":"Hoštická","arrival_time":"7:57:00","departure_time":"7:57:00","lat":49.173743,"lon":16.529523,"is_passed":false},{"stop_id":"U14160Z1","name":"Troubsko, Veselka","arrival_time":"8:00:00","departure_time":"8:00:00","lat":49.176905,"lon":16.503284,"is_passed":false},{"stop_id":"U14133Z1","name":"Popůvky, Vintrovna","arrival_time":"8:02:00","departure_time":"8:02:00","lat":49.181813,"lon":16.490518,"is_passed":false},{"stop_id":"U14112Z1","name":"Omice, Kývalka, spojovací","arrival_time":"8:05:00","departure_time":"8:05:00","lat":49.19051,"lon":16.456047,"is_passed":false},{"stop_id":"U14123Z31","name":"Ostrovačice, Automotodrom","arrival_time":"8:07:00","departure_time":"8:07:00","lat":49.200274,"lon":16.447283,"is_passed":false}],"50651":[{"stop_id":"U14123Z32","name":"Ostrovačice, Automotodrom","arrival_time":"8:20:00","departure_time":"8:20:00","lat":49.200274,"lon":16.447283,"is_passed":false},{"stop_id":"U14112Z2","name":"Omice, Kývalka, spojovací","arrival_time":"8:22:00","departure_time":"8:22:00","lat":49.190299,"lon":16.456016,"is_passed":false},{"stop_id":"U14133Z2","name":"Popůvky, Vintrovna","arrival_time":"8:25:00","departure_time":"8:25:00","lat":49.181645,"lon":16.49075,"is_passed":false},{"stop_id":"U14160Z2","name":"Troubsko, Veselka","arrival_time":"8:27:00","departure_time":"8:27:00","lat":49.176834,"lon":16.503674,"is_passed":false},{"stop_id":"U1302Z2","name":"Křivánkovo náměstí","arrival_time":"8:33:00","departure_time":"8:33:00","lat":49.20688,"lon":16.4876,"is_passed":false}],"50652":[{"stop_id":"U1302Z2","name":"Křivánkovo náměstí","arrival_time":"8:33:00","departure_time":"8:33:00","lat":49.20688,"lon":16.4876,"is_passed":false},{"stop_id":"U8120Z1","name":"Chrpová","arrival_time":"8:35:00","departure_time":"8:35:00","lat":49.211303,"lon":16.484249,"is_passed":false},{"stop_id":"U8127Z1","name":"Camp Žebětín","arrival_time":"8:36:00","departure_time":"8:36:00","lat":49.211879,"lon":16.476885,"is_passed":false},{"stop_id":"U8126Z1","name":"Tribuna D","arrival_time":"8:39:00","departure_time":"8:39:00","lat":49.211451,"lon":16.461886,"is_passed":false},{"stop_id":"U8124Z2","name":"Tribuny A-B-C","arrival_time":"8:41:00","departure_time":"8:41:00","lat":49.210115,"lon":16.450548,"is_passed":false},{"stop_id":"U14131Z2","name":"Ostrovačice, hájenka Na Šípu","arrival_time":"8:44:00","departure_time":"8:44:00","lat":49.206445,"lon":16.438208,"is_passed":false},{"stop_id":"U14123Z31","name":"Ostrovačice, Automotodrom","arrival_time":"8:47:00","departure_time":"9:20:00","lat":49.200274,"lon":16.447283,"is_passed":false}],"50653":[{"stop_id":"U14123Z32","name":"Ostrovačice, Automotodrom","arrival_time":"9:20:00","departure_time":"9:20:00","lat":49.200274,"lon":16.447283,"is_passed":false},{"stop_id":"U14112Z2","name":"Omice, Kývalka, spojovací","arrival_time":"9:22:00","departure_time":"9:22:00","lat":49.190299,"lon":16.456016,"is_passed":false},{"stop_id":"U14133Z2","name":"Popůvky, Vintrovna","arrival_time":"9:25:00","departure_time":"9:25:00","lat":49.181645,"lon":16.49075,"is_passed":false},{"stop_id":"U14160Z2","name":"Troubsko, Veselka","arrival_time":"9:27:00","departure_time":"9:27:00","lat":49.176834,"lon":16.503674,"is_passed":false},{"stop_id":"U1302Z2","name":"Křivánkovo náměstí","arrival_time":"9:33:00","departure_time":"9:33:00","lat":49.20688,"lon":16.4876,"is_passed":false}],"50654":[{"stop_id":"U1302Z2","name":"Křivánkovo náměstí","arrival_time":"9:33:00","departure_time":"9:33:00","lat":49.20688,"lon":16.4876,"is_passed":false},{"stop_id":"U8120Z1","name":"Chrpová","arrival_time":"9:35:00","departure_time":"9:35:00","lat":49.211303,"lon":16.484249,"is_passed":false},{"stop_id":"U8127Z1","name":"Camp Žebětín","arrival_time":"9:36:00","departure_time":"9:36:00","lat":49.211879,"lon":16.476885,"is_passed":false},{"stop_id":"U8126Z1","name":"Tribuna D","arrival_time":"9:39:00","departure_time":"9:39:00","lat":49.211451,"lon":16.461886,"is_passed":false},{"stop_id":"U8124Z2","name":"Tribuny A-B-C","arrival_time":"9:41:00","departure_time":"9:41:00","lat":49.210115,"lon":16.450548,"is_passed":false},{"stop_id":"U14131Z2","name":"Ostrovačice, hájenka Na Šípu","arrival_time":"9:44:00","departure_time":"9:44:00","lat":49.206445,"lon":16.438208,"is_passed":false},{"stop_id":"U14123Z31","name":"Ostrovačice, Automotodrom","arrival_time":"9:47:00","departure_time":"10:20:00","lat":49.200274,"lon":16.447283,"is_passed":false}],"50655":[{"stop_id":"U14123Z32","name":"Ostrovačice, Automotodrom","arrival_time":"10:20:00","departure_time":"10:20:00","lat":49.200274,"lon":16.447283,"is_passed":false},{"stop_id":"U14112Z2","name":"Omice, Kývalka, spojovací","arrival_time":"10:22:00","departure_time":"10:22:00","lat":49.190299,"lon":16.456016,"is_passed":false},{"stop_id":"U14133Z2","name":"Popůvky, Vintrovna","arrival_time":"10:25:00","departure_time":"10:25:00","lat":49.181645,"lon":16.49075,"is_passed":false},{"stop_id":"U14160Z2","name":"Troubsko, Veselka","arrival_time":"10:27:00","departure_time":"10:27:00","lat":49.176834,"lon":16.503674,"is_passed":false},{"stop_id":"U1302Z2","name":"Křivánkovo náměstí","arrival_time":"10:33:00","departure_time":"10:33:00","lat":49.20688,"lon":16.4876,"is_passed":false}],"50656":[{"stop_id":"U1302Z2","name":"Křivánkovo náměstí","arrival_time":"10:33:00","departure_time":"10:33:00","lat":49.20688,"lon":16.4876,"is_passed":false},{"stop_id":"U8120Z1","name":"Chrpová","arrival_time":"10:35:00","departure_time":"10:35:00","lat":49.211303,"lon":16.484249,"is_passed":false},{"stop_id":"U8127Z1","name":"Camp Žebětín","arrival_time":"10:36:00","departure_time":"10:36:00","lat":49.211879,"lon":16.476885,"is_passed":false},{"stop_id":"U8126Z1","name":"Tribuna D","arrival_time":"10:39:00","departure_time":"10:39:00","lat":49.211451,"lon":16.461886,"is_passed":false},{"stop_id":"U8124Z2","name":"Tribuny A-B-C","arrival_time":"10:41:00","departure_time":"10:41:00","lat":49.210115,"lon":16.450548,"is_passed":false},{"stop_id":"U14131Z2","name":"Ostrovačice, hájenka Na Šípu","arrival_time":"10:44:00","departure_time":"10:44:00","lat":49.206445,"lon":16.438208,"is_passed":false},{"stop_id":"U14123Z31","name":"Ostrovačice, Automotodrom","arrival_time":"10:47:00","departure_time":"11:20:00","lat":49.200274,"lon":16.447283,"is_passed":false}],"50657":[{"stop_id":"U14123Z32","name":"Ostrovačice, Automotodrom","arrival_time":"11:20:00","departure_time":"11:20:00","lat":49.200274,"lon":16.447283,"is_passed":false},{"stop_id":"U14112Z2","name":"Omice, Kývalka, spojovací","arrival_time":"11:22:00","departure_time":"11:22:00","lat":49.190299,"lon":16.456016,"is_passed":false},{"stop_id":"U14133Z2","name":"Popůvky, Vintrovna","arrival_time":"11:25:00","departure_time":"11:25:00","lat":49.181645,"lon":16.49075,"is_passed":false},{"stop_id":"U14160Z2","name":"Troubsko, Veselka","arrival_time":"11:27:00","departure_time":"11:27:00","lat":49.176834,"lon":16.503674,"is_passed":false},{"stop_id":"U1302Z2","name":"Křivánkovo náměstí","arrival_time":"11:33:00","departure_time":"11:33:00","lat":49.20688,"lon":16.4876,"is_passed":false}],"50658":[{"stop_id":"U1302Z2","name":"Křivánkovo náměstí","arrival_time":"11:33:00","departure_time":"11:33:00","lat":49.20688,"lon":16.4876,"is_passed":false},{"stop_id":"U8120Z1","name":"Chrpová","arrival_time":"11:35:00","departure_time":"11:35:00","lat":49.211303,"lon":16.484249,"is_passed":false},{"stop_id":"U8127Z1","name":"Camp Žebětín","arrival_time":"11:36:00","departure_time":"11:36:00","lat":49.211879,"lon":16.476885,"is_passed":false},{"stop_id":"U8126Z1","name":"Tribuna D","arrival_time":"11:39:00","departure_time":"11:39:00","lat":49.211451,"lon":16.461886,"is_passed":false},{"stop_id":"U8124Z2","name":"Tribuny A-B-C","arrival_time":"11:41:00","departure_time":"11:41:00","lat":49.210115,"lon":16.450548,"is_passed":false},{"stop_id":"U14131Z2","name":"Ostrovačice, hájenka Na Šípu","arrival_time":"11:44:00","departure_time":"11:44:00","lat":49.206445,"lon":16.438208,"is_passed":false},{"stop_id":"U14123Z31","name":"Ostrovačice, Automotodrom","arrival_time":"11:47:00","departure_time":"12:15:00","lat":49.200274,"lon":16.447283,"is_passed":false}],"50659":[{"stop_id":"U14123Z32","name":"Ostrovačice, Automotodrom","arrival_time":"12:15:00","departure_time":"12:15:00","lat":49.200274,"lon":16.447283,"is_passed":false},{"stop_id":"U14112Z2","name":"Omice, Kývalka, spojovací","arrival_time":"12:17:00","departure_time":"12:17:00","lat":49.190299,"lon":16.456016,"is_passed":false},{"stop_id":"U14133Z2","name":"Popůvky, Vintrovna","arrival_time":"12:20:00","departure_time":"12:20:00","lat":49.181645,"lon":16.49075,"is_passed":false},{"stop_id":"U14160Z2","name":"Troubsko, Veselka","arrival_time":"12:22:00","departure_time":"12:22:00","lat":49.176834,"lon":16.503674,"is_passed":false},{"stop_id":"U1302Z2","name":"Křivánkovo náměstí","arrival_time":"12:28:00","departure_time":"12:28:00","lat":49.20688,"lon":16.4876,"is_passed":false}],"50660":[{"stop_id":"U1302Z2","name":"Křivánkovo náměstí","arrival_time":"12:28:00","departure_time":"12:28:00","lat":49.20688,"lon":16.4876,"is_passed":false},{"stop_id":"U8120Z1","name":"Chrpová","arrival_time":"12:30:00","departure_time":"12:30:00","lat":49.211303,"lon":16.484249,"is_passed":false},{"stop_id":"U8127Z1","name":"Camp Žebětín","arrival_time":"12:31:00","departure_time":"12:31:00","lat":49.211879,"lon":16.476885,"is_passed":false},{"stop_id":"U8126Z1","name":"Tribuna D","arrival_time":"12:34:00","departure_time":"12:34:00","lat":49.211451,"lon":16.461886,"is_passed":false},{"stop_id":"U8124Z2","name":"Tribuny A-B-C","arrival_time":"12:36:00","departure_time":"12:36:00","lat":49.210115,"lon":16.450548,"is_passed":false},{"stop_id":"U14131Z2","name":"Ostrovačice, hájenka Na Šípu","arrival_time":"12:39:00","departure_time":"12:39:00","lat":49.206445,"lon":16.438208,"is_passed":false},{"stop_id":"U14123Z31","name":"Ostrovačice, Automotodrom","arrival_time":"12:42:00","departure_time":"13:30:00","lat":49.200274,"lon":16.447283,"is_passed":false}],"50661":[{"stop_id":"U14123Z32","name":"Ostrovačice, Automotodrom","arrival_time":"13:30:00","departure_time":"13:30:00","lat":49.200274,"lon":16.447283,"is_passed":false},{"stop_id":"U14112Z2","name":"Omice, Kývalka, spojovací","arrival_time":"13:32:00","departure_time":"13:32:00","lat":49.190299,"lon":16.456016,"is_passed":false},{"stop_id":"U14133Z2","name":"Popůvky, Vintrovna","arrival_time":"13:35:00","departure_time":"13:35:00","lat":49.181645,"lon":16.49075,"is_passed":false},{"stop_id":"U14160Z2","name":"Troubsko, Veselka","arrival_time":"13:37:00","departure_time":"13:37:00","lat":49.176834,"lon":16.503674,"is_passed":false},{"stop_id":"U1302Z2","name":"Křivánkovo náměstí","arrival_time":"13:43:00","departure_time":"13:43:00","lat":49.20688,"lon":16.4876,"is_passed":false}],"50662":[{"stop_id":"U1302Z2","name":"Křivánkovo náměstí","arrival_time":"13:43:00","departure_time":"13:43:00","lat":49.20688,"lon":16.4876,"is_passed":false},{"stop_id":"U8120Z1","name":"Chrpová","arrival_time":"13:45:00","departure_time":"13:45:00","lat":49.211303,"lon":16.484249,"is_passed":false},{"stop_id":"U8127Z1","name":"Camp Žebětín","arrival_time":"13:46:00","departure_time":"13:46:00","lat":49.211879,"lon":16.476885,"is_passed":false},{"stop_id":"U8126Z1","name":"Tribuna D","arrival_time":"13:49:00","departure_time":"13:49:00","lat":49.211451,"lon":16.461886,"is_passed":false},{"stop_id":"U8124Z2","name":"Tribuny A-B-C","arrival_time":"13:51:00","departure_time":"13:51:00","lat":49.210115,"lon":16.450548,"is_passed":false},{"stop_id":"U14131Z2","name":"Ostrovačice, hájenka Na Šípu","arrival_time":"13:54:00","departure_time":"13:54:00","lat":49.206445,"lon":16.438208,"is_passed":false},{"stop_id":"U14123Z31","name":"Ostrovačice, Automotodrom","arrival_time":"13:57:00","departure_time":"14:15:00","lat":49.200274,"lon":16.447283,"is_passed":false}],"50663":[{"stop_id":"U14123Z32","name":"Ostrovačice, Automotodrom","arrival_time":"14:15:00","departure_time":"14:15:00","lat":49.200274,"lon":16.447283,"is_passed":false},{"stop_id":"U14112Z2","name":"Omice, Kývalka, spojovací","arrival_time":"14:17:00","departure_time":"14:17:00","lat":49.190299,"lon":16.456016,"is_passed":false},{"stop_id":"U14133Z2","name":"Popůvky, Vintrovna","arrival_time":"14:20:00","departure_time":"14:20:00","lat":49.181645,"lon":16.49075,"is_passed":false},{"stop_id":"U14160Z2","name":"Troubsko, Veselka","arrival_time":"14:22:00","departure_time":"14:22:00","lat":49.176834,"lon":16.503674,"is_passed":false},{"stop_id":"U1302Z2","name":"Křivánkovo náměstí","arrival_time":"14:28:00","departure_time":"14:28:00","lat":49.20688,"lon":16.4876,"is_passed":false}],"50664":[{"stop_id":"U14123Z32","name":"Ostrovačice, Automotodrom","arrival_time":"15:15:00","departure_time":"15:15:00","lat":49.200274,"lon":16.447283,"is_passed":false},{"stop_id":"U14112Z2","name":"Omice, Kývalka, spojovací","arrival_time":"15:17:00","departure_time":"15:17:00","lat":49.190299,"lon":16.456016,"is_passed":false},{"stop_id":"U14133Z2","name":"Popůvky, Vintrovna","arrival_time":"15:20:00","departure_time":"15:20:00","lat":49.181645,"lon":16.49075,"is_passed":false},{"stop_id":"U14160Z2","name":"Troubsko, Veselka","arrival_time":"15:22:00","departure_time":"15:22:00","lat":49.176834,"lon":16.503674,"is_passed":false},{"stop_id":"U1302Z2","name":"Křivánkovo náměstí","arrival_time":"15:28:00","departure_time":"15:28:00","lat":49.20688,"lon":16.4876,"is_passed":false}],"50665":[{"stop_id":"U14123Z32","name":"Ostrovačice, Automotodrom","arrival_time":"16:10:00","departure_time":"16:10:00","lat":49.200274,"lon":16.447283,"is_passed":false},{"stop_id":"U14112Z2","name":"Omice, Kývalka, spojovací","arrival_time":"16:12:00","departure_time":"16:12:00","lat":49.190299,"lon":16.456016,"is_passed":false},{"stop_id":"U14133Z2","name":"Popůvky, Vintrovna","arrival_time":"16:15:00","departure_time":"16:15:00","lat":49.181645,"lon":16.49075,"is_passed":false},{"stop_id":"U14160Z2","name":"Troubsko, Veselka","arrival_time":"16:17:00","departure_time":"16:17:00","lat":49.176834,"lon":16.503674,"is_passed":false},{"stop_id":"U1302Z2","name":"Křivánkovo náměstí","arrival_time":"16:23:00","departure_time":"16:23:00","lat":49.20688,"lon":16.4876,"is_passed":false}],"50666":[{"stop_id":"U14123Z32","name":"Ostrovačice, Automotodrom","arrival_time":"17:00:00","departure_time":"17:00:00","lat":49.200274,"lon":16.447283,"is_passed":false},{"stop_id":"U14112Z2","name":"Omice, Kývalka, spojovací","arrival_time":"17:02:00","departure_time":"17:02:00","lat":49.190299,"lon":16.456016,"is_passed":false},{"stop_id":"U14133Z2","name":"Popůvky, Vintrovna","arrival_time":"17:05:00","departure_time":"17:05:00","lat":49.181645,"lon":16.49075,"is_passed":false},{"stop_id":"U14160Z2","name":"Troubsko, Veselka","arrival_time":"17:07:00","departure_time":"17:07:00","lat":49.176834,"lon":16.503674,"is_passed":false},{"stop_id":"U1302Z2","name":"Křivánkovo náměstí","arrival_time":"17:13:00","departure_time":"17:13:00","lat":49.20688,"lon":16.4876,"is_passed":false}],"50667":[{"stop_id":"U14123Z32","name":"Ostrovačice, Automotodrom","arrival_time":"17:45:00","departure_time":"17:45:00","lat":49.200274,"lon":16.447283,"is_passed":false},{"stop_id":"U14112Z2","name":"Omice, Kývalka, spojovací","arrival_time":"17:47:00","departure_time":"17:47:00","lat":49.190299,"lon":16.456016,"is_passed":false},{"stop_id":"U14133Z2","name":"Popůvky, Vintrovna","arrival_time":"17:50:00","departure_time":"17:50:00","lat":49.181645,"lon":16.49075,"is_passed":false},{"stop_id":"U14160Z2","name":"Troubsko, Veselka","arrival_time":"17:52:00","departure_time":"17:52:00","lat":49.176834,"lon":16.503674,"is_passed":false},{"stop_id":"U1302Z2","name":"Křivánkovo náměstí","arrival_time":"17:58:00","departure_time":"18:00:00","lat":49.20688,"lon":16.4876,"is_passed":false}],"50668":[{"stop_id":"U1429Z3","name":"Nemocnice Bohunice","arrival_time":"7:07:00","departure_time":"7:07:00","lat":49.175844,"lon":16.567503,"is_passed":false},{"stop_id":"U1632Z1","name":"Svážná","arrival_time":"7:10:00","departure_time":"7:10:00","lat":49.173544,"lon":16.553381,"is_passed":false},{"stop_id":"U1161Z3","name":"Hoštická","arrival_time":"7:12:00","departure_time":"7:12:00","lat":49.173743,"lon":16.529523,"is_passed":false},{"stop_id":"U14160Z1","name":"Troubsko, Veselka","arrival_time":"7:15:00","departure_time":"7:15:00","lat":49.176905,"lon":16.503284,"is_passed":false},{"stop_id":"U14133Z1","name":"Popůvky, Vintrovna","arrival_time":"7:17:00","departure_time":"7:17:00","lat":49.181813,"lon":16.490518,"is_passed":false},{"stop_id":"U14112Z1","name":"Omice, Kývalka, spojovací","arrival_time":"7:20:00","departure_time":"7:20:00","lat":49.19051,"lon":16.456047,"is_passed":false},{"stop_id":"U14123Z31","name":"Ostrovačice, Automotodrom","arrival_time":"7:22:00","departure_time":"7:22:00","lat":49.200274,"lon":16.447283,"is_passed":false}],"50669":[{"stop_id":"U14123Z32","name":"Ostrovačice, Automotodrom","arrival_time":"7:30:00","departure_time":"7:30:00","lat":49.200274,"lon":16.447283,"is_passed":false},{"stop_id":"U14112Z2","name":"Omice, Kývalka, spojovací","arrival_time":"7:32:00","departure_time":"7:32:00","lat":49.190299,"lon":16.456016,"is_passed":false},{"stop_id":"U14133Z2","name":"Popůvky, Vintrovna","arrival_time":"7:35:00","departure_time":"7:35:00","lat":49.181645,"lon":16.49075,"is_passed":false},{"stop_id":"U14160Z2","name":"Troubsko, Veselka","arrival_time":"7:37:00","departure_time":"7:37:00","lat":49.176834,"lon":16.503674,"is_passed":false},{"stop_id":"U1302Z2","name":"Křivánkovo náměstí","arrival_time":"7:43:00","departure_time":"7:43:00","lat":49.20688,"lon":16.4876,"is_passed":false}],"50670":[{"stop_id":"U1302Z2","name":"Křivánkovo náměstí","arrival_time":"7:43:00","departure_time":"7:43:00","lat":49.20688,"lon":16.4876,"is_passed":false},{"stop_id":"U8120Z1","name":"Chrpová","arrival_time":"7:45:00","departure_time":"7:45:00","lat":49.211303,"lon":16.484249,"is_passed":false},{"stop_id":"U8127Z1","name":"Camp Žebětín","arrival_time":"7:46:00","departure_time":"7:46:00","lat":49.211879,"lon":16.476885,"is_passed":false},{"stop_id":"U8126Z1","name":"Tribuna D","arrival_time":"7:49:00","departure_time":"7:49:00","lat":49.211451,"lon":16.461886,"is_passed":false},{"stop_id":"U8124Z2","name":"Tribuny A-B-C","arrival_time":"7:51:00","departure_time":"7:51:00","lat":49.210115,"lon":16.450548,"is_passed":false},{"stop_id":"U14131Z2","name":"Ostrovačice, hájenka Na Šípu","arrival_time":"7:54:00","departure_time":"7:54:00","lat":49.206445,"lon":16.438208,"is_passed":false},{"stop_id":"U14123Z31","name":"Ostrovačice, Automotodrom","arrival_time":"7:57:00","departure_time":"8:30:00","lat":49.200274,"lon":16.447283,"is_passed":false}],"50671":[{"stop_id":"U14123Z32","name":"Ostrovačice, Automotodrom","arrival_time":"8:30:00","departure_time":"8:30:00","lat":49.200274,"lon":16.447283,"is_passed":false},{"stop_id":"U14112Z2","name":"Omice, Kývalka, spojovací","arrival_time":"8:32:00","departure_time":"8:32:00","lat":49.190299,"lon":16.456016,"is_passed":false},{"stop_id":"U14133Z2","name":"Popůvky, Vintrovna","arrival_time":"8:35:00","departure_time":"8:35:00","lat":49.181645,"lon":16.49075,"is_passed":false},{"stop_id":"U14160Z2","name":"Troubsko, Veselka","arrival_time":"8:37:00","departure_time":"8:37:00","lat":49.176834,"lon":16.503674,"is_passed":false},{"stop_id":"U1302Z2","name":"Křivánkovo náměstí","arrival_time":"8:43:00","departure_time":"8:43:00","lat":49.20688,"lon":16.4876,"is_passed":false}],"50672":[{"stop_id":"U1302Z2","name":"Křivánkovo náměstí","arrival_time":"8:43:00","departure_time":"8:43:00","lat":49.20688,"lon":16.4876,"is_passed":false},{"stop_id":"U8120Z1","name":"Chrpová","arrival_time":"8:45:00","departure_time":"8:45:00","lat":49.211303,"lon":16.484249,"is_passed":false},{"stop_id":"U8127Z1","name":"Camp Žebětín","arrival_time":"8:46:00","departure_time":"8:46:00","lat":49.211879,"lon":16.476885,"is_passed":false},{"stop_id":"U8126Z1","name":"Tribuna D","arrival_time":"8:49:00","departure_time":"8:49:00","lat":49.211451,"lon":16.461886,"is_passed":false},{"stop_id":"U8124Z2","name":"Tribuny A-B-C","arrival_time":"8:51:00","departure_time":"8:51:00","lat":49.210115,"lon":16.450548,"is_passed":false},{"stop_id":"U14131Z2","name":"Ostrovačice, hájenka Na Šípu","arrival_time":"8:54:00","departure_time":"8:54:00","lat":49.206445,"lon":16.438208,"is_passed":false},{"stop_id":"U14123Z31","name":"Ostrovačice, Automotodrom","arrival_time":"8:57:00","departure_time":"9:30:00","lat":49.200274,"lon":16.447283,"is_passed":false}],"50673":[{"stop_id":"U14123Z32","name":"Ostrovačice, Automotodrom","arrival_time":"9:30:00","departure_time":"9:30:00","lat":49.200274,"lon":16.447283,"is_passed":false},{"stop_id":"U14112Z2","name":"Omice, Kývalka, spojovací","arrival_time":"9:32:00","departure_time":"9:32:00","lat":49.190299,"lon":16.456016,"is_passed":false},{"stop_id":"U14133Z2","name":"Popůvky, Vintrovna","arrival_time":"9:35:00","departure_time":"9:35:00","lat":49.181645,"lon":16.49075,"is_passed":false},{"stop_id":"U14160Z2","name":"Troubsko, Veselka","arrival_time":"9:37:00","departure_time":"9:37:00","lat":49.176834,"lon":16.503674,"is_passed":false},{"stop_id":"U1302Z2","name":"Křivánkovo náměstí","arrival_time":"9:43:00","departure_time":"9:43:00","lat":49.20688,"lon":16.4876,"is_passed":false}],"50674":[{"stop_id":"U1302Z2","name":"Křivánkovo náměstí","arrival_time":"9:43:00","departure_time":"9:43:00","lat":49.20688,"lon":16.4876,"is_passed":false},{"stop_id":"U8120Z1","name":"Chrpová","arrival_time":"9:45:00","departure_time":"9:45:00","lat":49.211303,"lon":16.484249,"is_passed":false},{"stop_id":"U8127Z1","name":"Camp Žebětín","arrival_time":"9:46:00","departure_time":"9:46:00","lat":49.211879,"lon":16.476885,"is_passed":false},{"stop_id":"U8126Z1","name":"Tribuna D","arrival_time":"9:49:00","departure_time":"9:49:00","lat":49.211451,"lon":16.461886,"is_passed":false},{"stop_id":"U8124Z2","name":"Tribuny A-B-C","arrival_time":"9:51:00","departure_time":"9:51:00","lat":49.210115,"lon":16.450548,"is_passed":false},{"stop_id":"U14131Z2","name":"Ostrovačice, hájenka Na Šípu","arrival_time":"9:54:00","departure_time":"9:54:00","lat":49.206445,"lon":16.438208,"is_passed":false},{"stop_id":"U14123Z31","name":"Ostrovačice, Automotodrom","arrival_time":"9:57:00","departure_time":"10:30:00","lat":49.200274,"lon":16.447283,"is_passed":false}],"50675":[{"stop_id":"U14123Z32","name":"Ostrovačice, Automotodrom","arrival_time":"10:30:00","departure_time":"10:30:00","lat":49.200274,"lon":16.447283,"is_passed":false},{"stop_id":"U14112Z2","name":"Omice, Kývalka, spojovací","arrival_time":"10:32:00","departure_time":"10:32:00","lat":49.190299,"lon":16.456016,"is_passed":false},{"stop_id":"U14133Z2","name":"Popůvky, Vintrovna","arrival_time":"10:35:00","departure_time":"10:35:00","lat":49.181645,"lon":16.49075,"is_passed":false},{"stop_id":"U14160Z2","name":"Troubsko, Veselka","arrival_time":"10:37:00","departure_time":"10:37:00","lat":49.176834,"lon":16.503674,"is_passed":false},{"stop_id":"U1302Z2","name":"Křivánkovo náměstí","arrival_time":"10:43:00","departure_time":"10:43:00","lat":49.20688,"lon":16.4876,"is_passed":false}],"50676":[{"stop_id":"U1302Z2","name":"Křivánkovo náměstí","arrival_time":"10:43:00","departure_time":"10:43:00","lat":49.20688,"lon":16.4876,"is_passed":false},{"stop_id":"U8120Z1","name":"Chrpová","arrival_time":"10:45:00","departure_time":"10:45:00","lat":49.211303,"lon":16.484249,"is_passed":false},{"stop_id":"U8127Z1","name":"Camp Žebětín","arrival_time":"10:46:00","departure_time":"10:46:00","lat":49.211879,"lon":16.476885,"is_passed":false},{"stop_id":"U8126Z1","name":"Tribuna D","arrival_time":"10:49:00","departure_time":"10:49:00","lat":49.211451,"lon":16.461886,"is_passed":false},{"stop_id":"U8124Z2","name":"Tribuny A-B-C","arrival_time":"10:51:00","departure_time":"10:51:00","lat":49.210115,"lon":16.450548,"is_passed":false},{"stop_id":"U14131Z2","name":"Ostrovačice, hájenka Na Šípu","arrival_time":"10:54:00","departure_time":"10:54:00","lat":49.206445,"lon":16.438208,"is_passed":false},{"stop_id":"U14123Z31","name":"Ostrovačice, Automotodrom","arrival_time":"10:57:00","departure_time":"11:30:00","lat":49.200274,"lon":16.447283,"is_passed":false}],"50677":[{"stop_id":"U14123Z32","name":"Ostrovačice, Automotodrom","arrival_time":"11:30:00","departure_time":"11:30:00","lat":49.200274,"lon":16.447283,"is_passed":false},{"stop_id":"U14112Z2","name":"Omice, Kývalka, spojovací","arrival_time":"11:32:00","departure_time":"11:32:00","lat":49.190299,"lon":16.456016,"is_passed":false},{"stop_id":"U14133Z2","name":"Popůvky, Vintrovna","arrival_time":"11:35:00","departure_time":"11:35:00","lat":49.181645,"lon":16.49075,"is_passed":false},{"stop_id":"U14160Z2","name":"Troubsko, Veselka","arrival_time":"11:37:00","departure_time":"11:37:00","lat":49.176834,"lon":16.503674,"is_passed":false},{"stop_id":"U1302Z2","name":"Křivánkovo náměstí","arrival_time":"11:43:00","departure_time":"11:43:00","lat":49.20688,"lon":16.4876,"is_passed":false}],"50678":[{"stop_id":"U1302Z2","name":"Křivánkovo náměstí","arrival_time":"11:43:00","departure_time":"11:43:00","lat":49.20688,"lon":16.4876,"is_passed":false},{"stop_id":"U8120Z1","name":"Chrpová","arrival_time":"11:45:00","departure_time":"11:45:00","lat":49.211303,"lon":16.484249,"is_passed":false},{"stop_id":"U8127Z1","name":"Camp Žebětín","arrival_time":"11:46:00","departure_time":"11:46:00","lat":49.211879,"lon":16.476885,"is_passed":false},{"stop_id":"U8126Z1","name":"Tribuna D","arrival_time":"11:49:00","departure_time":"11:49:00","lat":49.211451,"lon":16.461886,"is_passed":false},{"stop_id":"U8124Z2","name":"Tribuny A-B-C","arrival_time":"11:51:00","departure_time":"11:51:00","lat":49.210115,"lon":16.450548,"is_passed":false},{"stop_id":"U14131Z2","name":"Ostrovačice, hájenka Na Šípu","arrival_time":"11:54:00","departure_time":"11:54:00","lat":49.206445,"lon":16.438208,"is_passed":false},{"stop_id":"U14123Z31","name":"Ostrovačice, Automotodrom","arrival_time":"11:57:00","departure_time":"12:30:00","lat":49.200274,"lon":16.447283,"is_passed":false}],"50679":[{"stop_id":"U14123Z32","name":"Ostrovačice, Automotodrom","arrival_time":"12:30:00","departure_time":"12:30:00","lat":49.200274,"lon":16.447283,"is_passed":false},{"stop_id":"U14112Z2","name":"Omice, Kývalka, spojovací","arrival_time":"12:32:00","departure_time":"12:32:00","lat":49.190299,"lon":16.456016,"is_passed":false},{"stop_id":"U14133Z2","name":"Popůvky, Vintrovna","arrival_time":"12:35:00","departure_time":"12:35:00","lat":49.181645,"lon":16.49075,"is_passed":false},{"stop_id":"U14160Z2","name":"Troubsko, Veselka","arrival_time":"12:37:00","departure_time":"12:37:00","lat":49.176834,"lon":16.503674,"is_passed":false},{"stop_id":"U1302Z2","name":"Křivánkovo náměstí","arrival_time":"12:43:00","departure_time":"12:43:00","lat":49.20688,"lon":16.4876,"is_passed":false}],"50680":[{"stop_id":"U1302Z2","name":"Křivánkovo náměstí","arrival_time":"12:43:00","departure_time":"12:43:00","lat":49.20688,"lon":16.4876,"is_passed":false},{"stop_id":"U8120Z1","name":"Chrpová","arrival_time":"12:45:00","departure_time":"12:45:00","lat":49.211303,"lon":16.484249,"is_passed":false},{"stop_id":"U8127Z1","name":"Camp Žebětín","arrival_time":"12:46:00","departure_time":"12:46:00","lat":49.211879,"lon":16.476885,"is_passed":false},{"stop_id":"U8126Z1","name":"Tribuna D","arrival_time":"12:49:00","departure_time":"12:49:00","lat":49.211451,"lon":16.461886,"is_passed":false},{"stop_id":"U8124Z2","name":"Tribuny A-B-C","arrival_time":"12:51:00","departure_time":"12:51:00","lat":49.210115,"lon":16.450548,"is_passed":false},{"stop_id":"U14131Z2","name":"Ostrovačice, hájenka Na Šípu","arrival_time":"12:54:00","departure_time":"12:54:00","lat":49.206445,"lon":16.438208,"is_passed":false},{"stop_id":"U14123Z31","name":"Ostrovačice, Automotodrom","arrival_time":"12:57:00","departure_time":"12:57:00","lat":49.200274,"lon":16.447283,"is_passed":false}],"50681":[{"stop_id":"U14123Z32","name":"Ostrovačice, Automotodrom","arrival_time":"17:15:00","departure_time":"17:15:00","lat":49.200274,"lon":16.447283,"is_passed":false},{"stop_id":"U14112Z2","name":"Omice, Kývalka, spojovací","arrival_time":"17:17:00","departure_time":"17:17:00","lat":49.190299,"lon":16.456016,"is_passed":false},{"stop_id":"U14133Z2","name":"Popůvky, Vintrovna","arrival_time":"17:20:00","departure_time":"17:20:00","lat":49.181645,"lon":16.49075,"is_passed":false},{"stop_id":"U14160Z2","name":"Troubsko, Veselka","arrival_time":"17:22:00","departure_time":"17:22:00","lat":49.176834,"lon":16.503674,"is_passed":false},{"stop_id":"U1516Z1","name":"Pražská","arrival_time":"17:24:00","departure_time":"17:24:00","lat":49.173478,"lon":16.531543,"is_passed":false},{"stop_id":"U1632Z2","name":"Svážná","arrival_time":"17:27:00","departure_time":"17:27:00","lat":49.173409,"lon":16.553508,"is_passed":false},{"stop_id":"U1429Z3","name":"Nemocnice Bohunice","arrival_time":"17:30:00","departure_time":"17:33:00","lat":49.175844,"lon":16.567503,"is_passed":false}],"50682":[{"stop_id":"U14123Z32","name":"Ostrovačice, Automotodrom","arrival_time":"16:20:00","departure_time":"16:20:00","lat":49.200274,"lon":16.447283,"is_passed":false},{"stop_id":"U14112Z2","name":"Omice, Kývalka, spojovací","arrival_time":"16:22:00","departure_time":"16:22:00","lat":49.190299,"lon":16.456016,"is_passed":false},{"stop_id":"U14133Z2","name":"Popůvky, Vintrovna","arrival_time":"16:25:00","departure_time":"16:25:00","lat":49.181645,"lon":16.49075,"is_passed":false},{"stop_id":"U14160Z2","name":"Troubsko, Veselka","arrival_time":"16:27:00","departure_time":"16:27:00","lat":49.176834,"lon":16.503674,"is_passed":false},{"stop_id":"U1302Z2","name":"Křivánkovo náměstí","arrival_time":"16:33:00","departure_time":"16:33:00","lat":49.20688,"lon":16.4876,"is_passed":false}],"50683":[{"stop_id":"U14123Z32","name":"Ostrovačice, Automotodrom","arrival_time":"17:10:00","departure_time":"17:10:00","lat":49.200274,"lon":16.447283,"is_passed":false},{"stop_id":"U14112Z2","name":"Omice, Kývalka, spojovací","arrival_time":"17:12:00","departure_time":"17:12:00","lat":49.190299,"lon":16.456016,"is_passed":false},{"stop_id":"U14133Z2","name":"Popůvky, Vintrovna","arrival_time":"17:15:00","departure_time":"17:15:00","lat":49.181645,"lon":16.49075,"is_passed":false},{"stop_id":"U14160Z2","name":"Troubsko, Veselka","arrival_time":"17:17:00","departure_time":"17:17:00","lat":49.176834,"lon":16.503674,"is_passed":false},{"stop_id":"U1302Z2","name":"Křivánkovo náměstí","arrival_time":"17:23:00","departure_time":"17:25:00","lat":49.20688,"lon":16.4876,"is_passed":false}],"50684":[{"stop_id":"U14123Z32","name":"Ostrovačice, Automotodrom","arrival_time":"7:00:00","departure_time":"7:00:00","lat":49.200274,"lon":16.447283,"is_passed":false},