[{"stop_id":"U14305Z51","name":"Javůrek","arrival_time":"16:15:00","departure_time":"16:15:00","lat":49.254545,"lon":16.360777,"is_passed":false},{"stop_id":"U14304Z2","name":"Domašov, u hřbitova","arrival_time":"16:18:00","departure_time":"16:18:00","lat":49.247228,"lon":16.343435,"is_passed":false},{"stop_id":"U14301Z2","name":"Domašov","arrival_time":"16:20:00","departure_time":"16:20:00","lat":49.245362,"lon":16.343588,"is_passed":false},{"stop_id":"U14303Z2","name":"Domašov, Nový konec","arrival_time":"16:21:00","departure_time":"16:21:00","lat":49.240153,"lon":16.347798,"is_passed":false},{"stop_id":"U14219Z2","name":"Říčky","arrival_time":"16:23:00","departure_time":"16:23:00","lat":49.231828,"lon":16.357412,"is_passed":false},{"stop_id":"U14217Z2","name":"Říčany","arrival_time":"16:28:00","departure_time":"16:28:00","lat":49.214683,"lon":16.395327,"is_passed":false},{"stop_id":"U14244Z2","name":"Ostrovačice, Říčanská","arrival_time":"16:29:00","departure_time":"16:29:00","lat":49.212743,"lon":16.406495,"is_passed":false},{"stop_id":"U14215Z2","name":"Ostrovačice, náměstí Viléma Mrštíka","arrival_time":"16:30:00","departure_time":"16:30:00","lat":49.210782,"lon":16.409187,"is_passed":false},{"stop_id":"U1429Z6","name":"Nemocnice Bohunice","arrival_time":"16:43:00","departure_time":"17:12:00","lat":49.175872,"lon":16.566969,"is_passed":false}]