[{"stop_id":"U1146Z99","name":"Hlavní nádraží","arrival_time":"4:32:00","departure_time":"4:32:00","lat":49.19035,"lon":16.612342,"is_passed":false},{"stop_id":"U1809Z10","name":"Židenice, nádraží","arrival_time":"4:35:00","departure_time":"4:36:00","lat":49.204282,"lon":16.636042,"is_passed":false},{"stop_id":"U12158Z10","name":"Bílovice nad Svitavou, žel. stanice","arrival_time":"4:41:00","departure_time":"4:41:00","lat":49.242715,"lon":16.673677,"is_passed":false},{"stop_id":"U22101Z1","name":"Babice nad Svitavou","arrival_time":"4:45:00","departure_time":"4:45:00","lat":49.276645,"lon":16.673012,"is_passed":false},{"stop_id":"U12230Z10","name":"Adamov, železniční stanice","arrival_time":"4:48:00","departure_time":"4:49:00","lat":49.295341,"lon":16.663538,"is_passed":false},{"stop_id":"U12231Z10","name":"Adamov, železniční zastávka","arrival_time":"4:50:00","departure_time":"4:51:00","lat":49.300671,"lon":16.650653,"is_passed":false},{"stop_id":"U12342Z30","name":"Blansko, aut. st.","arrival_time":"4:56:00","departure_time":"4:59:00","lat":49.352753,"lon":16.646848,"is_passed":false},{"stop_id":"U22302Z1","name":"Blansko město","arrival_time":"5:01:00","departure_time":"5:02:00","lat":49.360996,"lon":16.639464,"is_passed":false},{"stop_id":"U22301Z1","name":"Dolní Lhota","arrival_time":"5:04:00","departure_time":"5:05:00","lat":49.386917,"lon":16.633978,"is_passed":false},{"stop_id":"U12439Z50","name":"Rájec-Jestřebí, železniční stanice","arrival_time":"5:07:00","departure_time":"5:08:00","lat":49.408206,"lon":16.627711,"is_passed":false},{"stop_id":"U12511Z50","name":"Doubravice, žel.st.","arrival_time":"5:11:00","departure_time":"5:12:00","lat":49.438707,"lon":16.621809,"is_passed":false},{"stop_id":"U12676Z50","name":"Skalice nad Svitavou, žel.st.","arrival_time":"5:16:00","departure_time":"5:18:00","lat":49.480123,"lon":16.609726,"is_passed":false},{"stop_id":"U22602Z1","name":"Svitávka","arrival_time":"5:20:00","departure_time":"5:20:00","lat":49.499434,"lon":16.599208,"is_passed":false},{"stop_id":"U22701Z1","name":"Zboněk","arrival_time":"5:23:00","departure_time":"5:23:00","lat":49.521608,"lon":16.583438,"is_passed":false},{"stop_id":"U22702Z1","name":"Letovice zastávka","arrival_time":"5:25:00","departure_time":"5:26:00","lat":49.535496,"lon":16.576998,"is_passed":false},{"stop_id":"U12736Z50","name":"Letovice, železniční stanice","arrival_time":"5:29:00","departure_time":"5:59:00","lat":49.555973,"lon":16.570906,"is_passed":false}]