[{"stop_id":"U1146Z11","name":"Hlavní nádraží","arrival_time":"12:03:00","departure_time":"12:03:00","lat":49.191728,"lon":16.613768,"is_passed":false},{"stop_id":"U1746Z1","name":"Vlhká","arrival_time":"12:04:00","departure_time":"12:04:00","lat":49.191847,"lon":16.618976,"is_passed":false},{"stop_id":"U1372Z6","name":"Masná","arrival_time":"12:06:00","departure_time":"12:06:00","lat":49.190905,"lon":16.626023,"is_passed":false},{"stop_id":"U1677Z3","name":"Tržní","arrival_time":"12:08:00","departure_time":"12:08:00","lat":49.189342,"lon":16.630314,"is_passed":false},{"stop_id":"U1207Z1","name":"Jiránkova","arrival_time":"12:09:00","departure_time":"12:09:00","lat":49.187495,"lon":16.633494,"is_passed":false},{"stop_id":"U1563Z1","name":"Psychiatrická nemocnice","arrival_time":"12:10:00","departure_time":"12:10:00","lat":49.185089,"lon":16.636321,"is_passed":false},{"stop_id":"U1662Z1","name":"Škola Charbulova","arrival_time":"12:11:00","departure_time":"12:11:00","lat":49.182496,"lon":16.637572,"is_passed":false},{"stop_id":"U1106Z1","name":"Faměrovo náměstí","arrival_time":"12:12:00","departure_time":"12:12:00","lat":49.176788,"lon":16.64042,"is_passed":false},{"stop_id":"U1386Z2","name":"Mírová","arrival_time":"12:13:00","departure_time":"12:13:00","lat":49.176642,"lon":16.632052,"is_passed":false},{"stop_id":"U1066Z1","name":"Černovická","arrival_time":"12:14:00","departure_time":"12:14:00","lat":49.17696,"lon":16.62623,"is_passed":false},{"stop_id":"U1361Z1","name":"Mariánské náměstí","arrival_time":"12:15:00","departure_time":"12:15:00","lat":49.176433,"lon":16.622739,"is_passed":false},{"stop_id":"U1256Z5","name":"Komárov","arrival_time":"12:17:00","departure_time":"12:17:00","lat":49.174917,"lon":16.621279,"is_passed":false},{"stop_id":"U1308Z1","name":"Kšírova","arrival_time":"12:18:00","departure_time":"12:18:00","lat":49.17135,"lon":16.615769,"is_passed":false},{"stop_id":"U1156Z1","name":"Horní Heršpice","arrival_time":"12:19:00","departure_time":"12:19:00","lat":49.166342,"lon":16.616562,"is_passed":false},{"stop_id":"U1778Z51","name":"Záhumenice","arrival_time":"12:20:00","departure_time":"12:20:00","lat":49.162346,"lon":16.613616,"is_passed":false},{"stop_id":"U1136Z1","name":"Havránkova","arrival_time":"12:22:00","departure_time":"12:22:00","lat":49.157416,"lon":16.621598,"is_passed":false},{"stop_id":"U1092Z1","name":"Dolní Heršpice","arrival_time":"12:23:00","departure_time":"12:23:00","lat":49.152293,"lon":16.621527,"is_passed":false},{"stop_id":"U1354Z1","name":"Malá","arrival_time":"12:23:00","departure_time":"12:23:00","lat":49.149326,"lon":16.621809,"is_passed":false},{"stop_id":"U1531Z1","name":"Přízřenice","arrival_time":"12:24:00","departure_time":"12:24:00","lat":49.145289,"lon":16.62011,"is_passed":false},{"stop_id":"U1530Z1","name":"Přízřenice, smyčka","arrival_time":"12:25:00","departure_time":"13:17:00","lat":49.144321,"lon":16.620834,"is_passed":false}]