[{"stop_id":"U1189Z2","name":"Ivanovice, Globus","arrival_time":"13:16:00","departure_time":"13:16:00","lat":49.26279,"lon":16.57768,"is_passed":false},{"stop_id":"U1367Z2","name":"Maříkova","arrival_time":"13:17:00","departure_time":"13:17:00","lat":49.259514,"lon":16.579139,"is_passed":false},{"stop_id":"U1283Z2","name":"Královka","arrival_time":"13:18:00","departure_time":"13:18:00","lat":49.256124,"lon":16.586215,"is_passed":false},{"stop_id":"U1298Z1","name":"Kronova","arrival_time":"13:19:00","departure_time":"13:19:00","lat":49.25118,"lon":16.588181,"is_passed":false},{"stop_id":"U1476Z2","name":"Palackého náměstí","arrival_time":"13:21:00","departure_time":"13:21:00","lat":49.250816,"lon":16.581773,"is_passed":false},{"stop_id":"U1153Z2","name":"Horácké náměstí","arrival_time":"13:22:00","departure_time":"13:22:00","lat":49.247353,"lon":16.582415,"is_passed":false},{"stop_id":"U1338Z2","name":"Letovická","arrival_time":"13:23:00","departure_time":"13:23:00","lat":49.244996,"lon":16.588131,"is_passed":false},{"stop_id":"U1813Z2","name":"Žitná","arrival_time":"13:24:00","departure_time":"13:24:00","lat":49.239848,"lon":16.588552,"is_passed":false},{"stop_id":"U1286Z5","name":"Královo Pole, nádraží","arrival_time":"13:28:00","departure_time":"13:28:00","lat":49.229633,"lon":16.595447,"is_passed":false}]