[{"stop_id":"U1182Z2","name":"Chrlice, smyčka","arrival_time":"7:16:00","departure_time":"7:16:00","lat":49.126338,"lon":16.654668,"is_passed":false},{"stop_id":"U1183Z2","name":"Chrlice, nádraží","arrival_time":"7:17:00","departure_time":"7:17:00","lat":49.132136,"lon":16.656638,"is_passed":false},{"stop_id":"U1187Z2","name":"Chrlické náměstí","arrival_time":"7:18:00","departure_time":"7:18:00","lat":49.13548,"lon":16.653876,"is_passed":false},{"stop_id":"U1718Z2","name":"V rejích","arrival_time":"7:19:00","departure_time":"7:19:00","lat":49.138975,"lon":16.65507,"is_passed":false},{"stop_id":"U1151Z2","name":"Holásky","arrival_time":"7:20:00","departure_time":"7:20:00","lat":49.142863,"lon":16.651287,"is_passed":false},{"stop_id":"U1717Z2","name":"V aleji","arrival_time":"7:21:00","departure_time":"7:21:00","lat":49.148,"lon":16.648573,"is_passed":false},{"stop_id":"U1518Z2","name":"Prodloužená","arrival_time":"7:22:00","departure_time":"7:22:00","lat":49.152176,"lon":16.647669,"is_passed":false},{"stop_id":"U1511Z2","name":"Popelova","arrival_time":"7:24:00","departure_time":"7:24:00","lat":49.156919,"lon":16.646204,"is_passed":false},{"stop_id":"U1533Z2","name":"Ráječek","arrival_time":"7:25:00","departure_time":"7:25:00","lat":49.161397,"lon":16.637387,"is_passed":false},{"stop_id":"U1148Z2","name":"Hněvkovského","arrival_time":"7:27:00","departure_time":"7:27:00","lat":49.169618,"lon":16.626335,"is_passed":false}]