[{"stop_id":"U1703Z7","name":"Ústřední hřbitov","arrival_time":"5:34:00","departure_time":"5:34:00","lat":49.170741,"lon":16.597834,"is_passed":false},{"stop_id":"U1293Z5","name":"Krematorium","arrival_time":"5:36:00","departure_time":"5:36:00","lat":49.172914,"lon":16.590082,"is_passed":false},{"stop_id":"U1714Z3","name":"Uzbecká","arrival_time":"5:37:00","departure_time":"5:37:00","lat":49.173362,"lon":16.581961,"is_passed":false},{"stop_id":"U1610Z1","name":"Stará nemocnice","arrival_time":"5:38:00","departure_time":"5:38:00","lat":49.173643,"lon":16.577115,"is_passed":false},{"stop_id":"U1699Z2","name":"Univerzitní kampus","arrival_time":"5:41:00","departure_time":"5:41:00","lat":49.177455,"lon":16.567173,"is_passed":false},{"stop_id":"U1429Z5","name":"Nemocnice Bohunice","arrival_time":"5:42:00","departure_time":"5:42:00","lat":49.175206,"lon":16.56694,"is_passed":false},{"stop_id":"U1492Z2","name":"Pod nemocnicí","arrival_time":"5:44:00","departure_time":"5:44:00","lat":49.172338,"lon":16.569417,"is_passed":false},{"stop_id":"U1472Z8","name":"Osová","arrival_time":"5:45:00","departure_time":"5:45:00","lat":49.168617,"lon":16.566306,"is_passed":false},{"stop_id":"U1273Z2","name":"Kosmonautů","arrival_time":"5:45:00","departure_time":"5:45:00","lat":49.167124,"lon":16.56745,"is_passed":false},{"stop_id":"U1627Z1","name":"Svah","arrival_time":"5:46:00","departure_time":"5:46:00","lat":49.165199,"lon":16.567969,"is_passed":false},{"stop_id":"U1061Z1","name":"Čermákova","arrival_time":"5:46:00","departure_time":"5:46:00","lat":49.164336,"lon":16.565516,"is_passed":false},{"stop_id":"U1666Z1","name":"Točná","arrival_time":"5:47:00","departure_time":"5:47:00","lat":49.16476,"lon":16.561692,"is_passed":false},{"stop_id":"U1687Z1","name":"U hřiště","arrival_time":"5:48:00","departure_time":"5:48:00","lat":49.166214,"lon":16.558668,"is_passed":false},{"stop_id":"U1097Z5","name":"Dunajská","arrival_time":"5:49:00","departure_time":"5:49:00","lat":49.169618,"lon":16.555308,"is_passed":false},{"stop_id":"U1616Z5","name":"Starý Lískovec, smyčka","arrival_time":"5:50:00","departure_time":"5:50:00","lat":49.172309,"lon":16.553313,"is_passed":false},{"stop_id":"U1202Z1","name":"Jemelkova","arrival_time":"5:51:00","departure_time":"5:51:00","lat":49.173333,"lon":16.548692,"is_passed":false},{"stop_id":"U1568Z1","name":"Skalní","arrival_time":"5:53:00","departure_time":"5:53:00","lat":49.174248,"lon":16.538211,"is_passed":false},{"stop_id":"U1161Z1","name":"Hoštická","arrival_time":"5:54:00","departure_time":"5:54:00","lat":49.173864,"lon":16.528044,"is_passed":false},{"stop_id":"U1037Z1","name":"Bosonohy","arrival_time":"5:56:00","departure_time":"6:09:00","lat":49.17652,"lon":16.525792,"is_passed":false}]