[{"stop_id":"U1699Z2","name":"Univerzitní kampus","arrival_time":"6:49:00","departure_time":"6:49:00","lat":49.177455,"lon":16.567173,"is_passed":false},{"stop_id":"U1429Z5","name":"Nemocnice Bohunice","arrival_time":"6:50:00","departure_time":"6:50:00","lat":49.175206,"lon":16.56694,"is_passed":false},{"stop_id":"U1492Z2","name":"Pod nemocnicí","arrival_time":"6:52:00","departure_time":"6:52:00","lat":49.172338,"lon":16.569417,"is_passed":false},{"stop_id":"U1472Z8","name":"Osová","arrival_time":"6:54:00","departure_time":"6:54:00","lat":49.168617,"lon":16.566306,"is_passed":false},{"stop_id":"U1273Z2","name":"Kosmonautů","arrival_time":"6:54:00","departure_time":"6:54:00","lat":49.167124,"lon":16.56745,"is_passed":false},{"stop_id":"U1627Z1","name":"Svah","arrival_time":"6:55:00","departure_time":"6:55:00","lat":49.165199,"lon":16.567969,"is_passed":false},{"stop_id":"U1061Z1","name":"Čermákova","arrival_time":"6:55:00","departure_time":"6:55:00","lat":49.164336,"lon":16.565516,"is_passed":false},{"stop_id":"U1666Z1","name":"Točná","arrival_time":"6:56:00","departure_time":"6:56:00","lat":49.16476,"lon":16.561692,"is_passed":false},{"stop_id":"U1687Z1","name":"U hřiště","arrival_time":"6:57:00","departure_time":"6:57:00","lat":49.166214,"lon":16.558668,"is_passed":false},{"stop_id":"U1097Z5","name":"Dunajská","arrival_time":"6:58:00","departure_time":"6:58:00","lat":49.169618,"lon":16.555308,"is_passed":false},{"stop_id":"U1616Z5","name":"Starý Lískovec, smyčka","arrival_time":"6:59:00","departure_time":"6:59:00","lat":49.172309,"lon":16.553313,"is_passed":false},{"stop_id":"U1202Z1","name":"Jemelkova","arrival_time":"7:00:00","departure_time":"7:00:00","lat":49.173333,"lon":16.548692,"is_passed":false},{"stop_id":"U1568Z1","name":"Skalní","arrival_time":"7:02:00","departure_time":"7:02:00","lat":49.174248,"lon":16.538211,"is_passed":false},{"stop_id":"U1161Z1","name":"Hoštická","arrival_time":"7:03:00","departure_time":"7:03:00","lat":49.173864,"lon":16.528044,"is_passed":false},{"stop_id":"U1037Z1","name":"Bosonohy","arrival_time":"7:05:00","departure_time":"7:15:00","lat":49.17652,"lon":16.525792,"is_passed":false}]