[{"stop_id":"U1659Z4","name":"Technologický park","arrival_time":"7:18:00","departure_time":"7:18:00","lat":49.231509,"lon":16.576781,"is_passed":false},{"stop_id":"U1104Z1","name":"Edisonova","arrival_time":"7:18:00","departure_time":"7:18:00","lat":49.22828,"lon":16.576461,"is_passed":false},{"stop_id":"U1499Z2","name":"Podnikatelská","arrival_time":"7:19:00","departure_time":"7:19:00","lat":49.227023,"lon":16.576248,"is_passed":false},{"stop_id":"U1660Z2","name":"Technická","arrival_time":"7:20:00","departure_time":"7:20:00","lat":49.22302,"lon":16.578608,"is_passed":false},{"stop_id":"U1155Z2","name":"Horská","arrival_time":"7:21:00","departure_time":"7:21:00","lat":49.221604,"lon":16.579463,"is_passed":false},{"stop_id":"U1777Z2","name":"Záhřebská","arrival_time":"7:23:00","departure_time":"7:23:00","lat":49.219845,"lon":16.580415,"is_passed":false},{"stop_id":"U1567Z6","name":"Skácelova","arrival_time":"7:25:00","departure_time":"7:25:00","lat":49.22163,"lon":16.585935,"is_passed":false},{"stop_id":"U1586Z4","name":"Slovanské náměstí","arrival_time":"7:26:00","departure_time":"7:26:00","lat":49.222774,"lon":16.591332,"is_passed":false},{"stop_id":"U1171Z3","name":"Husitská","arrival_time":"7:27:00","departure_time":"7:27:00","lat":49.223851,"lon":16.594116,"is_passed":false},{"stop_id":"U1566Z4","name":"Semilasso","arrival_time":"7:29:00","departure_time":"7:29:00","lat":49.228055,"lon":16.593438,"is_passed":false},{"stop_id":"U1286Z3","name":"Královo Pole, nádraží","arrival_time":"7:30:00","departure_time":"7:30:00","lat":49.229218,"lon":16.596271,"is_passed":false},{"stop_id":"U1388Z2","name":"Mojmírovo náměstí","arrival_time":"7:31:00","departure_time":"7:31:00","lat":49.226499,"lon":16.598423,"is_passed":false},{"stop_id":"U1246Z1","name":"Kociánka","arrival_time":"7:32:00","departure_time":"7:32:00","lat":49.225575,"lon":16.601869,"is_passed":false},{"stop_id":"U1288Z1","name":"Královopolská strojírna","arrival_time":"7:33:00","departure_time":"7:33:00","lat":49.223948,"lon":16.60736,"is_passed":false},{"stop_id":"U1087Z1","name":"Divišova čtvrť","arrival_time":"7:34:00","departure_time":"7:34:00","lat":49.223493,"lon":16.613643,"is_passed":false},{"stop_id":"U1692Z1","name":"U tunýlku","arrival_time":"7:35:00","departure_time":"7:35:00","lat":49.222688,"lon":16.617771,"is_passed":false},{"stop_id":"U1128Z4","name":"Halasovo náměstí","arrival_time":"7:37:00","departure_time":"7:37:00","lat":49.22314,"lon":16.622438,"is_passed":false},{"stop_id":"U1506Z2","name":"Poliklinika Lesná","arrival_time":"7:38:00","departure_time":"7:38:00","lat":49.222411,"lon":16.625672,"is_passed":false},{"stop_id":"U1331Z2","name":"Lesná, nádraží","arrival_time":"7:39:00","departure_time":"7:44:00","lat":49.220094,"lon":16.62942,"is_passed":false}]