[{"stop_id":"U1557Z2","name":"Řečkovice, nádraží","arrival_time":"7:47:00","departure_time":"7:47:00","lat":49.2509,"lon":16.589916,"is_passed":false},{"stop_id":"U1298Z1","name":"Kronova","arrival_time":"7:48:00","departure_time":"7:48:00","lat":49.25118,"lon":16.588181,"is_passed":false},{"stop_id":"U1556Z2","name":"Řečkovice, hřbitov","arrival_time":"7:50:00","departure_time":"7:50:00","lat":49.253356,"lon":16.582329,"is_passed":false},{"stop_id":"U1476Z2","name":"Palackého náměstí","arrival_time":"7:51:00","departure_time":"7:51:00","lat":49.250816,"lon":16.581773,"is_passed":false},{"stop_id":"U1553Z4","name":"Řečkovice","arrival_time":"7:52:00","departure_time":"7:52:00","lat":49.246674,"lon":16.579384,"is_passed":false},{"stop_id":"U1457Z2","name":"Olšanského","arrival_time":"7:53:00","departure_time":"7:53:00","lat":49.24422,"lon":16.577351,"is_passed":false},{"stop_id":"U1539Z2","name":"Renčova","arrival_time":"7:54:00","departure_time":"7:54:00","lat":49.247214,"lon":16.574968,"is_passed":false},{"stop_id":"U1414Z1","name":"Nadační","arrival_time":"7:56:00","departure_time":"7:56:00","lat":49.245595,"lon":16.571098,"is_passed":false},{"stop_id":"U1719Z2","name":"V Újezdech","arrival_time":"7:57:00","departure_time":"7:57:00","lat":49.241856,"lon":16.573203,"is_passed":false},{"stop_id":"U1376Z2","name":"Medlánky","arrival_time":"7:58:00","departure_time":"7:58:00","lat":49.240459,"lon":16.573676,"is_passed":false},{"stop_id":"U1377Z2","name":"Medlánky, škola","arrival_time":"7:59:00","departure_time":"7:59:00","lat":49.238196,"lon":16.57841,"is_passed":false},{"stop_id":"U1756Z4","name":"Vozovna Medlánky","arrival_time":"8:00:00","departure_time":"8:00:00","lat":49.235569,"lon":16.585596,"is_passed":false},{"stop_id":"U1659Z3","name":"Technologický park","arrival_time":"8:03:00","departure_time":"8:05:00","lat":49.23192,"lon":16.576848,"is_passed":false}]