[{"stop_id":"U18009Z2","name":"Znojmo, autobusové nádraží","arrival_time":"7:56:00","departure_time":"7:56:00","lat":48.851903,"lon":16.057106,"is_passed":false},{"stop_id":"U18002Z1","name":"Znojmo, Suchohrdelská, hřbitov","arrival_time":"7:58:00","departure_time":"7:58:00","lat":48.85731,"lon":16.06696,"is_passed":false},{"stop_id":"U18110Z1","name":"Suchohrdly, prodejna","arrival_time":"8:01:00","departure_time":"8:01:00","lat":48.866397,"lon":16.089328,"is_passed":false},{"stop_id":"U18115Z2","name":"Suchohrdly, kurty","arrival_time":"8:02:00","departure_time":"8:02:00","lat":48.868387,"lon":16.096818,"is_passed":false},{"stop_id":"U18116Z2","name":"Suchohrdly, Purkrábka","arrival_time":"8:03:00","departure_time":"8:03:00","lat":48.868827,"lon":16.106813,"is_passed":false},{"stop_id":"U18135Z2","name":"Těšetice, na hlavní","arrival_time":"8:09:00","departure_time":"8:09:00","lat":48.888094,"lon":16.157841,"is_passed":false},{"stop_id":"U18221Z2","name":"Prosiměřice, u bufetu","arrival_time":"8:13:00","departure_time":"8:13:00","lat":48.903398,"lon":16.190627,"is_passed":false},{"stop_id":"U18224Z2","name":"Vítonice","arrival_time":"8:16:00","departure_time":"8:16:00","lat":48.916333,"lon":16.201035,"is_passed":false},{"stop_id":"U14543Z4","name":"Hostěradice, náměstí","arrival_time":"8:24:00","departure_time":"8:26:00","lat":48.950642,"lon":16.259606,"is_passed":false},{"stop_id":"U14545Z1","name":"Hostěradice, Míšovice","arrival_time":"8:28:00","departure_time":"8:28:00","lat":48.962375,"lon":16.262257,"is_passed":false},{"stop_id":"U14533Z1","name":"Kadov, rozcestí","arrival_time":"8:31:00","departure_time":"8:31:00","lat":48.991877,"lon":16.277283,"is_passed":false},{"stop_id":"U14537Z2","name":"Petrovice","arrival_time":"8:35:00","departure_time":"8:35:00","lat":49.007495,"lon":16.29147,"is_passed":false},{"stop_id":"U14528Z2","name":"Dobelice, Krumlovská","arrival_time":"8:38:00","departure_time":"8:38:00","lat":49.017307,"lon":16.278638,"is_passed":false},{"stop_id":"U14495Z2","name":"Rybníky","arrival_time":"8:40:00","departure_time":"8:40:00","lat":49.025433,"lon":16.28111,"is_passed":false},{"stop_id":"U14483Z2","name":"Moravský Krumlov, Na Kačence","arrival_time":"8:43:00","departure_time":"8:43:00","lat":49.033102,"lon":16.303372,"is_passed":false},{"stop_id":"U14470Z11","name":"Moravský Krumlov, Jatky","arrival_time":"8:44:00","departure_time":"8:44:00","lat":49.037362,"lon":16.311183,"is_passed":false},{"stop_id":"U14474Z1","name":"Moravský Krumlov, Okružní","arrival_time":"8:45:00","departure_time":"8:45:00","lat":49.038482,"lon":16.316285,"is_passed":false},{"stop_id":"U14471Z1","name":"Moravský Krumlov, Kavalírka","arrival_time":"8:48:00","departure_time":"8:48:00","lat":49.04575,"lon":16.310588,"is_passed":false},{"stop_id":"U14499Z5","name":"Moravský Krumlov, autobusové nádraží","arrival_time":"8:49:00","departure_time":"8:49:00","lat":49.048283,"lon":16.309278,"is_passed":false}]