[{"stop_id":"U1643Z1","name":"Štefánikova","arrival_time":"7:32:00","departure_time":"7:32:00","lat":49.215384,"lon":16.599228,"is_passed":false},{"stop_id":"U1242Z2","name":"Klusáčkova","arrival_time":"7:34:00","departure_time":"7:34:00","lat":49.211903,"lon":16.592875,"is_passed":false},{"stop_id":"U1657Z1","name":"Tábor","arrival_time":"7:37:00","departure_time":"7:37:00","lat":49.210271,"lon":16.587228,"is_passed":false},{"stop_id":"U1279Z2","name":"Kounicovy koleje","arrival_time":"7:38:00","departure_time":"7:38:00","lat":49.20763,"lon":16.582971,"is_passed":false},{"stop_id":"U1670Z2","name":"Tichého","arrival_time":"7:39:00","departure_time":"7:39:00","lat":49.204993,"lon":16.581692,"is_passed":false},{"stop_id":"U1371Z5","name":"Náměstí Míru","arrival_time":"7:41:00","departure_time":"7:41:00","lat":49.202414,"lon":16.581386,"is_passed":false},{"stop_id":"U1328Z1","name":"Lerchova","arrival_time":"7:42:00","departure_time":"7:42:00","lat":49.198847,"lon":16.583514,"is_passed":false},{"stop_id":"U1723Z3","name":"Vaňkovo náměstí","arrival_time":"7:44:00","departure_time":"7:44:00","lat":49.194723,"lon":16.585005,"is_passed":false},{"stop_id":"U1478Z3","name":"Pavlíkova","arrival_time":"7:44:00","departure_time":"7:44:00","lat":49.194545,"lon":16.583048,"is_passed":false},{"stop_id":"U1487Z5","name":"Pisárky","arrival_time":"7:47:00","departure_time":"7:49:00","lat":49.193517,"lon":16.571155,"is_passed":false}]