[{"stop_id":"U1146Z11","name":"Hlavní nádraží","arrival_time":"7:24:00","departure_time":"7:24:00","lat":49.191728,"lon":16.613768,"is_passed":false},{"stop_id":"U1746Z1","name":"Vlhká","arrival_time":"7:25:00","departure_time":"7:25:00","lat":49.191847,"lon":16.618976,"is_passed":false},{"stop_id":"U1372Z6","name":"Masná","arrival_time":"7:27:00","departure_time":"7:27:00","lat":49.190905,"lon":16.626023,"is_passed":false},{"stop_id":"U1677Z3","name":"Tržní","arrival_time":"7:29:00","departure_time":"7:29:00","lat":49.189342,"lon":16.630314,"is_passed":false},{"stop_id":"U1207Z1","name":"Jiránkova","arrival_time":"7:30:00","departure_time":"7:30:00","lat":49.187495,"lon":16.633494,"is_passed":false},{"stop_id":"U1563Z1","name":"Psychiatrická nemocnice","arrival_time":"7:31:00","departure_time":"7:31:00","lat":49.185089,"lon":16.636321,"is_passed":false},{"stop_id":"U1662Z1","name":"Škola Charbulova","arrival_time":"7:32:00","departure_time":"7:32:00","lat":49.182496,"lon":16.637572,"is_passed":false},{"stop_id":"U1106Z1","name":"Faměrovo náměstí","arrival_time":"7:33:00","departure_time":"7:35:00","lat":49.176788,"lon":16.64042,"is_passed":false}]