[{"stop_id":"U1248Z2","name":"Kohoutovice, hájenka","arrival_time":"5:17:00","departure_time":"5:17:00","lat":49.19656,"lon":16.530778,"is_passed":false},{"stop_id":"U1608Z2","name":"Stará dálnice","arrival_time":"5:19:00","departure_time":"5:19:00","lat":49.199858,"lon":16.516922,"is_passed":false},{"stop_id":"U1267Z1","name":"Kopce","arrival_time":"5:20:00","departure_time":"5:20:00","lat":49.205491,"lon":16.509214,"is_passed":false},{"stop_id":"U1251Z1","name":"Kohoutovická","arrival_time":"5:22:00","departure_time":"5:22:00","lat":49.207042,"lon":16.497787,"is_passed":false},{"stop_id":"U1803Z1","name":"Žebětín, škola","arrival_time":"5:23:00","departure_time":"5:23:00","lat":49.207486,"lon":16.491642,"is_passed":false},{"stop_id":"U1302Z1","name":"Křivánkovo náměstí","arrival_time":"5:24:00","departure_time":"5:24:00","lat":49.20718,"lon":16.487513,"is_passed":false},{"stop_id":"U1800Z1","name":"Žebětín, hřbitov","arrival_time":"5:25:00","departure_time":"5:25:00","lat":49.204634,"lon":16.487304,"is_passed":false},{"stop_id":"U1015Z2","name":"Bartolomějská","arrival_time":"5:26:00","departure_time":"5:26:00","lat":49.203579,"lon":16.489347,"is_passed":false},{"stop_id":"U1540Z2","name":"Ríšova","arrival_time":"5:29:00","departure_time":"5:29:00","lat":49.206684,"lon":16.481219,"is_passed":false},{"stop_id":"U1139Z2","name":"Helenčina","arrival_time":"5:30:00","departure_time":"5:30:00","lat":49.206852,"lon":16.486036,"is_passed":false},{"stop_id":"U1096Z2","name":"Drdy","arrival_time":"5:31:00","departure_time":"5:31:00","lat":49.209191,"lon":16.492285,"is_passed":false},{"stop_id":"U1802Z2","name":"Žebětínský rybník","arrival_time":"5:32:00","departure_time":"5:32:00","lat":49.215544,"lon":16.493531,"is_passed":false},{"stop_id":"U1221Z2","name":"Kamechy","arrival_time":"5:33:00","departure_time":"5:33:00","lat":49.214794,"lon":16.49742,"is_passed":false},{"stop_id":"U1185Z2","name":"Chvalovka","arrival_time":"5:34:00","departure_time":"5:34:00","lat":49.21492,"lon":16.500086,"is_passed":false},{"stop_id":"U1230Z2","name":"Kavčí","arrival_time":"5:35:00","departure_time":"5:35:00","lat":49.216872,"lon":16.500241,"is_passed":false},{"stop_id":"U1559Z2","name":"Říčanská","arrival_time":"5:36:00","departure_time":"5:36:00","lat":49.218456,"lon":16.497582,"is_passed":false},{"stop_id":"U1550Z2","name":"Ruda","arrival_time":"5:37:00","departure_time":"5:37:00","lat":49.220473,"lon":16.502554,"is_passed":false},{"stop_id":"U1102Z4","name":"Ečerova","arrival_time":"5:40:00","departure_time":"5:40:00","lat":49.218044,"lon":16.509781,"is_passed":false},{"stop_id":"U1461Z4","name":"Ondrouškova","arrival_time":"5:41:00","departure_time":"5:41:00","lat":49.217906,"lon":16.518033,"is_passed":false},{"stop_id":"U1771Z2","name":"Wollmanova","arrival_time":"5:42:00","departure_time":"5:42:00","lat":49.222108,"lon":16.52284,"is_passed":false},{"stop_id":"U1326Z4","name":"Laštůvkova","arrival_time":"5:43:00","departure_time":"5:43:00","lat":49.220549,"lon":16.526237,"is_passed":false},{"stop_id":"U1752Z2","name":"Vondrákova","arrival_time":"5:44:00","departure_time":"5:44:00","lat":49.221445,"lon":16.528853,"is_passed":false},{"stop_id":"U1796Z6","name":"Zoologická zahrada","arrival_time":"5:46:00","departure_time":"5:46:00","lat":49.227675,"lon":16.531519,"is_passed":false}]