[{"stop_id":"U1221Z2","name":"Kamechy","arrival_time":"6:28:00","departure_time":"6:28:00","lat":49.214794,"lon":16.49742,"is_passed":false},{"stop_id":"U1185Z2","name":"Chvalovka","arrival_time":"6:28:00","departure_time":"6:28:00","lat":49.21492,"lon":16.500086,"is_passed":false},{"stop_id":"U1230Z2","name":"Kavčí","arrival_time":"6:29:00","departure_time":"6:29:00","lat":49.216872,"lon":16.500241,"is_passed":false},{"stop_id":"U1559Z2","name":"Říčanská","arrival_time":"6:30:00","departure_time":"6:30:00","lat":49.218456,"lon":16.497582,"is_passed":false},{"stop_id":"U1550Z2","name":"Ruda","arrival_time":"6:31:00","departure_time":"6:31:00","lat":49.220473,"lon":16.502554,"is_passed":false},{"stop_id":"U1102Z4","name":"Ečerova","arrival_time":"6:34:00","departure_time":"6:34:00","lat":49.218044,"lon":16.509781,"is_passed":false},{"stop_id":"U1461Z4","name":"Ondrouškova","arrival_time":"6:35:00","departure_time":"6:35:00","lat":49.217906,"lon":16.518033,"is_passed":false},{"stop_id":"U1004Z1","name":"Adamcova","arrival_time":"6:35:00","departure_time":"6:35:00","lat":49.21825,"lon":16.520013,"is_passed":false},{"stop_id":"U1648Z1","name":"Štouračova","arrival_time":"6:36:00","departure_time":"6:36:00","lat":49.215562,"lon":16.521438,"is_passed":false},{"stop_id":"U1248Z1","name":"Kohoutovice, hájenka","arrival_time":"6:41:00","departure_time":"6:41:00","lat":49.19638,"lon":16.531386,"is_passed":false},{"stop_id":"U1209Z3","name":"Jírovcova","arrival_time":"6:44:00","departure_time":"6:44:00","lat":49.187316,"lon":16.535309,"is_passed":false},{"stop_id":"U1616Z4","name":"Starý Lískovec, smyčka","arrival_time":"6:47:00","departure_time":"6:47:00","lat":49.170615,"lon":16.55427,"is_passed":false},{"stop_id":"U1061Z2","name":"Čermákova","arrival_time":"6:49:00","departure_time":"6:49:00","lat":49.164349,"lon":16.564689,"is_passed":false},{"stop_id":"U1168Z2","name":"Humenná","arrival_time":"6:50:00","departure_time":"6:50:00","lat":49.167953,"lon":16.573664,"is_passed":false},{"stop_id":"U1021Z4","name":"Běloruská","arrival_time":"6:52:00","departure_time":"6:52:00","lat":49.170481,"lon":16.58166,"is_passed":false},{"stop_id":"U1031Z6","name":"Bohunická","arrival_time":"6:55:00","departure_time":"6:55:00","lat":49.162697,"lon":16.600443,"is_passed":false},{"stop_id":"U1156Z2","name":"Horní Heršpice","arrival_time":"6:58:00","departure_time":"6:58:00","lat":49.167029,"lon":16.616537,"is_passed":false},{"stop_id":"U1256Z6","name":"Komárov","arrival_time":"7:00:00","departure_time":"7:00:00","lat":49.174812,"lon":16.620877,"is_passed":false},{"stop_id":"U1361Z2","name":"Mariánské náměstí","arrival_time":"7:02:00","departure_time":"7:02:00","lat":49.176238,"lon":16.622949,"is_passed":false},{"stop_id":"U1455Z1","name":"Olomoucká - u školy","arrival_time":"7:07:00","departure_time":"7:07:00","lat":49.186169,"lon":16.652958,"is_passed":false},{"stop_id":"U1665Z1","name":"Těžební","arrival_time":"7:09:00","departure_time":"7:09:00","lat":49.181966,"lon":16.657236,"is_passed":false},{"stop_id":"U1739Z1","name":"Vlastimila Pecha","arrival_time":"7:10:00","departure_time":"7:10:00","lat":49.179379,"lon":16.662741,"is_passed":false},{"stop_id":"U1105Z1","name":"Ericha Roučky","arrival_time":"7:12:00","departure_time":"7:12:00","lat":49.174784,"lon":16.66987,"is_passed":false},{"stop_id":"U1064Z1","name":"Černovická terasa I","arrival_time":"7:13:00","departure_time":"7:13:00","lat":49.171172,"lon":16.673495,"is_passed":false},{"stop_id":"U1065Z1","name":"Černovická terasa II","arrival_time":"7:14:00","departure_time":"7:14:00","lat":49.167108,"lon":16.67608,"is_passed":false},{"stop_id":"U1581Z3","name":"Areál Slatina","arrival_time":"7:16:00","departure_time":"7:18:00","lat":49.168533,"lon":16.678786,"is_passed":false}]