[{"stop_id":"U1681Z2","name":"Tuřany, smyčka","arrival_time":"7:17:00","departure_time":"7:17:00","lat":49.141757,"lon":16.666878,"is_passed":false},{"stop_id":"U1186Z2","name":"Chrlická","arrival_time":"7:18:00","departure_time":"7:18:00","lat":49.143983,"lon":16.665097,"is_passed":false},{"stop_id":"U1131Z2","name":"Hanácká","arrival_time":"7:19:00","departure_time":"7:19:00","lat":49.146706,"lon":16.667371,"is_passed":false},{"stop_id":"U1538Z2","name":"Revoluční","arrival_time":"7:20:00","departure_time":"7:20:00","lat":49.150097,"lon":16.661811,"is_passed":false},{"stop_id":"U1118Z2","name":"Glocova","arrival_time":"7:21:00","departure_time":"7:21:00","lat":49.151351,"lon":16.659085,"is_passed":false},{"stop_id":"U1191Z2","name":"Ivanovické náměstí","arrival_time":"7:22:00","departure_time":"7:22:00","lat":49.153629,"lon":16.653755,"is_passed":false},{"stop_id":"U1511Z2","name":"Popelova","arrival_time":"7:24:00","departure_time":"7:24:00","lat":49.156919,"lon":16.646204,"is_passed":false},{"stop_id":"U1533Z2","name":"Ráječek","arrival_time":"7:25:00","departure_time":"7:25:00","lat":49.161397,"lon":16.637387,"is_passed":false},{"stop_id":"U1148Z2","name":"Hněvkovského","arrival_time":"7:27:00","departure_time":"7:27:00","lat":49.169618,"lon":16.626335,"is_passed":false},{"stop_id":"U1565Z2","name":"Sazenice","arrival_time":"7:28:00","departure_time":"7:28:00","lat":49.172877,"lon":16.623824,"is_passed":false},{"stop_id":"U1361Z4","name":"Mariánské náměstí","arrival_time":"7:30:00","departure_time":"7:30:00","lat":49.177094,"lon":16.621935,"is_passed":false},{"stop_id":"U1266Z4","name":"Konopná","arrival_time":"7:31:00","departure_time":"7:31:00","lat":49.179332,"lon":16.621811,"is_passed":false},{"stop_id":"U1807Z2","name":"Železniční","arrival_time":"7:32:00","departure_time":"7:32:00","lat":49.183322,"lon":16.619338,"is_passed":false},{"stop_id":"U1011Z2","name":"Autobusové nádraží","arrival_time":"7:33:00","departure_time":"7:33:00","lat":49.186417,"lon":16.617622,"is_passed":false},{"stop_id":"U1716Z3","name":"Úzká","arrival_time":"7:36:00","departure_time":"7:36:00","lat":49.189244,"lon":16.613733,"is_passed":false}]