[{"stop_id":"U16159Z2","name":"Šlapanice, Kalvodova","arrival_time":"3:33:00","departure_time":"3:33:00","lat":49.166539,"lon":16.726218,"is_passed":false},{"stop_id":"U16155Z2","name":"Šlapanice, Čechova","arrival_time":"3:34:00","departure_time":"3:34:00","lat":49.166076,"lon":16.721551,"is_passed":false},{"stop_id":"U16165Z2","name":"Šlapanice, sídliště","arrival_time":"3:35:00","departure_time":"3:35:00","lat":49.167046,"lon":16.718465,"is_passed":false},{"stop_id":"U1292Z4","name":"Krejčího","arrival_time":"3:37:00","departure_time":"3:37:00","lat":49.177555,"lon":16.691625,"is_passed":false},{"stop_id":"U1577Z2","name":"Slatina, sídliště","arrival_time":"3:39:00","departure_time":"3:39:00","lat":49.181605,"lon":16.690121,"is_passed":false},{"stop_id":"U1297Z1","name":"Kroměřížská","arrival_time":"3:40:00","departure_time":"3:40:00","lat":49.178307,"lon":16.688244,"is_passed":false},{"stop_id":"U1382Z1","name":"Mikulčická","arrival_time":"3:40:00","departure_time":"3:40:00","lat":49.178464,"lon":16.683602,"is_passed":false},{"stop_id":"U1323Z1","name":"Langrova","arrival_time":"3:41:00","departure_time":"3:41:00","lat":49.180031,"lon":16.680806,"is_passed":false},{"stop_id":"U1173Z1","name":"Hviezdoslavova","arrival_time":"3:42:00","departure_time":"3:42:00","lat":49.18219,"lon":16.676025,"is_passed":false},{"stop_id":"U1757Z1","name":"Vozovna Slatina","arrival_time":"3:43:00","departure_time":"3:43:00","lat":49.183032,"lon":16.672807,"is_passed":false},{"stop_id":"U1068Z1","name":"Černovičky","arrival_time":"3:44:00","departure_time":"3:44:00","lat":49.182244,"lon":16.66894,"is_passed":false},{"stop_id":"U1613Z52","name":"Staré letiště","arrival_time":"3:47:00","departure_time":"3:47:00","lat":49.184708,"lon":16.657444,"is_passed":false},{"stop_id":"U1455Z2","name":"Olomoucká - u školy","arrival_time":"3:48:00","departure_time":"3:48:00","lat":49.186437,"lon":16.652477,"is_passed":false},{"stop_id":"U1598Z2","name":"Spáčilova","arrival_time":"3:49:00","departure_time":"3:49:00","lat":49.188617,"lon":16.641569,"is_passed":false},{"stop_id":"U1814Z4","name":"Životského","arrival_time":"3:50:00","departure_time":"3:50:00","lat":49.190077,"lon":16.634992,"is_passed":false},{"stop_id":"U1372Z2","name":"Masná","arrival_time":"3:51:00","departure_time":"3:51:00","lat":49.191283,"lon":16.6245,"is_passed":false},{"stop_id":"U1746Z2","name":"Vlhká","arrival_time":"3:52:00","departure_time":"3:52:00","lat":49.191852,"lon":16.619157,"is_passed":false},{"stop_id":"U1146Z3","name":"Hlavní nádraží","arrival_time":"3:55:00","departure_time":"4:00:00","lat":49.191063,"lon":16.611972,"is_passed":false},{"stop_id":"U1596Z3","name":"Soukenická","arrival_time":"4:01:00","departure_time":"4:01:00","lat":49.188374,"lon":16.60657,"is_passed":false},{"stop_id":"U1301Z3","name":"Křídlovická","arrival_time":"4:02:00","departure_time":"4:02:00","lat":49.185812,"lon":16.603614,"is_passed":false},{"stop_id":"U1622Z2","name":"Strážní","arrival_time":"4:03:00","departure_time":"4:03:00","lat":49.178477,"lon":16.603646,"is_passed":false},{"stop_id":"U1141Z1","name":"Heršpická","arrival_time":"4:04:00","departure_time":"4:04:00","lat":49.170255,"lon":16.599363,"is_passed":false},{"stop_id":"U1466Z5","name":"Ořechovská","arrival_time":"4:06:00","departure_time":"4:06:00","lat":49.156238,"lon":16.599375,"is_passed":false},{"stop_id":"U1031Z5","name":"Bohunická","arrival_time":"4:09:00","departure_time":"4:09:00","lat":49.162871,"lon":16.599483,"is_passed":false},{"stop_id":"U1673Z1","name":"Traťová","arrival_time":"4:09:00","departure_time":"4:09:00","lat":49.163849,"lon":16.595255,"is_passed":false},{"stop_id":"U1122Z3","name":"Gruzínská","arrival_time":"4:10:00","departure_time":"4:10:00","lat":49.166188,"lon":16.585372,"is_passed":false},{"stop_id":"U1763Z2","name":"Vyhlídalova","arrival_time":"4:11:00","departure_time":"4:11:00","lat":49.165134,"lon":16.576558,"is_passed":false},{"stop_id":"U1168Z1","name":"Humenná","arrival_time":"4:13:00","departure_time":"4:13:00","lat":49.1676,"lon":16.572367,"is_passed":false},{"stop_id":"U1627Z1","name":"Svah","arrival_time":"4:14:00","departure_time":"4:14:00","lat":49.165199,"lon":16.567969,"is_passed":false},{"stop_id":"U1061Z1","name":"Čermákova","arrival_time":"4:14:00","departure_time":"4:14:00","lat":49.164336,"lon":16.565516,"is_passed":false},{"stop_id":"U1666Z1","name":"Točná","arrival_time":"4:15:00","departure_time":"4:15:00","lat":49.16476,"lon":16.561692,"is_passed":false},{"stop_id":"U1687Z1","name":"U hřiště","arrival_time":"4:15:00","departure_time":"4:15:00","lat":49.166214,"lon":16.558668,"is_passed":false},{"stop_id":"U1097Z5","name":"Dunajská","arrival_time":"4:16:00","departure_time":"4:16:00","lat":49.169618,"lon":16.555308,"is_passed":false},{"stop_id":"U1616Z5","name":"Starý Lískovec, smyčka","arrival_time":"4:17:00","departure_time":"4:17:00","lat":49.172309,"lon":16.553313,"is_passed":false},{"stop_id":"U1202Z1","name":"Jemelkova","arrival_time":"4:18:00","departure_time":"4:18:00","lat":49.173333,"lon":16.548692,"is_passed":false},{"stop_id":"U1568Z1","name":"Skalní","arrival_time":"4:20:00","departure_time":"4:20:00","lat":49.174248,"lon":16.538211,"is_passed":false},{"stop_id":"U1161Z1","name":"Hoštická","arrival_time":"4:21:00","departure_time":"4:21:00","lat":49.173864,"lon":16.528044,"is_passed":false},{"stop_id":"U1037Z1","name":"Bosonohy","arrival_time":"4:23:00","departure_time":"4:31:00","lat":49.17652,"lon":16.525792,"is_passed":false}]