{"522":[{"stop_id":"U1183Z10","name":"Chrlice, nádraží","arrival_time":"12:46:00","departure_time":"12:46:00","lat":49.132031,"lon":16.657232,"is_passed":false},{"stop_id":"U1146Z99","name":"Hlavní nádraží","arrival_time":"12:55:00","departure_time":"13:00:00","lat":49.19035,"lon":16.612342,"is_passed":false},{"stop_id":"U1809Z10","name":"Židenice, nádraží","arrival_time":"13:04:00","departure_time":"13:05:00","lat":49.204282,"lon":16.636042,"is_passed":false},{"stop_id":"U12158Z10","name":"Bílovice nad Svitavou, žel. stanice","arrival_time":"13:10:00","departure_time":"13:11:00","lat":49.242715,"lon":16.673677,"is_passed":false},{"stop_id":"U22101Z1","name":"Babice nad Svitavou","arrival_time":"13:15:00","departure_time":"13:15:00","lat":49.276645,"lon":16.673012,"is_passed":false},{"stop_id":"U12230Z10","name":"Adamov, železniční stanice","arrival_time":"13:18:00","departure_time":"13:19:00","lat":49.295341,"lon":16.663538,"is_passed":false},{"stop_id":"U12231Z10","name":"Adamov, železniční zastávka","arrival_time":"13:20:00","departure_time":"13:21:00","lat":49.300671,"lon":16.650653,"is_passed":false},{"stop_id":"U12342Z30","name":"Blansko, aut. st.","arrival_time":"13:26:00","departure_time":"13:28:00","lat":49.352753,"lon":16.646848,"is_passed":false},{"stop_id":"U22302Z1","name":"Blansko město","arrival_time":"13:30:00","departure_time":"13:31:00","lat":49.360996,"lon":16.639464,"is_passed":false},{"stop_id":"U22301Z1","name":"Dolní Lhota","arrival_time":"13:33:00","departure_time":"13:34:00","lat":49.386917,"lon":16.633978,"is_passed":false},{"stop_id":"U12439Z50","name":"Rájec-Jestřebí, železniční stanice","arrival_time":"13:36:00","departure_time":"13:37:00","lat":49.408206,"lon":16.627711,"is_passed":false},{"stop_id":"U12511Z50","name":"Doubravice, žel.st.","arrival_time":"13:39:00","departure_time":"13:39:00","lat":49.438707,"lon":16.621809,"is_passed":false},{"stop_id":"U12676Z50","name":"Skalice nad Svitavou, žel.st.","arrival_time":"13:45:00","departure_time":"13:51:00","lat":49.480123,"lon":16.609726,"is_passed":false},{"stop_id":"U22602Z1","name":"Svitávka","arrival_time":"13:53:00","departure_time":"13:54:00","lat":49.499434,"lon":16.599208,"is_passed":false},{"stop_id":"U22701Z1","name":"Zboněk","arrival_time":"13:56:00","departure_time":"13:56:00","lat":49.521608,"lon":16.583438,"is_passed":false},{"stop_id":"U22702Z1","name":"Letovice zastávka","arrival_time":"13:59:00","departure_time":"13:59:00","lat":49.535496,"lon":16.576998,"is_passed":false},{"stop_id":"U12736Z50","name":"Letovice, železniční stanice","arrival_time":"14:02:00","departure_time":"15:57:00","lat":49.555973,"lon":16.570906,"is_passed":false}],"5220":[{"stop_id":"U18009Z3","name":"Znojmo, autobusové nádraží","arrival_time":"9:42:00","departure_time":"9:42:00","lat":48.851903,"lon":16.057106,"is_passed":false},{"stop_id":"U18002Z1","name":"Znojmo, Suchohrdelská, hřbitov","arrival_time":"9:44:00","departure_time":"9:44:00","lat":48.85731,"lon":16.06696,"is_passed":false},{"stop_id":"U18110Z1","name":"Suchohrdly, prodejna","arrival_time":"9:47:00","departure_time":"9:47:00","lat":48.866397,"lon":16.089328,"is_passed":false},{"stop_id":"U18115Z2","name":"Suchohrdly, kurty","arrival_time":"9:48:00","departure_time":"9:48:00","lat":48.868387,"lon":16.096818,"is_passed":false},{"stop_id":"U18116Z2","name":"Suchohrdly, Purkrábka","arrival_time":"9:49:00","departure_time":"9:49:00","lat":48.868827,"lon":16.106813,"is_passed":false},{"stop_id":"U18135Z2","name":"Těšetice, na hlavní","arrival_time":"9:55:00","departure_time":"9:55:00","lat":48.888094,"lon":16.157841,"is_passed":false},{"stop_id":"U18117Z1","name":"Bantice","arrival_time":"9:58:00","departure_time":"9:58:00","lat":48.88332,"lon":16.18455,"is_passed":false},{"stop_id":"U18223Z1","name":"Stošíkovice na Louce, rozcestí","arrival_time":"10:01:00","departure_time":"10:01:00","lat":48.890458,"lon":16.196641,"is_passed":false},{"stop_id":"U18219Z2","name":"Prosiměřice, hostinec","arrival_time":"10:03:00","departure_time":"10:03:00","lat":48.902718,"lon":16.192215,"is_passed":false},{"stop_id":"U18224Z2","name":"Vítonice","arrival_time":"10:06:00","departure_time":"10:06:00","lat":48.916333,"lon":16.201035,"is_passed":false},{"stop_id":"U18218Z2","name":"Oleksovice, u potoka","arrival_time":"10:13:00","departure_time":"10:13:00","lat":48.904747,"lon":16.24336,"is_passed":false},{"stop_id":"U18216Z2","name":"Oleksovice, hostinec","arrival_time":"10:14:00","departure_time":"10:14:00","lat":48.901658,"lon":16.250667,"is_passed":false},{"stop_id":"U14542Z2","name":"Hostěradice, lom","arrival_time":"10:23:00","departure_time":"10:23:00","lat":48.947002,"lon":16.264753,"is_passed":false},{"stop_id":"U14543Z6","name":"Hostěradice, náměstí","arrival_time":"10:24:00","departure_time":"10:24:00","lat":48.950522,"lon":16.259511,"is_passed":false},{"stop_id":"U14542Z1","name":"Hostěradice, lom","arrival_time":"10:25:00","departure_time":"10:25:00","lat":48.94687,"lon":16.265652,"is_passed":false},{"stop_id":"U14548Z1","name":"Miroslav, jesle","arrival_time":"10:29:00","departure_time":"10:29:00","lat":48.94488,"lon":16.30781,"is_passed":false},{"stop_id":"U14546Z3","name":"Miroslav, autobusové nádraží","arrival_time":"10:32:00","departure_time":"10:32:00","lat":48.946991,"lon":16.312997,"is_passed":false}],"5221":[{"stop_id":"U14546Z4","name":"Miroslav, autobusové nádraží","arrival_time":"10:37:00","departure_time":"10:37:00","lat":48.947111,"lon":16.31297,"is_passed":false},{"stop_id":"U14549Z2","name":"Miroslav, kostel","arrival_time":"10:40:00","departure_time":"10:40:00","lat":48.950238,"lon":16.313682,"is_passed":false},{"stop_id":"U14532Z4","name":"Kadov","arrival_time":"10:46:00","departure_time":"10:48:00","lat":48.982415,"lon":16.28708,"is_passed":false}],"5222":[{"stop_id":"U14532Z3","name":"Kadov","arrival_time":"10:48:00","departure_time":"10:48:00","lat":48.982225,"lon":16.28714,"is_passed":false},{"stop_id":"U14549Z1","name":"Miroslav, kostel","arrival_time":"10:54:00","departure_time":"10:54:00","lat":48.95009,"lon":16.313703,"is_passed":false},{"stop_id":"U14546Z10","name":"Miroslav, autobusové nádraží","arrival_time":"10:56:00","departure_time":"12:27:00","lat":48.94661,"lon":16.313115,"is_passed":false}],"5223":[{"stop_id":"U14546Z4","name":"Miroslav, autobusové nádraží","arrival_time":"12:27:00","departure_time":"12:27:00","lat":48.947111,"lon":16.31297,"is_passed":false},{"stop_id":"U14549Z2","name":"Miroslav, kostel","arrival_time":"12:30:00","departure_time":"12:30:00","lat":48.950238,"lon":16.313682,"is_passed":false},{"stop_id":"U14536Z2","name":"Miroslavské Knínice","arrival_time":"12:36:00","departure_time":"12:36:00","lat":48.977802,"lon":16.322445,"is_passed":false},{"stop_id":"U14535Z1","name":"Lesonice, požární zbrojnice","arrival_time":"12:42:00","departure_time":"12:42:00","lat":49.003582,"lon":16.31019,"is_passed":false},{"stop_id":"U14537Z2","name":"Petrovice","arrival_time":"12:45:00","departure_time":"12:45:00","lat":49.007495,"lon":16.29147,"is_passed":false},{"stop_id":"U14470Z2","name":"Moravský Krumlov, Jatky","arrival_time":"12:51:00","departure_time":"12:51:00","lat":49.038392,"lon":16.308949,"is_passed":false},{"stop_id":"U14467Z2","name":"Moravský Krumlov, Břízová","arrival_time":"12:52:00","departure_time":"12:52:00","lat":49.041368,"lon":16.307078,"is_passed":false},{"stop_id":"U14473Z2","name":"Moravský Krumlov, poliklinika","arrival_time":"12:53:00","departure_time":"12:53:00","lat":49.043683,"lon":16.305472,"is_passed":false},{"stop_id":"U14472Z21","name":"Moravský Krumlov, náměstí","arrival_time":"12:56:00","departure_time":"12:56:00","lat":49.048618,"lon":16.31303,"is_passed":false},{"stop_id":"U14499Z51","name":"Moravský Krumlov, autobusové nádraží","arrival_time":"12:58:00","departure_time":"12:58:00","lat":49.048181,"lon":16.309497,"is_passed":false}],"5224":[{"stop_id":"U14499Z5","name":"Moravský Krumlov, autobusové nádraží","arrival_time":"13:29:00","departure_time":"13:29:00","lat":49.048283,"lon":16.309278,"is_passed":false},{"stop_id":"U14471Z2","name":"Moravský Krumlov, Kavalírka","arrival_time":"13:30:00","departure_time":"13:30:00","lat":49.045758,"lon":16.31087,"is_passed":false},{"stop_id":"U14478Z2","name":"Moravský Krumlov, Václavská","arrival_time":"13:32:00","departure_time":"13:32:00","lat":49.044005,"lon":16.315667,"is_passed":false},{"stop_id":"U14477Z2","name":"Moravský Krumlov, stezka","arrival_time":"13:33:00","departure_time":"13:33:00","lat":49.044908,"lon":16.32186,"is_passed":false},{"stop_id":"U14491Z2","name":"Moravský Krumlov, Rokytná","arrival_time":"13:37:00","departure_time":"13:37:00","lat":49.064883,"lon":16.323339,"is_passed":false},{"stop_id":"U14440Z2","name":"Ivančice, Budkovice","arrival_time":"13:44:00","departure_time":"13:44:00","lat":49.073074,"lon":16.347399,"is_passed":false},{"stop_id":"U14480Z2","name":"Ivančice, Budkovice, rozcestí","arrival_time":"13:45:00","departure_time":"13:45:00","lat":49.081861,"lon":16.34915,"is_passed":false},{"stop_id":"U14496Z2","name":"Ivančice, Němčice","arrival_time":"13:49:00","departure_time":"13:49:00","lat":49.093586,"lon":16.368389,"is_passed":false},{"stop_id":"U14454Z2","name":"Ivančice, železniční stanice","arrival_time":"13:51:00","departure_time":"13:51:00","lat":49.097747,"lon":16.372945,"is_passed":false},{"stop_id":"U14446Z11","name":"Ivančice, náměstí","arrival_time":"13:53:00","departure_time":"13:58:00","lat":49.102113,"lon":16.375269,"is_passed":false}],"5225":[{"stop_id":"U14446Z7","name":"Ivančice, náměstí","arrival_time":"13:58:00","departure_time":"13:58:00","lat":49.102257,"lon":16.375358,"is_passed":false},{"stop_id":"U14454Z1","name":"Ivančice, železniční stanice","arrival_time":"14:00:00","departure_time":"14:00:00","lat":49.097893,"lon":16.373083,"is_passed":false},{"stop_id":"U14496Z1","name":"Ivančice, Němčice","arrival_time":"14:02:00","departure_time":"14:02:00","lat":49.092907,"lon":16.368312,"is_passed":false},{"stop_id":"U14440Z1","name":"Ivančice, Budkovice","arrival_time":"14:08:00","departure_time":"14:08:00","lat":49.073074,"lon":16.347399,"is_passed":false},{"stop_id":"U14480Z1","name":"Ivančice, Budkovice, rozcestí","arrival_time":"14:09:00","departure_time":"14:09:00","lat":49.081994,"lon":16.349408,"is_passed":false},{"stop_id":"U14491Z1","name":"Moravský Krumlov, Rokytná","arrival_time":"14:13:00","departure_time":"14:13:00","lat":49.064678,"lon":16.32295,"is_passed":false},{"stop_id":"U14477Z1","name":"Moravský Krumlov, stezka","arrival_time":"14:17:00","departure_time":"14:17:00","lat":49.044907,"lon":16.321857,"is_passed":false},{"stop_id":"U14478Z1","name":"Moravský Krumlov, Václavská","arrival_time":"14:18:00","departure_time":"14:18:00","lat":49.04408,"lon":16.315493,"is_passed":false},{"stop_id":"U14471Z1","name":"Moravský Krumlov, Kavalírka","arrival_time":"14:20:00","departure_time":"14:20:00","lat":49.04575,"lon":16.310588,"is_passed":false},{"stop_id":"U14499Z10","name":"Moravský Krumlov, autobusové nádraží","arrival_time":"14:21:00","departure_time":"14:29:00","lat":49.048339,"lon":16.309542,"is_passed":false}],"5226":[{"stop_id":"U14499Z5","name":"Moravský Krumlov, autobusové nádraží","arrival_time":"14:29:00","departure_time":"14:29:00","lat":49.048283,"lon":16.309278,"is_passed":false},{"stop_id":"U14471Z2","name":"Moravský Krumlov, Kavalírka","arrival_time":"14:30:00","departure_time":"14:30:00","lat":49.045758,"lon":16.31087,"is_passed":false},{"stop_id":"U14478Z2","name":"Moravský Krumlov, Václavská","arrival_time":"14:32:00","departure_time":"14:32:00","lat":49.044005,"lon":16.315667,"is_passed":false},{"stop_id":"U14477Z2","name":"Moravský Krumlov, stezka","arrival_time":"14:33:00","departure_time":"14:33:00","lat":49.044908,"lon":16.32186,"is_passed":false},{"stop_id":"U14491Z2","name":"Moravský Krumlov, Rokytná","arrival_time":"14:37:00","departure_time":"14:37:00","lat":49.064883,"lon":16.323339,"is_passed":false},{"stop_id":"U14440Z2","name":"Ivančice, Budkovice","arrival_time":"14:44:00","departure_time":"14:44:00","lat":49.073074,"lon":16.347399,"is_passed":false},{"stop_id":"U14480Z2","name":"Ivančice, Budkovice, rozcestí","arrival_time":"14:45:00","departure_time":"14:45:00","lat":49.081861,"lon":16.34915,"is_passed":false},{"stop_id":"U14496Z2","name":"Ivančice, Němčice","arrival_time":"14:49:00","departure_time":"14:49:00","lat":49.093586,"lon":16.368389,"is_passed":false},{"stop_id":"U14454Z2","name":"Ivančice, železniční stanice","arrival_time":"14:51:00","departure_time":"14:51:00","lat":49.097747,"lon":16.372945,"is_passed":false},{"stop_id":"U14446Z11","name":"Ivančice, náměstí","arrival_time":"14:53:00","departure_time":"14:58:00","lat":49.102113,"lon":16.375269,"is_passed":false}],"5227":[{"stop_id":"U14446Z7","name":"Ivančice, náměstí","arrival_time":"14:58:00","departure_time":"14:58:00","lat":49.102257,"lon":16.375358,"is_passed":false},{"stop_id":"U14454Z1","name":"Ivančice, železniční stanice","arrival_time":"15:00:00","departure_time":"15:00:00","lat":49.097893,"lon":16.373083,"is_passed":false},{"stop_id":"U14496Z1","name":"Ivančice, Němčice","arrival_time":"15:02:00","departure_time":"15:02:00","lat":49.092907,"lon":16.368312,"is_passed":false},{"stop_id":"U14440Z1","name":"Ivančice, Budkovice","arrival_time":"15:08:00","departure_time":"15:08:00","lat":49.073074,"lon":16.347399,"is_passed":false},{"stop_id":"U14480Z1","name":"Ivančice, Budkovice, rozcestí","arrival_time":"15:09:00","departure_time":"15:09:00","lat":49.081994,"lon":16.349408,"is_passed":false},{"stop_id":"U14491Z1","name":"Moravský Krumlov, Rokytná","arrival_time":"15:13:00","departure_time":"15:13:00","lat":49.064678,"lon":16.32295,"is_passed":false},{"stop_id":"U14477Z1","name":"Moravský Krumlov, stezka","arrival_time":"15:17:00","departure_time":"15:17:00","lat":49.044907,"lon":16.321857,"is_passed":false},{"stop_id":"U14478Z1","name":"Moravský Krumlov, Václavská","arrival_time":"15:18:00","departure_time":"15:18:00","lat":49.04408,"lon":16.315493,"is_passed":false},{"stop_id":"U14471Z1","name":"Moravský Krumlov, Kavalírka","arrival_time":"15:20:00","departure_time":"15:20:00","lat":49.04575,"lon":16.310588,"is_passed":false},{"stop_id":"U14499Z10","name":"Moravský Krumlov, autobusové nádraží","arrival_time":"15:21:00","departure_time":"15:29:00","lat":49.048339,"lon":16.309542,"is_passed":false}],"5228":[{"stop_id":"U14499Z5","name":"Moravský Krumlov, autobusové nádraží","arrival_time":"15:29:00","departure_time":"15:29:00","lat":49.048283,"lon":16.309278,"is_passed":false},{"stop_id":"U14471Z2","name":"Moravský Krumlov, Kavalírka","arrival_time":"15:30:00","departure_time":"15:30:00","lat":49.045758,"lon":16.31087,"is_passed":false},{"stop_id":"U14478Z2","name":"Moravský Krumlov, Václavská","arrival_time":"15:32:00","departure_time":"15:32:00","lat":49.044005,"lon":16.315667,"is_passed":false},{"stop_id":"U14477Z2","name":"Moravský Krumlov, stezka","arrival_time":"15:33:00","departure_time":"15:33:00","lat":49.044908,"lon":16.32186,"is_passed":false},{"stop_id":"U14491Z2","name":"Moravský Krumlov, Rokytná","arrival_time":"15:37:00","departure_time":"15:37:00","lat":49.064883,"lon":16.323339,"is_passed":false},{"stop_id":"U14440Z2","name":"Ivančice, Budkovice","arrival_time":"15:44:00","departure_time":"15:44:00","lat":49.073074,"lon":16.347399,"is_passed":false},{"stop_id":"U14480Z2","name":"Ivančice, Budkovice, rozcestí","arrival_time":"15:45:00","departure_time":"15:45:00","lat":49.081861,"lon":16.34915,"is_passed":false},{"stop_id":"U14496Z2","name":"Ivančice, Němčice","arrival_time":"15:49:00","departure_time":"15:49:00","lat":49.093586,"lon":16.368389,"is_passed":false},{"stop_id":"U14454Z2","name":"Ivančice, železniční stanice","arrival_time":"15:51:00","departure_time":"15:51:00","lat":49.097747,"lon":16.372945,"is_passed":false},{"stop_id":"U14446Z11","name":"Ivančice, náměstí","arrival_time":"15:53:00","departure_time":"16:38:00","lat":49.102113,"lon":16.375269,"is_passed":false}],"5229":[{"stop_id":"U14446Z7","name":"Ivančice, náměstí","arrival_time":"16:38:00","departure_time":"16:38:00","lat":49.102257,"lon":16.375358,"is_passed":false},{"stop_id":"U14454Z1","name":"Ivančice, železniční stanice","arrival_time":"16:40:00","departure_time":"16:40:00","lat":49.097893,"lon":16.373083,"is_passed":false},{"stop_id":"U14496Z1","name":"Ivančice, Němčice","arrival_time":"16:42:00","departure_time":"16:42:00","lat":49.092907,"lon":16.368312,"is_passed":false},{"stop_id":"U14480Z1","name":"Ivančice, Budkovice, rozcestí","arrival_time":"16:46:00","departure_time":"16:46:00","lat":49.081994,"lon":16.349408,"is_passed":false},{"stop_id":"U14492Z1","name":"Moravský Krumlov, Rokytná, rozcestí","arrival_time":"16:48:00","departure_time":"16:48:00","lat":49.074653,"lon":16.326808,"is_passed":false},{"stop_id":"U14487Z1","name":"Moravský Krumlov, Polánka, rozcestí","arrival_time":"16:50:00","departure_time":"16:50:00","lat":49.065987,"lon":16.30791,"is_passed":false},{"stop_id":"U14486Z2","name":"Moravský Krumlov, Polánka","arrival_time":"16:51:00","departure_time":"16:51:00","lat":49.068086,"lon":16.304782,"is_passed":false},{"stop_id":"U14481Z1","name":"Moravský Krumlov, Ivančická","arrival_time":"16:53:00","departure_time":"16:53:00","lat":49.050572,"lon":16.296608,"is_passed":false},{"stop_id":"U14485Z1","name":"Moravský Krumlov, u parku","arrival_time":"16:55:00","departure_time":"16:55:00","lat":49.044735,"lon":16.304072,"is_passed":false},{"stop_id":"U14472Z31","name":"Moravský Krumlov, náměstí","arrival_time":"16:57:00","departure_time":"16:57:00","lat":49.048618,"lon":16.31303,"is_passed":false},{"stop_id":"U14499Z10","name":"Moravský Krumlov, autobusové nádraží","arrival_time":"16:59:00","departure_time":"17:00:00","lat":49.048339,"lon":16.309542,"is_passed":false},{"stop_id":"U14471Z2","name":"Moravský Krumlov, Kavalírka","arrival_time":"17:01:00","departure_time":"17:01:00","lat":49.045758,"lon":16.31087,"is_passed":false},{"stop_id":"U14474Z2","name":"Moravský Krumlov, Okružní","arrival_time":"17:04:00","departure_time":"17:04:00","lat":49.038468,"lon":16.316095,"is_passed":false},{"stop_id":"U14470Z12","name":"Moravský Krumlov, Jatky","arrival_time":"17:05:00","departure_time":"17:05:00","lat":49.037467,"lon":16.311252,"is_passed":false},{"stop_id":"U14483Z1","name":"Moravský Krumlov, Na Kačence","arrival_time":"17:06:00","departure_time":"17:06:00","lat":49.033105,"lon":16.303185,"is_passed":false},{"stop_id":"U14495Z1","name":"Rybníky","arrival_time":"17:09:00","departure_time":"17:09:00","lat":49.025483,"lon":16.280965,"is_passed":false},{"stop_id":"U14528Z1","name":"Dobelice, Krumlovská","arrival_time":"17:11:00","departure_time":"17:11:00","lat":49.017108,"lon":16.278542,"is_passed":false},{"stop_id":"U14537Z1","name":"Petrovice","arrival_time":"17:14:00","departure_time":"17:14:00","lat":49.007495,"lon":16.29147,"is_passed":false},{"stop_id":"U14533Z2","name":"Kadov, rozcestí","arrival_time":"17:18:00","departure_time":"17:18:00","lat":48.991877,"lon":16.277283,"is_passed":false},{"stop_id":"U14545Z2","name":"Hostěradice, Míšovice","arrival_time":"17:21:00","departure_time":"17:21:00","lat":48.962148,"lon":16.262093,"is_passed":false},{"stop_id":"U14543Z3","name":"Hostěradice, náměstí","arrival_time":"17:24:00","departure_time":"17:26:00","lat":48.950522,"lon":16.259511,"is_passed":false}],"52200":[{"stop_id":"U1577Z2","name":"Slatina, sídliště","arrival_time":"6:32:00","departure_time":"6:32:00","lat":49.181605,"lon":16.690121,"is_passed":false},{"stop_id":"U1297Z1","name":"Kroměřížská","arrival_time":"6:33:00","departure_time":"6:33:00","lat":49.178307,"lon":16.688244,"is_passed":false},{"stop_id":"U1382Z1","name":"Mikulčická","arrival_time":"6:34:00","departure_time":"6:34:00","lat":49.178464,"lon":16.683602,"is_passed":false},{"stop_id":"U1323Z1","name":"Langrova","arrival_time":"6:35:00","departure_time":"6:35:00","lat":49.180031,"lon":16.680806,"is_passed":false},{"stop_id":"U1173Z1","name":"Hviezdoslavova","arrival_time":"6:36:00","departure_time":"6:36:00","lat":49.18219,"lon":16.676025,"is_passed":false},{"stop_id":"U1757Z1","name":"Vozovna Slatina","arrival_time":"6:37:00","departure_time":"6:37:00","lat":49.183032,"lon":16.672807,"is_passed":false},{"stop_id":"U1068Z2","name":"Černovičky","arrival_time":"6:39:00","departure_time":"6:39:00","lat":49.183555,"lon":16.666764,"is_passed":false},{"stop_id":"U1613Z2","name":"Staré letiště","arrival_time":"6:40:00","departure_time":"6:40:00","lat":49.185064,"lon":16.659019,"is_passed":false},{"stop_id":"U1455Z2","name":"Olomoucká - u školy","arrival_time":"6:41:00","departure_time":"6:41:00","lat":49.186437,"lon":16.652477,"is_passed":false},{"stop_id":"U1598Z2","name":"Spáčilova","arrival_time":"6:43:00","departure_time":"6:43:00","lat":49.188617,"lon":16.641569,"is_passed":false},{"stop_id":"U1814Z4","name":"Životského","arrival_time":"6:45:00","departure_time":"6:45:00","lat":49.190077,"lon":16.634992,"is_passed":false},{"stop_id":"U1372Z2","name":"Masná","arrival_time":"6:47:00","departure_time":"6:47:00","lat":49.191283,"lon":16.6245,"is_passed":false},{"stop_id":"U1746Z2","name":"Vlhká","arrival_time":"6:48:00","departure_time":"6:48:00","lat":49.191852,"lon":16.619157,"is_passed":false},{"stop_id":"U1146Z7","name":"Hlavní nádraží","arrival_time":"6:51:00","departure_time":"6:52:00","lat":49.19213,"lon":16.613467,"is_passed":false}],"52201":[{"stop_id":"U1716Z4","name":"Úzká","arrival_time":"7:17:00","departure_time":"7:17:00","lat":49.189107,"lon":16.613266,"is_passed":false},{"stop_id":"U1463Z2","name":"Opuštěná","arrival_time":"7:20:00","departure_time":"7:20:00","lat":49.185245,"lon":16.613024,"is_passed":false},{"stop_id":"U1011Z4","name":"Autobusové nádraží","arrival_time":"7:22:00","departure_time":"7:22:00","lat":49.186887,"lon":16.618479,"is_passed":false},{"stop_id":"U1144Z1","name":"Hladíkova","arrival_time":"7:23:00","departure_time":"7:23:00","lat":49.187682,"lon":16.625353,"is_passed":false},{"stop_id":"U1677Z1","name":"Tržní","arrival_time":"7:25:00","departure_time":"7:25:00","lat":49.189973,"lon":16.632193,"is_passed":false},{"stop_id":"U1598Z1","name":"Spáčilova","arrival_time":"7:26:00","departure_time":"7:26:00","lat":49.188674,"lon":16.640942,"is_passed":false},{"stop_id":"U1455Z1","name":"Olomoucká - u školy","arrival_time":"7:28:00","departure_time":"7:28:00","lat":49.186169,"lon":16.652958,"is_passed":false},{"stop_id":"U1665Z1","name":"Těžební","arrival_time":"7:30:00","departure_time":"7:30:00","lat":49.181966,"lon":16.657236,"is_passed":false},{"stop_id":"U1739Z1","name":"Vlastimila Pecha","arrival_time":"7:31:00","departure_time":"7:31:00","lat":49.179379,"lon":16.662741,"is_passed":false},{"stop_id":"U1105Z1","name":"Ericha Roučky","arrival_time":"7:33:00","departure_time":"7:33:00","lat":49.174784,"lon":16.66987,"is_passed":false},{"stop_id":"U1064Z1","name":"Černovická terasa I","arrival_time":"7:34:00","departure_time":"7:34:00","lat":49.171172,"lon":16.673495,"is_passed":false},{"stop_id":"U1065Z1","name":"Černovická terasa II","arrival_time":"7:35:00","departure_time":"7:35:00","lat":49.167108,"lon":16.67608,"is_passed":false},{"stop_id":"U1581Z3","name":"Areál Slatina","arrival_time":"7:37:00","departure_time":"7:42:00","lat":49.168533,"lon":16.678786,"is_passed":false}],"52202":[{"stop_id":"U1361Z1","name":"Mariánské náměstí","arrival_time":"21:13:00","departure_time":"21:13:00","lat":49.176433,"lon":16.622739,"is_passed":false},{"stop_id":"U1256Z5","name":"Komárov","arrival_time":"21:15:00","departure_time":"21:15:00","lat":49.174917,"lon":16.621279,"is_passed":false},{"stop_id":"U1308Z1","name":"Kšírova","arrival_time":"21:16:00","departure_time":"21:16:00","lat":49.17135,"lon":16.615769,"is_passed":false},{"stop_id":"U1156Z1","name":"Horní Heršpice","arrival_time":"21:17:00","departure_time":"21:17:00","lat":49.166342,"lon":16.616562,"is_passed":false},{"stop_id":"U1275Z1","name":"Košuličova","arrival_time":"21:18:00","departure_time":"21:18:00","lat":49.164685,"lon":16.610183,"is_passed":false},{"stop_id":"U1514Z3","name":"Pražákova","arrival_time":"21:19:00","departure_time":"21:19:00","lat":49.162888,"lon":16.602621,"is_passed":false},{"stop_id":"U1031Z5","name":"Bohunická","arrival_time":"21:20:00","departure_time":"21:20:00","lat":49.162871,"lon":16.599483,"is_passed":false},{"stop_id":"U1673Z1","name":"Traťová","arrival_time":"21:21:00","departure_time":"21:21:00","lat":49.163849,"lon":16.595255,"is_passed":false},{"stop_id":"U1122Z3","name":"Gruzínská","arrival_time":"21:22:00","departure_time":"21:22:00","lat":49.166188,"lon":16.585372,"is_passed":false},{"stop_id":"U1763Z2","name":"Vyhlídalova","arrival_time":"21:23:00","departure_time":"21:23:00","lat":49.165134,"lon":16.576558,"is_passed":false},{"stop_id":"U1168Z1","name":"Humenná","arrival_time":"21:25:00","departure_time":"21:25:00","lat":49.1676,"lon":16.572367,"is_passed":false},{"stop_id":"U1273Z1","name":"Kosmonautů","arrival_time":"21:26:00","departure_time":"21:26:00","lat":49.167006,"lon":16.568017,"is_passed":false},{"stop_id":"U1472Z7","name":"Osová","arrival_time":"21:27:00","departure_time":"21:27:00","lat":49.168951,"lon":16.566714,"is_passed":false},{"stop_id":"U1492Z1","name":"Pod nemocnicí","arrival_time":"21:28:00","departure_time":"21:28:00","lat":49.172412,"lon":16.569624,"is_passed":false},{"stop_id":"U1429Z4","name":"Nemocnice Bohunice","arrival_time":"21:30:00","departure_time":"21:30:00","lat":49.176125,"lon":16.567246,"is_passed":false},{"stop_id":"U1699Z1","name":"Univerzitní kampus","arrival_time":"21:31:00","departure_time":"21:31:00","lat":49.178062,"lon":16.566488,"is_passed":false},{"stop_id":"U1078Z2","name":"Čtvrtě","arrival_time":"21:32:00","departure_time":"21:32:00","lat":49.177932,"lon":16.561546,"is_passed":false},{"stop_id":"U1263Z1","name":"Koniklecová","arrival_time":"21:33:00","departure_time":"21:33:00","lat":49.176634,"lon":16.558219,"is_passed":false},{"stop_id":"U1443Z1","name":"Oblá","arrival_time":"21:34:00","departure_time":"21:34:00","lat":49.177573,"lon":16.552766,"is_passed":false},{"stop_id":"U1223Z1","name":"Kamenný vrch","arrival_time":"21:35:00","departure_time":"21:35:00","lat":49.179914,"lon":16.547756,"is_passed":false},{"stop_id":"U1209Z2","name":"Jírovcova","arrival_time":"21:38:00","departure_time":"21:38:00","lat":49.188255,"lon":16.533803,"is_passed":false},{"stop_id":"U1481Z1","name":"Pavlovská","arrival_time":"21:38:00","departure_time":"21:38:00","lat":49.189952,"lon":16.531006,"is_passed":false},{"stop_id":"U1658Z1","name":"Talichova","arrival_time":"21:39:00","departure_time":"21:39:00","lat":49.191443,"lon":16.52996,"is_passed":false},{"stop_id":"U1017Z1","name":"Bellova","arrival_time":"21:40:00","departure_time":"21:40:00","lat":49.194186,"lon":16.531513,"is_passed":false},{"stop_id":"U1248Z2","name":"Kohoutovice, hájenka","arrival_time":"21:42:00","departure_time":"21:42:00","lat":49.19656,"lon":16.530778,"is_passed":false},{"stop_id":"U1608Z2","name":"Stará dálnice","arrival_time":"21:44:00","departure_time":"21:44:00","lat":49.199858,"lon":16.516922,"is_passed":false},{"stop_id":"U1648Z2","name":"Štouračova","arrival_time":"21:46:00","departure_time":"21:46:00","lat":49.21488,"lon":16.521926,"is_passed":false},{"stop_id":"U1004Z2","name":"Adamcova","arrival_time":"21:47:00","departure_time":"21:47:00","lat":49.218427,"lon":16.519896,"is_passed":false},{"stop_id":"U1771Z2","name":"Wollmanova","arrival_time":"21:48:00","departure_time":"21:48:00","lat":49.222108,"lon":16.52284,"is_passed":false},{"stop_id":"U1326Z4","name":"Laštůvkova","arrival_time":"21:48:00","departure_time":"21:48:00","lat":49.220549,"lon":16.526237,"is_passed":false},{"stop_id":"U1752Z2","name":"Vondrákova","arrival_time":"21:49:00","departure_time":"21:49:00","lat":49.221445,"lon":16.528853,"is_passed":false},{"stop_id":"U1796Z6","name":"Zoologická zahrada","arrival_time":"21:51:00","departure_time":"21:53:00","lat":49.227675,"lon":16.531519,"is_passed":false}],"52203":[{"stop_id":"U1037Z2","name":"Bosonohy","arrival_time":"22:31:00","departure_time":"22:31:00","lat":49.176372,"lon":16.525514,"is_passed":false},{"stop_id":"U1161Z2","name":"Hoštická","arrival_time":"22:32:00","departure_time":"22:32:00","lat":49.173917,"lon":16.527822,"is_passed":false},{"stop_id":"U1516Z1","name":"Pražská","arrival_time":"22:33:00","departure_time":"22:33:00","lat":49.173478,"lon":16.531543,"is_passed":false},{"stop_id":"U1568Z2","name":"Skalní","arrival_time":"22:34:00","departure_time":"22:34:00","lat":49.174201,"lon":16.537903,"is_passed":false},{"stop_id":"U1202Z2","name":"Jemelkova","arrival_time":"22:35:00","departure_time":"22:35:00","lat":49.173163,"lon":16.54872,"is_passed":false},{"stop_id":"U1616Z4","name":"Starý Lískovec, smyčka","arrival_time":"22:36:00","departure_time":"22:36:00","lat":49.170615,"lon":16.55427,"is_passed":false},{"stop_id":"U1097Z6","name":"Dunajská","arrival_time":"22:37:00","departure_time":"22:37:00","lat":49.168824,"lon":16.55589,"is_passed":false},{"stop_id":"U1687Z2","name":"U hřiště","arrival_time":"22:38:00","departure_time":"22:38:00","lat":49.165806,"lon":16.558562,"is_passed":false},{"stop_id":"U1666Z2","name":"Točná","arrival_time":"22:39:00","departure_time":"22:39:00","lat":49.164745,"lon":16.561481,"is_passed":false},{"stop_id":"U1061Z2","name":"Čermákova","arrival_time":"22:40:00","departure_time":"22:40:00","lat":49.164349,"lon":16.564689,"is_passed":false},{"stop_id":"U1627Z2","name":"Svah","arrival_time":"22:40:00","departure_time":"22:40:00","lat":49.164924,"lon":16.567717,"is_passed":false},{"stop_id":"U1168Z2","name":"Humenná","arrival_time":"22:42:00","departure_time":"22:42:00","lat":49.167953,"lon":16.573664,"is_passed":false},{"stop_id":"U1763Z1","name":"Vyhlídalova","arrival_time":"22:43:00","departure_time":"22:43:00","lat":49.165385,"lon":16.577302,"is_passed":false},{"stop_id":"U1122Z4","name":"Gruzínská","arrival_time":"22:44:00","departure_time":"22:44:00","lat":49.166074,"lon":16.585383,"is_passed":false},{"stop_id":"U1774Z2","name":"Za hřbitovem","arrival_time":"22:44:00","departure_time":"22:44:00","lat":49.164318,"lon":16.591448,"is_passed":false},{"stop_id":"U1673Z2","name":"Traťová","arrival_time":"22:45:00","departure_time":"22:45:00","lat":49.163623,"lon":16.595954,"is_passed":false},{"stop_id":"U1466Z55","name":"Ořechovská","arrival_time":"22:47:00","departure_time":"22:47:00","lat":49.156238,"lon":16.599375,"is_passed":false},{"stop_id":"U1141Z2","name":"Heršpická","arrival_time":"22:50:00","departure_time":"22:50:00","lat":49.170473,"lon":16.599896,"is_passed":false},{"stop_id":"U1622Z1","name":"Strážní","arrival_time":"22:52:00","departure_time":"22:52:00","lat":49.178207,"lon":16.603976,"is_passed":false},{"stop_id":"U1301Z4","name":"Křídlovická","arrival_time":"22:54:00","departure_time":"22:54:00","lat":49.185748,"lon":16.603967,"is_passed":false},{"stop_id":"U1596Z4","name":"Soukenická","arrival_time":"22:55:00","departure_time":"22:55:00","lat":49.188557,"lon":16.607222,"is_passed":false},{"stop_id":"U1146Z4","name":"Hlavní nádraží","arrival_time":"22:57:00","departure_time":"23:00:00","lat":49.19125,"lon":16.612674,"is_passed":false},{"stop_id":"U1746Z1","name":"Vlhká","arrival_time":"23:01:00","departure_time":"23:01:00","lat":49.191847,"lon":16.618976,"is_passed":false},{"stop_id":"U1372Z1","name":"Masná","arrival_time":"23:02:00","departure_time":"23:02:00","lat":49.191244,"lon":16.625642,"is_passed":false},{"stop_id":"U1677Z1","name":"Tržní","arrival_time":"23:04:00","departure_time":"23:04:00","lat":49.189973,"lon":16.632193,"is_passed":false},{"stop_id":"U1598Z1","name":"Spáčilova","arrival_time":"23:05:00","departure_time":"23:05:00","lat":49.188674,"lon":16.640942,"is_passed":false},{"stop_id":"U1455Z1","name":"Olomoucká - u školy","arrival_time":"23:06:00","departure_time":"23:06:00","lat":49.186169,"lon":16.652958,"is_passed":false},{"stop_id":"U1613Z1","name":"Staré letiště","arrival_time":"23:07:00","departure_time":"23:07:00","lat":49.18487,"lon":16.65953,"is_passed":false},{"stop_id":"U1068Z3","name":"Černovičky","arrival_time":"23:08:00","departure_time":"23:08:00","lat":49.183143,"lon":16.669108,"is_passed":false},{"stop_id":"U1757Z2","name":"Vozovna Slatina","arrival_time":"23:08:00","departure_time":"23:08:00","lat":49.182866,"lon":16.673489,"is_passed":false},{"stop_id":"U1173Z2","name":"Hviezdoslavova","arrival_time":"23:09:00","departure_time":"23:09:00","lat":49.181664,"lon":16.677149,"is_passed":false},{"stop_id":"U1323Z2","name":"Langrova","arrival_time":"23:10:00","departure_time":"23:10:00","lat":49.17982,"lon":16.68105,"is_passed":false},{"stop_id":"U1382Z2","name":"Mikulčická","arrival_time":"23:10:00","departure_time":"23:10:00","lat":49.178227,"lon":16.684944,"is_passed":false},{"stop_id":"U1297Z2","name":"Kroměřížská","arrival_time":"23:11:00","departure_time":"23:11:00","lat":49.178988,"lon":16.689151,"is_passed":false},{"stop_id":"U1577Z3","name":"Slatina, sídliště","arrival_time":"23:12:00","departure_time":"23:12:00","lat":49.181461,"lon":16.690304,"is_passed":false},{"stop_id":"U1576Z1","name":"Slatina, rozcestí","arrival_time":"23:13:00","departure_time":"23:13:00","lat":49.181647,"lon":16.691923,"is_passed":false},{"stop_id":"U1292Z3","name":"Krejčího","arrival_time":"23:14:00","departure_time":"23:14:00","lat":49.177861,"lon":16.691431,"is_passed":false},{"stop_id":"U16165Z1","name":"Šlapanice, sídliště","arrival_time":"23:16:00","departure_time":"23:16:00","lat":49.16703,"lon":16.718338,"is_passed":false},{"stop_id":"U16155Z1","name":"Šlapanice, Čechova","arrival_time":"23:17:00","departure_time":"23:17:00","lat":49.165752,"lon":16.722536,"is_passed":false},{"stop_id":"U16159Z1","name":"Šlapanice, Kalvodova","arrival_time":"23:18:00","departure_time":"23:33:00","lat":49.166442,"lon":16.726521,"is_passed":false}],"52204":[{"stop_id":"U16159Z2","name":"Šlapanice, Kalvodova","arrival_time":"23:33:00","departure_time":"23:33:00","lat":49.166539,"lon":16.726218,"is_passed":false},{"stop_id":"U16155Z2","name":"Šlapanice, Čechova","arrival_time":"23:34:00","departure_time":"23:34:00","lat":49.166076,"lon":16.721551,"is_passed":false},{"stop_id":"U16165Z2","name":"Šlapanice, sídliště","arrival_time":"23:35:00","departure_time":"23:35:00","lat":49.167046,"lon":16.718465,"is_passed":false},{"stop_id":"U1292Z4","name":"Krejčího","arrival_time":"23:37:00","departure_time":"23:37:00","lat":49.177555,"lon":16.691625,"is_passed":false},{"stop_id":"U1577Z2","name":"Slatina, sídliště","arrival_time":"23:39:00","departure_time":"23:39:00","lat":49.181605,"lon":16.690121,"is_passed":false},{"stop_id":"U1297Z1","name":"Kroměřížská","arrival_time":"23:40:00","departure_time":"23:40:00","lat":49.178307,"lon":16.688244,"is_passed":false},{"stop_id":"U1382Z1","name":"Mikulčická","arrival_time":"23:40:00","departure_time":"23:40:00","lat":49.178464,"lon":16.683602,"is_passed":false},{"stop_id":"U1323Z1","name":"Langrova","arrival_time":"23:41:00","departure_time":"23:41:00","lat":49.180031,"lon":16.680806,"is_passed":false},{"stop_id":"U1173Z1","name":"Hviezdoslavova","arrival_time":"23:42:00","departure_time":"23:42:00","lat":49.18219,"lon":16.676025,"is_passed":false},{"stop_id":"U1757Z1","name":"Vozovna Slatina","arrival_time":"23:43:00","departure_time":"23:43:00","lat":49.183032,"lon":16.672807,"is_passed":false},{"stop_id":"U1068Z1","name":"Černovičky","arrival_time":"23:44:00","departure_time":"23:44:00","lat":49.182244,"lon":16.66894,"is_passed":false},{"stop_id":"U1613Z52","name":"Staré letiště","arrival_time":"23:47:00","departure_time":"23:47:00","lat":49.184708,"lon":16.657444,"is_passed":false},{"stop_id":"U1455Z2","name":"Olomoucká - u školy","arrival_time":"23:48:00","departure_time":"23:48:00","lat":49.186437,"lon":16.652477,"is_passed":false},{"stop_id":"U1598Z2","name":"Spáčilova","arrival_time":"23:49:00","departure_time":"23:49:00","lat":49.188617,"lon":16.641569,"is_passed":false},{"stop_id":"U1814Z4","name":"Životského","arrival_time":"23:50:00","departure_time":"23:50:00","lat":49.190077,"lon":16.634992,"is_passed":false},{"stop_id":"U1372Z2","name":"Masná","arrival_time":"23:51:00","departure_time":"23:51:00","lat":49.191283,"lon":16.6245,"is_passed":false},{"stop_id":"U1746Z2","name":"Vlhká","arrival_time":"23:52:00","departure_time":"23:52:00","lat":49.191852,"lon":16.619157,"is_passed":false},{"stop_id":"U1146Z3","name":"Hlavní nádraží","arrival_time":"23:55:00","departure_time":"24:00:00","lat":49.191063,"lon":16.611972,"is_passed":false},{"stop_id":"U1596Z3","name":"Soukenická","arrival_time":"24:01:00","departure_time":"24:01:00","lat":49.188374,"lon":16.60657,"is_passed":false},{"stop_id":"U1301Z3","name":"Křídlovická","arrival_time":"24:02:00","departure_time":"24:02:00","lat":49.185812,"lon":16.603614,"is_passed":false},{"stop_id":"U1622Z2","name":"Strážní","arrival_time":"24:03:00","departure_time":"24:03:00","lat":49.178477,"lon":16.603646,"is_passed":false},{"stop_id":"U1141Z1","name":"Heršpická","arrival_time":"24:04:00","departure_time":"24:04:00","lat":49.170255,"lon":16.599363,"is_passed":false},{"stop_id":"U1466Z5","name":"Ořechovská","arrival_time":"24:06:00","departure_time":"24:06:00","lat":49.156238,"lon":16.599375,"is_passed":false},{"stop_id":"U1031Z5","name":"Bohunická","arrival_time":"24:09:00","departure_time":"24:09:00","lat":49.162871,"lon":16.599483,"is_passed":false},{"stop_id":"U1673Z1","name":"Traťová","arrival_time":"24:09:00","departure_time":"24:09:00","lat":49.163849,"lon":16.595255,"is_passed":false},{"stop_id":"U1122Z3","name":"Gruzínská","arrival_time":"24:10:00","departure_time":"24:10:00","lat":49.166188,"lon":16.585372,"is_passed":false},{"stop_id":"U1763Z2","name":"Vyhlídalova","arrival_time":"24:11:00","departure_time":"24:11:00","lat":49.165134,"lon":16.576558,"is_passed":false},{"stop_id":"U1168Z1","name":"Humenná","arrival_time":"24:13:00","departure_time":"24:13:00","lat":49.1676,"lon":16.572367,"is_passed":false},{"stop_id":"U1627Z1","name":"Svah","arrival_time":"24:14:00","departure_time":"24:14:00","lat":49.165199,"lon":16.567969,"is_passed":false},{"stop_id":"U1061Z1","name":"Čermákova","arrival_time":"24:14:00","departure_time":"24:14:00","lat":49.164336,"lon":16.565516,"is_passed":false},{"stop_id":"U1666Z1","name":"Točná","arrival_time":"24:15:00","departure_time":"24:15:00","lat":49.16476,"lon":16.561692,"is_passed":false},{"stop_id":"U1687Z1","name":"U hřiště","arrival_time":"24:15:00","departure_time":"24:15:00","lat":49.166214,"lon":16.558668,"is_passed":false},{"stop_id":"U1097Z5","name":"Dunajská","arrival_time":"24:16:00","departure_time":"24:16:00","lat":49.169618,"lon":16.555308,"is_passed":false},{"stop_id":"U1616Z5","name":"Starý Lískovec, smyčka","arrival_time":"24:17:00","departure_time":"24:17:00","lat":49.172309,"lon":16.553313,"is_passed":false},{"stop_id":"U1202Z1","name":"Jemelkova","arrival_time":"24:18:00","departure_time":"24:18:00","lat":49.173333,"lon":16.548692,"is_passed":false},{"stop_id":"U1568Z1","name":"Skalní","arrival_time":"24:20:00","departure_time":"24:20:00","lat":49.174248,"lon":16.538211,"is_passed":false},{"stop_id":"U1161Z1","name":"Hoštická","arrival_time":"24:21:00","departure_time":"24:21:00","lat":49.173864,"lon":16.528044,"is_passed":false},{"stop_id":"U1037Z1","name":"Bosonohy","arrival_time":"24:23:00","departure_time":"24:31:00","lat":49.17652,"lon":16.525792,"is_passed":false}],"52205":[{"stop_id":"U1037Z2","name":"Bosonohy","arrival_time":"0:31:00","departure_time":"0:31:00","lat":49.176372,"lon":16.525514,"is_passed":false},{"stop_id":"U1161Z2","name":"Hoštická","arrival_time":"0:32:00","departure_time":"0:32:00","lat":49.173917,"lon":16.527822,"is_passed":false},{"stop_id":"U1516Z1","name":"Pražská","arrival_time":"0:33:00","departure_time":"0:33:00","lat":49.173478,"lon":16.531543,"is_passed":false},{"stop_id":"U1568Z2","name":"Skalní","arrival_time":"0:34:00","departure_time":"0:34:00","lat":49.174201,"lon":16.537903,"is_passed":false},{"stop_id":"U1202Z2","name":"Jemelkova","arrival_time":"0:35:00","departure_time":"0:35:00","lat":49.173163,"lon":16.54872,"is_passed":false},{"stop_id":"U1616Z4","name":"Starý Lískovec, smyčka","arrival_time":"0:36:00","departure_time":"0:36:00","lat":49.170615,"lon":16.55427,"is_passed":false},{"stop_id":"U1097Z6","name":"Dunajská","arrival_time":"0:37:00","departure_time":"0:37:00","lat":49.168824,"lon":16.55589,"is_passed":false},{"stop_id":"U1687Z2","name":"U hřiště","arrival_time":"0:38:00","departure_time":"0:38:00","lat":49.165806,"lon":16.558562,"is_passed":false},{"stop_id":"U1666Z2","name":"Točná","arrival_time":"0:39:00","departure_time":"0:39:00","lat":49.164745,"lon":16.561481,"is_passed":false},{"stop_id":"U1061Z2","name":"Čermákova","arrival_time":"0:40:00","departure_time":"0:40:00","lat":49.164349,"lon":16.564689,"is_passed":false},{"stop_id":"U1627Z2","name":"Svah","arrival_time":"0:40:00","departure_time":"0:40:00","lat":49.164924,"lon":16.567717,"is_passed":false},{"stop_id":"U1168Z2","name":"Humenná","arrival_time":"0:42:00","departure_time":"0:42:00","lat":49.167953,"lon":16.573664,"is_passed":false},{"stop_id":"U1763Z1","name":"Vyhlídalova","arrival_time":"0:43:00","departure_time":"0:43:00","lat":49.165385,"lon":16.577302,"is_passed":false},{"stop_id":"U1122Z4","name":"Gruzínská","arrival_time":"0:44:00","departure_time":"0:44:00","lat":49.166074,"lon":16.585383,"is_passed":false},{"stop_id":"U1774Z2","name":"Za hřbitovem","arrival_time":"0:44:00","departure_time":"0:44:00","lat":49.164318,"lon":16.591448,"is_passed":false},{"stop_id":"U1673Z2","name":"Traťová","arrival_time":"0:45:00","departure_time":"0:45:00","lat":49.163623,"lon":16.595954,"is_passed":false},{"stop_id":"U1466Z55","name":"Ořechovská","arrival_time":"0:47:00","departure_time":"0:47:00","lat":49.156238,"lon":16.599375,"is_passed":false},{"stop_id":"U1141Z2","name":"Heršpická","arrival_time":"0:50:00","departure_time":"0:50:00","lat":49.170473,"lon":16.599896,"is_passed":false},{"stop_id":"U1622Z1","name":"Strážní","arrival_time":"0:52:00","departure_time":"0:52:00","lat":49.178207,"lon":16.603976,"is_passed":false},{"stop_id":"U1301Z4","name":"Křídlovická","arrival_time":"0:54:00","departure_time":"0:54:00","lat":49.185748,"lon":16.603967,"is_passed":false},{"stop_id":"U1596Z4","name":"Soukenická","arrival_time":"0:55:00","departure_time":"0:55:00","lat":49.188557,"lon":16.607222,"is_passed":false},{"stop_id":"U1146Z4","name":"Hlavní nádraží","arrival_time":"0:57:00","departure_time":"1:00:00","lat":49.19125,"lon":16.612674,"is_passed":false},{"stop_id":"U1746Z1","name":"Vlhká","arrival_time":"1:01:00","departure_time":"1:01:00","lat":49.191847,"lon":16.618976,"is_passed":false},{"stop_id":"U1372Z1","name":"Masná","arrival_time":"1:02:00","departure_time":"1:02:00","lat":49.191244,"lon":16.625642,"is_passed":false},{"stop_id":"U1677Z1","name":"Tržní","arrival_time":"1:04:00","departure_time":"1:04:00","lat":49.189973,"lon":16.632193,"is_passed":false},{"stop_id":"U1598Z1","name":"Spáčilova","arrival_time":"1:05:00","departure_time":"1:05:00","lat":49.188674,"lon":16.640942,"is_passed":false},{"stop_id":"U1455Z1","name":"Olomoucká - u školy","arrival_time":"1:06:00","departure_time":"1:06:00","lat":49.186169,"lon":16.652958,"is_passed":false},{"stop_id":"U1613Z51","name":"Staré letiště","arrival_time":"1:07:00","departure_time":"1:07:00","lat":49.184338,"lon":16.657114,"is_passed":false},{"stop_id":"U1068Z3","name":"Černovičky","arrival_time":"1:11:00","departure_time":"1:11:00","lat":49.183143,"lon":16.669108,"is_passed":false},{"stop_id":"U1757Z2","name":"Vozovna Slatina","arrival_time":"1:11:00","departure_time":"1:11:00","lat":49.182866,"lon":16.673489,"is_passed":false},{"stop_id":"U1173Z2","name":"Hviezdoslavova","arrival_time":"1:12:00","departure_time":"1:12:00","lat":49.181664,"lon":16.677149,"is_passed":false},{"stop_id":"U1323Z2","name":"Langrova","arrival_time":"1:13:00","departure_time":"1:13:00","lat":49.17982,"lon":16.68105,"is_passed":false},{"stop_id":"U1382Z2","name":"Mikulčická","arrival_time":"1:13:00","departure_time":"1:13:00","lat":49.178227,"lon":16.684944,"is_passed":false},{"stop_id":"U1297Z2","name":"Kroměřížská","arrival_time":"1:14:00","departure_time":"1:14:00","lat":49.178988,"lon":16.689151,"is_passed":false},{"stop_id":"U1577Z3","name":"Slatina, sídliště","arrival_time":"1:15:00","departure_time":"1:15:00","lat":49.181461,"lon":16.690304,"is_passed":false},{"stop_id":"U1576Z1","name":"Slatina, rozcestí","arrival_time":"1:16:00","departure_time":"1:16:00","lat":49.181647,"lon":16.691923,"is_passed":false},{"stop_id":"U1292Z3","name":"Krejčího","arrival_time":"1:17:00","departure_time":"1:17:00","lat":49.177861,"lon":16.691431,"is_passed":false},{"stop_id":"U16165Z1","name":"Šlapanice, sídliště","arrival_time":"1:19:00","departure_time":"1:19:00","lat":49.16703,"lon":16.718338,"is_passed":false},{"stop_id":"U16155Z1","name":"Šlapanice, Čechova","arrival_time":"1:20:00","departure_time":"1:20:00","lat":49.165752,"lon":16.722536,"is_passed":false},{"stop_id":"U16159Z1","name":"Šlapanice, Kalvodova","arrival_time":"1:21:00","departure_time":"1:33:00","lat":49.166442,"lon":16.726521,"is_passed":false}],"52206":[{"stop_id":"U16159Z2","name":"Šlapanice, Kalvodova","arrival_time":"1:33:00","departure_time":"1:33:00","lat":49.166539,"lon":16.726218,"is_passed":false},{"stop_id":"U16155Z2","name":"Šlapanice, Čechova","arrival_time":"1:34:00","departure_time":"1:34:00","lat":49.166076,"lon":16.721551,"is_passed":false},{"stop_id":"U16165Z2","name":"Šlapanice, sídliště","arrival_time":"1:35:00","departure_time":"1:35:00","lat":49.167046,"lon":16.718465,"is_passed":false},{"stop_id":"U1292Z4","name":"Krejčího","arrival_time":"1:37:00","departure_time":"1:37:00","lat":49.177555,"lon":16.691625,"is_passed":false},{"stop_id":"U1577Z2","name":"Slatina, sídliště","arrival_time":"1:39:00","departure_time":"1:39:00","lat":49.181605,"lon":16.690121,"is_passed":false},{"stop_id":"U1297Z1","name":"Kroměřížská","arrival_time":"1:40:00","departure_time":"1:40:00","lat":49.178307,"lon":16.688244,"is_passed":false},{"stop_id":"U1382Z1","name":"Mikulčická","arrival_time":"1:40:00","departure_time":"1:40:00","lat":49.178464,"lon":16.683602,"is_passed":false},{"stop_id":"U1323Z1","name":"Langrova","arrival_time":"1:41:00","departure_time":"1:41:00","lat":49.180031,"lon":16.680806,"is_passed":false},{"stop_id":"U1173Z1","name":"Hviezdoslavova","arrival_time":"1:42:00","departure_time":"1:42:00","lat":49.18219,"lon":16.676025,"is_passed":false},{"stop_id":"U1757Z1","name":"Vozovna Slatina","arrival_time":"1:43:00","departure_time":"1:43:00","lat":49.183032,"lon":16.672807,"is_passed":false},{"stop_id":"U1068Z1","name":"Černovičky","arrival_time":"1:44:00","departure_time":"1:44:00","lat":49.182244,"lon":16.66894,"is_passed":false},{"stop_id":"U1613Z52","name":"Staré letiště","arrival_time":"1:47:00","departure_time":"1:47:00","lat":49.184708,"lon":16.657444,"is_passed":false},{"stop_id":"U1455Z2","name":"Olomoucká - u školy","arrival_time":"1:48:00","departure_time":"1:48:00","lat":49.186437,"lon":16.652477,"is_passed":false},{"stop_id":"U1598Z2","name":"Spáčilova","arrival_time":"1:49:00","departure_time":"1:49:00","lat":49.188617,"lon":16.641569,"is_passed":false},{"stop_id":"U1814Z4","name":"Životského","arrival_time":"1:50:00","departure_time":"1:50:00","lat":49.190077,"lon":16.634992,"is_passed":false},{"stop_id":"U1372Z2","name":"Masná","arrival_time":"1:51:00","departure_time":"1:51:00","lat":49.191283,"lon":16.6245,"is_passed":false},{"stop_id":"U1746Z2","name":"Vlhká","arrival_time":"1:52:00","departure_time":"1:52:00","lat":49.191852,"lon":16.619157,"is_passed":false},{"stop_id":"U1146Z3","name":"Hlavní nádraží","arrival_time":"1:55:00","departure_time":"2:00:00","lat":49.191063,"lon":16.611972,"is_passed":false},{"stop_id":"U1596Z3","name":"Soukenická","arrival_time":"2:01:00","departure_time":"2:01:00","lat":49.188374,"lon":16.60657,"is_passed":false},{"stop_id":"U1301Z3","name":"Křídlovická","arrival_time":"2:02:00","departure_time":"2:02:00","lat":49.185812,"lon":16.603614,"is_passed":false},{"stop_id":"U1622Z2","name":"Strážní","arrival_time":"2:03:00","departure_time":"2:03:00","lat":49.178477,"lon":16.603646,"is_passed":false},{"stop_id":"U1141Z1","name":"Heršpická","arrival_time":"2:04:00","departure_time":"2:04:00","lat":49.170255,"lon":16.599363,"is_passed":false},{"stop_id":"U1466Z5","name":"Ořechovská","arrival_time":"2:06:00","departure_time":"2:06:00","lat":49.156238,"lon":16.599375,"is_passed":false},{"stop_id":"U1031Z5","name":"Bohunická","arrival_time":"2:09:00","departure_time":"2:09:00","lat":49.162871,"lon":16.599483,"is_passed":false},{"stop_id":"U1673Z1","name":"Traťová","arrival_time":"2:09:00","departure_time":"2:09:00","lat":49.163849,"lon":16.595255,"is_passed":false},{"stop_id":"U1122Z3","name":"Gruzínská","arrival_time":"2:10:00","departure_time":"2:10:00","lat":49.166188,"lon":16.585372,"is_passed":false},{"stop_id":"U1763Z2","name":"Vyhlídalova","arrival_time":"2:11:00","departure_time":"2:11:00","lat":49.165134,"lon":16.576558,"is_passed":false},{"stop_id":"U1168Z1","name":"Humenná","arrival_time":"2:13:00","departure_time":"2:13:00","lat":49.1676,"lon":16.572367,"is_passed":false},{"stop_id":"U1627Z1","name":"Svah","arrival_time":"2:14:00","departure_time":"2:14:00","lat":49.165199,"lon":16.567969,"is_passed":false},{"stop_id":"U1061Z1","name":"Čermákova","arrival_time":"2:14:00","departure_time":"2:14:00","lat":49.164336,"lon":16.565516,"is_passed":false},{"stop_id":"U1666Z1","name":"Točná","arrival_time":"2:15:00","departure_time":"2:15:00","lat":49.16476,"lon":16.561692,"is_passed":false},{"stop_id":"U1687Z1","name":"U hřiště","arrival_time":"2:15:00","departure_time":"2:15:00","lat":49.166214,"lon":16.558668,"is_passed":false},{"stop_id":"U1097Z5","name":"Dunajská","arrival_time":"2:16:00","departure_time":"2:16:00","lat":49.169618,"lon":16.555308,"is_passed":false},{"stop_id":"U1616Z5","name":"Starý Lískovec, smyčka","arrival_time":"2:17:00","departure_time":"2:17:00","lat":49.172309,"lon":16.553313,"is_passed":false},{"stop_id":"U1202Z1","name":"Jemelkova","arrival_time":"2:18:00","departure_time":"2:18:00","lat":49.173333,"lon":16.548692,"is_passed":false},{"stop_id":"U1568Z1","name":"Skalní","arrival_time":"2:20:00","departure_time":"2:20:00","lat":49.174248,"lon":16.538211,"is_passed":false},{"stop_id":"U1161Z1","name":"Hoštická","arrival_time":"2:21:00","departure_time":"2:21:00","lat":49.173864,"lon":16.528044,"is_passed":false},{"stop_id":"U1037Z1","name":"Bosonohy","arrival_time":"2:23:00","departure_time":"3:31:00","lat":49.17652,"lon":16.525792,"is_passed":false}],"52207":[{"stop_id":"U1037Z2","name":"Bosonohy","arrival_time":"3:31:00","departure_time":"3:31:00","lat":49.176372,"lon":16.525514,"is_passed":false},{"stop_id":"U1161Z2","name":"Hoštická","arrival_time":"3:32:00","departure_time":"3:32:00","lat":49.173917,"lon":16.527822,"is_passed":false},{"stop_id":"U1516Z1","name":"Pražská","arrival_time":"3:33:00","departure_time":"3:33:00","lat":49.173478,"lon":16.531543,"is_passed":false},{"stop_id":"U1568Z2","name":"Skalní","arrival_time":"3:34:00","departure_time":"3:34:00","lat":49.174201,"lon":16.537903,"is_passed":false},{"stop_id":"U1202Z2","name":"Jemelkova","arrival_time":"3:35:00","departure_time":"3:35:00","lat":49.173163,"lon":16.54872,"is_passed":false},{"stop_id":"U1616Z4","name":"Starý Lískovec, smyčka","arrival_time":"3:36:00","departure_time":"3:36:00","lat":49.170615,"lon":16.55427,"is_passed":false},{"stop_id":"U1097Z6","name":"Dunajská","arrival_time":"3:37:00","departure_time":"3:37:00","lat":49.168824,"lon":16.55589,"is_passed":false},{"stop_id":"U1687Z2","name":"U hřiště","arrival_time":"3:38:00","departure_time":"3:38:00","lat":49.165806,"lon":16.558562,"is_passed":false},{"stop_id":"U1666Z2","name":"Točná","arrival_time":"3:39:00","departure_time":"3:39:00","lat":49.164745,"lon":16.561481,"is_passed":false},{"stop_id":"U1061Z2","name":"Čermákova","arrival_time":"3:40:00","departure_time":"3:40:00","lat":49.164349,"lon":16.564689,"is_passed":false},{"stop_id":"U1627Z2","name":"Svah","arrival_time":"3:40:00","departure_time":"3:40:00","lat":49.164924,"lon":16.567717,"is_passed":false},{"stop_id":"U1168Z2","name":"Humenná","arrival_time":"3:42:00","departure_time":"3:42:00","lat":49.167953,"lon":16.573664,"is_passed":false},{"stop_id":"U1763Z1","name":"Vyhlídalova","arrival_time":"3:43:00","departure_time":"3:43:00","lat":49.165385,"lon":16.577302,"is_passed":false},{"stop_id":"U1122Z4","name":"Gruzínská","arrival_time":"3:44:00","departure_time":"3:44:00","lat":49.166074,"lon":16.585383,"is_passed":false},{"stop_id":"U1774Z2","name":"Za hřbitovem","arrival_time":"3:44:00","departure_time":"3:44:00","lat":49.164318,"lon":16.591448,"is_passed":false},{"stop_id":"U1673Z2","name":"Traťová","arrival_time":"3:45:00","departure_time":"3:45:00","lat":49.163623,"lon":16.595954,"is_passed":false},{"stop_id":"U1466Z55","name":"Ořechovská","arrival_time":"3:47:00","departure_time":"3:47:00","lat":49.156238,"lon":16.599375,"is_passed":false},{"stop_id":"U1141Z2","name":"Heršpická","arrival_time":"3:50:00","departure_time":"3:50:00","lat":49.170473,"lon":16.599896,"is_passed":false},{"stop_id":"U1622Z1","name":"Strážní","arrival_time":"3:52:00","departure_time":"3:52:00","lat":49.178207,"lon":16.603976,"is_passed":false},{"stop_id":"U1301Z4","name":"Křídlovická","arrival_time":"3:54:00","departure_time":"3:54:00","lat":49.185748,"lon":16.603967,"is_passed":false},{"stop_id":"U1596Z4","name":"Soukenická","arrival_time":"3:55:00","departure_time":"3:55:00","lat":49.188557,"lon":16.607222,"is_passed":false},{"stop_id":"U1146Z4","name":"Hlavní nádraží","arrival_time":"3:57:00","departure_time":"4:00:00","lat":49.19125,"lon":16.612674,"is_passed":false},{"stop_id":"U1746Z1","name":"Vlhká","arrival_time":"4:01:00","departure_time":"4:01:00","lat":49.191847,"lon":16.618976,"is_passed":false},{"stop_id":"U1372Z1","name":"Masná","arrival_time":"4:02:00","departure_time":"4:02:00","lat":49.191244,"lon":16.625642,"is_passed":false},{"stop_id":"U1677Z1","name":"Tržní","arrival_time":"4:04:00","departure_time":"4:04:00","lat":49.189973,"lon":16.632193,"is_passed":false},{"stop_id":"U1598Z1","name":"Spáčilova","arrival_time":"4:05:00","departure_time":"4:05:00","lat":49.188674,"lon":16.640942,"is_passed":false},{"stop_id":"U1455Z1","name":"Olomoucká - u školy","arrival_time":"4:06:00","departure_time":"4:06:00","lat":49.186169,"lon":16.652958,"is_passed":false},{"stop_id":"U1613Z51","name":"Staré letiště","arrival_time":"4:07:00","departure_time":"4:07:00","lat":49.184338,"lon":16.657114,"is_passed":false},{"stop_id":"U1068Z3","name":"Černovičky","arrival_time":"4:11:00","departure_time":"4:11:00","lat":49.183143,"lon":16.669108,"is_passed":false},{"stop_id":"U1757Z2","name":"Vozovna Slatina","arrival_time":"4:11:00","departure_time":"4:11:00","lat":49.182866,"lon":16.673489,"is_passed":false},{"stop_id":"U1173Z2","name":"Hviezdoslavova","arrival_time":"4:12:00","departure_time":"4:12:00","lat":49.181664,"lon":16.677149,"is_passed":false},{"stop_id":"U1323Z2","name":"Langrova","arrival_time":"4:13:00","departure_time":"4:13:00","lat":49.17982,"lon":16.68105,"is_passed":false},{"stop_id":"U1382Z2","name":"Mikulčická","arrival_time":"4:13:00","departure_time":"4:13:00","lat":49.178227,"lon":16.684944,"is_passed":false},{"stop_id":"U1297Z2","name":"Kroměřížská","arrival_time":"4:14:00","departure_time":"4:14:00","lat":49.178988,"lon":16.689151,"is_passed":false},{"stop_id":"U1577Z3","name":"Slatina, sídliště","arrival_time":"4:15:00","departure_time":"4:15:00","lat":49.181461,"lon":16.690304,"is_passed":false},{"stop_id":"U1576Z1","name":"Slatina, rozcestí","arrival_time":"4:16:00","departure_time":"4:16:00","lat":49.181647,"lon":16.691923,"is_passed":false},{"stop_id":"U1292Z3","name":"Krejčího","arrival_time":"4:17:00","departure_time":"4:17:00","lat":49.177861,"lon":16.691431,"is_passed":false},{"stop_id":"U16165Z1","name":"Šlapanice, sídliště","arrival_time":"4:19:00","departure_time":"4:19:00","lat":49.16703,"lon":16.718338,"is_passed":false},{"stop_id":"U16155Z1","name":"Šlapanice, Čechova","arrival_time":"4:20:00","departure_time":"4:20:00","lat":49.165752,"lon":16.722536,"is_passed":false},{"stop_id":"U16159Z1","name":"Šlapanice, Kalvodova","arrival_time":"4:21:00","departure_time":"4:36:00","lat":49.166442,"lon":16.726521,"is_passed":false}],"52208":[{"stop_id":"U16159Z2","name":"Šlapanice, Kalvodova","arrival_time":"4:36:00","departure_time":"4:36:00","lat":49.166539,"lon":16.726218,"is_passed":false},{"stop_id":"U16155Z2","name":"Šlapanice, Čechova","arrival_time":"4:37:00","departure_time":"4:37:00","lat":49.166076,"lon":16.721551,"is_passed":false},{"stop_id":"U16165Z2","name":"Šlapanice, sídliště","arrival_time":"4:38:00","departure_time":"4:38:00","lat":49.167046,"lon":16.718465,"is_passed":false},{"stop_id":"U1292Z4","name":"Krejčího","arrival_time":"4:40:00","departure_time":"4:40:00","lat":49.177555,"lon":16.691625,"is_passed":false},{"stop_id":"U1577Z2","name":"Slatina, sídliště","arrival_time":"4:42:00","departure_time":"4:42:00","lat":49.181605,"lon":16.690121,"is_passed":false},{"stop_id":"U1297Z1","name":"Kroměřížská","arrival_time":"4:43:00","departure_time":"4:43:00","lat":49.178307,"lon":16.688244,"is_passed":false},{"stop_id":"U1382Z1","name":"Mikulčická","arrival_time":"4:43:00","departure_time":"4:43:00","lat":49.178464,"lon":16.683602,"is_passed":false},{"stop_id":"U1323Z1","name":"Langrova","arrival_time":"4:44:00","departure_time":"4:44:00","lat":49.180031,"lon":16.680806,"is_passed":false},{"stop_id":"U1173Z1","name":"Hviezdoslavova","arrival_time":"4:45:00","departure_time":"4:45:00","lat":49.18219,"lon":16.676025,"is_passed":false},{"stop_id":"U1757Z1","name":"Vozovna Slatina","arrival_time":"4:46:00","departure_time":"4:46:00","lat":49.183032,"lon":16.672807,"is_passed":false},{"stop_id":"U1068Z2","name":"Černovičky","arrival_time":"4:47:00","departure_time":"4:47:00","lat":49.183555,"lon":16.666764,"is_passed":false},{"stop_id":"U1613Z2","name":"Staré letiště","arrival_time":"4:48:00","departure_time":"4:48:00","lat":49.185064,"lon":16.659019,"is_passed":false},{"stop_id":"U1455Z2","name":"Olomoucká - u školy","arrival_time":"4:48:00","departure_time":"4:48:00","lat":49.186437,"lon":16.652477,"is_passed":false},{"stop_id":"U1598Z2","name":"Spáčilova","arrival_time":"4:49:00","departure_time":"4:49:00","lat":49.188617,"lon":16.641569,"is_passed":false},{"stop_id":"U1814Z4","name":"Životského","arrival_time":"4:50:00","departure_time":"4:50:00","lat":49.190077,"lon":16.634992,"is_passed":false},{"stop_id":"U1372Z2","name":"Masná","arrival_time":"4:51:00","departure_time":"4:51:00","lat":49.191283,"lon":16.6245,"is_passed":false},{"stop_id":"U1746Z2","name":"Vlhká","arrival_time":"4:52:00","departure_time":"4:52:00","lat":49.191852,"lon":16.619157,"is_passed":false},{"stop_id":"U1146Z3","name":"Hlavní nádraží","arrival_time":"4:55:00","departure_time":"5:00:00","lat":49.191063,"lon":16.611972,"is_passed":false},{"stop_id":"U1596Z3","name":"Soukenická","arrival_time":"5:01:00","departure_time":"5:01:00","lat":49.188374,"lon":16.60657,"is_passed":false},{"stop_id":"U1301Z3","name":"Křídlovická","arrival_time":"5:02:00","departure_time":"5:02:00","lat":49.185812,"lon":16.603614,"is_passed":false},{"stop_id":"U1622Z2","name":"Strážní","arrival_time":"5:03:00","departure_time":"5:03:00","lat":49.178477,"lon":16.603646,"is_passed":false},{"stop_id":"U1141Z1","name":"Heršpická","arrival_time":"5:04:00","departure_time":"5:04:00","lat":49.170255,"lon":16.599363,"is_passed":false},{"stop_id":"U1466Z5","name":"Ořechovská","arrival_time":"5:06:00","departure_time":"5:06:00","lat":49.156238,"lon":16.599375,"is_passed":false},{"stop_id":"U1031Z5","name":"Bohunická","arrival_time":"5:09:00","departure_time":"5:09:00","lat":49.162871,"lon":16.599483,"is_passed":false},{"stop_id":"U1673Z1","name":"Traťová","arrival_time":"5:09:00","departure_time":"5:09:00","lat":49.163849,"lon":16.595255,"is_passed":false},{"stop_id":"U1122Z3","name":"Gruzínská","arrival_time":"5:10:00","departure_time":"5:10:00","lat":49.166188,"lon":16.585372,"is_passed":false},{"stop_id":"U1763Z2","name":"Vyhlídalova","arrival_time":"5:11:00","departure_time":"5:11:00","lat":49.165134,"lon":16.576558,"is_passed":false},{"stop_id":"U1168Z1","name":"Humenná","arrival_time":"5:13:00","departure_time":"5:13:00","lat":49.1676,"lon":16.572367,"is_passed":false},{"stop_id":"U1627Z1","name":"Svah","arrival_time":"5:14:00","departure_time":"5:14:00","lat":49.165199,"lon":16.567969,"is_passed":false},{"stop_id":"U1061Z1","name":"Čermákova","arrival_time":"5:14:00","departure_time":"5:14:00","lat":49.164336,"lon":16.565516,"is_passed":false},{"stop_id":"U1666Z1","name":"Točná","arrival_time":"5:15:00","departure_time":"5:15:00","lat":49.16476,"lon":16.561692,"is_passed":false},{"stop_id":"U1687Z1","name":"U hřiště","arrival_time":"5:15:00","departure_time":"5:15:00","lat":49.166214,"lon":16.558668,"is_passed":false},{"stop_id":"U1097Z5","name":"Dunajská","arrival_time":"5:16:00","departure_time":"5:16:00","lat":49.169618,"lon":16.555308,"is_passed":false},{"stop_id":"U1616Z5","name":"Starý Lískovec, smyčka","arrival_time":"5:17:00","departure_time":"5:17:00","lat":49.172309,"lon":16.553313,"is_passed":false},{"stop_id":"U1202Z1","name":"Jemelkova","arrival_time":"5:18:00","departure_time":"5:18:00","lat":49.173333,"lon":16.548692,"is_passed":false},{"stop_id":"U1568Z1","name":"Skalní","arrival_time":"5:20:00","departure_time":"5:20:00","lat":49.174248,"lon":16.538211,"is_passed":false},{"stop_id":"U1161Z1","name":"Hoštická","arrival_time":"5:21:00","departure_time":"5:21:00","lat":49.173864,"lon":16.528044,"is_passed":false},{"stop_id":"U1037Z1","name":"Bosonohy","arrival_time":"5:23:00","departure_time":"5:25:00","lat":49.17652,"lon":16.525792,"is_passed":false}],"52209":[{"stop_id":"U1221Z2","name":"Kamechy","arrival_time":"5:58:00","departure_time":"5:58:00","lat":49.214794,"lon":16.49742,"is_passed":false},{"stop_id":"U1185Z2","name":"Chvalovka","arrival_time":"5:58:00","departure_time":"5:58:00","lat":49.21492,"lon":16.500086,"is_passed":false},{"stop_id":"U1230Z2","name":"Kavčí","arrival_time":"5:59:00","departure_time":"5:59:00","lat":49.216872,"lon":16.500241,"is_passed":false},{"stop_id":"U1559Z2","name":"Říčanská","arrival_time":"6:00:00","departure_time":"6:00:00","lat":49.218456,"lon":16.497582,"is_passed":false},{"stop_id":"U1550Z2","name":"Ruda","arrival_time":"6:01:00","departure_time":"6:01:00","lat":49.220473,"lon":16.502554,"is_passed":false},{"stop_id":"U1102Z4","name":"Ečerova","arrival_time":"6:04:00","departure_time":"6:04:00","lat":49.218044,"lon":16.509781,"is_passed":false},{"stop_id":"U1461Z4","name":"Ondrouškova","arrival_time":"6:05:00","departure_time":"6:05:00","lat":49.217906,"lon":16.518033,"is_passed":false},{"stop_id":"U1004Z1","name":"Adamcova","arrival_time":"6:05:00","departure_time":"6:05:00","lat":49.21825,"lon":16.520013,"is_passed":false},{"stop_id":"U1648Z1","name":"Štouračova","arrival_time":"6:06:00","departure_time":"6:06:00","lat":49.215562,"lon":16.521438,"is_passed":false},{"stop_id":"U1248Z1","name":"Kohoutovice, hájenka","arrival_time":"6:11:00","departure_time":"6:11:00","lat":49.19638,"lon":16.531386,"is_passed":false},{"stop_id":"U1209Z3","name":"Jírovcova","arrival_time":"6:14:00","departure_time":"6:14:00","lat":49.187316,"lon":16.535309,"is_passed":false},{"stop_id":"U1616Z4","name":"Starý Lískovec, smyčka","arrival_time":"6:17:00","departure_time":"6:17:00","lat":49.170615,"lon":16.55427,"is_passed":false},{"stop_id":"U1061Z2","name":"Čermákova","arrival_time":"6:19:00","departure_time":"6:19:00","lat":49.164349,"lon":16.564689,"is_passed":false},{"stop_id":"U1168Z2","name":"Humenná","arrival_time":"6:20:00","departure_time":"6:20:00","lat":49.167953,"lon":16.573664,"is_passed":false},{"stop_id":"U1021Z4","name":"Běloruská","arrival_time":"6:22:00","departure_time":"6:22:00","lat":49.170481,"lon":16.58166,"is_passed":false},{"stop_id":"U1031Z6","name":"Bohunická","arrival_time":"6:25:00","departure_time":"6:25:00","lat":49.162697,"lon":16.600443,"is_passed":false},{"stop_id":"U1156Z2","name":"Horní Heršpice","arrival_time":"6:28:00","departure_time":"6:28:00","lat":49.167029,"lon":16.616537,"is_passed":false},{"stop_id":"U1256Z6","name":"Komárov","arrival_time":"6:30:00","departure_time":"6:30:00","lat":49.174812,"lon":16.620877,"is_passed":false},{"stop_id":"U1361Z2","name":"Mariánské náměstí","arrival_time":"6:32:00","departure_time":"6:32:00","lat":49.176238,"lon":16.622949,"is_passed":false},{"stop_id":"U1455Z1","name":"Olomoucká - u školy","arrival_time":"6:37:00","departure_time":"6:37:00","lat":49.186169,"lon":16.652958,"is_passed":false},{"stop_id":"U1665Z1","name":"Těžební","arrival_time":"6:39:00","departure_time":"6:39:00","lat":49.181966,"lon":16.657236,"is_passed":false},{"stop_id":"U1739Z1","name":"Vlastimila Pecha","arrival_time":"6:40:00","departure_time":"6:40:00","lat":49.179379,"lon":16.662741,"is_passed":false},{"stop_id":"U1105Z1","name":"Ericha Roučky","arrival_time":"6:42:00","departure_time":"6:42:00","lat":49.174784,"lon":16.66987,"is_passed":false},{"stop_id":"U1064Z1","name":"Černovická terasa I","arrival_time":"6:43:00","departure_time":"6:43:00","lat":49.171172,"lon":16.673495,"is_passed":false},{"stop_id":"U1065Z1","name":"Černovická terasa II","arrival_time":"6:44:00","departure_time":"6:44:00","lat":49.167108,"lon":16.67608,"is_passed":false},{"stop_id":"U1581Z3","name":"Areál Slatina","arrival_time":"6:46:00","departure_time":"7:02:00","lat":49.168533,"lon":16.678786,"is_passed":false}],"52210":[{"stop_id":"U1581Z1","name":"Areál Slatina","arrival_time":"7:02:00","departure_time":"7:02:00","lat":49.168614,"lon":16.67804,"is_passed":false},{"stop_id":"U1065Z2","name":"Černovická terasa II","arrival_time":"7:02:00","departure_time":"7:02:00","lat":49.168348,"lon":16.675307,"is_passed":false},{"stop_id":"U1064Z2","name":"Černovická terasa I","arrival_time":"7:03:00","departure_time":"7:03:00","lat":49.171843,"lon":16.673091,"is_passed":false},{"stop_id":"U1105Z4","name":"Ericha Roučky","arrival_time":"7:05:00","departure_time":"7:05:00","lat":49.175789,"lon":16.668403,"is_passed":false},{"stop_id":"U1739Z2","name":"Vlastimila Pecha","arrival_time":"7:06:00","departure_time":"7:06:00","lat":49.179751,"lon":16.662407,"is_passed":false},{"stop_id":"U1665Z2","name":"Těžební","arrival_time":"7:07:00","departure_time":"7:07:00","lat":49.182639,"lon":16.656437,"is_passed":false},{"stop_id":"U1361Z1","name":"Mariánské náměstí","arrival_time":"7:13:00","departure_time":"7:13:00","lat":49.176433,"lon":16.622739,"is_passed":false},{"stop_id":"U1256Z5","name":"Komárov","arrival_time":"7:15:00","departure_time":"7:15:00","lat":49.174917,"lon":16.621279,"is_passed":false},{"stop_id":"U1156Z1","name":"Horní Heršpice","arrival_time":"7:17:00","departure_time":"7:17:00","lat":49.166342,"lon":16.616562,"is_passed":false},{"stop_id":"U1031Z5","name":"Bohunická","arrival_time":"7:20:00","departure_time":"7:20:00","lat":49.162871,"lon":16.599483,"is_passed":false},{"stop_id":"U1021Z3","name":"Běloruská","arrival_time":"7:23:00","departure_time":"7:23:00","lat":49.170462,"lon":16.581344,"is_passed":false},{"stop_id":"U1168Z1","name":"Humenná","arrival_time":"7:24:00","departure_time":"7:24:00","lat":49.1676,"lon":16.572367,"is_passed":false},{"stop_id":"U1061Z1","name":"Čermákova","arrival_time":"7:26:00","departure_time":"7:26:00","lat":49.164336,"lon":16.565516,"is_passed":false},{"stop_id":"U1097Z5","name":"Dunajská","arrival_time":"7:28:00","departure_time":"7:28:00","lat":49.169618,"lon":16.555308,"is_passed":false},{"stop_id":"U1209Z2","name":"Jírovcova","arrival_time":"7:32:00","departure_time":"7:32:00","lat":49.188255,"lon":16.533803,"is_passed":false},{"stop_id":"U1248Z2","name":"Kohoutovice, hájenka","arrival_time":"7:35:00","departure_time":"7:35:00","lat":49.19656,"lon":16.530778,"is_passed":false},{"stop_id":"U1648Z2","name":"Štouračova","arrival_time":"7:39:00","departure_time":"7:39:00","lat":49.21488,"lon":16.521926,"is_passed":false},{"stop_id":"U1461Z3","name":"Ondrouškova","arrival_time":"7:42:00","departure_time":"7:42:00","lat":49.217721,"lon":16.517208,"is_passed":false},{"stop_id":"U1102Z3","name":"Ečerova","arrival_time":"7:44:00","departure_time":"7:44:00","lat":49.218746,"lon":16.50885,"is_passed":false},{"stop_id":"U1550Z1","name":"Ruda","arrival_time":"7:45:00","departure_time":"7:45:00","lat":49.220738,"lon":16.503998,"is_passed":false},{"stop_id":"U1221Z2","name":"Kamechy","arrival_time":"7:48:00","departure_time":"7:48:00","lat":49.214794,"lon":16.49742,"is_passed":false},{"stop_id":"U1185Z2","name":"Chvalovka","arrival_time":"7:49:00","departure_time":"7:49:00","lat":49.21492,"lon":16.500086,"is_passed":false},{"stop_id":"U1230Z2","name":"Kavčí","arrival_time":"7:50:00","departure_time":"7:50:00","lat":49.216872,"lon":16.500241,"is_passed":false},{"stop_id":"U1559Z2","name":"Říčanská","arrival_time":"7:51:00","departure_time":"7:51:00","lat":49.218456,"lon":16.497582,"is_passed":false}],"52211":[{"stop_id":"U1221Z2","name":"Kamechy","arrival_time":"7:58:00","departure_time":"7:58:00","lat":49.214794,"lon":16.49742,"is_passed":false},{"stop_id":"U1185Z2","name":"Chvalovka","arrival_time":"7:58:00","departure_time":"7:58:00","lat":49.21492,"lon":16.500086,"is_passed":false},{"stop_id":"U1230Z2","name":"Kavčí","arrival_time":"7:59:00","departure_time":"7:59:00","lat":49.216872,"lon":16.500241,"is_passed":false},{"stop_id":"U1559Z2","name":"Říčanská","arrival_time":"8:00:00","departure_time":"8:00:00","lat":49.218456,"lon":16.497582,"is_passed":false},{"stop_id":"U1550Z2","name":"Ruda","arrival_time":"8:01:00","departure_time":"8:01:00","lat":49.220473,"lon":16.502554,"is_passed":false},{"stop_id":"U1102Z4","name":"Ečerova","arrival_time":"8:04:00","departure_time":"8:04:00","lat":49.218044,"lon":16.509781,"is_passed":false},{"stop_id":"U1461Z4","name":"Ondrouškova","arrival_time":"8:05:00","departure_time":"8:05:00","lat":49.217906,"lon":16.518033,"is_passed":false},{"stop_id":"U1004Z1","name":"Adamcova","arrival_time":"8:05:00","departure_time":"8:05:00","lat":49.21825,"lon":16.520013,"is_passed":false},{"stop_id":"U1648Z1","name":"Štouračova","arrival_time":"8:06:00","departure_time":"8:06:00","lat":49.215562,"lon":16.521438,"is_passed":false},{"stop_id":"U1248Z1","name":"Kohoutovice, hájenka","arrival_time":"8:11:00","departure_time":"8:11:00","lat":49.19638,"lon":16.531386,"is_passed":false},{"stop_id":"U1209Z3","name":"Jírovcova","arrival_time":"8:14:00","departure_time":"8:14:00","lat":49.187316,"lon":16.535309,"is_passed":false},{"stop_id":"U1616Z4","name":"Starý Lískovec, smyčka","arrival_time":"8:17:00","departure_time":"8:17:00","lat":49.170615,"lon":16.55427,"is_passed":false},{"stop_id":"U1061Z2","name":"Čermákova","arrival_time":"8:19:00","departure_time":"8:19:00","lat":49.164349,"lon":16.564689,"is_passed":false},{"stop_id":"U1168Z2","name":"Humenná","arrival_time":"8:20:00","departure_time":"8:20:00","lat":49.167953,"lon":16.573664,"is_passed":false},{"stop_id":"U1021Z4","name":"Běloruská","arrival_time":"8:22:00","departure_time":"8:22:00","lat":49.170481,"lon":16.58166,"is_passed":false},{"stop_id":"U1031Z6","name":"Bohunická","arrival_time":"8:25:00","departure_time":"8:25:00","lat":49.162697,"lon":16.600443,"is_passed":false},{"stop_id":"U1156Z2","name":"Horní Heršpice","arrival_time":"8:28:00","departure_time":"8:28:00","lat":49.167029,"lon":16.616537,"is_passed":false},{"stop_id":"U1256Z6","name":"Komárov","arrival_time":"8:30:00","departure_time":"8:30:00","lat":49.174812,"lon":16.620877,"is_passed":false},{"stop_id":"U1361Z2","name":"Mariánské náměstí","arrival_time":"8:32:00","departure_time":"8:32:00","lat":49.176238,"lon":16.622949,"is_passed":false},{"stop_id":"U1455Z1","name":"Olomoucká - u školy","arrival_time":"8:37:00","departure_time":"8:37:00","lat":49.186169,"lon":16.652958,"is_passed":false},{"stop_id":"U1665Z1","name":"Těžební","arrival_time":"8:39:00","departure_time":"8:39:00","lat":49.181966,"lon":16.657236,"is_passed":false},{"stop_id":"U1739Z1","name":"Vlastimila Pecha","arrival_time":"8:40:00","departure_time":"8:40:00","lat":49.179379,"lon":16.662741,"is_passed":false},{"stop_id":"U1105Z1","name":"Ericha Roučky","arrival_time":"8:42:00","departure_time":"8:42:00","lat":49.174784,"lon":16.66987,"is_passed":false},{"stop_id":"U1064Z1","name":"Černovická terasa I","arrival_time":"8:43:00","departure_time":"8:43:00","lat":49.171172,"lon":16.673495,"is_passed":false},{"stop_id":"U1065Z1","name":"Černovická terasa II","arrival_time":"8:44:00","departure_time":"8:44:00","lat":49.167108,"lon":16.67608,"is_passed":false},{"stop_id":"U1581Z3","name":"Areál Slatina","arrival_time":"8:46:00","departure_time":"8:48:00","lat":49.168533,"lon":16.678786,"is_passed":false}],"52212":[{"stop_id":"U1659Z4","name":"Technologický park","arrival_time":"22:40:00","departure_time":"22:40:00","lat":49.231509,"lon":16.576781,"is_passed":false},{"stop_id":"U1664Z2","name":"Technické muzeum","arrival_time":"22:41:00","departure_time":"22:41:00","lat":49.228605,"lon":16.582096,"is_passed":false},{"stop_id":"U1072Z2","name":"Červinkova","arrival_time":"22:42:00","departure_time":"22:42:00","lat":49.224608,"lon":16.583108,"is_passed":false},{"stop_id":"U1567Z2","name":"Skácelova","arrival_time":"22:43:00","departure_time":"22:43:00","lat":49.220665,"lon":16.585771,"is_passed":false},{"stop_id":"U1088Z2","name":"Dobrovského","arrival_time":"22:44:00","departure_time":"22:44:00","lat":49.218351,"lon":16.587423,"is_passed":false},{"stop_id":"U1661Z2","name":"Tererova","arrival_time":"22:44:00","departure_time":"22:44:00","lat":49.215675,"lon":16.589238,"is_passed":false},{"stop_id":"U1242Z2","name":"Klusáčkova","arrival_time":"22:45:00","departure_time":"22:45:00","lat":49.211903,"lon":16.592875,"is_passed":false},{"stop_id":"U1431Z2","name":"Nerudova","arrival_time":"22:46:00","departure_time":"22:46:00","lat":49.205983,"lon":16.595174,"is_passed":false},{"stop_id":"U1262Z2","name":"Konečného náměstí","arrival_time":"22:48:00","departure_time":"22:48:00","lat":49.203961,"lon":16.596051,"is_passed":false},{"stop_id":"U1121Z2","name":"Grohova","arrival_time":"22:49:00","departure_time":"22:49:00","lat":49.201327,"lon":16.59934,"is_passed":false},{"stop_id":"U1073Z3","name":"Česká","arrival_time":"22:51:00","departure_time":"22:51:00","lat":49.197742,"lon":16.605147,"is_passed":false},{"stop_id":"U1637Z1","name":"Šilingrovo náměstí","arrival_time":"22:53:00","departure_time":"22:53:00","lat":49.19171,"lon":16.605355,"is_passed":false},{"stop_id":"U1146Z4","name":"Hlavní nádraží","arrival_time":"22:56:00","departure_time":"23:00:00","lat":49.19125,"lon":16.612674,"is_passed":false},{"stop_id":"U1357Z2","name":"Malinovského náměstí","arrival_time":"23:01:00","departure_time":"23:01:00","lat":49.195034,"lon":16.614825,"is_passed":false},{"stop_id":"U1271Z1","name":"Körnerova","arrival_time":"23:02:00","departure_time":"23:02:00","lat":49.19828,"lon":16.619945,"is_passed":false},{"stop_id":"U1663Z1","name":"Tkalcovská","arrival_time":"23:03:00","departure_time":"23:03:00","lat":49.200261,"lon":16.626109,"is_passed":false},{"stop_id":"U1773Z1","name":"Vojenská nemocnice","arrival_time":"23:04:00","departure_time":"23:04:00","lat":49.202244,"lon":16.629717,"is_passed":false},{"stop_id":"U1313Z1","name":"Kuldova","arrival_time":"23:05:00","departure_time":"23:05:00","lat":49.201297,"lon":16.634306,"is_passed":false},{"stop_id":"U1611Z8","name":"Stará osada","arrival_time":"23:06:00","departure_time":"23:06:00","lat":49.202294,"lon":16.642001,"is_passed":false},{"stop_id":"U1698Z1","name":"Údolíček","arrival_time":"23:07:00","departure_time":"23:07:00","lat":49.206732,"lon":16.644592,"is_passed":false},{"stop_id":"U1002Z1","name":"Akátky","arrival_time":"23:08:00","departure_time":"23:08:00","lat":49.208518,"lon":16.648742,"is_passed":false},{"stop_id":"U1743Z1","name":"Vlčnovská","arrival_time":"23:09:00","departure_time":"23:09:00","lat":49.210995,"lon":16.660327,"is_passed":false},{"stop_id":"U1523Z1","name":"Prušánecká","arrival_time":"23:10:00","departure_time":"23:10:00","lat":49.20827,"lon":16.663465,"is_passed":false},{"stop_id":"U1052Z1","name":"Bzenecká","arrival_time":"23:11:00","departure_time":"23:11:00","lat":49.206117,"lon":16.660595,"is_passed":false},{"stop_id":"U1477Z3","name":"Pálavské náměstí","arrival_time":"23:12:00","departure_time":"23:12:00","lat":49.20612,"lon":16.657683,"is_passed":false},{"stop_id":"U1403Z1","name":"Mutěnická","arrival_time":"23:13:00","departure_time":"23:13:00","lat":49.20299,"lon":16.654796,"is_passed":false},{"stop_id":"U1036Z1","name":"Bořetická","arrival_time":"23:13:00","departure_time":"23:13:00","lat":49.201326,"lon":16.659292,"is_passed":false},{"stop_id":"U1058Z1","name":"Čejkovická","arrival_time":"23:14:00","departure_time":"23:14:00","lat":49.200178,"lon":16.662528,"is_passed":false},{"stop_id":"U1438Z3","name":"Novolíšeňská","arrival_time":"23:15:00","departure_time":"23:15:00","lat":49.201692,"lon":16.670699,"is_passed":false},{"stop_id":"U1012Z1","name":"Bartákova","arrival_time":"23:16:00","departure_time":"23:16:00","lat":49.203714,"lon":16.678742,"is_passed":false},{"stop_id":"U1546Z1","name":"Rotreklova","arrival_time":"23:17:00","departure_time":"23:17:00","lat":49.2066,"lon":16.685331,"is_passed":false},{"stop_id":"U1208Z6","name":"Jírova","arrival_time":"23:19:00","departure_time":"23:35:00","lat":49.209179,"lon":16.688685,"is_passed":false}],"52213":[{"stop_id":"U1208Z3","name":"Jírova","arrival_time":"23:35:00","departure_time":"23:35:00","lat":49.208886,"lon":16.687979,"is_passed":false},{"stop_id":"U1546Z2","name":"Rotreklova","arrival_time":"23:35:00","departure_time":"23:35:00","lat":49.206534,"lon":16.684689,"is_passed":false},{"stop_id":"U1012Z2","name":"Bartákova","arrival_time":"23:36:00","departure_time":"23:36:00","lat":49.204255,"lon":16.679185,"is_passed":false},{"stop_id":"U1438Z4","name":"Novolíšeňská","arrival_time":"23:37:00","departure_time":"23:37:00","lat":49.201792,"lon":16.670352,"is_passed":false},{"stop_id":"U1058Z2","name":"Čejkovická","arrival_time":"23:38:00","departure_time":"23:38:00","lat":49.200493,"lon":16.661793,"is_passed":false},{"stop_id":"U1036Z2","name":"Bořetická","arrival_time":"23:39:00","departure_time":"23:39:00","lat":49.201495,"lon":16.658055,"is_passed":false},{"stop_id":"U1403Z2","name":"Mutěnická","arrival_time":"23:40:00","departure_time":"23:40:00","lat":49.203951,"lon":16.654889,"is_passed":false},{"stop_id":"U1477Z2","name":"Pálavské náměstí","arrival_time":"23:41:00","departure_time":"23:41:00","lat":49.20538,"lon":16.658103,"is_passed":false},{"stop_id":"U1052Z2","name":"Bzenecká","arrival_time":"23:42:00","departure_time":"23:42:00","lat":49.205822,"lon":16.661645,"is_passed":false},{"stop_id":"U1523Z2","name":"Prušánecká","arrival_time":"23:43:00","departure_time":"23:43:00","lat":49.209503,"lon":16.663369,"is_passed":false},{"stop_id":"U1743Z2","name":"Vlčnovská","arrival_time":"23:43:00","departure_time":"23:43:00","lat":49.211166,"lon":16.659638,"is_passed":false},{"stop_id":"U1002Z2","name":"Akátky","arrival_time":"23:44:00","departure_time":"23:44:00","lat":49.208751,"lon":16.648718,"is_passed":false},{"stop_id":"U1698Z2","name":"Údolíček","arrival_time":"23:44:00","departure_time":"23:44:00","lat":49.206553,"lon":16.643865,"is_passed":false},{"stop_id":"U1631Z1","name":"Svatoplukova","arrival_time":"23:45:00","departure_time":"23:45:00","lat":49.2051,"lon":16.641425,"is_passed":false},{"stop_id":"U1611Z6","name":"Stará osada","arrival_time":"23:47:00","departure_time":"23:47:00","lat":49.201731,"lon":16.642184,"is_passed":false},{"stop_id":"U1313Z2","name":"Kuldova","arrival_time":"23:48:00","departure_time":"23:48:00","lat":49.201319,"lon":16.634551,"is_passed":false},{"stop_id":"U1773Z2","name":"Vojenská nemocnice","arrival_time":"23:49:00","departure_time":"23:49:00","lat":49.202306,"lon":16.62966,"is_passed":false},{"stop_id":"U1663Z2","name":"Tkalcovská","arrival_time":"23:50:00","departure_time":"23:50:00","lat":49.199805,"lon":16.625934,"is_passed":false},{"stop_id":"U1271Z2","name":"Körnerova","arrival_time":"23:51:00","departure_time":"23:51:00","lat":49.198152,"lon":16.619504,"is_passed":false},{"stop_id":"U1357Z1","name":"Malinovského náměstí","arrival_time":"23:53:00","departure_time":"23:53:00","lat":49.195492,"lon":16.61386,"is_passed":false},{"stop_id":"U1146Z3","name":"Hlavní nádraží","arrival_time":"23:56:00","departure_time":"24:00:00","lat":49.191063,"lon":16.611972,"is_passed":false},{"stop_id":"U1637Z2","name":"Šilingrovo náměstí","arrival_time":"24:01:00","departure_time":"24:01:00","lat":49.192027,"lon":16.605234,"is_passed":false},{"stop_id":"U1073Z4","name":"Česká","arrival_time":"24:03:00","departure_time":"24:03:00","lat":49.198134,"lon":16.605041,"is_passed":false},{"stop_id":"U1121Z1","name":"Grohova","arrival_time":"24:04:00","departure_time":"24:04:00","lat":49.201153,"lon":16.599729,"is_passed":false},{"stop_id":"U1262Z1","name":"Konečného náměstí","arrival_time":"24:05:00","departure_time":"24:05:00","lat":49.204484,"lon":16.595426,"is_passed":false},{"stop_id":"U1431Z1","name":"Nerudova","arrival_time":"24:06:00","departure_time":"24:06:00","lat":49.206566,"lon":16.595654,"is_passed":false},{"stop_id":"U1242Z1","name":"Klusáčkova","arrival_time":"24:07:00","departure_time":"24:07:00","lat":49.212365,"lon":16.592666,"is_passed":false},{"stop_id":"U1661Z1","name":"Tererova","arrival_time":"24:08:00","departure_time":"24:08:00","lat":49.21589,"lon":16.589173,"is_passed":false},{"stop_id":"U1088Z1","name":"Dobrovského","arrival_time":"24:09:00","departure_time":"24:09:00","lat":49.217769,"lon":16.587876,"is_passed":false},{"stop_id":"U1567Z1","name":"Skácelova","arrival_time":"24:10:00","departure_time":"24:10:00","lat":49.221069,"lon":16.585612,"is_passed":false},{"stop_id":"U1072Z1","name":"Červinkova","arrival_time":"24:11:00","departure_time":"24:11:00","lat":49.22545,"lon":16.582624,"is_passed":false},{"stop_id":"U1664Z1","name":"Technické muzeum","arrival_time":"24:12:00","departure_time":"24:12:00","lat":49.228047,"lon":16.582285,"is_passed":false},{"stop_id":"U1104Z1","name":"Edisonova","arrival_time":"24:13:00","departure_time":"24:13:00","lat":49.22828,"lon":16.576461,"is_passed":false},{"stop_id":"U1252Z2","name":"Kolejní","arrival_time":"24:14:00","departure_time":"24:14:00","lat":49.230641,"lon":16.57191,"is_passed":false},{"stop_id":"U1733Z1","name":"Vědeckotechnický park","arrival_time":"24:15:00","departure_time":"24:15:00","lat":49.2326,"lon":16.574806,"is_passed":false},{"stop_id":"U1659Z3","name":"Technologický park","arrival_time":"24:16:00","departure_time":"24:40:00","lat":49.23192,"lon":16.576848,"is_passed":false}],"52214":[{"stop_id":"U1659Z4","name":"Technologický park","arrival_time":"0:40:00","departure_time":"0:40:00","lat":49.231509,"lon":16.576781,"is_passed":false},{"stop_id":"U1664Z2","name":"Technické muzeum","arrival_time":"0:41:00","departure_time":"0:41:00","lat":49.228605,"lon":16.582096,"is_passed":false},{"stop_id":"U1072Z2","name":"Červinkova","arrival_time":"0:42:00","departure_time":"0:42:00","lat":49.224608,"lon":16.583108,"is_passed":false},{"stop_id":"U1567Z2","name":"Skácelova","arrival_time":"0:43:00","departure_time":"0:43:00","lat":49.220665,"lon":16.585771,"is_passed":false},{"stop_id":"U1088Z2","name":"Dobrovského","arrival_time":"0:44:00","departure_time":"0:44:00","lat":49.218351,"lon":16.587423,"is_passed":false},{"stop_id":"U1661Z2","name":"Tererova","arrival_time":"0:44:00","departure_time":"0:44:00","lat":49.215675,"lon":16.589238,"is_passed":false},{"stop_id":"U1242Z2","name":"Klusáčkova","arrival_time":"0:45:00","departure_time":"0:45:00","lat":49.211903,"lon":16.592875,"is_passed":false},{"stop_id":"U1431Z2","name":"Nerudova","arrival_time":"0:46:00","departure_time":"0:46:00","lat":49.205983,"lon":16.595174,"is_passed":false},{"stop_id":"U1262Z2","name":"Konečného náměstí","arrival_time":"0:48:00","departure_time":"0:48:00","lat":49.203961,"lon":16.596051,"is_passed":false},{"stop_id":"U1121Z2","name":"Grohova","arrival_time":"0:49:00","departure_time":"0:49:00","lat":49.201327,"lon":16.59934,"is_passed":false},{"stop_id":"U1073Z3","name":"Česká","arrival_time":"0:51:00","departure_time":"0:51:00","lat":49.197742,"lon":16.605147,"is_passed":false},{"stop_id":"U1637Z1","name":"Šilingrovo náměstí","arrival_time":"0:53:00","departure_time":"0:53:00","lat":49.19171,"lon":16.605355,"is_passed":false},{"stop_id":"U1146Z4","name":"Hlavní nádraží","arrival_time":"0:56:00","departure_time":"1:00:00","lat":49.19125,"lon":16.612674,"is_passed":false},{"stop_id":"U1357Z2","name":"Malinovského náměstí","arrival_time":"1:01:00","departure_time":"1:01:00","lat":49.195034,"lon":16.614825,"is_passed":false},{"stop_id":"U1271Z1","name":"Körnerova","arrival_time":"1:02:00","departure_time":"1:02:00","lat":49.19828,"lon":16.619945,"is_passed":false},{"stop_id":"U1663Z1","name":"Tkalcovská","arrival_time":"1:03:00","departure_time":"1:03:00","lat":49.200261,"lon":16.626109,"is_passed":false},{"stop_id":"U1773Z1","name":"Vojenská nemocnice","arrival_time":"1:04:00","departure_time":"1:04:00","lat":49.202244,"lon":16.629717,"is_passed":false},{"stop_id":"U1313Z1","name":"Kuldova","arrival_time":"1:05:00","departure_time":"1:05:00","lat":49.201297,"lon":16.634306,"is_passed":false},{"stop_id":"U1611Z8","name":"Stará osada","arrival_time":"1:06:00","departure_time":"1:06:00","lat":49.202294,"lon":16.642001,"is_passed":false},{"stop_id":"U1698Z1","name":"Údolíček","arrival_time":"1:07:00","departure_time":"1:07:00","lat":49.206732,"lon":16.644592,"is_passed":false},{"stop_id":"U1002Z1","name":"Akátky","arrival_time":"1:08:00","departure_time":"1:08:00","lat":49.208518,"lon":16.648742,"is_passed":false},{"stop_id":"U1743Z1","name":"Vlčnovská","arrival_time":"1:09:00","departure_time":"1:09:00","lat":49.210995,"lon":16.660327,"is_passed":false},{"stop_id":"U1523Z1","name":"Prušánecká","arrival_time":"1:10:00","departure_time":"1:10:00","lat":49.20827,"lon":16.663465,"is_passed":false},{"stop_id":"U1052Z1","name":"Bzenecká","arrival_time":"1:11:00","departure_time":"1:11:00","lat":49.206117,"lon":16.660595,"is_passed":false},{"stop_id":"U1477Z3","name":"Pálavské náměstí","arrival_time":"1:12:00","departure_time":"1:12:00","lat":49.20612,"lon":16.657683,"is_passed":false},{"stop_id":"U1403Z1","name":"Mutěnická","arrival_time":"1:13:00","departure_time":"1:13:00","lat":49.20299,"lon":16.654796,"is_passed":false},{"stop_id":"U1036Z1","name":"Bořetická","arrival_time":"1:13:00","departure_time":"1:13:00","lat":49.201326,"lon":16.659292,"is_passed":false},{"stop_id":"U1058Z1","name":"Čejkovická","arrival_time":"1:14:00","departure_time":"1:14:00","lat":49.200178,"lon":16.662528,"is_passed":false},{"stop_id":"U1438Z3","name":"Novolíšeňská","arrival_time":"1:15:00","departure_time":"1:15:00","lat":49.201692,"lon":16.670699,"is_passed":false},{"stop_id":"U1012Z1","name":"Bartákova","arrival_time":"1:16:00","departure_time":"1:16:00","lat":49.203714,"lon":16.678742,"is_passed":false},{"stop_id":"U1546Z1","name":"Rotreklova","arrival_time":"1:17:00","departure_time":"1:17:00","lat":49.2066,"lon":16.685331,"is_passed":false},{"stop_id":"U1208Z6","name":"Jírova","arrival_time":"1:19:00","departure_time":"1:35:00","lat":49.209179,"lon":16.688685,"is_passed":false}],"52215":[{"stop_id":"U1208Z3","name":"Jírova","arrival_time":"1:35:00","departure_time":"1:35:00","lat":49.208886,"lon":16.687979,"is_passed":false},{"stop_id":"U1546Z2","name":"Rotreklova","arrival_time":"1:35:00","departure_time":"1:35:00","lat":49.206534,"lon":16.684689,"is_passed":false},{"stop_id":"U1012Z2","name":"Bartákova","arrival_time":"1:36:00","departure_time":"1:36:00","lat":49.204255,"lon":16.679185,"is_passed":false},{"stop_id":"U1438Z4","name":"Novolíšeňská","arrival_time":"1:37:00","departure_time":"1:37:00","lat":49.201792,"lon":16.670352,"is_passed":false},{"stop_id":"U1058Z2","name":"Čejkovická","arrival_time":"1:38:00","departure_time":"1:38:00","lat":49.200493,"lon":16.661793,"is_passed":false},{"stop_id":"U1036Z2","name":"Bořetická","arrival_time":"1:39:00","departure_time":"1:39:00","lat":49.201495,"lon":16.658055,"is_passed":false},{"stop_id":"U1403Z2","name":"Mutěnická","arrival_time":"1:40:00","departure_time":"1:40:00","lat":49.203951,"lon":16.654889,"is_passed":false},{"stop_id":"U1477Z2","name":"Pálavské náměstí","arrival_time":"1:41:00","departure_time":"1:41:00","lat":49.20538,"lon":16.658103,"is_passed":false},{"stop_id":"U1052Z2","name":"Bzenecká","arrival_time":"1:42:00","departure_time":"1:42:00","lat":49.205822,"lon":16.661645,"is_passed":false},{"stop_id":"U1523Z2","name":"Prušánecká","arrival_time":"1:43:00","departure_time":"1:43:00","lat":49.209503,"lon":16.663369,"is_passed":false},{"stop_id":"U1743Z2","name":"Vlčnovská","arrival_time":"1:43:00","departure_time":"1:43:00","lat":49.211166,"lon":16.659638,"is_passed":false},{"stop_id":"U1002Z2","name":"Akátky","arrival_time":"1:44:00","departure_time":"1:44:00","lat":49.208751,"lon":16.648718,"is_passed":false},{"stop_id":"U1698Z2","name":"Údolíček","arrival_time":"1:44:00","departure_time":"1:44:00","lat":49.206553,"lon":16.643865,"is_passed":false},{"stop_id":"U1631Z1","name":"Svatoplukova","arrival_time":"1:45:00","departure_time":"1:45:00","lat":49.2051,"lon":16.641425,"is_passed":false},{"stop_id":"U1611Z6","name":"Stará osada","arrival_time":"1:47:00","departure_time":"1:47:00","lat":49.201731,"lon":16.642184,"is_passed":false},{"stop_id":"U1313Z2","name":"Kuldova","arrival_time":"1:48:00","departure_time":"1:48:00","lat":49.201319,"lon":16.634551,"is_passed":false},{"stop_id":"U1773Z2","name":"Vojenská nemocnice","arrival_time":"1:49:00","departure_time":"1:49:00","lat":49.202306,"lon":16.62966,"is_passed":false},{"stop_id":"U1663Z2","name":"Tkalcovská","arrival_time":"1:50:00","departure_time":"1:50:00","lat":49.199805,"lon":16.625934,"is_passed":false},{"stop_id":"U1271Z2","name":"Körnerova","arrival_time":"1:51:00","departure_time":"1:51:00","lat":49.198152,"lon":16.619504,"is_passed":false},{"stop_id":"U1357Z1","name":"Malinovského náměstí","arrival_time":"1:53:00","departure_time":"1:53:00","lat":49.195492,"lon":16.61386,"is_passed":false},{"stop_id":"U1146Z3","name":"Hlavní nádraží","arrival_time":"1:56:00","departure_time":"2:00:00","lat":49.191063,"lon":16.611972,"is_passed":false},{"stop_id":"U1637Z2","name":"Šilingrovo náměstí","arrival_time":"2:01:00","departure_time":"2:01:00","lat":49.192027,"lon":16.605234,"is_passed":false},{"stop_id":"U1073Z4","name":"Česká","arrival_time":"2:03:00","departure_time":"2:03:00","lat":49.198134,"lon":16.605041,"is_passed":false},{"stop_id":"U1121Z1","name":"Grohova","arrival_time":"2:04:00","departure_time":"2:04:00","lat":49.201153,"lon":16.599729,"is_passed":false},{"stop_id":"U1262Z1","name":"Konečného náměstí","arrival_time":"2:05:00","departure_time":"2:05:00","lat":49.204484,"lon":16.595426,"is_passed":false},{"stop_id":"U1431Z1","name":"Nerudova","arrival_time":"2:06:00","departure_time":"2:06:00","lat":49.206566,"lon":16.595654,"is_passed":false},{"stop_id":"U1242Z1","name":"Klusáčkova","arrival_time":"2:07:00","departure_time":"2:07:00","lat":49.212365,"lon":16.592666,"is_passed":false},{"stop_id":"U1661Z1","name":"Tererova","arrival_time":"2:08:00","departure_time":"2:08:00","lat":49.21589,"lon":16.589173,"is_passed":false},{"stop_id":"U1088Z1","name":"Dobrovského","arrival_time":"2:09:00","departure_time":"2:09:00","lat":49.217769,"lon":16.587876,"is_passed":false},{"stop_id":"U1567Z1","name":"Skácelova","arrival_time":"2:10:00","departure_time":"2:10:00","lat":49.221069,"lon":16.585612,"is_passed":false},{"stop_id":"U1072Z1","name":"Červinkova","arrival_time":"2:11:00","departure_time":"2:11:00","lat":49.22545,"lon":16.582624,"is_passed":false},{"stop_id":"U1664Z1","name":"Technické muzeum","arrival_time":"2:12:00","departure_time":"2:12:00","lat":49.228047,"lon":16.582285,"is_passed":false},{"stop_id":"U1104Z1","name":"Edisonova","arrival_time":"2:13:00","departure_time":"2:13:00","lat":49.22828,"lon":16.576461,"is_passed":false},{"stop_id":"U1252Z2","name":"Kolejní","arrival_time":"2:14:00","departure_time":"2:14:00","lat":49.230641,"lon":16.57191,"is_passed":false},{"stop_id":"U1733Z1","name":"Vědeckotechnický park","arrival_time":"2:15:00","departure_time":"2:15:00","lat":49.2326,"lon":16.574806,"is_passed":false},{"stop_id":"U1659Z3","name":"Technologický park","arrival_time":"2:16:00","departure_time":"3:45:00","lat":49.23192,"lon":16.576848,"is_passed":false}],"52216":[{"stop_id":"U1223Z2","name":"Kamenný vrch","arrival_time":"4:08:00","departure_time":"4:08:00","lat":49.179747,"lon":16.547764,"is_passed":false},{"stop_id":"U1443Z2","name":"Oblá","arrival_time":"4:09:00","departure_time":"4:09:00","lat":49.177425,"lon":16.552647,"is_passed":false},{"stop_id":"U1263Z2","name":"Koniklecová","arrival_time":"4:10:00","departure_time":"4:10:00","lat":49.176417,"lon":16.559347,"is_passed":false},{"stop_id":"U1078Z1","name":"Čtvrtě","arrival_time":"4:11:00","departure_time":"4:11:00","lat":49.178814,"lon":16.56227,"is_passed":false},{"stop_id":"U1532Z1","name":"Raisova","arrival_time":"4:11:00","departure_time":"4:11:00","lat":49.182247,"lon":16.562612,"is_passed":false},{"stop_id":"U1241Z1","name":"Kluchova","arrival_time":"4:12:00","departure_time":"4:12:00","lat":49.183183,"lon":16.563258,"is_passed":false},{"stop_id":"U1332Z1","name":"Lesní","arrival_time":"4:12:00","departure_time":"4:12:00","lat":49.185631,"lon":16.564655,"is_passed":false},{"stop_id":"U1007Z4","name":"Anthropos","arrival_time":"4:14:00","departure_time":"4:14:00","lat":49.193356,"lon":16.56677,"is_passed":false},{"stop_id":"U1487Z6","name":"Pisárky","arrival_time":"4:15:00","departure_time":"4:15:00","lat":49.193537,"lon":16.570797,"is_passed":false},{"stop_id":"U1320Z2","name":"Květná","arrival_time":"4:16:00","departure_time":"4:16:00","lat":49.193384,"lon":16.576691,"is_passed":false},{"stop_id":"U1478Z4","name":"Pavlíkova","arrival_time":"4:16:00","departure_time":"4:16:00","lat":49.194603,"lon":16.584264,"is_passed":false},{"stop_id":"U1723Z2","name":"Vaňkovo náměstí","arrival_time":"4:17:00","departure_time":"4:17:00","lat":49.194962,"lon":16.586678,"is_passed":false},{"stop_id":"U1816Z2","name":"Žlutý kopec","arrival_time":"4:17:00","departure_time":"4:17:00","lat":49.195368,"lon":16.588271,"is_passed":false},{"stop_id":"U1682Z2","name":"Tvrdého","arrival_time":"4:18:00","departure_time":"4:18:00","lat":49.196917,"lon":16.592895,"is_passed":false},{"stop_id":"U1712Z4","name":"Úvoz","arrival_time":"4:19:00","departure_time":"4:19:00","lat":49.198264,"lon":16.59531,"is_passed":false},{"stop_id":"U1442Z2","name":"Obilní trh","arrival_time":"4:19:00","departure_time":"4:19:00","lat":49.198022,"lon":16.598215,"is_passed":false},{"stop_id":"U1257Z2","name":"Komenského náměstí","arrival_time":"4:20:00","departure_time":"4:20:00","lat":49.197135,"lon":16.602612,"is_passed":false},{"stop_id":"U1073Z2","name":"Česká","arrival_time":"4:21:00","departure_time":"4:21:00","lat":49.197702,"lon":16.606463,"is_passed":false},{"stop_id":"U1357Z4","name":"Malinovského náměstí","arrival_time":"4:23:00","departure_time":"4:23:00","lat":49.195612,"lon":16.613248,"is_passed":false},{"stop_id":"U1146Z11","name":"Hlavní nádraží","arrival_time":"4:25:00","departure_time":"4:30:00","lat":49.191728,"lon":16.613768,"is_passed":false},{"stop_id":"U1716Z1","name":"Úzká","arrival_time":"4:31:00","departure_time":"4:31:00","lat":49.189807,"lon":16.614666,"is_passed":false},{"stop_id":"U1011Z1","name":"Autobusové nádraží","arrival_time":"4:32:00","departure_time":"4:32:00","lat":49.185873,"lon":16.61787,"is_passed":false},{"stop_id":"U1807Z1","name":"Železniční","arrival_time":"4:32:00","departure_time":"4:32:00","lat":49.18274,"lon":16.619609,"is_passed":false},{"stop_id":"U1266Z3","name":"Konopná","arrival_time":"4:33:00","departure_time":"4:33:00","lat":49.180126,"lon":16.621339,"is_passed":false},{"stop_id":"U1256Z3","name":"Komárov","arrival_time":"4:35:00","departure_time":"4:35:00","lat":49.17444,"lon":16.622448,"is_passed":false},{"stop_id":"U1148Z1","name":"Hněvkovského","arrival_time":"4:36:00","departure_time":"4:36:00","lat":49.169807,"lon":16.625991,"is_passed":false},{"stop_id":"U1533Z1","name":"Ráječek","arrival_time":"4:37:00","departure_time":"4:37:00","lat":49.160802,"lon":16.638242,"is_passed":false},{"stop_id":"U1511Z1","name":"Popelova","arrival_time":"4:38:00","departure_time":"4:38:00","lat":49.156621,"lon":16.646516,"is_passed":false},{"stop_id":"U1518Z1","name":"Prodloužená","arrival_time":"4:39:00","departure_time":"4:39:00","lat":49.151349,"lon":16.647722,"is_passed":false},{"stop_id":"U1717Z1","name":"V aleji","arrival_time":"4:40:00","departure_time":"4:40:00","lat":49.147687,"lon":16.648637,"is_passed":false},{"stop_id":"U1151Z1","name":"Holásky","arrival_time":"4:41:00","departure_time":"4:41:00","lat":49.143624,"lon":16.650395,"is_passed":false},{"stop_id":"U1543Z1","name":"Rolencova","arrival_time":"4:42:00","departure_time":"4:42:00","lat":49.145069,"lon":16.655039,"is_passed":false},{"stop_id":"U1154Z2","name":"Holásecká","arrival_time":"4:43:00","departure_time":"4:43:00","lat":49.147689,"lon":16.661673,"is_passed":false},{"stop_id":"U1131Z1","name":"Hanácká","arrival_time":"4:45:00","departure_time":"4:45:00","lat":49.146954,"lon":16.667509,"is_passed":false},{"stop_id":"U1186Z1","name":"Chrlická","arrival_time":"4:46:00","departure_time":"4:46:00","lat":49.144276,"lon":16.66513,"is_passed":false},{"stop_id":"U1693Z1","name":"U viaduktu","arrival_time":"4:47:00","departure_time":"4:47:00","lat":49.13875,"lon":16.659846,"is_passed":false},{"stop_id":"U1187Z1","name":"Chrlické náměstí","arrival_time":"4:48:00","departure_time":"4:48:00","lat":49.135283,"lon":16.653902,"is_passed":false},{"stop_id":"U1183Z1","name":"Chrlice, nádraží","arrival_time":"4:49:00","departure_time":"4:49:00","lat":49.131712,"lon":16.656596,"is_passed":false},{"stop_id":"U1182Z4","name":"Chrlice, smyčka","arrival_time":"4:50:00","departure_time":"4:50:00","lat":49.126443,"lon":16.654784,"is_passed":false},{"stop_id":"U1547Z1","name":"Roviny","arrival_time":"4:53:00","departure_time":"4:53:00","lat":49.127938,"lon":16.681267,"is_passed":false},{"stop_id":"U1671Z1","name":"Tovární","arrival_time":"4:54:00","departure_time":"4:54:00","lat":49.133433,"lon":16.673552,"is_passed":false}],"52217":[{"stop_id":"U1671Z2","name":"Tovární","arrival_time":"5:20:00","departure_time":"5:20:00","lat":49.133229,"lon":16.673675,"is_passed":false},{"stop_id":"U1547Z2","name":"Roviny","arrival_time":"5:21:00","departure_time":"5:21:00","lat":49.127754,"lon":16.681482,"is_passed":false},{"stop_id":"U1592Z2","name":"Sokolnická","arrival_time":"5:22:00","departure_time":"5:22:00","lat":49.131516,"lon":16.683589,"is_passed":false},{"stop_id":"U1681Z4","name":"Tuřany, smyčka","arrival_time":"5:24:00","departure_time":"5:24:00","lat":49.142326,"lon":16.666375,"is_passed":false},{"stop_id":"U1186Z2","name":"Chrlická","arrival_time":"5:25:00","departure_time":"5:25:00","lat":49.143983,"lon":16.665097,"is_passed":false},{"stop_id":"U1131Z2","name":"Hanácká","arrival_time":"5:26:00","departure_time":"5:26:00","lat":49.146706,"lon":16.667371,"is_passed":false},{"stop_id":"U1538Z2","name":"Revoluční","arrival_time":"5:27:00","departure_time":"5:27:00","lat":49.150097,"lon":16.661811,"is_passed":false},{"stop_id":"U1118Z2","name":"Glocova","arrival_time":"5:28:00","departure_time":"5:28:00","lat":49.151351,"lon":16.659085,"is_passed":false},