[{"stop_id":"U14543Z5","name":"Hostěradice, náměstí","arrival_time":"17:26:00","departure_time":"17:26:00","lat":48.950642,"lon":16.259606,"is_passed":false},{"stop_id":"U14542Z1","name":"Hostěradice, lom","arrival_time":"17:27:00","departure_time":"17:27:00","lat":48.94687,"lon":16.265652,"is_passed":false},{"stop_id":"U18216Z1","name":"Oleksovice, hostinec","arrival_time":"17:36:00","departure_time":"17:36:00","lat":48.901862,"lon":16.25005,"is_passed":false},{"stop_id":"U18218Z1","name":"Oleksovice, u potoka","arrival_time":"17:37:00","departure_time":"17:37:00","lat":48.904674,"lon":16.243663,"is_passed":false},{"stop_id":"U18224Z1","name":"Vítonice","arrival_time":"17:44:00","departure_time":"17:44:00","lat":48.916498,"lon":16.20106,"is_passed":false},{"stop_id":"U18219Z1","name":"Prosiměřice, hostinec","arrival_time":"17:47:00","departure_time":"17:47:00","lat":48.902423,"lon":16.192625,"is_passed":false},{"stop_id":"U18223Z2","name":"Stošíkovice na Louce, rozcestí","arrival_time":"17:49:00","departure_time":"17:49:00","lat":48.889731,"lon":16.196426,"is_passed":false},{"stop_id":"U18117Z2","name":"Bantice","arrival_time":"17:52:00","departure_time":"17:52:00","lat":48.88313,"lon":16.184438,"is_passed":false},{"stop_id":"U18135Z1","name":"Těšetice, na hlavní","arrival_time":"17:55:00","departure_time":"17:55:00","lat":48.887956,"lon":16.157624,"is_passed":false},{"stop_id":"U18116Z1","name":"Suchohrdly, Purkrábka","arrival_time":"18:00:00","departure_time":"18:00:00","lat":48.868878,"lon":16.106653,"is_passed":false},{"stop_id":"U18115Z1","name":"Suchohrdly, kurty","arrival_time":"18:02:00","departure_time":"18:02:00","lat":48.868297,"lon":16.096222,"is_passed":false},{"stop_id":"U18110Z2","name":"Suchohrdly, prodejna","arrival_time":"18:03:00","departure_time":"18:03:00","lat":48.866425,"lon":16.089202,"is_passed":false},{"stop_id":"U18002Z2","name":"Znojmo, Suchohrdelská, hřbitov","arrival_time":"18:06:00","departure_time":"18:06:00","lat":48.857448,"lon":16.066435,"is_passed":false},{"stop_id":"U18009Z51","name":"Znojmo, autobusové nádraží","arrival_time":"18:08:00","departure_time":"18:08:00","lat":48.851908,"lon":16.056983,"is_passed":false}]