[{"stop_id":"U1703Z7","name":"Ústřední hřbitov","arrival_time":"5:55:00","departure_time":"5:55:00","lat":49.170741,"lon":16.597834,"is_passed":false},{"stop_id":"U1293Z5","name":"Krematorium","arrival_time":"5:56:00","departure_time":"5:56:00","lat":49.172914,"lon":16.590082,"is_passed":false},{"stop_id":"U1714Z3","name":"Uzbecká","arrival_time":"5:57:00","departure_time":"5:57:00","lat":49.173362,"lon":16.581961,"is_passed":false},{"stop_id":"U1610Z1","name":"Stará nemocnice","arrival_time":"5:58:00","departure_time":"5:58:00","lat":49.173643,"lon":16.577115,"is_passed":false},{"stop_id":"U1429Z4","name":"Nemocnice Bohunice","arrival_time":"6:00:00","departure_time":"6:02:00","lat":49.176125,"lon":16.567246,"is_passed":false}]