[{"stop_id":"U1071Z2","name":"Červený písek","arrival_time":"22:30:00","departure_time":"22:30:00","lat":49.220452,"lon":16.657444,"is_passed":false},{"stop_id":"U1503Z3","name":"Podzimní","arrival_time":"22:30:00","departure_time":"22:30:00","lat":49.22165,"lon":16.652917,"is_passed":false},{"stop_id":"U1197Z3","name":"Jarní ČD","arrival_time":"22:31:00","departure_time":"22:31:00","lat":49.22026,"lon":16.652902,"is_passed":false},{"stop_id":"U1808Z2","name":"Železniční stavitelství","arrival_time":"22:32:00","departure_time":"22:32:00","lat":49.216798,"lon":16.654101,"is_passed":false},{"stop_id":"U1791Z1","name":"Zimní I","arrival_time":"22:33:00","departure_time":"22:33:00","lat":49.213186,"lon":16.658794,"is_passed":false},{"stop_id":"U1792Z1","name":"Zimní II","arrival_time":"22:34:00","departure_time":"22:34:00","lat":49.213409,"lon":16.655937,"is_passed":false},{"stop_id":"U1083Z2","name":"Depo ČD","arrival_time":"22:35:00","departure_time":"22:35:00","lat":49.214319,"lon":16.652131,"is_passed":false},{"stop_id":"U1316Z2","name":"Kulkova","arrival_time":"22:35:00","departure_time":"22:35:00","lat":49.211681,"lon":16.648344,"is_passed":false},{"stop_id":"U1498Z2","name":"Podsednická","arrival_time":"22:36:00","departure_time":"22:36:00","lat":49.209601,"lon":16.645873,"is_passed":false},{"stop_id":"U1698Z2","name":"Údolíček","arrival_time":"22:36:00","departure_time":"22:36:00","lat":49.206553,"lon":16.643865,"is_passed":false},{"stop_id":"U1631Z1","name":"Svatoplukova","arrival_time":"22:37:00","departure_time":"22:37:00","lat":49.2051,"lon":16.641425,"is_passed":false},{"stop_id":"U1611Z9","name":"Stará osada","arrival_time":"22:39:00","departure_time":"22:42:00","lat":49.202037,"lon":16.641659,"is_passed":false},{"stop_id":"U1313Z2","name":"Kuldova","arrival_time":"22:43:00","departure_time":"22:43:00","lat":49.201319,"lon":16.634551,"is_passed":false},{"stop_id":"U1669Z1","name":"Tomáškova","arrival_time":"22:44:00","departure_time":"22:44:00","lat":49.198844,"lon":16.631798,"is_passed":false},{"stop_id":"U1713Z1","name":"Uzavřená","arrival_time":"22:45:00","departure_time":"22:45:00","lat":49.196566,"lon":16.633434,"is_passed":false},{"stop_id":"U1203Z1","name":"Jílkova","arrival_time":"22:46:00","departure_time":"22:46:00","lat":49.195907,"lon":16.637881,"is_passed":false},{"stop_id":"U1116Z2","name":"Geislerova","arrival_time":"22:47:00","departure_time":"22:47:00","lat":49.192754,"lon":16.634757,"is_passed":false},{"stop_id":"U1814Z6","name":"Životského","arrival_time":"22:48:00","departure_time":"22:48:00","lat":49.190736,"lon":16.63382,"is_passed":false},{"stop_id":"U1372Z6","name":"Masná","arrival_time":"22:50:00","departure_time":"22:50:00","lat":49.190905,"lon":16.626023,"is_passed":false},{"stop_id":"U1144Z3","name":"Hladíkova","arrival_time":"22:51:00","departure_time":"22:51:00","lat":49.186729,"lon":16.626124,"is_passed":false},{"stop_id":"U1639Z1","name":"Škrobárenská","arrival_time":"22:52:00","departure_time":"22:52:00","lat":49.182466,"lon":16.626261,"is_passed":false},{"stop_id":"U1266Z3","name":"Konopná","arrival_time":"22:54:00","departure_time":"22:54:00","lat":49.180126,"lon":16.621339,"is_passed":false},{"stop_id":"U1361Z2","name":"Mariánské náměstí","arrival_time":"22:56:00","departure_time":"22:58:00","lat":49.176238,"lon":16.622949,"is_passed":false}]