[{"stop_id":"U1371Z3","name":"Náměstí Míru","arrival_time":"9:09:00","departure_time":"9:09:00","lat":49.201996,"lon":16.581664,"is_passed":false},{"stop_id":"U1279Z1","name":"Kounicovy koleje","arrival_time":"9:10:00","departure_time":"9:10:00","lat":49.207874,"lon":16.583463,"is_passed":false},{"stop_id":"U1657Z6","name":"Tábor","arrival_time":"9:11:00","departure_time":"9:11:00","lat":49.210122,"lon":16.587633,"is_passed":false},{"stop_id":"U1242Z1","name":"Klusáčkova","arrival_time":"9:13:00","departure_time":"9:13:00","lat":49.212365,"lon":16.592666,"is_passed":false},{"stop_id":"U1643Z2","name":"Štefánikova","arrival_time":"9:15:00","departure_time":"9:15:00","lat":49.21528,"lon":16.599053,"is_passed":false},{"stop_id":"U1535Z4","name":"Reissigova","arrival_time":"9:16:00","departure_time":"9:16:00","lat":49.21637,"lon":16.60365,"is_passed":false},{"stop_id":"U1415Z2","name":"NC Královo Pole","arrival_time":"9:18:00","departure_time":"9:22:00","lat":49.217553,"lon":16.607232,"is_passed":false}]