[{"stop_id":"U1037Z2","name":"Bosonohy","arrival_time":"18:32:00","departure_time":"18:32:00","lat":49.176372,"lon":16.525514,"is_passed":false},{"stop_id":"U1161Z2","name":"Hoštická","arrival_time":"18:33:00","departure_time":"18:33:00","lat":49.173917,"lon":16.527822,"is_passed":false},{"stop_id":"U1516Z1","name":"Pražská","arrival_time":"18:34:00","departure_time":"18:34:00","lat":49.173478,"lon":16.531543,"is_passed":false},{"stop_id":"U1568Z2","name":"Skalní","arrival_time":"18:35:00","departure_time":"18:35:00","lat":49.174201,"lon":16.537903,"is_passed":false},{"stop_id":"U1202Z2","name":"Jemelkova","arrival_time":"18:36:00","departure_time":"18:36:00","lat":49.173163,"lon":16.54872,"is_passed":false},{"stop_id":"U1616Z4","name":"Starý Lískovec, smyčka","arrival_time":"18:38:00","departure_time":"18:38:00","lat":49.170615,"lon":16.55427,"is_passed":false},{"stop_id":"U1687Z2","name":"U hřiště","arrival_time":"18:39:00","departure_time":"18:39:00","lat":49.165806,"lon":16.558562,"is_passed":false},{"stop_id":"U1666Z2","name":"Točná","arrival_time":"18:40:00","departure_time":"18:40:00","lat":49.164745,"lon":16.561481,"is_passed":false},{"stop_id":"U1061Z2","name":"Čermákova","arrival_time":"18:41:00","departure_time":"18:41:00","lat":49.164349,"lon":16.564689,"is_passed":false},{"stop_id":"U1627Z2","name":"Svah","arrival_time":"18:41:00","departure_time":"18:41:00","lat":49.164924,"lon":16.567717,"is_passed":false},{"stop_id":"U1273Z1","name":"Kosmonautů","arrival_time":"18:42:00","departure_time":"18:42:00","lat":49.167006,"lon":16.568017,"is_passed":false},{"stop_id":"U1472Z7","name":"Osová","arrival_time":"18:43:00","departure_time":"18:43:00","lat":49.168951,"lon":16.566714,"is_passed":false},{"stop_id":"U1492Z1","name":"Pod nemocnicí","arrival_time":"18:44:00","departure_time":"18:44:00","lat":49.172412,"lon":16.569624,"is_passed":false},{"stop_id":"U1429Z4","name":"Nemocnice Bohunice","arrival_time":"18:46:00","departure_time":"18:46:00","lat":49.176125,"lon":16.567246,"is_passed":false},{"stop_id":"U1610Z2","name":"Stará nemocnice","arrival_time":"18:49:00","departure_time":"18:49:00","lat":49.173436,"lon":16.577787,"is_passed":false},{"stop_id":"U1293Z6","name":"Krematorium","arrival_time":"18:50:00","departure_time":"18:50:00","lat":49.172826,"lon":16.590375,"is_passed":false},{"stop_id":"U1703Z6","name":"Ústřední hřbitov","arrival_time":"18:52:00","departure_time":"18:52:00","lat":49.170744,"lon":16.597612,"is_passed":false}]