[{"stop_id":"U1213Z2","name":"Jundrov","arrival_time":"4:58:00","departure_time":"4:58:00","lat":49.211666,"lon":16.550607,"is_passed":false},{"stop_id":"U1462Z2","name":"Optátova","arrival_time":"4:59:00","departure_time":"4:59:00","lat":49.208867,"lon":16.555614,"is_passed":false},{"stop_id":"U1214Z1","name":"Jundrovský most","arrival_time":"4:59:00","departure_time":"4:59:00","lat":49.209437,"lon":16.556755,"is_passed":false},{"stop_id":"U1217Z4","name":"Vozovna Komín","arrival_time":"5:00:00","departure_time":"5:00:00","lat":49.213659,"lon":16.559498,"is_passed":false},{"stop_id":"U1143Z2","name":"Hlavní","arrival_time":"5:01:00","departure_time":"5:01:00","lat":49.21715,"lon":16.560506,"is_passed":false},{"stop_id":"U1651Z2","name":"Štursova","arrival_time":"5:02:00","departure_time":"5:02:00","lat":49.215854,"lon":16.564522,"is_passed":false},{"stop_id":"U1544Z4","name":"Rosického náměstí","arrival_time":"5:03:00","departure_time":"5:03:00","lat":49.214881,"lon":16.568314,"is_passed":false},{"stop_id":"U1528Z4","name":"Přívrat","arrival_time":"5:04:00","departure_time":"5:04:00","lat":49.218647,"lon":16.574085,"is_passed":false},{"stop_id":"U1777Z2","name":"Záhřebská","arrival_time":"5:05:00","departure_time":"5:05:00","lat":49.219845,"lon":16.580415,"is_passed":false},{"stop_id":"U1567Z6","name":"Skácelova","arrival_time":"5:07:00","departure_time":"5:07:00","lat":49.22163,"lon":16.585935,"is_passed":false},{"stop_id":"U1586Z4","name":"Slovanské náměstí","arrival_time":"5:08:00","departure_time":"5:08:00","lat":49.222774,"lon":16.591332,"is_passed":false},{"stop_id":"U1181Z2","name":"Charvatská","arrival_time":"5:09:00","departure_time":"5:09:00","lat":49.219543,"lon":16.592241,"is_passed":false},{"stop_id":"U1643Z2","name":"Štefánikova","arrival_time":"5:11:00","departure_time":"5:11:00","lat":49.21528,"lon":16.599053,"is_passed":false},{"stop_id":"U1535Z2","name":"Reissigova","arrival_time":"5:12:00","departure_time":"5:12:00","lat":49.215925,"lon":16.604659,"is_passed":false},{"stop_id":"U1602Z2","name":"Sportovní","arrival_time":"5:13:00","departure_time":"5:13:00","lat":49.212001,"lon":16.607125,"is_passed":false},{"stop_id":"U1793Z4","name":"Za Lužánkami","arrival_time":"5:14:00","departure_time":"5:14:00","lat":49.208864,"lon":16.609536,"is_passed":false},{"stop_id":"U1177Z2","name":"Schodová","arrival_time":"5:15:00","departure_time":"5:15:00","lat":49.206474,"lon":16.612255,"is_passed":false},{"stop_id":"U1418Z4","name":"Náměstí 28. října","arrival_time":"5:16:00","departure_time":"5:16:00","lat":49.202201,"lon":16.613634,"is_passed":false},{"stop_id":"U1397Z4","name":"Moravské náměstí","arrival_time":"5:18:00","departure_time":"5:18:00","lat":49.199159,"lon":16.608704,"is_passed":false},{"stop_id":"U1193Z4","name":"Janáčkovo divadlo","arrival_time":"5:18:00","departure_time":"5:18:00","lat":49.197997,"lon":16.610307,"is_passed":false},{"stop_id":"U1357Z4","name":"Malinovského náměstí","arrival_time":"5:20:00","departure_time":"5:20:00","lat":49.195612,"lon":16.613248,"is_passed":false},{"stop_id":"U1146Z7","name":"Hlavní nádraží","arrival_time":"5:22:00","departure_time":"5:24:00","lat":49.19213,"lon":16.613467,"is_passed":false}]