[{"stop_id":"U1696Z4","name":"ÚAN Zvonařka","arrival_time":"4:16:00","departure_time":"4:16:00","lat":49.185364,"lon":16.616151,"is_passed":false},{"stop_id":"U1677Z3","name":"Tržní","arrival_time":"4:20:00","departure_time":"4:20:00","lat":49.189342,"lon":16.630314,"is_passed":false},{"stop_id":"U1068Z3","name":"Černovičky","arrival_time":"4:25:00","departure_time":"4:25:00","lat":49.183143,"lon":16.669108,"is_passed":false},{"stop_id":"U1577Z5","name":"Slatina, sídliště","arrival_time":"4:27:00","departure_time":"4:27:00","lat":49.182195,"lon":16.690725,"is_passed":false},{"stop_id":"U16130Z1","name":"Šlapanice, Bedřichovice, rozc.","arrival_time":"4:30:00","departure_time":"4:30:00","lat":49.182882,"lon":16.723572,"is_passed":false},{"stop_id":"U16105Z1","name":"Jiříkovice, motorest Rohlenka","arrival_time":"4:33:00","departure_time":"4:33:00","lat":49.183436,"lon":16.761042,"is_passed":false},{"stop_id":"U16205Z1","name":"Holubice, kruh","arrival_time":"4:36:00","departure_time":"4:36:00","lat":49.184495,"lon":16.799497,"is_passed":false},{"stop_id":"U16227Z1","name":"Holubice, GLP Park","arrival_time":"4:39:00","departure_time":"4:41:00","lat":49.188149,"lon":16.810898,"is_passed":false}]