[{"stop_id":"U1706Z2","name":"Ústřední hřbitov - smyčka","arrival_time":"17:07:00","departure_time":"17:07:00","lat":49.16513,"lon":16.598633,"is_passed":false},{"stop_id":"U1703Z2","name":"Ústřední hřbitov","arrival_time":"17:09:00","departure_time":"17:09:00","lat":49.171209,"lon":16.59734,"is_passed":false},{"stop_id":"U1147Z2","name":"Hluboká","arrival_time":"17:10:00","departure_time":"17:10:00","lat":49.175346,"lon":16.596153,"is_passed":false},{"stop_id":"U1053Z2","name":"Celní","arrival_time":"17:11:00","departure_time":"17:11:00","lat":49.179607,"lon":16.595242,"is_passed":false},{"stop_id":"U1430Z2","name":"Nemocnice Milosrdných bratří","arrival_time":"17:12:00","departure_time":"17:12:00","lat":49.183867,"lon":16.595061,"is_passed":false},{"stop_id":"U1512Z2","name":"Poříčí","arrival_time":"17:14:00","departure_time":"17:14:00","lat":49.187409,"lon":16.594512,"is_passed":false},{"stop_id":"U1721Z2","name":"Václavská","arrival_time":"17:16:00","departure_time":"17:16:00","lat":49.188715,"lon":16.596878,"is_passed":false},{"stop_id":"U1176Z2","name":"Hybešova","arrival_time":"17:17:00","departure_time":"17:17:00","lat":49.189209,"lon":16.603364,"is_passed":false},{"stop_id":"U1436Z2","name":"Nové sady","arrival_time":"17:20:00","departure_time":"17:20:00","lat":49.190222,"lon":16.609403,"is_passed":false},{"stop_id":"U1146Z2","name":"Hlavní nádraží","arrival_time":"17:22:00","departure_time":"17:22:00","lat":49.191394,"lon":16.612548,"is_passed":false},{"stop_id":"U1357Z2","name":"Malinovského náměstí","arrival_time":"17:24:00","departure_time":"17:24:00","lat":49.195034,"lon":16.614825,"is_passed":false},{"stop_id":"U1271Z1","name":"Körnerova","arrival_time":"17:26:00","departure_time":"17:26:00","lat":49.19828,"lon":16.619945,"is_passed":false},{"stop_id":"U1663Z1","name":"Tkalcovská","arrival_time":"17:28:00","departure_time":"17:28:00","lat":49.200261,"lon":16.626109,"is_passed":false},{"stop_id":"U1773Z1","name":"Vojenská nemocnice","arrival_time":"17:30:00","departure_time":"17:30:00","lat":49.202244,"lon":16.629717,"is_passed":false},{"stop_id":"U1313Z1","name":"Kuldova","arrival_time":"17:31:00","departure_time":"17:31:00","lat":49.201297,"lon":16.634306,"is_passed":false},{"stop_id":"U1611Z1","name":"Stará osada","arrival_time":"17:33:00","departure_time":"17:45:00","lat":49.202521,"lon":16.641948,"is_passed":false}]