[{"stop_id":"U18009Z3","name":"Znojmo, autobusové nádraží","arrival_time":"22:37:00","departure_time":"22:37:00","lat":48.851903,"lon":16.057106,"is_passed":false},{"stop_id":"U18002Z1","name":"Znojmo, Suchohrdelská, hřbitov","arrival_time":"22:39:00","departure_time":"22:39:00","lat":48.85731,"lon":16.06696,"is_passed":false},{"stop_id":"U18110Z1","name":"Suchohrdly, prodejna","arrival_time":"22:42:00","departure_time":"22:42:00","lat":48.866397,"lon":16.089328,"is_passed":false},{"stop_id":"U18115Z2","name":"Suchohrdly, kurty","arrival_time":"22:43:00","departure_time":"22:43:00","lat":48.868387,"lon":16.096818,"is_passed":false},{"stop_id":"U18116Z2","name":"Suchohrdly, Purkrábka","arrival_time":"22:44:00","departure_time":"22:44:00","lat":48.868827,"lon":16.106813,"is_passed":false},{"stop_id":"U18135Z2","name":"Těšetice, na hlavní","arrival_time":"22:50:00","departure_time":"22:50:00","lat":48.888094,"lon":16.157841,"is_passed":false},{"stop_id":"U18117Z1","name":"Bantice","arrival_time":"22:53:00","departure_time":"22:53:00","lat":48.88332,"lon":16.18455,"is_passed":false},{"stop_id":"U18223Z1","name":"Stošíkovice na Louce, rozcestí","arrival_time":"22:56:00","departure_time":"22:56:00","lat":48.890458,"lon":16.196641,"is_passed":false},{"stop_id":"U18219Z2","name":"Prosiměřice, hostinec","arrival_time":"22:58:00","departure_time":"22:58:00","lat":48.902718,"lon":16.192215,"is_passed":false},{"stop_id":"U18224Z2","name":"Vítonice","arrival_time":"23:01:00","departure_time":"23:01:00","lat":48.916333,"lon":16.201035,"is_passed":false},{"stop_id":"U18218Z2","name":"Oleksovice, u potoka","arrival_time":"23:08:00","departure_time":"23:08:00","lat":48.904747,"lon":16.24336,"is_passed":false},{"stop_id":"U18216Z2","name":"Oleksovice, hostinec","arrival_time":"23:09:00","departure_time":"23:09:00","lat":48.901658,"lon":16.250667,"is_passed":false},{"stop_id":"U14542Z2","name":"Hostěradice, lom","arrival_time":"23:18:00","departure_time":"23:18:00","lat":48.947002,"lon":16.264753,"is_passed":false},{"stop_id":"U14543Z6","name":"Hostěradice, náměstí","arrival_time":"23:19:00","departure_time":"23:19:00","lat":48.950522,"lon":16.259511,"is_passed":false},{"stop_id":"U14542Z1","name":"Hostěradice, lom","arrival_time":"23:20:00","departure_time":"23:20:00","lat":48.94687,"lon":16.265652,"is_passed":false},{"stop_id":"U14548Z1","name":"Miroslav, jesle","arrival_time":"23:24:00","departure_time":"23:24:00","lat":48.94488,"lon":16.30781,"is_passed":false},{"stop_id":"U14546Z3","name":"Miroslav, autobusové nádraží","arrival_time":"23:27:00","departure_time":"23:27:00","lat":48.946991,"lon":16.312997,"is_passed":false}]