{"541":[{"stop_id":"U16149Z10","name":"Sokolnice, železniční stanice","arrival_time":"17:40:00","departure_time":"17:40:00","lat":49.108029,"lon":16.733459,"is_passed":false},{"stop_id":"U1183Z10","name":"Chrlice, nádraží","arrival_time":"17:45:00","departure_time":"17:46:00","lat":49.132031,"lon":16.657232,"is_passed":false},{"stop_id":"U1146Z99","name":"Hlavní nádraží","arrival_time":"17:55:00","departure_time":"17:58:00","lat":49.19035,"lon":16.612342,"is_passed":false},{"stop_id":"U1809Z10","name":"Židenice, nádraží","arrival_time":"18:01:00","departure_time":"18:04:00","lat":49.204282,"lon":16.636042,"is_passed":false},{"stop_id":"U12158Z10","name":"Bílovice nad Svitavou, žel. stanice","arrival_time":"18:09:00","departure_time":"18:09:00","lat":49.242715,"lon":16.673677,"is_passed":false},{"stop_id":"U22101Z1","name":"Babice nad Svitavou","arrival_time":"18:13:00","departure_time":"18:13:00","lat":49.276645,"lon":16.673012,"is_passed":false},{"stop_id":"U12230Z10","name":"Adamov, železniční stanice","arrival_time":"18:16:00","departure_time":"18:17:00","lat":49.295341,"lon":16.663538,"is_passed":false},{"stop_id":"U12231Z10","name":"Adamov, železniční zastávka","arrival_time":"18:18:00","departure_time":"18:19:00","lat":49.300671,"lon":16.650653,"is_passed":false},{"stop_id":"U12342Z30","name":"Blansko, aut. st.","arrival_time":"18:24:00","departure_time":"18:25:00","lat":49.352753,"lon":16.646848,"is_passed":false},{"stop_id":"U22302Z1","name":"Blansko město","arrival_time":"18:27:00","departure_time":"18:28:00","lat":49.360996,"lon":16.639464,"is_passed":false},{"stop_id":"U22301Z1","name":"Dolní Lhota","arrival_time":"18:30:00","departure_time":"18:31:00","lat":49.386917,"lon":16.633978,"is_passed":false},{"stop_id":"U12439Z50","name":"Rájec-Jestřebí, železniční stanice","arrival_time":"18:33:00","departure_time":"18:34:00","lat":49.408206,"lon":16.627711,"is_passed":false},{"stop_id":"U12511Z50","name":"Doubravice, žel.st.","arrival_time":"18:37:00","departure_time":"18:37:00","lat":49.438707,"lon":16.621809,"is_passed":false},{"stop_id":"U12676Z50","name":"Skalice nad Svitavou, žel.st.","arrival_time":"18:43:00","departure_time":"18:51:00","lat":49.480123,"lon":16.609726,"is_passed":false},{"stop_id":"U22602Z1","name":"Svitávka","arrival_time":"18:53:00","departure_time":"18:54:00","lat":49.499434,"lon":16.599208,"is_passed":false},{"stop_id":"U22701Z1","name":"Zboněk","arrival_time":"18:56:00","departure_time":"18:56:00","lat":49.521608,"lon":16.583438,"is_passed":false},{"stop_id":"U22702Z1","name":"Letovice zastávka","arrival_time":"18:59:00","departure_time":"18:59:00","lat":49.535496,"lon":16.576998,"is_passed":false},{"stop_id":"U12736Z50","name":"Letovice, železniční stanice","arrival_time":"19:02:00","departure_time":"19:57:00","lat":49.555973,"lon":16.570906,"is_passed":false}],"5410":[{"stop_id":"U15552Z5","name":"Jiřice u Miroslavi","arrival_time":"4:36:00","departure_time":"4:36:00","lat":48.920697,"lon":16.39138,"is_passed":false},{"stop_id":"U14023Z2","name":"Trnové Pole","arrival_time":"4:40:00","departure_time":"4:40:00","lat":48.94558,"lon":16.409803,"is_passed":false},{"stop_id":"U14011Z2","name":"Branišovice, státní silnice","arrival_time":"4:43:00","departure_time":"4:49:00","lat":48.959163,"lon":16.430035,"is_passed":false},{"stop_id":"U14010Z2","name":"Branišovice, pošta","arrival_time":"4:51:00","departure_time":"4:51:00","lat":48.961817,"lon":16.428575,"is_passed":false},{"stop_id":"U14019Z2","name":"Olbramovice, restaurace","arrival_time":"4:56:00","departure_time":"4:56:00","lat":48.984233,"lon":16.400785,"is_passed":false},{"stop_id":"U14018Z2","name":"Olbramovice, prodejna","arrival_time":"4:58:00","departure_time":"4:58:00","lat":48.98989,"lon":16.39586,"is_passed":false},{"stop_id":"U14541Z2","name":"Bohutice","arrival_time":"5:03:00","departure_time":"5:03:00","lat":48.989738,"lon":16.360072,"is_passed":false},{"stop_id":"U14559Z2","name":"Našiměřice","arrival_time":"5:08:00","departure_time":"5:08:00","lat":48.968258,"lon":16.372205,"is_passed":false},{"stop_id":"U14561Z2","name":"Našiměřice, železniční stanice","arrival_time":"5:11:00","departure_time":"5:11:00","lat":48.963072,"lon":16.350622,"is_passed":false},{"stop_id":"U14546Z10","name":"Miroslav, autobusové nádraží","arrival_time":"5:17:00","departure_time":"5:30:00","lat":48.94661,"lon":16.313115,"is_passed":false}],"5411":[{"stop_id":"U14546Z6","name":"Miroslav, autobusové nádraží","arrival_time":"5:30:00","departure_time":"5:30:00","lat":48.947248,"lon":16.312927,"is_passed":false},{"stop_id":"U14561Z1","name":"Našiměřice, železniční stanice","arrival_time":"5:37:00","departure_time":"5:37:00","lat":48.963217,"lon":16.35083,"is_passed":false},{"stop_id":"U14559Z1","name":"Našiměřice","arrival_time":"5:40:00","departure_time":"5:40:00","lat":48.968258,"lon":16.372205,"is_passed":false},{"stop_id":"U14541Z1","name":"Bohutice","arrival_time":"5:45:00","departure_time":"5:45:00","lat":48.989738,"lon":16.360072,"is_passed":false},{"stop_id":"U14018Z1","name":"Olbramovice, prodejna","arrival_time":"5:50:00","departure_time":"5:52:00","lat":48.989877,"lon":16.395692,"is_passed":false},{"stop_id":"U14019Z1","name":"Olbramovice, restaurace","arrival_time":"5:54:00","departure_time":"5:54:00","lat":48.984167,"lon":16.400743,"is_passed":false},{"stop_id":"U14010Z1","name":"Branišovice, pošta","arrival_time":"5:59:00","departure_time":"5:59:00","lat":48.961775,"lon":16.428677,"is_passed":false},{"stop_id":"U14011Z1","name":"Branišovice, státní silnice","arrival_time":"6:01:00","departure_time":"6:01:00","lat":48.959107,"lon":16.428737,"is_passed":false},{"stop_id":"U14023Z1","name":"Trnové Pole","arrival_time":"6:04:00","departure_time":"6:04:00","lat":48.945552,"lon":16.409551,"is_passed":false},{"stop_id":"U15552Z11","name":"Jiřice u Miroslavi","arrival_time":"6:07:00","departure_time":"6:07:00","lat":48.920697,"lon":16.39138,"is_passed":false}],"5412":[{"stop_id":"U15552Z4","name":"Jiřice u Miroslavi","arrival_time":"6:07:00","departure_time":"6:07:00","lat":48.920697,"lon":16.39138,"is_passed":false},{"stop_id":"U15550Z2","name":"Damnice","arrival_time":"6:10:00","departure_time":"6:10:00","lat":48.920087,"lon":16.373648,"is_passed":false},{"stop_id":"U15551Z1","name":"Dolenice","arrival_time":"6:12:00","departure_time":"6:12:00","lat":48.909272,"lon":16.364848,"is_passed":false}],"5413":[{"stop_id":"U15551Z2","name":"Dolenice","arrival_time":"6:12:00","departure_time":"6:12:00","lat":48.909272,"lon":16.364848,"is_passed":false},{"stop_id":"U15550Z1","name":"Damnice","arrival_time":"6:14:00","departure_time":"6:14:00","lat":48.920138,"lon":16.373542,"is_passed":false},{"stop_id":"U15552Z3","name":"Jiřice u Miroslavi","arrival_time":"6:17:00","departure_time":"6:17:00","lat":48.920697,"lon":16.39138,"is_passed":false},{"stop_id":"U15550Z1","name":"Damnice","arrival_time":"6:20:00","departure_time":"6:20:00","lat":48.920138,"lon":16.373542,"is_passed":false},{"stop_id":"U14552Z4","name":"Miroslav, rozcestí","arrival_time":"6:25:00","departure_time":"6:25:00","lat":48.933498,"lon":16.362293,"is_passed":false},{"stop_id":"U14551Z2","name":"Miroslav, Réna","arrival_time":"6:27:00","departure_time":"6:27:00","lat":48.93358,"lon":16.337223,"is_passed":false},{"stop_id":"U14550Z2","name":"Miroslav, provozovna ČAS","arrival_time":"6:29:00","departure_time":"6:29:00","lat":48.941947,"lon":16.321227,"is_passed":false},{"stop_id":"U14554Z2","name":"Miroslav, statek","arrival_time":"6:30:00","departure_time":"6:30:00","lat":48.945973,"lon":16.317908,"is_passed":false},{"stop_id":"U14546Z2","name":"Miroslav, autobusové nádraží","arrival_time":"6:33:00","departure_time":"6:33:00","lat":48.946832,"lon":16.313061,"is_passed":false}],"5414":[{"stop_id":"U14546Z6","name":"Miroslav, autobusové nádraží","arrival_time":"6:34:00","departure_time":"6:34:00","lat":48.947248,"lon":16.312927,"is_passed":false},{"stop_id":"U14561Z1","name":"Našiměřice, železniční stanice","arrival_time":"6:39:00","departure_time":"6:39:00","lat":48.963217,"lon":16.35083,"is_passed":false},{"stop_id":"U14559Z1","name":"Našiměřice","arrival_time":"6:42:00","departure_time":"6:42:00","lat":48.968258,"lon":16.372205,"is_passed":false},{"stop_id":"U14541Z1","name":"Bohutice","arrival_time":"6:49:00","departure_time":"6:49:00","lat":48.989738,"lon":16.360072,"is_passed":false},{"stop_id":"U14018Z1","name":"Olbramovice, prodejna","arrival_time":"6:54:00","departure_time":"6:54:00","lat":48.989877,"lon":16.395692,"is_passed":false},{"stop_id":"U14019Z1","name":"Olbramovice, restaurace","arrival_time":"6:56:00","departure_time":"6:56:00","lat":48.984167,"lon":16.400743,"is_passed":false},{"stop_id":"U14010Z1","name":"Branišovice, pošta","arrival_time":"7:01:00","departure_time":"7:01:00","lat":48.961775,"lon":16.428677,"is_passed":false},{"stop_id":"U14011Z1","name":"Branišovice, státní silnice","arrival_time":"7:03:00","departure_time":"7:08:00","lat":48.959107,"lon":16.428737,"is_passed":false},{"stop_id":"U14023Z1","name":"Trnové Pole","arrival_time":"7:11:00","departure_time":"7:11:00","lat":48.945552,"lon":16.409551,"is_passed":false},{"stop_id":"U15552Z11","name":"Jiřice u Miroslavi","arrival_time":"7:15:00","departure_time":"7:15:00","lat":48.920697,"lon":16.39138,"is_passed":false}],"5415":[{"stop_id":"U15552Z3","name":"Jiřice u Miroslavi","arrival_time":"7:16:00","departure_time":"7:16:00","lat":48.920697,"lon":16.39138,"is_passed":false},{"stop_id":"U15550Z1","name":"Damnice","arrival_time":"7:19:00","departure_time":"7:19:00","lat":48.920138,"lon":16.373542,"is_passed":false},{"stop_id":"U14551Z2","name":"Miroslav, Réna","arrival_time":"7:24:00","departure_time":"7:24:00","lat":48.93358,"lon":16.337223,"is_passed":false},{"stop_id":"U14550Z2","name":"Miroslav, provozovna ČAS","arrival_time":"7:26:00","departure_time":"7:26:00","lat":48.941947,"lon":16.321227,"is_passed":false},{"stop_id":"U14554Z2","name":"Miroslav, statek","arrival_time":"7:27:00","departure_time":"7:27:00","lat":48.945973,"lon":16.317908,"is_passed":false},{"stop_id":"U14546Z2","name":"Miroslav, autobusové nádraží","arrival_time":"7:30:00","departure_time":"7:30:00","lat":48.946832,"lon":16.313061,"is_passed":false}],"5416":[{"stop_id":"U14546Z6","name":"Miroslav, autobusové nádraží","arrival_time":"9:10:00","departure_time":"9:10:00","lat":48.947248,"lon":16.312927,"is_passed":false},{"stop_id":"U14561Z1","name":"Našiměřice, železniční stanice","arrival_time":"9:17:00","departure_time":"9:17:00","lat":48.963217,"lon":16.35083,"is_passed":false},{"stop_id":"U14559Z1","name":"Našiměřice","arrival_time":"9:20:00","departure_time":"9:20:00","lat":48.968258,"lon":16.372205,"is_passed":false},{"stop_id":"U14541Z1","name":"Bohutice","arrival_time":"9:25:00","departure_time":"9:25:00","lat":48.989738,"lon":16.360072,"is_passed":false},{"stop_id":"U14018Z1","name":"Olbramovice, prodejna","arrival_time":"9:30:00","departure_time":"9:36:00","lat":48.989877,"lon":16.395692,"is_passed":false},{"stop_id":"U14019Z1","name":"Olbramovice, restaurace","arrival_time":"9:38:00","departure_time":"9:38:00","lat":48.984167,"lon":16.400743,"is_passed":false},{"stop_id":"U14010Z1","name":"Branišovice, pošta","arrival_time":"9:43:00","departure_time":"9:43:00","lat":48.961775,"lon":16.428677,"is_passed":false},{"stop_id":"U14011Z1","name":"Branišovice, státní silnice","arrival_time":"9:45:00","departure_time":"9:49:00","lat":48.959107,"lon":16.428737,"is_passed":false},{"stop_id":"U14023Z1","name":"Trnové Pole","arrival_time":"9:52:00","departure_time":"9:52:00","lat":48.945552,"lon":16.409551,"is_passed":false},{"stop_id":"U15552Z11","name":"Jiřice u Miroslavi","arrival_time":"9:56:00","departure_time":"10:01:00","lat":48.920697,"lon":16.39138,"is_passed":false}],"5417":[{"stop_id":"U15552Z5","name":"Jiřice u Miroslavi","arrival_time":"10:01:00","departure_time":"10:01:00","lat":48.920697,"lon":16.39138,"is_passed":false},{"stop_id":"U14023Z2","name":"Trnové Pole","arrival_time":"10:05:00","departure_time":"10:05:00","lat":48.94558,"lon":16.409803,"is_passed":false},{"stop_id":"U14011Z2","name":"Branišovice, státní silnice","arrival_time":"10:08:00","departure_time":"10:10:00","lat":48.959163,"lon":16.430035,"is_passed":false},{"stop_id":"U14010Z2","name":"Branišovice, pošta","arrival_time":"10:12:00","departure_time":"10:12:00","lat":48.961817,"lon":16.428575,"is_passed":false},{"stop_id":"U14019Z2","name":"Olbramovice, restaurace","arrival_time":"10:17:00","departure_time":"10:17:00","lat":48.984233,"lon":16.400785,"is_passed":false},{"stop_id":"U14018Z2","name":"Olbramovice, prodejna","arrival_time":"10:19:00","departure_time":"10:28:00","lat":48.98989,"lon":16.39586,"is_passed":false},{"stop_id":"U14541Z2","name":"Bohutice","arrival_time":"10:33:00","departure_time":"10:33:00","lat":48.989738,"lon":16.360072,"is_passed":false},{"stop_id":"U14559Z2","name":"Našiměřice","arrival_time":"10:38:00","departure_time":"10:38:00","lat":48.968258,"lon":16.372205,"is_passed":false},{"stop_id":"U14561Z2","name":"Našiměřice, železniční stanice","arrival_time":"10:41:00","departure_time":"10:41:00","lat":48.963072,"lon":16.350622,"is_passed":false},{"stop_id":"U14546Z10","name":"Miroslav, autobusové nádraží","arrival_time":"10:47:00","departure_time":"11:10:00","lat":48.94661,"lon":16.313115,"is_passed":false}],"5418":[{"stop_id":"U14546Z6","name":"Miroslav, autobusové nádraží","arrival_time":"11:10:00","departure_time":"11:10:00","lat":48.947248,"lon":16.312927,"is_passed":false},{"stop_id":"U14561Z1","name":"Našiměřice, železniční stanice","arrival_time":"11:17:00","departure_time":"11:17:00","lat":48.963217,"lon":16.35083,"is_passed":false},{"stop_id":"U14559Z1","name":"Našiměřice","arrival_time":"11:20:00","departure_time":"11:20:00","lat":48.968258,"lon":16.372205,"is_passed":false},{"stop_id":"U14541Z1","name":"Bohutice","arrival_time":"11:25:00","departure_time":"11:25:00","lat":48.989738,"lon":16.360072,"is_passed":false},{"stop_id":"U14018Z1","name":"Olbramovice, prodejna","arrival_time":"11:30:00","departure_time":"11:36:00","lat":48.989877,"lon":16.395692,"is_passed":false},{"stop_id":"U14019Z1","name":"Olbramovice, restaurace","arrival_time":"11:38:00","departure_time":"11:38:00","lat":48.984167,"lon":16.400743,"is_passed":false},{"stop_id":"U14010Z1","name":"Branišovice, pošta","arrival_time":"11:43:00","departure_time":"11:43:00","lat":48.961775,"lon":16.428677,"is_passed":false},{"stop_id":"U14011Z1","name":"Branišovice, státní silnice","arrival_time":"11:45:00","departure_time":"11:49:00","lat":48.959107,"lon":16.428737,"is_passed":false},{"stop_id":"U14023Z1","name":"Trnové Pole","arrival_time":"11:52:00","departure_time":"11:52:00","lat":48.945552,"lon":16.409551,"is_passed":false},{"stop_id":"U15552Z11","name":"Jiřice u Miroslavi","arrival_time":"11:56:00","departure_time":"12:01:00","lat":48.920697,"lon":16.39138,"is_passed":false}],"5419":[{"stop_id":"U15552Z5","name":"Jiřice u Miroslavi","arrival_time":"12:01:00","departure_time":"12:01:00","lat":48.920697,"lon":16.39138,"is_passed":false},{"stop_id":"U14023Z2","name":"Trnové Pole","arrival_time":"12:05:00","departure_time":"12:05:00","lat":48.94558,"lon":16.409803,"is_passed":false},{"stop_id":"U14011Z2","name":"Branišovice, státní silnice","arrival_time":"12:08:00","departure_time":"12:10:00","lat":48.959163,"lon":16.430035,"is_passed":false},{"stop_id":"U14010Z2","name":"Branišovice, pošta","arrival_time":"12:12:00","departure_time":"12:12:00","lat":48.961817,"lon":16.428575,"is_passed":false},{"stop_id":"U14019Z2","name":"Olbramovice, restaurace","arrival_time":"12:17:00","departure_time":"12:17:00","lat":48.984233,"lon":16.400785,"is_passed":false},{"stop_id":"U14018Z2","name":"Olbramovice, prodejna","arrival_time":"12:19:00","departure_time":"12:28:00","lat":48.98989,"lon":16.39586,"is_passed":false},{"stop_id":"U14541Z2","name":"Bohutice","arrival_time":"12:33:00","departure_time":"12:33:00","lat":48.989738,"lon":16.360072,"is_passed":false},{"stop_id":"U14559Z2","name":"Našiměřice","arrival_time":"12:38:00","departure_time":"12:38:00","lat":48.968258,"lon":16.372205,"is_passed":false},{"stop_id":"U14561Z2","name":"Našiměřice, železniční stanice","arrival_time":"12:41:00","departure_time":"12:41:00","lat":48.963072,"lon":16.350622,"is_passed":false},{"stop_id":"U14546Z10","name":"Miroslav, autobusové nádraží","arrival_time":"12:47:00","departure_time":"13:10:00","lat":48.94661,"lon":16.313115,"is_passed":false}],"54100":[{"stop_id":"U1616Z2","name":"Starý Lískovec, smyčka","arrival_time":"17:14:00","departure_time":"17:14:00","lat":49.170465,"lon":16.554565,"is_passed":false},{"stop_id":"U1097Z2","name":"Dunajská","arrival_time":"17:14:00","departure_time":"17:14:00","lat":49.169112,"lon":16.556485,"is_passed":false},{"stop_id":"U1227Z2","name":"Karpatská","arrival_time":"17:15:00","departure_time":"17:15:00","lat":49.168021,"lon":16.561879,"is_passed":false},{"stop_id":"U1472Z2","name":"Osová","arrival_time":"17:16:00","departure_time":"17:16:00","lat":49.169005,"lon":16.567514,"is_passed":false},{"stop_id":"U1653Z4","name":"Švermova","arrival_time":"17:17:00","departure_time":"17:17:00","lat":49.169191,"lon":16.573122,"is_passed":false},{"stop_id":"U1021Z2","name":"Běloruská","arrival_time":"17:18:00","departure_time":"17:18:00","lat":49.170662,"lon":16.580727,"is_passed":false},{"stop_id":"U1293Z2","name":"Krematorium","arrival_time":"17:19:00","departure_time":"17:19:00","lat":49.172257,"lon":16.586414,"is_passed":false},{"stop_id":"U1053Z2","name":"Celní","arrival_time":"17:22:00","departure_time":"17:22:00","lat":49.179607,"lon":16.595242,"is_passed":false},{"stop_id":"U1430Z2","name":"Nemocnice Milosrdných bratří","arrival_time":"17:23:00","departure_time":"17:23:00","lat":49.183867,"lon":16.595061,"is_passed":false},{"stop_id":"U1512Z2","name":"Poříčí","arrival_time":"17:25:00","departure_time":"17:25:00","lat":49.187409,"lon":16.594512,"is_passed":false},{"stop_id":"U1378Z3","name":"Mendlovo náměstí","arrival_time":"17:27:00","departure_time":"17:27:00","lat":49.190293,"lon":16.594781,"is_passed":false},{"stop_id":"U1428Z1","name":"Nemocnice u sv. Anny","arrival_time":"17:29:00","departure_time":"17:29:00","lat":49.191471,"lon":16.599302,"is_passed":false},{"stop_id":"U1637Z4","name":"Šilingrovo náměstí","arrival_time":"17:30:00","departure_time":"17:30:00","lat":49.192271,"lon":16.604367,"is_passed":false},{"stop_id":"U1073Z2","name":"Česká","arrival_time":"17:34:00","departure_time":"17:34:00","lat":49.197702,"lon":16.606463,"is_passed":false},{"stop_id":"U1397Z1","name":"Moravské náměstí","arrival_time":"17:35:00","departure_time":"17:35:00","lat":49.19996,"lon":16.607931,"is_passed":false},{"stop_id":"U1006Z1","name":"Antonínská","arrival_time":"17:36:00","departure_time":"17:36:00","lat":49.203685,"lon":16.606678,"is_passed":false},{"stop_id":"U1483Z1","name":"Pionýrská","arrival_time":"17:37:00","departure_time":"17:37:00","lat":49.207491,"lon":16.604472,"is_passed":false},{"stop_id":"U1166Z1","name":"Hrnčířská","arrival_time":"17:39:00","departure_time":"17:39:00","lat":49.210254,"lon":16.602868,"is_passed":false},{"stop_id":"U1652Z1","name":"Šumavská","arrival_time":"17:40:00","departure_time":"17:40:00","lat":49.213991,"lon":16.600669,"is_passed":false},{"stop_id":"U1233Z1","name":"Kartouzská","arrival_time":"17:41:00","departure_time":"17:41:00","lat":49.216998,"lon":16.598896,"is_passed":false},{"stop_id":"U1218Z1","name":"Jungmannova","arrival_time":"17:42:00","departure_time":"17:42:00","lat":49.220856,"lon":16.596583,"is_passed":false},{"stop_id":"U1171Z1","name":"Husitská","arrival_time":"17:43:00","departure_time":"17:43:00","lat":49.223125,"lon":16.59524,"is_passed":false},{"stop_id":"U1566Z1","name":"Semilasso","arrival_time":"17:45:00","departure_time":"17:45:00","lat":49.227417,"lon":16.592683,"is_passed":false},{"stop_id":"U1286Z1","name":"Královo Pole, nádraží","arrival_time":"17:47:00","departure_time":"18:07:00","lat":49.230031,"lon":16.595374,"is_passed":false}],"54101":[{"stop_id":"U1286Z2","name":"Královo Pole, nádraží","arrival_time":"18:07:00","departure_time":"18:07:00","lat":49.229691,"lon":16.595601,"is_passed":false},{"stop_id":"U1566Z3","name":"Semilasso","arrival_time":"18:07:00","departure_time":"18:07:00","lat":49.228432,"lon":16.593971,"is_passed":false},{"stop_id":"U1171Z2","name":"Husitská","arrival_time":"18:10:00","departure_time":"18:10:00","lat":49.223415,"lon":16.595016,"is_passed":false},{"stop_id":"U1218Z2","name":"Jungmannova","arrival_time":"18:11:00","departure_time":"18:11:00","lat":49.221083,"lon":16.596416,"is_passed":false},{"stop_id":"U1233Z2","name":"Kartouzská","arrival_time":"18:12:00","departure_time":"18:12:00","lat":49.21665,"lon":16.599078,"is_passed":false},{"stop_id":"U1652Z2","name":"Šumavská","arrival_time":"18:13:00","departure_time":"18:13:00","lat":49.214022,"lon":16.60062,"is_passed":false},{"stop_id":"U1166Z2","name":"Hrnčířská","arrival_time":"18:14:00","departure_time":"18:14:00","lat":49.21062,"lon":16.602628,"is_passed":false},{"stop_id":"U1483Z2","name":"Pionýrská","arrival_time":"18:15:00","departure_time":"18:15:00","lat":49.207904,"lon":16.604201,"is_passed":false},{"stop_id":"U1006Z2","name":"Antonínská","arrival_time":"18:16:00","departure_time":"18:16:00","lat":49.203166,"lon":16.606915,"is_passed":false},{"stop_id":"U1397Z2","name":"Moravské náměstí","arrival_time":"18:18:00","departure_time":"18:18:00","lat":49.199237,"lon":16.608067,"is_passed":false},{"stop_id":"U1073Z1","name":"Česká","arrival_time":"18:20:00","departure_time":"18:20:00","lat":49.197618,"lon":16.605584,"is_passed":false},{"stop_id":"U1637Z3","name":"Šilingrovo náměstí","arrival_time":"18:23:00","departure_time":"18:23:00","lat":49.1923,"lon":16.60424,"is_passed":false},{"stop_id":"U1428Z2","name":"Nemocnice u sv. Anny","arrival_time":"18:24:00","departure_time":"18:24:00","lat":49.191523,"lon":16.598757,"is_passed":false},{"stop_id":"U1378Z4","name":"Mendlovo náměstí","arrival_time":"18:26:00","departure_time":"18:26:00","lat":49.190204,"lon":16.594235,"is_passed":false},{"stop_id":"U1512Z1","name":"Poříčí","arrival_time":"18:28:00","departure_time":"18:28:00","lat":49.187182,"lon":16.594633,"is_passed":false},{"stop_id":"U1430Z1","name":"Nemocnice Milosrdných bratří","arrival_time":"18:29:00","departure_time":"18:29:00","lat":49.183515,"lon":16.594981,"is_passed":false},{"stop_id":"U1053Z1","name":"Celní","arrival_time":"18:31:00","departure_time":"18:31:00","lat":49.179109,"lon":16.595328,"is_passed":false},{"stop_id":"U1293Z1","name":"Krematorium","arrival_time":"18:33:00","departure_time":"18:33:00","lat":49.172308,"lon":16.586427,"is_passed":false},{"stop_id":"U1021Z1","name":"Běloruská","arrival_time":"18:34:00","departure_time":"18:34:00","lat":49.170755,"lon":16.580895,"is_passed":false},{"stop_id":"U1653Z3","name":"Švermova","arrival_time":"18:35:00","departure_time":"18:35:00","lat":49.169262,"lon":16.573246,"is_passed":false},{"stop_id":"U1472Z1","name":"Osová","arrival_time":"18:36:00","departure_time":"18:36:00","lat":49.169023,"lon":16.56653,"is_passed":false},{"stop_id":"U1227Z1","name":"Karpatská","arrival_time":"18:37:00","departure_time":"18:37:00","lat":49.168113,"lon":16.562077,"is_passed":false},{"stop_id":"U1097Z1","name":"Dunajská","arrival_time":"18:38:00","departure_time":"18:38:00","lat":49.169066,"lon":16.55664,"is_passed":false},{"stop_id":"U1616Z1","name":"Starý Lískovec, smyčka","arrival_time":"18:40:00","departure_time":"18:54:00","lat":49.171366,"lon":16.554527,"is_passed":false}],"54102":[{"stop_id":"U1616Z2","name":"Starý Lískovec, smyčka","arrival_time":"18:54:00","departure_time":"18:54:00","lat":49.170465,"lon":16.554565,"is_passed":false},{"stop_id":"U1097Z2","name":"Dunajská","arrival_time":"18:54:00","departure_time":"18:54:00","lat":49.169112,"lon":16.556485,"is_passed":false},{"stop_id":"U1227Z2","name":"Karpatská","arrival_time":"18:55:00","departure_time":"18:55:00","lat":49.168021,"lon":16.561879,"is_passed":false},{"stop_id":"U1472Z2","name":"Osová","arrival_time":"18:56:00","departure_time":"18:56:00","lat":49.169005,"lon":16.567514,"is_passed":false},{"stop_id":"U1653Z4","name":"Švermova","arrival_time":"18:57:00","departure_time":"18:57:00","lat":49.169191,"lon":16.573122,"is_passed":false},{"stop_id":"U1021Z2","name":"Běloruská","arrival_time":"18:58:00","departure_time":"18:58:00","lat":49.170662,"lon":16.580727,"is_passed":false},{"stop_id":"U1293Z2","name":"Krematorium","arrival_time":"18:59:00","departure_time":"18:59:00","lat":49.172257,"lon":16.586414,"is_passed":false},{"stop_id":"U1053Z2","name":"Celní","arrival_time":"19:02:00","departure_time":"19:02:00","lat":49.179607,"lon":16.595242,"is_passed":false},{"stop_id":"U1430Z2","name":"Nemocnice Milosrdných bratří","arrival_time":"19:03:00","departure_time":"19:03:00","lat":49.183867,"lon":16.595061,"is_passed":false},{"stop_id":"U1512Z2","name":"Poříčí","arrival_time":"19:05:00","departure_time":"19:05:00","lat":49.187409,"lon":16.594512,"is_passed":false},{"stop_id":"U1378Z3","name":"Mendlovo náměstí","arrival_time":"19:07:00","departure_time":"19:07:00","lat":49.190293,"lon":16.594781,"is_passed":false},{"stop_id":"U1428Z1","name":"Nemocnice u sv. Anny","arrival_time":"19:09:00","departure_time":"19:09:00","lat":49.191471,"lon":16.599302,"is_passed":false},{"stop_id":"U1637Z4","name":"Šilingrovo náměstí","arrival_time":"19:10:00","departure_time":"19:10:00","lat":49.192271,"lon":16.604367,"is_passed":false},{"stop_id":"U1073Z2","name":"Česká","arrival_time":"19:14:00","departure_time":"19:14:00","lat":49.197702,"lon":16.606463,"is_passed":false},{"stop_id":"U1397Z1","name":"Moravské náměstí","arrival_time":"19:15:00","departure_time":"19:15:00","lat":49.19996,"lon":16.607931,"is_passed":false},{"stop_id":"U1006Z1","name":"Antonínská","arrival_time":"19:16:00","departure_time":"19:16:00","lat":49.203685,"lon":16.606678,"is_passed":false},{"stop_id":"U1483Z1","name":"Pionýrská","arrival_time":"19:17:00","departure_time":"19:17:00","lat":49.207491,"lon":16.604472,"is_passed":false},{"stop_id":"U1166Z1","name":"Hrnčířská","arrival_time":"19:19:00","departure_time":"19:19:00","lat":49.210254,"lon":16.602868,"is_passed":false},{"stop_id":"U1652Z1","name":"Šumavská","arrival_time":"19:20:00","departure_time":"19:20:00","lat":49.213991,"lon":16.600669,"is_passed":false},{"stop_id":"U1233Z1","name":"Kartouzská","arrival_time":"19:21:00","departure_time":"19:21:00","lat":49.216998,"lon":16.598896,"is_passed":false},{"stop_id":"U1218Z1","name":"Jungmannova","arrival_time":"19:22:00","departure_time":"19:22:00","lat":49.220856,"lon":16.596583,"is_passed":false},{"stop_id":"U1171Z1","name":"Husitská","arrival_time":"19:23:00","departure_time":"19:23:00","lat":49.223125,"lon":16.59524,"is_passed":false},{"stop_id":"U1566Z1","name":"Semilasso","arrival_time":"19:25:00","departure_time":"19:25:00","lat":49.227417,"lon":16.592683,"is_passed":false},{"stop_id":"U1286Z1","name":"Královo Pole, nádraží","arrival_time":"19:27:00","departure_time":"19:47:00","lat":49.230031,"lon":16.595374,"is_passed":false}],"54103":[{"stop_id":"U1286Z2","name":"Královo Pole, nádraží","arrival_time":"19:47:00","departure_time":"19:47:00","lat":49.229691,"lon":16.595601,"is_passed":false},{"stop_id":"U1566Z3","name":"Semilasso","arrival_time":"19:47:00","departure_time":"19:47:00","lat":49.228432,"lon":16.593971,"is_passed":false},{"stop_id":"U1171Z2","name":"Husitská","arrival_time":"19:50:00","departure_time":"19:50:00","lat":49.223415,"lon":16.595016,"is_passed":false},{"stop_id":"U1218Z2","name":"Jungmannova","arrival_time":"19:51:00","departure_time":"19:51:00","lat":49.221083,"lon":16.596416,"is_passed":false},{"stop_id":"U1233Z2","name":"Kartouzská","arrival_time":"19:52:00","departure_time":"19:52:00","lat":49.21665,"lon":16.599078,"is_passed":false},{"stop_id":"U1652Z2","name":"Šumavská","arrival_time":"19:53:00","departure_time":"19:53:00","lat":49.214022,"lon":16.60062,"is_passed":false},{"stop_id":"U1166Z2","name":"Hrnčířská","arrival_time":"19:54:00","departure_time":"19:54:00","lat":49.21062,"lon":16.602628,"is_passed":false},{"stop_id":"U1483Z2","name":"Pionýrská","arrival_time":"19:55:00","departure_time":"19:55:00","lat":49.207904,"lon":16.604201,"is_passed":false},{"stop_id":"U1006Z2","name":"Antonínská","arrival_time":"19:56:00","departure_time":"19:56:00","lat":49.203166,"lon":16.606915,"is_passed":false},{"stop_id":"U1397Z2","name":"Moravské náměstí","arrival_time":"19:58:00","departure_time":"19:58:00","lat":49.199237,"lon":16.608067,"is_passed":false},{"stop_id":"U1073Z1","name":"Česká","arrival_time":"20:00:00","departure_time":"20:00:00","lat":49.197618,"lon":16.605584,"is_passed":false},{"stop_id":"U1637Z3","name":"Šilingrovo náměstí","arrival_time":"20:03:00","departure_time":"20:03:00","lat":49.1923,"lon":16.60424,"is_passed":false},{"stop_id":"U1428Z2","name":"Nemocnice u sv. Anny","arrival_time":"20:04:00","departure_time":"20:04:00","lat":49.191523,"lon":16.598757,"is_passed":false},{"stop_id":"U1378Z4","name":"Mendlovo náměstí","arrival_time":"20:06:00","departure_time":"20:06:00","lat":49.190204,"lon":16.594235,"is_passed":false},{"stop_id":"U1512Z1","name":"Poříčí","arrival_time":"20:08:00","departure_time":"20:08:00","lat":49.187182,"lon":16.594633,"is_passed":false},{"stop_id":"U1430Z1","name":"Nemocnice Milosrdných bratří","arrival_time":"20:09:00","departure_time":"20:09:00","lat":49.183515,"lon":16.594981,"is_passed":false},{"stop_id":"U1053Z1","name":"Celní","arrival_time":"20:11:00","departure_time":"20:11:00","lat":49.179109,"lon":16.595328,"is_passed":false},{"stop_id":"U1293Z1","name":"Krematorium","arrival_time":"20:13:00","departure_time":"20:13:00","lat":49.172308,"lon":16.586427,"is_passed":false},{"stop_id":"U1021Z1","name":"Běloruská","arrival_time":"20:14:00","departure_time":"20:14:00","lat":49.170755,"lon":16.580895,"is_passed":false},{"stop_id":"U1653Z3","name":"Švermova","arrival_time":"20:15:00","departure_time":"20:15:00","lat":49.169262,"lon":16.573246,"is_passed":false},{"stop_id":"U1472Z1","name":"Osová","arrival_time":"20:16:00","departure_time":"20:16:00","lat":49.169023,"lon":16.56653,"is_passed":false},{"stop_id":"U1227Z1","name":"Karpatská","arrival_time":"20:17:00","departure_time":"20:17:00","lat":49.168113,"lon":16.562077,"is_passed":false},{"stop_id":"U1097Z1","name":"Dunajská","arrival_time":"20:18:00","departure_time":"20:18:00","lat":49.169066,"lon":16.55664,"is_passed":false},{"stop_id":"U1616Z1","name":"Starý Lískovec, smyčka","arrival_time":"20:20:00","departure_time":"20:30:00","lat":49.171366,"lon":16.554527,"is_passed":false}],"54104":[{"stop_id":"U1616Z2","name":"Starý Lískovec, smyčka","arrival_time":"20:30:00","departure_time":"20:30:00","lat":49.170465,"lon":16.554565,"is_passed":false},{"stop_id":"U1097Z2","name":"Dunajská","arrival_time":"20:30:00","departure_time":"20:30:00","lat":49.169112,"lon":16.556485,"is_passed":false},{"stop_id":"U1227Z2","name":"Karpatská","arrival_time":"20:31:00","departure_time":"20:31:00","lat":49.168021,"lon":16.561879,"is_passed":false},{"stop_id":"U1472Z2","name":"Osová","arrival_time":"20:32:00","departure_time":"20:32:00","lat":49.169005,"lon":16.567514,"is_passed":false},{"stop_id":"U1653Z4","name":"Švermova","arrival_time":"20:33:00","departure_time":"20:33:00","lat":49.169191,"lon":16.573122,"is_passed":false},{"stop_id":"U1021Z2","name":"Běloruská","arrival_time":"20:34:00","departure_time":"20:34:00","lat":49.170662,"lon":16.580727,"is_passed":false},{"stop_id":"U1293Z2","name":"Krematorium","arrival_time":"20:35:00","departure_time":"20:35:00","lat":49.172257,"lon":16.586414,"is_passed":false},{"stop_id":"U1053Z2","name":"Celní","arrival_time":"20:38:00","departure_time":"20:38:00","lat":49.179607,"lon":16.595242,"is_passed":false},{"stop_id":"U1430Z2","name":"Nemocnice Milosrdných bratří","arrival_time":"20:39:00","departure_time":"20:39:00","lat":49.183867,"lon":16.595061,"is_passed":false},{"stop_id":"U1512Z2","name":"Poříčí","arrival_time":"20:41:00","departure_time":"20:41:00","lat":49.187409,"lon":16.594512,"is_passed":false},{"stop_id":"U1378Z3","name":"Mendlovo náměstí","arrival_time":"20:43:00","departure_time":"20:43:00","lat":49.190293,"lon":16.594781,"is_passed":false},{"stop_id":"U1428Z1","name":"Nemocnice u sv. Anny","arrival_time":"20:45:00","departure_time":"20:45:00","lat":49.191471,"lon":16.599302,"is_passed":false},{"stop_id":"U1637Z4","name":"Šilingrovo náměstí","arrival_time":"20:46:00","departure_time":"20:46:00","lat":49.192271,"lon":16.604367,"is_passed":false},{"stop_id":"U1073Z2","name":"Česká","arrival_time":"20:49:00","departure_time":"20:49:00","lat":49.197702,"lon":16.606463,"is_passed":false},{"stop_id":"U1397Z1","name":"Moravské náměstí","arrival_time":"20:50:00","departure_time":"20:50:00","lat":49.19996,"lon":16.607931,"is_passed":false},{"stop_id":"U1006Z1","name":"Antonínská","arrival_time":"20:51:00","departure_time":"20:51:00","lat":49.203685,"lon":16.606678,"is_passed":false},{"stop_id":"U1483Z1","name":"Pionýrská","arrival_time":"20:52:00","departure_time":"20:52:00","lat":49.207491,"lon":16.604472,"is_passed":false},{"stop_id":"U1166Z1","name":"Hrnčířská","arrival_time":"20:53:00","departure_time":"20:53:00","lat":49.210254,"lon":16.602868,"is_passed":false},{"stop_id":"U1652Z1","name":"Šumavská","arrival_time":"20:54:00","departure_time":"20:54:00","lat":49.213991,"lon":16.600669,"is_passed":false},{"stop_id":"U1233Z1","name":"Kartouzská","arrival_time":"20:55:00","departure_time":"20:55:00","lat":49.216998,"lon":16.598896,"is_passed":false},{"stop_id":"U1218Z1","name":"Jungmannova","arrival_time":"20:56:00","departure_time":"20:56:00","lat":49.220856,"lon":16.596583,"is_passed":false},{"stop_id":"U1171Z1","name":"Husitská","arrival_time":"20:57:00","departure_time":"20:57:00","lat":49.223125,"lon":16.59524,"is_passed":false},{"stop_id":"U1566Z1","name":"Semilasso","arrival_time":"20:59:00","departure_time":"20:59:00","lat":49.227417,"lon":16.592683,"is_passed":false},{"stop_id":"U1286Z1","name":"Královo Pole, nádraží","arrival_time":"21:01:00","departure_time":"21:18:00","lat":49.230031,"lon":16.595374,"is_passed":false}],"54105":[{"stop_id":"U1286Z2","name":"Královo Pole, nádraží","arrival_time":"21:18:00","departure_time":"21:18:00","lat":49.229691,"lon":16.595601,"is_passed":false},{"stop_id":"U1566Z3","name":"Semilasso","arrival_time":"21:18:00","departure_time":"21:18:00","lat":49.228432,"lon":16.593971,"is_passed":false},{"stop_id":"U1171Z2","name":"Husitská","arrival_time":"21:21:00","departure_time":"21:21:00","lat":49.223415,"lon":16.595016,"is_passed":false},{"stop_id":"U1218Z2","name":"Jungmannova","arrival_time":"21:22:00","departure_time":"21:22:00","lat":49.221083,"lon":16.596416,"is_passed":false},{"stop_id":"U1233Z2","name":"Kartouzská","arrival_time":"21:23:00","departure_time":"21:23:00","lat":49.21665,"lon":16.599078,"is_passed":false},{"stop_id":"U1652Z2","name":"Šumavská","arrival_time":"21:24:00","departure_time":"21:24:00","lat":49.214022,"lon":16.60062,"is_passed":false},{"stop_id":"U1166Z2","name":"Hrnčířská","arrival_time":"21:25:00","departure_time":"21:25:00","lat":49.21062,"lon":16.602628,"is_passed":false},{"stop_id":"U1483Z2","name":"Pionýrská","arrival_time":"21:26:00","departure_time":"21:26:00","lat":49.207904,"lon":16.604201,"is_passed":false},{"stop_id":"U1006Z2","name":"Antonínská","arrival_time":"21:27:00","departure_time":"21:27:00","lat":49.203166,"lon":16.606915,"is_passed":false},{"stop_id":"U1397Z2","name":"Moravské náměstí","arrival_time":"21:29:00","departure_time":"21:29:00","lat":49.199237,"lon":16.608067,"is_passed":false},{"stop_id":"U1073Z1","name":"Česká","arrival_time":"21:31:00","departure_time":"21:31:00","lat":49.197618,"lon":16.605584,"is_passed":false},{"stop_id":"U1637Z3","name":"Šilingrovo náměstí","arrival_time":"21:33:00","departure_time":"21:33:00","lat":49.1923,"lon":16.60424,"is_passed":false},{"stop_id":"U1428Z2","name":"Nemocnice u sv. Anny","arrival_time":"21:34:00","departure_time":"21:34:00","lat":49.191523,"lon":16.598757,"is_passed":false},{"stop_id":"U1378Z4","name":"Mendlovo náměstí","arrival_time":"21:36:00","departure_time":"21:36:00","lat":49.190204,"lon":16.594235,"is_passed":false},{"stop_id":"U1512Z1","name":"Poříčí","arrival_time":"21:38:00","departure_time":"21:38:00","lat":49.187182,"lon":16.594633,"is_passed":false},{"stop_id":"U1430Z1","name":"Nemocnice Milosrdných bratří","arrival_time":"21:39:00","departure_time":"21:39:00","lat":49.183515,"lon":16.594981,"is_passed":false},{"stop_id":"U1053Z1","name":"Celní","arrival_time":"21:41:00","departure_time":"21:41:00","lat":49.179109,"lon":16.595328,"is_passed":false},{"stop_id":"U1293Z1","name":"Krematorium","arrival_time":"21:43:00","departure_time":"21:43:00","lat":49.172308,"lon":16.586427,"is_passed":false},{"stop_id":"U1021Z1","name":"Běloruská","arrival_time":"21:44:00","departure_time":"21:44:00","lat":49.170755,"lon":16.580895,"is_passed":false},{"stop_id":"U1653Z3","name":"Švermova","arrival_time":"21:45:00","departure_time":"21:45:00","lat":49.169262,"lon":16.573246,"is_passed":false},{"stop_id":"U1472Z1","name":"Osová","arrival_time":"21:46:00","departure_time":"21:46:00","lat":49.169023,"lon":16.56653,"is_passed":false},{"stop_id":"U1227Z1","name":"Karpatská","arrival_time":"21:47:00","departure_time":"21:47:00","lat":49.168113,"lon":16.562077,"is_passed":false},{"stop_id":"U1097Z1","name":"Dunajská","arrival_time":"21:48:00","departure_time":"21:48:00","lat":49.169066,"lon":16.55664,"is_passed":false},{"stop_id":"U1616Z1","name":"Starý Lískovec, smyčka","arrival_time":"21:49:00","departure_time":"22:15:00","lat":49.171366,"lon":16.554527,"is_passed":false}],"54106":[{"stop_id":"U1616Z2","name":"Starý Lískovec, smyčka","arrival_time":"22:15:00","departure_time":"22:15:00","lat":49.170465,"lon":16.554565,"is_passed":false},{"stop_id":"U1097Z2","name":"Dunajská","arrival_time":"22:15:00","departure_time":"22:15:00","lat":49.169112,"lon":16.556485,"is_passed":false},{"stop_id":"U1227Z2","name":"Karpatská","arrival_time":"22:16:00","departure_time":"22:16:00","lat":49.168021,"lon":16.561879,"is_passed":false},{"stop_id":"U1472Z2","name":"Osová","arrival_time":"22:17:00","departure_time":"22:17:00","lat":49.169005,"lon":16.567514,"is_passed":false},{"stop_id":"U1653Z4","name":"Švermova","arrival_time":"22:18:00","departure_time":"22:18:00","lat":49.169191,"lon":16.573122,"is_passed":false},{"stop_id":"U1021Z2","name":"Běloruská","arrival_time":"22:19:00","departure_time":"22:19:00","lat":49.170662,"lon":16.580727,"is_passed":false},{"stop_id":"U1293Z2","name":"Krematorium","arrival_time":"22:20:00","departure_time":"22:20:00","lat":49.172257,"lon":16.586414,"is_passed":false},{"stop_id":"U1053Z2","name":"Celní","arrival_time":"22:23:00","departure_time":"22:23:00","lat":49.179607,"lon":16.595242,"is_passed":false},{"stop_id":"U1430Z2","name":"Nemocnice Milosrdných bratří","arrival_time":"22:24:00","departure_time":"22:24:00","lat":49.183867,"lon":16.595061,"is_passed":false},{"stop_id":"U1512Z2","name":"Poříčí","arrival_time":"22:26:00","departure_time":"22:26:00","lat":49.187409,"lon":16.594512,"is_passed":false},{"stop_id":"U1378Z3","name":"Mendlovo náměstí","arrival_time":"22:28:00","departure_time":"22:28:00","lat":49.190293,"lon":16.594781,"is_passed":false},{"stop_id":"U1428Z1","name":"Nemocnice u sv. Anny","arrival_time":"22:30:00","departure_time":"22:30:00","lat":49.191471,"lon":16.599302,"is_passed":false},{"stop_id":"U1637Z4","name":"Šilingrovo náměstí","arrival_time":"22:31:00","departure_time":"22:31:00","lat":49.192271,"lon":16.604367,"is_passed":false},{"stop_id":"U1073Z2","name":"Česká","arrival_time":"22:34:00","departure_time":"22:34:00","lat":49.197702,"lon":16.606463,"is_passed":false},{"stop_id":"U1397Z1","name":"Moravské náměstí","arrival_time":"22:35:00","departure_time":"22:35:00","lat":49.19996,"lon":16.607931,"is_passed":false},{"stop_id":"U1006Z1","name":"Antonínská","arrival_time":"22:36:00","departure_time":"22:36:00","lat":49.203685,"lon":16.606678,"is_passed":false},{"stop_id":"U1483Z1","name":"Pionýrská","arrival_time":"22:37:00","departure_time":"22:37:00","lat":49.207491,"lon":16.604472,"is_passed":false},{"stop_id":"U1166Z1","name":"Hrnčířská","arrival_time":"22:38:00","departure_time":"22:38:00","lat":49.210254,"lon":16.602868,"is_passed":false},{"stop_id":"U1652Z1","name":"Šumavská","arrival_time":"22:39:00","departure_time":"22:39:00","lat":49.213991,"lon":16.600669,"is_passed":false},{"stop_id":"U1233Z1","name":"Kartouzská","arrival_time":"22:40:00","departure_time":"22:40:00","lat":49.216998,"lon":16.598896,"is_passed":false},{"stop_id":"U1218Z1","name":"Jungmannova","arrival_time":"22:41:00","departure_time":"22:41:00","lat":49.220856,"lon":16.596583,"is_passed":false},{"stop_id":"U1171Z1","name":"Husitská","arrival_time":"22:42:00","departure_time":"22:42:00","lat":49.223125,"lon":16.59524,"is_passed":false},{"stop_id":"U1566Z1","name":"Semilasso","arrival_time":"22:44:00","departure_time":"22:44:00","lat":49.227417,"lon":16.592683,"is_passed":false},{"stop_id":"U1286Z1","name":"Královo Pole, nádraží","arrival_time":"22:46:00","departure_time":"22:49:00","lat":49.230031,"lon":16.595374,"is_passed":false}],"54107":[{"stop_id":"U1343Z2","name":"ARENA BRNO","arrival_time":"7:05:00","departure_time":"7:05:00","lat":49.191387,"lon":16.576425,"is_passed":false},{"stop_id":"U1769Z2","name":"Výstaviště - vstup G2","arrival_time":"7:06:00","departure_time":"7:06:00","lat":49.190207,"lon":16.580555,"is_passed":false},{"stop_id":"U1768Z2","name":"Výstaviště - hlavní vstup","arrival_time":"7:07:00","departure_time":"7:07:00","lat":49.189325,"lon":16.585699,"is_passed":false},{"stop_id":"U1378Z2","name":"Mendlovo náměstí","arrival_time":"7:09:00","departure_time":"7:09:00","lat":49.190034,"lon":16.593837,"is_passed":false},{"stop_id":"U1512Z1","name":"Poříčí","arrival_time":"7:11:00","departure_time":"7:11:00","lat":49.187182,"lon":16.594633,"is_passed":false},{"stop_id":"U1430Z1","name":"Nemocnice Milosrdných bratří","arrival_time":"7:12:00","departure_time":"7:12:00","lat":49.183515,"lon":16.594981,"is_passed":false},{"stop_id":"U1053Z1","name":"Celní","arrival_time":"7:14:00","departure_time":"7:14:00","lat":49.179109,"lon":16.595328,"is_passed":false},{"stop_id":"U1293Z1","name":"Krematorium","arrival_time":"7:16:00","departure_time":"7:16:00","lat":49.172308,"lon":16.586427,"is_passed":false},{"stop_id":"U1021Z1","name":"Běloruská","arrival_time":"7:17:00","departure_time":"7:17:00","lat":49.170755,"lon":16.580895,"is_passed":false},{"stop_id":"U1653Z3","name":"Švermova","arrival_time":"7:18:00","departure_time":"7:18:00","lat":49.169262,"lon":16.573246,"is_passed":false},{"stop_id":"U1472Z1","name":"Osová","arrival_time":"7:19:00","departure_time":"7:19:00","lat":49.169023,"lon":16.56653,"is_passed":false},{"stop_id":"U1227Z1","name":"Karpatská","arrival_time":"7:20:00","departure_time":"7:20:00","lat":49.168113,"lon":16.562077,"is_passed":false},{"stop_id":"U1097Z1","name":"Dunajská","arrival_time":"7:21:00","departure_time":"7:21:00","lat":49.169066,"lon":16.55664,"is_passed":false},{"stop_id":"U1616Z1","name":"Starý Lískovec, smyčka","arrival_time":"7:22:00","departure_time":"7:22:00","lat":49.171366,"lon":16.554527,"is_passed":false}],"54108":[{"stop_id":"U1616Z2","name":"Starý Lískovec, smyčka","arrival_time":"7:45:00","departure_time":"7:45:00","lat":49.170465,"lon":16.554565,"is_passed":false},{"stop_id":"U1097Z2","name":"Dunajská","arrival_time":"7:45:00","departure_time":"7:45:00","lat":49.169112,"lon":16.556485,"is_passed":false},{"stop_id":"U1227Z2","name":"Karpatská","arrival_time":"7:46:00","departure_time":"7:46:00","lat":49.168021,"lon":16.561879,"is_passed":false},{"stop_id":"U1472Z2","name":"Osová","arrival_time":"7:47:00","departure_time":"7:47:00","lat":49.169005,"lon":16.567514,"is_passed":false},{"stop_id":"U1653Z4","name":"Švermova","arrival_time":"7:48:00","departure_time":"7:48:00","lat":49.169191,"lon":16.573122,"is_passed":false},{"stop_id":"U1021Z2","name":"Běloruská","arrival_time":"7:49:00","departure_time":"7:49:00","lat":49.170662,"lon":16.580727,"is_passed":false},{"stop_id":"U1293Z2","name":"Krematorium","arrival_time":"7:50:00","departure_time":"7:50:00","lat":49.172257,"lon":16.586414,"is_passed":false},{"stop_id":"U1053Z2","name":"Celní","arrival_time":"7:53:00","departure_time":"7:53:00","lat":49.179607,"lon":16.595242,"is_passed":false},{"stop_id":"U1430Z2","name":"Nemocnice Milosrdných bratří","arrival_time":"7:54:00","departure_time":"7:54:00","lat":49.183867,"lon":16.595061,"is_passed":false},{"stop_id":"U1512Z2","name":"Poříčí","arrival_time":"7:56:00","departure_time":"7:56:00","lat":49.187409,"lon":16.594512,"is_passed":false},{"stop_id":"U1378Z3","name":"Mendlovo náměstí","arrival_time":"7:58:00","departure_time":"7:58:00","lat":49.190293,"lon":16.594781,"is_passed":false},{"stop_id":"U1428Z1","name":"Nemocnice u sv. Anny","arrival_time":"8:00:00","departure_time":"8:00:00","lat":49.191471,"lon":16.599302,"is_passed":false},{"stop_id":"U1637Z4","name":"Šilingrovo náměstí","arrival_time":"8:01:00","departure_time":"8:01:00","lat":49.192271,"lon":16.604367,"is_passed":false},{"stop_id":"U1073Z2","name":"Česká","arrival_time":"8:04:00","departure_time":"8:04:00","lat":49.197702,"lon":16.606463,"is_passed":false},{"stop_id":"U1397Z1","name":"Moravské náměstí","arrival_time":"8:05:00","departure_time":"8:05:00","lat":49.19996,"lon":16.607931,"is_passed":false},{"stop_id":"U1006Z1","name":"Antonínská","arrival_time":"8:06:00","departure_time":"8:06:00","lat":49.203685,"lon":16.606678,"is_passed":false},{"stop_id":"U1483Z1","name":"Pionýrská","arrival_time":"8:07:00","departure_time":"8:07:00","lat":49.207491,"lon":16.604472,"is_passed":false},{"stop_id":"U1166Z1","name":"Hrnčířská","arrival_time":"8:08:00","departure_time":"8:08:00","lat":49.210254,"lon":16.602868,"is_passed":false},{"stop_id":"U1652Z1","name":"Šumavská","arrival_time":"8:09:00","departure_time":"8:09:00","lat":49.213991,"lon":16.600669,"is_passed":false},{"stop_id":"U1233Z1","name":"Kartouzská","arrival_time":"8:10:00","departure_time":"8:10:00","lat":49.216998,"lon":16.598896,"is_passed":false},{"stop_id":"U1218Z1","name":"Jungmannova","arrival_time":"8:11:00","departure_time":"8:11:00","lat":49.220856,"lon":16.596583,"is_passed":false},{"stop_id":"U1171Z1","name":"Husitská","arrival_time":"8:12:00","departure_time":"8:12:00","lat":49.223125,"lon":16.59524,"is_passed":false},{"stop_id":"U1566Z1","name":"Semilasso","arrival_time":"8:14:00","departure_time":"8:14:00","lat":49.227417,"lon":16.592683,"is_passed":false},{"stop_id":"U1286Z1","name":"Královo Pole, nádraží","arrival_time":"8:16:00","departure_time":"8:37:00","lat":49.230031,"lon":16.595374,"is_passed":false}],"54109":[{"stop_id":"U1286Z2","name":"Královo Pole, nádraží","arrival_time":"8:37:00","departure_time":"8:37:00","lat":49.229691,"lon":16.595601,"is_passed":false},{"stop_id":"U1566Z3","name":"Semilasso","arrival_time":"8:37:00","departure_time":"8:37:00","lat":49.228432,"lon":16.593971,"is_passed":false},{"stop_id":"U1171Z2","name":"Husitská","arrival_time":"8:40:00","departure_time":"8:40:00","lat":49.223415,"lon":16.595016,"is_passed":false},{"stop_id":"U1218Z2","name":"Jungmannova","arrival_time":"8:41:00","departure_time":"8:41:00","lat":49.221083,"lon":16.596416,"is_passed":false},{"stop_id":"U1233Z2","name":"Kartouzská","arrival_time":"8:42:00","departure_time":"8:42:00","lat":49.21665,"lon":16.599078,"is_passed":false},{"stop_id":"U1652Z2","name":"Šumavská","arrival_time":"8:43:00","departure_time":"8:43:00","lat":49.214022,"lon":16.60062,"is_passed":false},{"stop_id":"U1166Z2","name":"Hrnčířská","arrival_time":"8:44:00","departure_time":"8:44:00","lat":49.21062,"lon":16.602628,"is_passed":false},{"stop_id":"U1483Z2","name":"Pionýrská","arrival_time":"8:45:00","departure_time":"8:45:00","lat":49.207904,"lon":16.604201,"is_passed":false},{"stop_id":"U1006Z2","name":"Antonínská","arrival_time":"8:46:00","departure_time":"8:46:00","lat":49.203166,"lon":16.606915,"is_passed":false},{"stop_id":"U1397Z2","name":"Moravské náměstí","arrival_time":"8:48:00","departure_time":"8:48:00","lat":49.199237,"lon":16.608067,"is_passed":false},{"stop_id":"U1073Z1","name":"Česká","arrival_time":"8:50:00","departure_time":"8:50:00","lat":49.197618,"lon":16.605584,"is_passed":false},{"stop_id":"U1637Z3","name":"Šilingrovo náměstí","arrival_time":"8:53:00","departure_time":"8:53:00","lat":49.1923,"lon":16.60424,"is_passed":false},{"stop_id":"U1428Z2","name":"Nemocnice u sv. Anny","arrival_time":"8:54:00","departure_time":"8:54:00","lat":49.191523,"lon":16.598757,"is_passed":false},{"stop_id":"U1378Z4","name":"Mendlovo náměstí","arrival_time":"8:56:00","departure_time":"8:56:00","lat":49.190204,"lon":16.594235,"is_passed":false},{"stop_id":"U1512Z1","name":"Poříčí","arrival_time":"8:58:00","departure_time":"8:58:00","lat":49.187182,"lon":16.594633,"is_passed":false},{"stop_id":"U1430Z1","name":"Nemocnice Milosrdných bratří","arrival_time":"8:59:00","departure_time":"8:59:00","lat":49.183515,"lon":16.594981,"is_passed":false},{"stop_id":"U1053Z1","name":"Celní","arrival_time":"9:01:00","departure_time":"9:01:00","lat":49.179109,"lon":16.595328,"is_passed":false},{"stop_id":"U1293Z1","name":"Krematorium","arrival_time":"9:03:00","departure_time":"9:03:00","lat":49.172308,"lon":16.586427,"is_passed":false},{"stop_id":"U1021Z1","name":"Běloruská","arrival_time":"9:04:00","departure_time":"9:04:00","lat":49.170755,"lon":16.580895,"is_passed":false},{"stop_id":"U1653Z3","name":"Švermova","arrival_time":"9:05:00","departure_time":"9:05:00","lat":49.169262,"lon":16.573246,"is_passed":false},{"stop_id":"U1472Z1","name":"Osová","arrival_time":"9:06:00","departure_time":"9:06:00","lat":49.169023,"lon":16.56653,"is_passed":false},{"stop_id":"U1227Z1","name":"Karpatská","arrival_time":"9:07:00","departure_time":"9:07:00","lat":49.168113,"lon":16.562077,"is_passed":false},{"stop_id":"U1097Z1","name":"Dunajská","arrival_time":"9:08:00","departure_time":"9:08:00","lat":49.169066,"lon":16.55664,"is_passed":false},{"stop_id":"U1616Z1","name":"Starý Lískovec, smyčka","arrival_time":"9:10:00","departure_time":"9:14:00","lat":49.171366,"lon":16.554527,"is_passed":false}],"54110":[{"stop_id":"U1616Z2","name":"Starý Lískovec, smyčka","arrival_time":"9:14:00","departure_time":"9:14:00","lat":49.170465,"lon":16.554565,"is_passed":false},{"stop_id":"U1097Z2","name":"Dunajská","arrival_time":"9:14:00","departure_time":"9:14:00","lat":49.169112,"lon":16.556485,"is_passed":false},{"stop_id":"U1227Z2","name":"Karpatská","arrival_time":"9:15:00","departure_time":"9:15:00","lat":49.168021,"lon":16.561879,"is_passed":false},{"stop_id":"U1472Z2","name":"Osová","arrival_time":"9:16:00","departure_time":"9:16:00","lat":49.169005,"lon":16.567514,"is_passed":false},{"stop_id":"U1653Z4","name":"Švermova","arrival_time":"9:17:00","departure_time":"9:17:00","lat":49.169191,"lon":16.573122,"is_passed":false},{"stop_id":"U1021Z2","name":"Běloruská","arrival_time":"9:18:00","departure_time":"9:18:00","lat":49.170662,"lon":16.580727,"is_passed":false},{"stop_id":"U1293Z2","name":"Krematorium","arrival_time":"9:19:00","departure_time":"9:19:00","lat":49.172257,"lon":16.586414,"is_passed":false},{"stop_id":"U1053Z2","name":"Celní","arrival_time":"9:22:00","departure_time":"9:22:00","lat":49.179607,"lon":16.595242,"is_passed":false},{"stop_id":"U1430Z2","name":"Nemocnice Milosrdných bratří","arrival_time":"9:23:00","departure_time":"9:23:00","lat":49.183867,"lon":16.595061,"is_passed":false},{"stop_id":"U1512Z2","name":"Poříčí","arrival_time":"9:25:00","departure_time":"9:25:00","lat":49.187409,"lon":16.594512,"is_passed":false},{"stop_id":"U1378Z3","name":"Mendlovo náměstí","arrival_time":"9:27:00","departure_time":"9:27:00","lat":49.190293,"lon":16.594781,"is_passed":false},{"stop_id":"U1428Z1","name":"Nemocnice u sv. Anny","arrival_time":"9:29:00","departure_time":"9:29:00","lat":49.191471,"lon":16.599302,"is_passed":false},{"stop_id":"U1637Z4","name":"Šilingrovo náměstí","arrival_time":"9:30:00","departure_time":"9:30:00","lat":49.192271,"lon":16.604367,"is_passed":false},{"stop_id":"U1073Z2","name":"Česká","arrival_time":"9:34:00","departure_time":"9:34:00","lat":49.197702,"lon":16.606463,"is_passed":false},{"stop_id":"U1397Z1","name":"Moravské náměstí","arrival_time":"9:35:00","departure_time":"9:35:00","lat":49.19996,"lon":16.607931,"is_passed":false},{"stop_id":"U1006Z1","name":"Antonínská","arrival_time":"9:36:00","departure_time":"9:36:00","lat":49.203685,"lon":16.606678,"is_passed":false},{"stop_id":"U1483Z1","name":"Pionýrská","arrival_time":"9:37:00","departure_time":"9:37:00","lat":49.207491,"lon":16.604472,"is_passed":false},{"stop_id":"U1166Z1","name":"Hrnčířská","arrival_time":"9:39:00","departure_time":"9:39:00","lat":49.210254,"lon":16.602868,"is_passed":false},{"stop_id":"U1652Z1","name":"Šumavská","arrival_time":"9:40:00","departure_time":"9:40:00","lat":49.213991,"lon":16.600669,"is_passed":false},{"stop_id":"U1233Z1","name":"Kartouzská","arrival_time":"9:41:00","departure_time":"9:41:00","lat":49.216998,"lon":16.598896,"is_passed":false},{"stop_id":"U1218Z1","name":"Jungmannova","arrival_time":"9:42:00","departure_time":"9:42:00","lat":49.220856,"lon":16.596583,"is_passed":false},{"stop_id":"U1171Z1","name":"Husitská","arrival_time":"9:43:00","departure_time":"9:43:00","lat":49.223125,"lon":16.59524,"is_passed":false},{"stop_id":"U1566Z1","name":"Semilasso","arrival_time":"9:45:00","departure_time":"9:45:00","lat":49.227417,"lon":16.592683,"is_passed":false},{"stop_id":"U1286Z1","name":"Královo Pole, nádraží","arrival_time":"9:47:00","departure_time":"9:57:00","lat":49.230031,"lon":16.595374,"is_passed":false}],"54111":[{"stop_id":"U1286Z2","name":"Královo Pole, nádraží","arrival_time":"9:57:00","departure_time":"9:57:00","lat":49.229691,"lon":16.595601,"is_passed":false},{"stop_id":"U1566Z3","name":"Semilasso","arrival_time":"9:57:00","departure_time":"9:57:00","lat":49.228432,"lon":16.593971,"is_passed":false},{"stop_id":"U1171Z2","name":"Husitská","arrival_time":"10:00:00","departure_time":"10:00:00","lat":49.223415,"lon":16.595016,"is_passed":false},{"stop_id":"U1218Z2","name":"Jungmannova","arrival_time":"10:01:00","departure_time":"10:01:00","lat":49.221083,"lon":16.596416,"is_passed":false},{"stop_id":"U1233Z2","name":"Kartouzská","arrival_time":"10:02:00","departure_time":"10:02:00","lat":49.21665,"lon":16.599078,"is_passed":false},{"stop_id":"U1652Z2","name":"Šumavská","arrival_time":"10:03:00","departure_time":"10:03:00","lat":49.214022,"lon":16.60062,"is_passed":false},{"stop_id":"U1166Z2","name":"Hrnčířská","arrival_time":"10:04:00","departure_time":"10:04:00","lat":49.21062,"lon":16.602628,"is_passed":false},{"stop_id":"U1483Z2","name":"Pionýrská","arrival_time":"10:05:00","departure_time":"10:05:00","lat":49.207904,"lon":16.604201,"is_passed":false},{"stop_id":"U1006Z2","name":"Antonínská","arrival_time":"10:06:00","departure_time":"10:06:00","lat":49.203166,"lon":16.606915,"is_passed":false},{"stop_id":"U1397Z2","name":"Moravské náměstí","arrival_time":"10:08:00","departure_time":"10:08:00","lat":49.199237,"lon":16.608067,"is_passed":false},{"stop_id":"U1073Z1","name":"Česká","arrival_time":"10:10:00","departure_time":"10:10:00","lat":49.197618,"lon":16.605584,"is_passed":false},{"stop_id":"U1637Z3","name":"Šilingrovo náměstí","arrival_time":"10:13:00","departure_time":"10:13:00","lat":49.1923,"lon":16.60424,"is_passed":false},{"stop_id":"U1428Z2","name":"Nemocnice u sv. Anny","arrival_time":"10:14:00","departure_time":"10:14:00","lat":49.191523,"lon":16.598757,"is_passed":false},{"stop_id":"U1378Z4","name":"Mendlovo náměstí","arrival_time":"10:16:00","departure_time":"10:16:00","lat":49.190204,"lon":16.594235,"is_passed":false},{"stop_id":"U1512Z1","name":"Poříčí","arrival_time":"10:18:00","departure_time":"10:18:00","lat":49.187182,"lon":16.594633,"is_passed":false},{"stop_id":"U1430Z1","name":"Nemocnice Milosrdných bratří","arrival_time":"10:19:00","departure_time":"10:19:00","lat":49.183515,"lon":16.594981,"is_passed":false},{"stop_id":"U1053Z1","name":"Celní","arrival_time":"10:21:00","departure_time":"10:21:00","lat":49.179109,"lon":16.595328,"is_passed":false},{"stop_id":"U1293Z1","name":"Krematorium","arrival_time":"10:23:00","departure_time":"10:23:00","lat":49.172308,"lon":16.586427,"is_passed":false},{"stop_id":"U1021Z1","name":"Běloruská","arrival_time":"10:24:00","departure_time":"10:24:00","lat":49.170755,"lon":16.580895,"is_passed":false},{"stop_id":"U1653Z3","name":"Švermova","arrival_time":"10:25:00","departure_time":"10:25:00","lat":49.169262,"lon":16.573246,"is_passed":false},{"stop_id":"U1472Z1","name":"Osová","arrival_time":"10:26:00","departure_time":"10:26:00","lat":49.169023,"lon":16.56653,"is_passed":false},{"stop_id":"U1227Z1","name":"Karpatská","arrival_time":"10:27:00","departure_time":"10:27:00","lat":49.168113,"lon":16.562077,"is_passed":false},{"stop_id":"U1097Z1","name":"Dunajská","arrival_time":"10:28:00","departure_time":"10:28:00","lat":49.169066,"lon":16.55664,"is_passed":false},{"stop_id":"U1616Z1","name":"Starý Lískovec, smyčka","arrival_time":"10:30:00","departure_time":"10:44:00","lat":49.171366,"lon":16.554527,"is_passed":false}],"54112":[{"stop_id":"U1616Z2","name":"Starý Lískovec, smyčka","arrival_time":"10:44:00","departure_time":"10:44:00","lat":49.170465,"lon":16.554565,"is_passed":false},{"stop_id":"U1097Z2","name":"Dunajská","arrival_time":"10:44:00","departure_time":"10:44:00","lat":49.169112,"lon":16.556485,"is_passed":false},{"stop_id":"U1227Z2","name":"Karpatská","arrival_time":"10:45:00","departure_time":"10:45:00","lat":49.168021,"lon":16.561879,"is_passed":false},{"stop_id":"U1472Z2","name":"Osová","arrival_time":"10:46:00","departure_time":"10:46:00","lat":49.169005,"lon":16.567514,"is_passed":false},{"stop_id":"U1653Z4","name":"Švermova","arrival_time":"10:47:00","departure_time":"10:47:00","lat":49.169191,"lon":16.573122,"is_passed":false},{"stop_id":"U1021Z2","name":"Běloruská","arrival_time":"10:48:00","departure_time":"10:48:00","lat":49.170662,"lon":16.580727,"is_passed":false},{"stop_id":"U1293Z2","name":"Krematorium","arrival_time":"10:49:00","departure_time":"10:49:00","lat":49.172257,"lon":16.586414,"is_passed":false},{"stop_id":"U1053Z2","name":"Celní","arrival_time":"10:52:00","departure_time":"10:52:00","lat":49.179607,"lon":16.595242,"is_passed":false},{"stop_id":"U1430Z2","name":"Nemocnice Milosrdných bratří","arrival_time":"10:53:00","departure_time":"10:53:00","lat":49.183867,"lon":16.595061,"is_passed":false},{"stop_id":"U1512Z2","name":"Poříčí","arrival_time":"10:55:00","departure_time":"10:55:00","lat":49.187409,"lon":16.594512,"is_passed":false},{"stop_id":"U1378Z3","name":"Mendlovo náměstí","arrival_time":"10:57:00","departure_time":"10:57:00","lat":49.190293,"lon":16.594781,"is_passed":false},{"stop_id":"U1428Z1","name":"Nemocnice u sv. Anny","arrival_time":"10:59:00","departure_time":"10:59:00","lat":49.191471,"lon":16.599302,"is_passed":false},{"stop_id":"U1637Z4","name":"Šilingrovo náměstí","arrival_time":"11:00:00","departure_time":"11:00:00","lat":49.192271,"lon":16.604367,"is_passed":false},{"stop_id":"U1073Z2","name":"Česká","arrival_time":"11:04:00","departure_time":"11:04:00","lat":49.197702,"lon":16.606463,"is_passed":false},{"stop_id":"U1397Z1","name":"Moravské náměstí","arrival_time":"11:05:00","departure_time":"11:05:00","lat":49.19996,"lon":16.607931,"is_passed":false},{"stop_id":"U1006Z1","name":"Antonínská","arrival_time":"11:06:00","departure_time":"11:06:00","lat":49.203685,"lon":16.606678,"is_passed":false},{"stop_id":"U1483Z1","name":"Pionýrská","arrival_time":"11:07:00","departure_time":"11:07:00","lat":49.207491,"lon":16.604472,"is_passed":false},{"stop_id":"U1166Z1","name":"Hrnčířská","arrival_time":"11:09:00","departure_time":"11:09:00","lat":49.210254,"lon":16.602868,"is_passed":false},{"stop_id":"U1652Z1","name":"Šumavská","arrival_time":"11:10:00","departure_time":"11:10:00","lat":49.213991,"lon":16.600669,"is_passed":false},{"stop_id":"U1233Z1","name":"Kartouzská","arrival_time":"11:11:00","departure_time":"11:11:00","lat":49.216998,"lon":16.598896,"is_passed":false},{"stop_id":"U1218Z1","name":"Jungmannova","arrival_time":"11:12:00","departure_time":"11:12:00","lat":49.220856,"lon":16.596583,"is_passed":false},{"stop_id":"U1171Z1","name":"Husitská","arrival_time":"11:13:00","departure_time":"11:13:00","lat":49.223125,"lon":16.59524,"is_passed":false},{"stop_id":"U1566Z1","name":"Semilasso","arrival_time":"11:15:00","departure_time":"11:15:00","lat":49.227417,"lon":16.592683,"is_passed":false},{"stop_id":"U1286Z1","name":"Královo Pole, nádraží","arrival_time":"11:17:00","departure_time":"11:37:00","lat":49.230031,"lon":16.595374,"is_passed":false}],"54113":[{"stop_id":"U1286Z2","name":"Královo Pole, nádraží","arrival_time":"11:37:00","departure_time":"11:37:00","lat":49.229691,"lon":16.595601,"is_passed":false},{"stop_id":"U1566Z3","name":"Semilasso","arrival_time":"11:37:00","departure_time":"11:37:00","lat":49.228432,"lon":16.593971,"is_passed":false},{"stop_id":"U1171Z2","name":"Husitská","arrival_time":"11:40:00","departure_time":"11:40:00","lat":49.223415,"lon":16.595016,"is_passed":false},{"stop_id":"U1218Z2","name":"Jungmannova","arrival_time":"11:41:00","departure_time":"11:41:00","lat":49.221083,"lon":16.596416,"is_passed":false},{"stop_id":"U1233Z2","name":"Kartouzská","arrival_time":"11:42:00","departure_time":"11:42:00","lat":49.21665,"lon":16.599078,"is_passed":false},{"stop_id":"U1652Z2","name":"Šumavská","arrival_time":"11:43:00","departure_time":"11:43:00","lat":49.214022,"lon":16.60062,"is_passed":false},{"stop_id":"U1166Z2","name":"Hrnčířská","arrival_time":"11:44:00","departure_time":"11:44:00","lat":49.21062,"lon":16.602628,"is_passed":false},{"stop_id":"U1483Z2","name":"Pionýrská","arrival_time":"11:45:00","departure_time":"11:45:00","lat":49.207904,"lon":16.604201,"is_passed":false},{"stop_id":"U1006Z2","name":"Antonínská","arrival_time":"11:46:00","departure_time":"11:46:00","lat":49.203166,"lon":16.606915,"is_passed":false},{"stop_id":"U1397Z2","name":"Moravské náměstí","arrival_time":"11:48:00","departure_time":"11:48:00","lat":49.199237,"lon":16.608067,"is_passed":false},{"stop_id":"U1073Z1","name":"Česká","arrival_time":"11:50:00","departure_time":"11:50:00","lat":49.197618,"lon":16.605584,"is_passed":false},{"stop_id":"U1637Z3","name":"Šilingrovo náměstí","arrival_time":"11:53:00","departure_time":"11:53:00","lat":49.1923,"lon":16.60424,"is_passed":false},{"stop_id":"U1428Z2","name":"Nemocnice u sv. Anny","arrival_time":"11:54:00","departure_time":"11:54:00","lat":49.191523,"lon":16.598757,"is_passed":false},{"stop_id":"U1378Z4","name":"Mendlovo náměstí","arrival_time":"11:56:00","departure_time":"11:56:00","lat":49.190204,"lon":16.594235,"is_passed":false},{"stop_id":"U1512Z1","name":"Poříčí","arrival_time":"11:58:00","departure_time":"11:58:00","lat":49.187182,"lon":16.594633,"is_passed":false},{"stop_id":"U1430Z1","name":"Nemocnice Milosrdných bratří","arrival_time":"11:59:00","departure_time":"11:59:00","lat":49.183515,"lon":16.594981,"is_passed":false},{"stop_id":"U1053Z1","name":"Celní","arrival_time":"12:01:00","departure_time":"12:01:00","lat":49.179109,"lon":16.595328,"is_passed":false},{"stop_id":"U1293Z1","name":"Krematorium","arrival_time":"12:03:00","departure_time":"12:03:00","lat":49.172308,"lon":16.586427,"is_passed":false},{"stop_id":"U1021Z1","name":"Běloruská","arrival_time":"12:04:00","departure_time":"12:04:00","lat":49.170755,"lon":16.580895,"is_passed":false},{"stop_id":"U1653Z3","name":"Švermova","arrival_time":"12:05:00","departure_time":"12:05:00","lat":49.169262,"lon":16.573246,"is_passed":false},{"stop_id":"U1472Z1","name":"Osová","arrival_time":"12:06:00","departure_time":"12:06:00","lat":49.169023,"lon":16.56653,"is_passed":false},{"stop_id":"U1227Z1","name":"Karpatská","arrival_time":"12:07:00","departure_time":"12:07:00","lat":49.168113,"lon":16.562077,"is_passed":false},{"stop_id":"U1097Z1","name":"Dunajská","arrival_time":"12:08:00","departure_time":"12:08:00","lat":49.169066,"lon":16.55664,"is_passed":false},{"stop_id":"U1616Z1","name":"Starý Lískovec, smyčka","arrival_time":"12:10:00","departure_time":"12:24:00","lat":49.171366,"lon":16.554527,"is_passed":false}],"54114":[{"stop_id":"U1616Z2","name":"Starý Lískovec, smyčka","arrival_time":"12:24:00","departure_time":"12:24:00","lat":49.170465,"lon":16.554565,"is_passed":false},{"stop_id":"U1097Z2","name":"Dunajská","arrival_time":"12:24:00","departure_time":"12:24:00","lat":49.169112,"lon":16.556485,"is_passed":false},{"stop_id":"U1227Z2","name":"Karpatská","arrival_time":"12:25:00","departure_time":"12:25:00","lat":49.168021,"lon":16.561879,"is_passed":false},{"stop_id":"U1472Z2","name":"Osová","arrival_time":"12:26:00","departure_time":"12:26:00","lat":49.169005,"lon":16.567514,"is_passed":false},{"stop_id":"U1653Z4","name":"Švermova","arrival_time":"12:27:00","departure_time":"12:27:00","lat":49.169191,"lon":16.573122,"is_passed":false},{"stop_id":"U1021Z2","name":"Běloruská","arrival_time":"12:28:00","departure_time":"12:28:00","lat":49.170662,"lon":16.580727,"is_passed":false},{"stop_id":"U1293Z2","name":"Krematorium","arrival_time":"12:29:00","departure_time":"12:29:00","lat":49.172257,"lon":16.586414,"is_passed":false},{"stop_id":"U1053Z2","name":"Celní","arrival_time":"12:32:00","departure_time":"12:32:00","lat":49.179607,"lon":16.595242,"is_passed":false},{"stop_id":"U1430Z2","name":"Nemocnice Milosrdných bratří","arrival_time":"12:33:00","departure_time":"12:33:00","lat":49.183867,"lon":16.595061,"is_passed":false},{"stop_id":"U1512Z2","name":"Poříčí","arrival_time":"12:35:00","departure_time":"12:35:00","lat":49.187409,"lon":16.594512,"is_passed":false},{"stop_id":"U1378Z3","name":"Mendlovo náměstí","arrival_time":"12:37:00","departure_time":"12:37:00","lat":49.190293,"lon":16.594781,"is_passed":false},{"stop_id":"U1428Z1","name":"Nemocnice u sv. Anny","arrival_time":"12:39:00","departure_time":"12:39:00","lat":49.191471,"lon":16.599302,"is_passed":false},{"stop_id":"U1637Z4","name":"Šilingrovo náměstí","arrival_time":"12:40:00","departure_time":"12:40:00","lat":49.192271,"lon":16.604367,"is_passed":false},{"stop_id":"U1073Z2","name":"Česká","arrival_time":"12:44:00","departure_time":"12:44:00","lat":49.197702,"lon":16.606463,"is_passed":false},{"stop_id":"U1397Z1","name":"Moravské náměstí","arrival_time":"12:45:00","departure_time":"12:45:00","lat":49.19996,"lon":16.607931,"is_passed":false},{"stop_id":"U1006Z1","name":"Antonínská","arrival_time":"12:46:00","departure_time":"12:46:00","lat":49.203685,"lon":16.606678,"is_passed":false},{"stop_id":"U1483Z1","name":"Pionýrská","arrival_time":"12:47:00","departure_time":"12:47:00","lat":49.207491,"lon":16.604472,"is_passed":false},{"stop_id":"U1166Z1","name":"Hrnčířská","arrival_time":"12:49:00","departure_time":"12:49:00","lat":49.210254,"lon":16.602868,"is_passed":false},{"stop_id":"U1652Z1","name":"Šumavská","arrival_time":"12:50:00","departure_time":"12:50:00","lat":49.213991,"lon":16.600669,"is_passed":false},{"stop_id":"U1233Z1","name":"Kartouzská","arrival_time":"12:51:00","departure_time":"12:51:00","lat":49.216998,"lon":16.598896,"is_passed":false},{"stop_id":"U1218Z1","name":"Jungmannova","arrival_time":"12:52:00","departure_time":"12:52:00","lat":49.220856,"lon":16.596583,"is_passed":false},{"stop_id":"U1171Z1","name":"Husitská","arrival_time":"12:53:00","departure_time":"12:53:00","lat":49.223125,"lon":16.59524,"is_passed":false},{"stop_id":"U1566Z1","name":"Semilasso","arrival_time":"12:55:00","departure_time":"12:55:00","lat":49.227417,"lon":16.592683,"is_passed":false},{"stop_id":"U1286Z1","name":"Královo Pole, nádraží","arrival_time":"12:57:00","departure_time":"13:17:00","lat":49.230031,"lon":16.595374,"is_passed":false}],"54115":[{"stop_id":"U1286Z2","name":"Královo Pole, nádraží","arrival_time":"13:17:00","departure_time":"13:17:00","lat":49.229691,"lon":16.595601,"is_passed":false},{"stop_id":"U1566Z3","name":"Semilasso","arrival_time":"13:17:00","departure_time":"13:17:00","lat":49.228432,"lon":16.593971,"is_passed":false},{"stop_id":"U1171Z2","name":"Husitská","arrival_time":"13:20:00","departure_time":"13:20:00","lat":49.223415,"lon":16.595016,"is_passed":false},{"stop_id":"U1218Z2","name":"Jungmannova","arrival_time":"13:21:00","departure_time":"13:21:00","lat":49.221083,"lon":16.596416,"is_passed":false},{"stop_id":"U1233Z2","name":"Kartouzská","arrival_time":"13:22:00","departure_time":"13:22:00","lat":49.21665,"lon":16.599078,"is_passed":false},{"stop_id":"U1652Z2","name":"Šumavská","arrival_time":"13:23:00","departure_time":"13:23:00","lat":49.214022,"lon":16.60062,"is_passed":false},{"stop_id":"U1166Z2","name":"Hrnčířská","arrival_time":"13:24:00","departure_time":"13:24:00","lat":49.21062,"lon":16.602628,"is_passed":false},{"stop_id":"U1483Z2","name":"Pionýrská","arrival_time":"13:25:00","departure_time":"13:25:00","lat":49.207904,"lon":16.604201,"is_passed":false},{"stop_id":"U1006Z2","name":"Antonínská","arrival_time":"13:26:00","departure_time":"13:26:00","lat":49.203166,"lon":16.606915,"is_passed":false},{"stop_id":"U1397Z2","name":"Moravské náměstí","arrival_time":"13:28:00","departure_time":"13:28:00","lat":49.199237,"lon":16.608067,"is_passed":false},{"stop_id":"U1073Z1","name":"Česká","arrival_time":"13:30:00","departure_time":"13:30:00","lat":49.197618,"lon":16.605584,"is_passed":false},{"stop_id":"U1637Z3","name":"Šilingrovo náměstí","arrival_time":"13:33:00","departure_time":"13:33:00","lat":49.1923,"lon":16.60424,"is_passed":false},{"stop_id":"U1428Z2","name":"Nemocnice u sv. Anny","arrival_time":"13:34:00","departure_time":"13:34:00","lat":49.191523,"lon":16.598757,"is_passed":false},{"stop_id":"U1378Z4","name":"Mendlovo náměstí","arrival_time":"13:36:00","departure_time":"13:36:00","lat":49.190204,"lon":16.594235,"is_passed":false},{"stop_id":"U1512Z1","name":"Poříčí","arrival_time":"13:38:00","departure_time":"13:38:00","lat":49.187182,"lon":16.594633,"is_passed":false},{"stop_id":"U1430Z1","name":"Nemocnice Milosrdných bratří","arrival_time":"13:39:00","departure_time":"13:39:00","lat":49.183515,"lon":16.594981,"is_passed":false},{"stop_id":"U1053Z1","name":"Celní","arrival_time":"13:41:00","departure_time":"13:41:00","lat":49.179109,"lon":16.595328,"is_passed":false},{"stop_id":"U1293Z1","name":"Krematorium","arrival_time":"13:43:00","departure_time":"13:43:00","lat":49.172308,"lon":16.586427,"is_passed":false},{"stop_id":"U1021Z1","name":"Běloruská","arrival_time":"13:44:00","departure_time":"13:44:00","lat":49.170755,"lon":16.580895,"is_passed":false},{"stop_id":"U1653Z3","name":"Švermova","arrival_time":"13:45:00","departure_time":"13:45:00","lat":49.169262,"lon":16.573246,"is_passed":false},{"stop_id":"U1472Z1","name":"Osová","arrival_time":"13:46:00","departure_time":"13:46:00","lat":49.169023,"lon":16.56653,"is_passed":false},{"stop_id":"U1227Z1","name":"Karpatská","arrival_time":"13:47:00","departure_time":"13:47:00","lat":49.168113,"lon":16.562077,"is_passed":false},{"stop_id":"U1097Z1","name":"Dunajská","arrival_time":"13:48:00","departure_time":"13:48:00","lat":49.169066,"lon":16.55664,"is_passed":false},{"stop_id":"U1616Z1","name":"Starý Lískovec, smyčka","arrival_time":"13:50:00","departure_time":"14:04:00","lat":49.171366,"lon":16.554527,"is_passed":false}],"54116":[{"stop_id":"U1616Z2","name":"Starý Lískovec, smyčka","arrival_time":"14:04:00","departure_time":"14:04:00","lat":49.170465,"lon":16.554565,"is_passed":false},{"stop_id":"U1097Z2","name":"Dunajská","arrival_time":"14:04:00","departure_time":"14:04:00","lat":49.169112,"lon":16.556485,"is_passed":false},{"stop_id":"U1227Z2","name":"Karpatská","arrival_time":"14:05:00","departure_time":"14:05:00","lat":49.168021,"lon":16.561879,"is_passed":false},{"stop_id":"U1472Z2","name":"Osová","arrival_time":"14:06:00","departure_time":"14:06:00","lat":49.169005,"lon":16.567514,"is_passed":false},{"stop_id":"U1653Z4","name":"Švermova","arrival_time":"14:07:00","departure_time":"14:07:00","lat":49.169191,"lon":16.573122,"is_passed":false},{"stop_id":"U1021Z2","name":"Běloruská","arrival_time":"14:08:00","departure_time":"14:08:00","lat":49.170662,"lon":16.580727,"is_passed":false},{"stop_id":"U1293Z2","name":"Krematorium","arrival_time":"14:09:00","departure_time":"14:09:00","lat":49.172257,"lon":16.586414,"is_passed":false},{"stop_id":"U1053Z2","name":"Celní","arrival_time":"14:12:00","departure_time":"14:12:00","lat":49.179607,"lon":16.595242,"is_passed":false},{"stop_id":"U1430Z2","name":"Nemocnice Milosrdných bratří","arrival_time":"14:13:00","departure_time":"14:13:00","lat":49.183867,"lon":16.595061,"is_passed":false},{"stop_id":"U1512Z2","name":"Poříčí","arrival_time":"14:15:00","departure_time":"14:15:00","lat":49.187409,"lon":16.594512,"is_passed":false},{"stop_id":"U1378Z3","name":"Mendlovo náměstí","arrival_time":"14:17:00","departure_time":"14:17:00","lat":49.190293,"lon":16.594781,"is_passed":false},{"stop_id":"U1428Z1","name":"Nemocnice u sv. Anny","arrival_time":"14:19:00","departure_time":"14:19:00","lat":49.191471,"lon":16.599302,"is_passed":false},{"stop_id":"U1637Z4","name":"Šilingrovo náměstí","arrival_time":"14:20:00","departure_time":"14:20:00","lat":49.192271,"lon":16.604367,"is_passed":false},{"stop_id":"U1073Z2","name":"Česká","arrival_time":"14:24:00","departure_time":"14:24:00","lat":49.197702,"lon":16.606463,"is_passed":false},{"stop_id":"U1397Z1","name":"Moravské náměstí","arrival_time":"14:25:00","departure_time":"14:25:00","lat":49.19996,"lon":16.607931,"is_passed":false},{"stop_id":"U1006Z1","name":"Antonínská","arrival_time":"14:26:00","departure_time":"14:26:00","lat":49.203685,"lon":16.606678,"is_passed":false},{"stop_id":"U1483Z1","name":"Pionýrská","arrival_time":"14:27:00","departure_time":"14:27:00","lat":49.207491,"lon":16.604472,"is_passed":false},{"stop_id":"U1166Z1","name":"Hrnčířská","arrival_time":"14:29:00","departure_time":"14:29:00","lat":49.210254,"lon":16.602868,"is_passed":false},{"stop_id":"U1652Z1","name":"Šumavská","arrival_time":"14:30:00","departure_time":"14:30:00","lat":49.213991,"lon":16.600669,"is_passed":false},{"stop_id":"U1233Z1","name":"Kartouzská","arrival_time":"14:31:00","departure_time":"14:31:00","lat":49.216998,"lon":16.598896,"is_passed":false},{"stop_id":"U1218Z1","name":"Jungmannova","arrival_time":"14:32:00","departure_time":"14:32:00","lat":49.220856,"lon":16.596583,"is_passed":false},{"stop_id":"U1171Z1","name":"Husitská","arrival_time":"14:33:00","departure_time":"14:33:00","lat":49.223125,"lon":16.59524,"is_passed":false},{"stop_id":"U1566Z1","name":"Semilasso","arrival_time":"14:35:00","departure_time":"14:35:00","lat":49.227417,"lon":16.592683,"is_passed":false},{"stop_id":"U1286Z1","name":"Královo Pole, nádraží","arrival_time":"14:37:00","departure_time":"14:57:00","lat":49.230031,"lon":16.595374,"is_passed":false}],"54117":[{"stop_id":"U1286Z2","name":"Královo Pole, nádraží","arrival_time":"14:57:00","departure_time":"14:57:00","lat":49.229691,"lon":16.595601,"is_passed":false},{"stop_id":"U1566Z3","name":"Semilasso","arrival_time":"14:57:00","departure_time":"14:57:00","lat":49.228432,"lon":16.593971,"is_passed":false},{"stop_id":"U1171Z2","name":"Husitská","arrival_time":"15:00:00","departure_time":"15:00:00","lat":49.223415,"lon":16.595016,"is_passed":false},{"stop_id":"U1218Z2","name":"Jungmannova","arrival_time":"15:01:00","departure_time":"15:01:00","lat":49.221083,"lon":16.596416,"is_passed":false},{"stop_id":"U1233Z2","name":"Kartouzská","arrival_time":"15:02:00","departure_time":"15:02:00","lat":49.21665,"lon":16.599078,"is_passed":false},{"stop_id":"U1652Z2","name":"Šumavská","arrival_time":"15:03:00","departure_time":"15:03:00","lat":49.214022,"lon":16.60062,"is_passed":false},{"stop_id":"U1166Z2","name":"Hrnčířská","arrival_time":"15:04:00","departure_time":"15:04:00","lat":49.21062,"lon":16.602628,"is_passed":false},{"stop_id":"U1483Z2","name":"Pionýrská","arrival_time":"15:05:00","departure_time":"15:05:00","lat":49.207904,"lon":16.604201,"is_passed":false},{"stop_id":"U1006Z2","name":"Antonínská","arrival_time":"15:06:00","departure_time":"15:06:00","lat":49.203166,"lon":16.606915,"is_passed":false},{"stop_id":"U1397Z2","name":"Moravské náměstí","arrival_time":"15:08:00","departure_time":"15:08:00","lat":49.199237,"lon":16.608067,"is_passed":false},{"stop_id":"U1073Z1","name":"Česká","arrival_time":"15:10:00","departure_time":"15:10:00","lat":49.197618,"lon":16.605584,"is_passed":false},{"stop_id":"U1637Z3","name":"Šilingrovo náměstí","arrival_time":"15:13:00","departure_time":"15:13:00","lat":49.1923,"lon":16.60424,"is_passed":false},{"stop_id":"U1428Z2","name":"Nemocnice u sv. Anny","arrival_time":"15:14:00","departure_time":"15:14:00","lat":49.191523,"lon":16.598757,"is_passed":false},{"stop_id":"U1378Z4","name":"Mendlovo náměstí","arrival_time":"15:16:00","departure_time":"15:16:00","lat":49.190204,"lon":16.594235,"is_passed":false},{"stop_id":"U1512Z1","name":"Poříčí","arrival_time":"15:18:00","departure_time":"15:18:00","lat":49.187182,"lon":16.594633,"is_passed":false},{"stop_id":"U1430Z1","name":"Nemocnice Milosrdných bratří","arrival_time":"15:19:00","departure_time":"15:19:00","lat":49.183515,"lon":16.594981,"is_passed":false},{"stop_id":"U1053Z1","name":"Celní","arrival_time":"15:21:00","departure_time":"15:21:00","lat":49.179109,"lon":16.595328,"is_passed":false},{"stop_id":"U1293Z1","name":"Krematorium","arrival_time":"15:23:00","departure_time":"15:23:00","lat":49.172308,"lon":16.586427,"is_passed":false},{"stop_id":"U1021Z1","name":"Běloruská","arrival_time":"15:24:00","departure_time":"15:24:00","lat":49.170755,"lon":16.580895,"is_passed":false},{"stop_id":"U1653Z3","name":"Švermova","arrival_time":"15:25:00","departure_time":"15:25:00","lat":49.169262,"lon":16.573246,"is_passed":false},{"stop_id":"U1472Z1","name":"Osová","arrival_time":"15:26:00","departure_time":"15:26:00","lat":49.169023,"lon":16.56653,"is_passed":false},{"stop_id":"U1227Z1","name":"Karpatská","arrival_time":"15:27:00","departure_time":"15:27:00","lat":49.168113,"lon":16.562077,"is_passed":false},{"stop_id":"U1097Z1","name":"Dunajská","arrival_time":"15:28:00","departure_time":"15:28:00","lat":49.169066,"lon":16.55664,"is_passed":false},{"stop_id":"U1616Z1","name":"Starý Lískovec, smyčka","arrival_time":"15:30:00","departure_time":"15:44:00","lat":49.171366,"lon":16.554527,"is_passed":false}],"54118":[{"stop_id":"U1616Z2","name":"Starý Lískovec, smyčka","arrival_time":"15:44:00","departure_time":"15:44:00","lat":49.170465,"lon":16.554565,"is_passed":false},{"stop_id":"U1097Z2","name":"Dunajská","arrival_time":"15:44:00","departure_time":"15:44:00","lat":49.169112,"lon":16.556485,"is_passed":false},{"stop_id":"U1227Z2","name":"Karpatská","arrival_time":"15:45:00","departure_time":"15:45:00","lat":49.168021,"lon":16.561879,"is_passed":false},{"stop_id":"U1472Z2","name":"Osová","arrival_time":"15:46:00","departure_time":"15:46:00","lat":49.169005,"lon":16.567514,"is_passed":false},{"stop_id":"U1653Z4","name":"Švermova","arrival_time":"15:47:00","departure_time":"15:47:00","lat":49.169191,"lon":16.573122,"is_passed":false},{"stop_id":"U1021Z2","name":"Běloruská","arrival_time":"15:48:00","departure_time":"15:48:00","lat":49.170662,"lon":16.580727,"is_passed":false},{"stop_id":"U1293Z2","name":"Krematorium","arrival_time":"15:49:00","departure_time":"15:49:00","lat":49.172257,"lon":16.586414,"is_passed":false},{"stop_id":"U1053Z2","name":"Celní","arrival_time":"15:52:00","departure_time":"15:52:00","lat":49.179607,"lon":16.595242,"is_passed":false},{"stop_id":"U1430Z2","name":"Nemocnice Milosrdných bratří","arrival_time":"15:53:00","departure_time":"15:53:00","lat":49.183867,"lon":16.595061,"is_passed":false},{"stop_id":"U1512Z2","name":"Poříčí","arrival_time":"15:55:00","departure_time":"15:55:00","lat":49.187409,"lon":16.594512,"is_passed":false},{"stop_id":"U1378Z3","name":"Mendlovo náměstí","arrival_time":"15:57:00","departure_time":"15:57:00","lat":49.190293,"lon":16.594781,"is_passed":false},{"stop_id":"U1428Z1","name":"Nemocnice u sv. Anny","arrival_time":"15:59:00","departure_time":"15:59:00","lat":49.191471,"lon":16.599302,"is_passed":false},{"stop_id":"U1637Z4","name":"Šilingrovo náměstí","arrival_time":"16:00:00","departure_time":"16:00:00","lat":49.192271,"lon":16.604367,"is_passed":false},{"stop_id":"U1073Z2","name":"Česká","arrival_time":"16:04:00","departure_time":"16:04:00","lat":49.197702,"lon":16.606463,"is_passed":false},{"stop_id":"U1397Z1","name":"Moravské náměstí","arrival_time":"16:05:00","departure_time":"16:05:00","lat":49.19996,"lon":16.607931,"is_passed":false},{"stop_id":"U1006Z1","name":"Antonínská","arrival_time":"16:06:00","departure_time":"16:06:00","lat":49.203685,"lon":16.606678,"is_passed":false},{"stop_id":"U1483Z1","name":"Pionýrská","arrival_time":"16:07:00","departure_time":"16:07:00","lat":49.207491,"lon":16.604472,"is_passed":false},{"stop_id":"U1166Z1","name":"Hrnčířská","arrival_time":"16:09:00","departure_time":"16:09:00","lat":49.210254,"lon":16.602868,"is_passed":false},{"stop_id":"U1652Z1","name":"Šumavská","arrival_time":"16:10:00","departure_time":"16:10:00","lat":49.213991,"lon":16.600669,"is_passed":false},{"stop_id":"U1233Z1","name":"Kartouzská","arrival_time":"16:11:00","departure_time":"16:11:00","lat":49.216998,"lon":16.598896,"is_passed":false},{"stop_id":"U1218Z1","name":"Jungmannova","arrival_time":"16:12:00","departure_time":"16:12:00","lat":49.220856,"lon":16.596583,"is_passed":false},{"stop_id":"U1171Z1","name":"Husitská","arrival_time":"16:13:00","departure_time":"16:13:00","lat":49.223125,"lon":16.59524,"is_passed":false},{"stop_id":"U1566Z1","name":"Semilasso","arrival_time":"16:15:00","departure_time":"16:15:00","lat":49.227417,"lon":16.592683,"is_passed":false},{"stop_id":"U1286Z1","name":"Královo Pole, nádraží","arrival_time":"16:17:00","departure_time":"16:37:00","lat":49.230031,"lon":16.595374,"is_passed":false}],"54119":[{"stop_id":"U1286Z2","name":"Královo Pole, nádraží","arrival_time":"16:37:00","departure_time":"16:37:00","lat":49.229691,"lon":16.595601,"is_passed":false},{"stop_id":"U1566Z3","name":"Semilasso","arrival_time":"16:37:00","departure_time":"16:37:00","lat":49.228432,"lon":16.593971,"is_passed":false},{"stop_id":"U1171Z2","name":"Husitská","arrival_time":"16:40:00","departure_time":"16:40:00","lat":49.223415,"lon":16.595016,"is_passed":false},{"stop_id":"U1218Z2","name":"Jungmannova","arrival_time":"16:41:00","departure_time":"16:41:00","lat":49.221083,"lon":16.596416,"is_passed":false},{"stop_id":"U1233Z2","name":"Kartouzská","arrival_time":"16:42:00","departure_time":"16:42:00","lat":49.21665,"lon":16.599078,"is_passed":false},{"stop_id":"U1652Z2","name":"Šumavská","arrival_time":"16:43:00","departure_time":"16:43:00","lat":49.214022,"lon":16.60062,"is_passed":false},{"stop_id":"U1166Z2","name":"Hrnčířská","arrival_time":"16:44:00","departure_time":"16:44:00","lat":49.21062,"lon":16.602628,"is_passed":false},{"stop_id":"U1483Z2","name":"Pionýrská","arrival_time":"16:45:00","departure_time":"16:45:00","lat":49.207904,"lon":16.604201,"is_passed":false},{"stop_id":"U1006Z2","name":"Antonínská","arrival_time":"16:46:00","departure_time":"16:46:00","lat":49.203166,"lon":16.606915,"is_passed":false},{"stop_id":"U1397Z2","name":"Moravské náměstí","arrival_time":"16:48:00","departure_time":"16:48:00","lat":49.199237,"lon":16.608067,"is_passed":false},{"stop_id":"U1073Z1","name":"Česká","arrival_time":"16:50:00","departure_time":"16:50:00","lat":49.197618,"lon":16.605584,"is_passed":false},{"stop_id":"U1637Z3","name":"Šilingrovo náměstí","arrival_time":"16:53:00","departure_time":"16:53:00","lat":49.1923,"lon":16.60424,"is_passed":false},{"stop_id":"U1428Z2","name":"Nemocnice u sv. Anny","arrival_time":"16:54:00","departure_time":"16:54:00","lat":49.191523,"lon":16.598757,"is_passed":false},{"stop_id":"U1378Z4","name":"Mendlovo náměstí","arrival_time":"16:56:00","departure_time":"16:56:00","lat":49.190204,"lon":16.594235,"is_passed":false},{"stop_id":"U1512Z1","name":"Poříčí","arrival_time":"16:58:00","departure_time":"16:58:00","lat":49.187182,"lon":16.594633,"is_passed":false},{"stop_id":"U1430Z1","name":"Nemocnice Milosrdných bratří","arrival_time":"16:59:00","departure_time":"16:59:00","lat":49.183515,"lon":16.594981,"is_passed":false},{"stop_id":"U1053Z1","name":"Celní","arrival_time":"17:01:00","departure_time":"17:01:00","lat":49.179109,"lon":16.595328,"is_passed":false},{"stop_id":"U1293Z1","name":"Krematorium","arrival_time":"17:03:00","departure_time":"17:03:00","lat":49.172308,"lon":16.586427,"is_passed":false},{"stop_id":"U1021Z1","name":"Běloruská","arrival_time":"17:04:00","departure_time":"17:04:00","lat":49.170755,"lon":16.580895,"is_passed":false},{"stop_id":"U1653Z3","name":"Švermova","arrival_time":"17:05:00","departure_time":"17:05:00","lat":49.169262,"lon":16.573246,"is_passed":false},{"stop_id":"U1472Z1","name":"Osová","arrival_time":"17:06:00","departure_time":"17:06:00","lat":49.169023,"lon":16.56653,"is_passed":false},{"stop_id":"U1227Z1","name":"Karpatská","arrival_time":"17:07:00","departure_time":"17:07:00","lat":49.168113,"lon":16.562077,"is_passed":false},{"stop_id":"U1097Z1","name":"Dunajská","arrival_time":"17:08:00","departure_time":"17:08:00","lat":49.169066,"lon":16.55664,"is_passed":false},{"stop_id":"U1616Z1","name":"Starý Lískovec, smyčka","arrival_time":"17:10:00","departure_time":"17:24:00","lat":49.171366,"lon":16.554527,"is_passed":false}],"54120":[{"stop_id":"U1616Z2","name":"Starý Lískovec, smyčka","arrival_time":"17:24:00","departure_time":"17:24:00","lat":49.170465,"lon":16.554565,"is_passed":false},{"stop_id":"U1097Z2","name":"Dunajská","arrival_time":"17:24:00","departure_time":"17:24:00","lat":49.169112,"lon":16.556485,"is_passed":false},{"stop_id":"U1227Z2","name":"Karpatská","arrival_time":"17:25:00","departure_time":"17:25:00","lat":49.168021,"lon":16.561879,"is_passed":false},{"stop_id":"U1472Z2","name":"Osová","arrival_time":"17:26:00","departure_time":"17:26:00","lat":49.169005,"lon":16.567514,"is_passed":false},{"stop_id":"U1653Z4","name":"Švermova","arrival_time":"17:27:00","departure_time":"17:27:00","lat":49.169191,"lon":16.573122,"is_passed":false},{"stop_id":"U1021Z2","name":"Běloruská","arrival_time":"17:28:00","departure_time":"17:28:00","lat":49.170662,"lon":16.580727,"is_passed":false},{"stop_id":"U1293Z2","name":"Krematorium","arrival_time":"17:29:00","departure_time":"17:29:00","lat":49.172257,"lon":16.586414,"is_passed":false},{"stop_id":"U1053Z2","name":"Celní","arrival_time":"17:32:00","departure_time":"17:32:00","lat":49.179607,"lon":16.595242,"is_passed":false},{"stop_id":"U1430Z2","name":"Nemocnice Milosrdných bratří","arrival_time":"17:33:00","departure_time":"17:33:00","lat":49.183867,"lon":16.595061,"is_passed":false},{"stop_id":"U1512Z2","name":"Poříčí","arrival_time":"17:35:00","departure_time":"17:35:00","lat":49.187409,"lon":16.594512,"is_passed":false},{"stop_id":"U1378Z3","name":"Mendlovo náměstí","arrival_time":"17:37:00","departure_time":"17:37:00","lat":49.190293,"lon":16.594781,"is_passed":false},{"stop_id":"U1428Z1","name":"Nemocnice u sv. Anny","arrival_time":"17:39:00","departure_time":"17:39:00","lat":49.191471,"lon":16.599302,"is_passed":false},{"stop_id":"U1637Z4","name":"Šilingrovo náměstí","arrival_time":"17:40:00","departure_time":"17:40:00","lat":49.192271,"lon":16.604367,"is_passed":false},{"stop_id":"U1073Z2","name":"Česká","arrival_time":"17:44:00","departure_time":"17:44:00","lat":49.197702,"lon":16.606463,"is_passed":false},{"stop_id":"U1397Z1","name":"Moravské náměstí","arrival_time":"17:45:00","departure_time":"17:45:00","lat":49.19996,"lon":16.607931,"is_passed":false},{"stop_id":"U1006Z1","name":"Antonínská","arrival_time":"17:46:00","departure_time":"17:46:00","lat":49.203685,"lon":16.606678,"is_passed":false},{"stop_id":"U1483Z1","name":"Pionýrská","arrival_time":"17:47:00","departure_time":"17:47:00","lat":49.207491,"lon":16.604472,"is_passed":false},{"stop_id":"U1166Z1","name":"Hrnčířská","arrival_time":"17:49:00","departure_time":"17:49:00","lat":49.210254,"lon":16.602868,"is_passed":false},{"stop_id":"U1652Z1","name":"Šumavská","arrival_time":"17:50:00","departure_time":"17:50:00","lat":49.213991,"lon":16.600669,"is_passed":false},{"stop_id":"U1233Z1","name":"Kartouzská","arrival_time":"17:51:00","departure_time":"17:51:00","lat":49.216998,"lon":16.598896,"is_passed":false},{"stop_id":"U1218Z1","name":"Jungmannova","arrival_time":"17:52:00","departure_time":"17:52:00","lat":49.220856,"lon":16.596583,"is_passed":false},{"stop_id":"U1171Z1","name":"Husitská","arrival_time":"17:53:00","departure_time":"17:53:00","lat":49.223125,"lon":16.59524,"is_passed":false},{"stop_id":"U1566Z1","name":"Semilasso","arrival_time":"17:55:00","departure_time":"17:55:00","lat":49.227417,"lon":16.592683,"is_passed":false},{"stop_id":"U1286Z1","name":"Královo Pole, nádraží","arrival_time":"17:57:00","departure_time":"18:17:00","lat":49.230031,"lon":16.595374,"is_passed":false}],"54121":[{"stop_id":"U1286Z2","name":"Královo Pole, nádraží","arrival_time":"18:17:00","departure_time":"18:17:00","lat":49.229691,"lon":16.595601,"is_passed":false},{"stop_id":"U1566Z3","name":"Semilasso","arrival_time":"18:17:00","departure_time":"18:17:00","lat":49.228432,"lon":16.593971,"is_passed":false},{"stop_id":"U1171Z2","name":"Husitská","arrival_time":"18:20:00","departure_time":"18:20:00","lat":49.223415,"lon":16.595016,"is_passed":false},{"stop_id":"U1218Z2","name":"Jungmannova","arrival_time":"18:21:00","departure_time":"18:21:00","lat":49.221083,"lon":16.596416,"is_passed":false},{"stop_id":"U1233Z2","name":"Kartouzská","arrival_time":"18:22:00","departure_time":"18:22:00","lat":49.21665,"lon":16.599078,"is_passed":false},{"stop_id":"U1652Z2","name":"Šumavská","arrival_time":"18:23:00","departure_time":"18:23:00","lat":49.214022,"lon":16.60062,"is_passed":false},{"stop_id":"U1166Z2","name":"Hrnčířská","arrival_time":"18:24:00","departure_time":"18:24:00","lat":49.21062,"lon":16.602628,"is_passed":false},{"stop_id":"U1483Z2","name":"Pionýrská","arrival_time":"18:25:00","departure_time":"18:25:00","lat":49.207904,"lon":16.604201,"is_passed":false},{"stop_id":"U1006Z2","name":"Antonínská","arrival_time":"18:26:00","departure_time":"18:26:00","lat":49.203166,"lon":16.606915,"is_passed":false},{"stop_id":"U1397Z2","name":"Moravské náměstí","arrival_time":"18:28:00","departure_time":"18:28:00","lat":49.199237,"lon":16.608067,"is_passed":false},{"stop_id":"U1073Z1","name":"Česká","arrival_time":"18:30:00","departure_time":"18:30:00","lat":49.197618,"lon":16.605584,"is_passed":false},{"stop_id":"U1637Z3","name":"Šilingrovo náměstí","arrival_time":"18:33:00","departure_time":"18:33:00","lat":49.1923,"lon":16.60424,"is_passed":false},{"stop_id":"U1428Z2","name":"Nemocnice u sv. Anny","arrival_time":"18:34:00","departure_time":"18:34:00","lat":49.191523,"lon":16.598757,"is_passed":false},{"stop_id":"U1378Z4","name":"Mendlovo náměstí","arrival_time":"18:36:00","departure_time":"18:36:00","lat":49.190204,"lon":16.594235,"is_passed":false},{"stop_id":"U1512Z1","name":"Poříčí","arrival_time":"18:38:00","departure_time":"18:38:00","lat":49.187182,"lon":16.594633,"is_passed":false},{"stop_id":"U1430Z1","name":"Nemocnice Milosrdných bratří","arrival_time":"18:39:00","departure_time":"18:39:00","lat":49.183515,"lon":16.594981,"is_passed":false},{"stop_id":"U1053Z1","name":"Celní","arrival_time":"18:41:00","departure_time":"18:41:00","lat":49.179109,"lon":16.595328,"is_passed":false},{"stop_id":"U1293Z1","name":"Krematorium","arrival_time":"18:43:00","departure_time":"18:43:00","lat":49.172308,"lon":16.586427,"is_passed":false},{"stop_id":"U1021Z1","name":"Běloruská","arrival_time":"18:44:00","departure_time":"18:44:00","lat":49.170755,"lon":16.580895,"is_passed":false},{"stop_id":"U1653Z3","name":"Švermova","arrival_time":"18:45:00","departure_time":"18:45:00","lat":49.169262,"lon":16.573246,"is_passed":false},{"stop_id":"U1472Z1","name":"Osová","arrival_time":"18:46:00","departure_time":"18:46:00","lat":49.169023,"lon":16.56653,"is_passed":false},{"stop_id":"U1227Z1","name":"Karpatská","arrival_time":"18:47:00","departure_time":"18:47:00","lat":49.168113,"lon":16.562077,"is_passed":false},{"stop_id":"U1097Z1","name":"Dunajská","arrival_time":"18:48:00","departure_time":"18:48:00","lat":49.169066,"lon":16.55664,"is_passed":false},{"stop_id":"U1616Z1","name":"Starý Lískovec, smyčka","arrival_time":"18:50:00","departure_time":"19:04:00","lat":49.171366,"lon":16.554527,"is_passed":false}],"54122":[{"stop_id":"U1616Z2","name":"Starý Lískovec, smyčka","arrival_time":"19:04:00","departure_time":"19:04:00","lat":49.170465,"lon":16.554565,"is_passed":false},{"stop_id":"U1097Z2","name":"Dunajská","arrival_time":"19:04:00","departure_time":"19:04:00","lat":49.169112,"lon":16.556485,"is_passed":false},{"stop_id":"U1227Z2","name":"Karpatská","arrival_time":"19:05:00","departure_time":"19:05:00","lat":49.168021,"lon":16.561879,"is_passed":false},{"stop_id":"U1472Z2","name":"Osová","arrival_time":"19:06:00","departure_time":"19:06:00","lat":49.169005,"lon":16.567514,"is_passed":false},{"stop_id":"U1653Z4","name":"Švermova","arrival_time":"19:07:00","departure_time":"19:07:00","lat":49.169191,"lon":16.573122,"is_passed":false},{"stop_id":"U1021Z2","name":"Běloruská","arrival_time":"19:08:00","departure_time":"19:08:00","lat":49.170662,"lon":16.580727,"is_passed":false},{"stop_id":"U1293Z2","name":"Krematorium","arrival_time":"19:09:00","departure_time":"19:09:00","lat":49.172257,"lon":16.586414,"is_passed":false},{"stop_id":"U1053Z2","name":"Celní","arrival_time":"19:12:00","departure_time":"19:12:00","lat":49.179607,"lon":16.595242,"is_passed":false},{"stop_id":"U1430Z2","name":"Nemocnice Milosrdných bratří","arrival_time":"19:13:00","departure_time":"19:13:00","lat":49.183867,"lon":16.595061,"is_passed":false},{"stop_id":"U1512Z2","name":"Poříčí","arrival_time":"19:15:00","departure_time":"19:15:00","lat":49.187409,"lon":16.594512,"is_passed":false},{"stop_id":"U1378Z3","name":"Mendlovo náměstí","arrival_time":"19:17:00","departure_time":"19:17:00","lat":49.190293,"lon":16.594781,"is_passed":false},{"stop_id":"U1428Z1","name":"Nemocnice u sv. Anny","arrival_time":"19:19:00","departure_time":"19:19:00","lat":49.191471,"lon":16.599302,"is_passed":false},{"stop_id":"U1637Z4","name":"Šilingrovo náměstí","arrival_time":"19:20:00","departure_time":"19:20:00","lat":49.192271,"lon":16.604367,"is_passed":false},{"stop_id":"U1073Z2","name":"Česká","arrival_time":"19:24:00","departure_time":"19:24:00","lat":49.197702,"lon":16.606463,"is_passed":false},{"stop_id":"U1397Z1","name":"Moravské náměstí","arrival_time":"19:25:00","departure_time":"19:25:00","lat":49.19996,"lon":16.607931,"is_passed":false},{"stop_id":"U1006Z1","name":"Antonínská","arrival_time":"19:26:00","departure_time":"19:26:00","lat":49.203685,"lon":16.606678,"is_passed":false},{"stop_id":"U1483Z1","name":"Pionýrská","arrival_time":"19:27:00","departure_time":"19:27:00","lat":49.207491,"lon":16.604472,"is_passed":false},{"stop_id":"U1166Z1","name":"Hrnčířská","arrival_time":"19:29:00","departure_time":"19:29:00","lat":49.210254,"lon":16.602868,"is_passed":false},{"stop_id":"U1652Z1","name":"Šumavská","arrival_time":"19:30:00","departure_time":"19:30:00","lat":49.213991,"lon":16.600669,"is_passed":false},{"stop_id":"U1233Z1","name":"Kartouzská","arrival_time":"19:31:00","departure_time":"19:31:00","lat":49.216998,"lon":16.598896,"is_passed":false},{"stop_id":"U1218Z1","name":"Jungmannova","arrival_time":"19:32:00","departure_time":"19:32:00","lat":49.220856,"lon":16.596583,"is_passed":false},{"stop_id":"U1171Z1","name":"Husitská","arrival_time":"19:33:00","departure_time":"19:33:00","lat":49.223125,"lon":16.59524,"is_passed":false},{"stop_id":"U1566Z1","name":"Semilasso","arrival_time":"19:35:00","departure_time":"19:35:00","lat":49.227417,"lon":16.592683,"is_passed":false},{"stop_id":"U1286Z1","name":"Královo Pole, nádraží","arrival_time":"19:37:00","departure_time":"19:57:00","lat":49.230031,"lon":16.595374,"is_passed":false}],"54123":[{"stop_id":"U1286Z2","name":"Královo Pole, nádraží","arrival_time":"19:57:00","departure_time":"19:57:00","lat":49.229691,"lon":16.595601,"is_passed":false},{"stop_id":"U1566Z3","name":"Semilasso","arrival_time":"19:57:00","departure_time":"19:57:00","lat":49.228432,"lon":16.593971,"is_passed":false},{"stop_id":"U1171Z2","name":"Husitská","arrival_time":"20:00:00","departure_time":"20:00:00","lat":49.223415,"lon":16.595016,"is_passed":false},{"stop_id":"U1218Z2","name":"Jungmannova","arrival_time":"20:01:00","departure_time":"20:01:00","lat":49.221083,"lon":16.596416,"is_passed":false},{"stop_id":"U1233Z2","name":"Kartouzská","arrival_time":"20:02:00","departure_time":"20:02:00","lat":49.21665,"lon":16.599078,"is_passed":false},{"stop_id":"U1652Z2","name":"Šumavská","arrival_time":"20:03:00","departure_time":"20:03:00","lat":49.214022,"lon":16.60062,"is_passed":false},{"stop_id":"U1166Z2","name":"Hrnčířská","arrival_time":"20:04:00","departure_time":"20:04:00","lat":49.21062,"lon":16.602628,"is_passed":false},{"stop_id":"U1483Z2","name":"Pionýrská","arrival_time":"20:05:00","departure_time":"20:05:00","lat":49.207904,"lon":16.604201,"is_passed":false},{"stop_id":"U1006Z2","name":"Antonínská","arrival_time":"20:06:00","departure_time":"20:06:00","lat":49.203166,"lon":16.606915,"is_passed":false},{"stop_id":"U1397Z2","name":"Moravské náměstí","arrival_time":"20:08:00","departure_time":"20:08:00","lat":49.199237,"lon":16.608067,"is_passed":false},{"stop_id":"U1073Z1","name":"Česká","arrival_time":"20:10:00","departure_time":"20:10:00","lat":49.197618,"lon":16.605584,"is_passed":false},{"stop_id":"U1637Z3","name":"Šilingrovo náměstí","arrival_time":"20:13:00","departure_time":"20:13:00","lat":49.1923,"lon":16.60424,"is_passed":false},{"stop_id":"U1428Z2","name":"Nemocnice u sv. Anny","arrival_time":"20:14:00","departure_time":"20:14:00","lat":49.191523,"lon":16.598757,"is_passed":false},{"stop_id":"U1378Z4","name":"Mendlovo náměstí","arrival_time":"20:16:00","departure_time":"20:16:00","lat":49.190204,"lon":16.594235,"is_passed":false},{"stop_id":"U1512Z1","name":"Poříčí","arrival_time":"20:18:00","departure_time":"20:18:00","lat":49.187182,"lon":16.594633,"is_passed":false},{"stop_id":"U1430Z1","name":"Nemocnice Milosrdných bratří","arrival_time":"20:19:00","departure_time":"20:19:00","lat":49.183515,"lon":16.594981,"is_passed":false},{"stop_id":"U1053Z1","name":"Celní","arrival_time":"20:21:00","departure_time":"20:21:00","lat":49.179109,"lon":16.595328,"is_passed":false},{"stop_id":"U1293Z1","name":"Krematorium","arrival_time":"20:23:00","departure_time":"20:23:00","lat":49.172308,"lon":16.586427,"is_passed":false},{"stop_id":"U1021Z1","name":"Běloruská","arrival_time":"20:24:00","departure_time":"20:24:00","lat":49.170755,"lon":16.580895,"is_passed":false},{"stop_id":"U1653Z3","name":"Švermova","arrival_time":"20:25:00","departure_time":"20:25:00","lat":49.169262,"lon":16.573246,"is_passed":false},{"stop_id":"U1472Z1","name":"Osová","arrival_time":"20:26:00","departure_time":"20:26:00","lat":49.169023,"lon":16.56653,"is_passed":false},{"stop_id":"U1227Z1","name":"Karpatská","arrival_time":"20:27:00","departure_time":"20:27:00","lat":49.168113,"lon":16.562077,"is_passed":false},{"stop_id":"U1097Z1","name":"Dunajská","arrival_time":"20:28:00","departure_time":"20:28:00","lat":49.169066,"lon":16.55664,"is_passed":false},