{"541":[{"stop_id":"U12736Z51","name":"Letovice, železniční stanice","arrival_time":"6:57:00","departure_time":"6:57:00","lat":49.555973,"lon":16.570906,"is_passed":false},{"stop_id":"U22702Z2","name":"Letovice zastávka","arrival_time":"6:59:00","departure_time":"7:00:00","lat":49.536152,"lon":16.576186,"is_passed":false},{"stop_id":"U22701Z2","name":"Zboněk","arrival_time":"7:02:00","departure_time":"7:02:00","lat":49.520482,"lon":16.584439,"is_passed":false},{"stop_id":"U22602Z2","name":"Svitávka","arrival_time":"7:05:00","departure_time":"7:05:00","lat":49.499434,"lon":16.599208,"is_passed":false},{"stop_id":"U12676Z51","name":"Skalice nad Svitavou, žel.st.","arrival_time":"7:08:00","departure_time":"7:12:00","lat":49.480123,"lon":16.609726,"is_passed":false},{"stop_id":"U12511Z51","name":"Doubravice, žel.st.","arrival_time":"7:17:00","departure_time":"7:17:00","lat":49.438707,"lon":16.621809,"is_passed":false},{"stop_id":"U12439Z51","name":"Rájec-Jestřebí, železniční stanice","arrival_time":"7:20:00","departure_time":"7:21:00","lat":49.408206,"lon":16.627711,"is_passed":false},{"stop_id":"U22301Z2","name":"Dolní Lhota","arrival_time":"7:24:00","departure_time":"7:24:00","lat":49.386917,"lon":16.633978,"is_passed":false},{"stop_id":"U22302Z2","name":"Blansko město","arrival_time":"7:27:00","departure_time":"7:28:00","lat":49.360996,"lon":16.639464,"is_passed":false},{"stop_id":"U12342Z29","name":"Blansko, aut. st.","arrival_time":"7:29:00","departure_time":"7:31:00","lat":49.352753,"lon":16.646848,"is_passed":false},{"stop_id":"U12231Z11","name":"Adamov, železniční zastávka","arrival_time":"7:36:00","departure_time":"7:37:00","lat":49.300671,"lon":16.650653,"is_passed":false},{"stop_id":"U12230Z11","name":"Adamov, železniční stanice","arrival_time":"7:38:00","departure_time":"7:39:00","lat":49.295341,"lon":16.663538,"is_passed":false},{"stop_id":"U22101Z2","name":"Babice nad Svitavou","arrival_time":"7:42:00","departure_time":"7:42:00","lat":49.276645,"lon":16.673012,"is_passed":false},{"stop_id":"U12158Z11","name":"Bílovice nad Svitavou, žel. stanice","arrival_time":"7:46:00","departure_time":"7:47:00","lat":49.242715,"lon":16.673677,"is_passed":false},{"stop_id":"U1809Z11","name":"Židenice, nádraží","arrival_time":"7:52:00","departure_time":"7:52:00","lat":49.204282,"lon":16.636042,"is_passed":false},{"stop_id":"U1146Z98","name":"Hlavní nádraží","arrival_time":"7:59:00","departure_time":"8:06:00","lat":49.19035,"lon":16.612342,"is_passed":false},{"stop_id":"U1183Z11","name":"Chrlice, nádraží","arrival_time":"8:14:00","departure_time":"8:17:00","lat":49.132031,"lon":16.657232,"is_passed":false},{"stop_id":"U16149Z11","name":"Sokolnice, železniční stanice","arrival_time":"8:23:00","departure_time":"8:24:00","lat":49.108029,"lon":16.733459,"is_passed":false},{"stop_id":"U26101Z2","name":"Újezd u Brna","arrival_time":"8:25:00","departure_time":"8:26:00","lat":49.107297,"lon":16.745564,"is_passed":false},{"stop_id":"U26102Z2","name":"Hostěrádky-Rešov","arrival_time":"8:29:00","departure_time":"8:29:00","lat":49.119822,"lon":16.782755,"is_passed":false},{"stop_id":"U26201Z2","name":"Zbýšov","arrival_time":"8:32:00","departure_time":"8:32:00","lat":49.132691,"lon":16.806859,"is_passed":false},{"stop_id":"U16212Z11","name":"Křenovice, hor. žel. st.","arrival_time":"8:35:00","departure_time":"8:36:00","lat":49.143553,"lon":16.824564,"is_passed":false},{"stop_id":"U16228Z11","name":"Holubice, žel.st.","arrival_time":"8:40:00","departure_time":"8:53:00","lat":49.179869,"lon":16.824654,"is_passed":false}],"5410":[{"stop_id":"U14499Z3","name":"Moravský Krumlov, autobusové nádraží","arrival_time":"16:46:00","departure_time":"16:46:00","lat":49.048086,"lon":16.308967,"is_passed":false},{"stop_id":"U14471Z2","name":"Moravský Krumlov, Kavalírka","arrival_time":"16:47:00","departure_time":"16:47:00","lat":49.045758,"lon":16.31087,"is_passed":false},{"stop_id":"U14478Z2","name":"Moravský Krumlov, Václavská","arrival_time":"16:49:00","departure_time":"16:49:00","lat":49.044005,"lon":16.315667,"is_passed":false},{"stop_id":"U14477Z2","name":"Moravský Krumlov, stezka","arrival_time":"16:50:00","departure_time":"16:50:00","lat":49.044908,"lon":16.32186,"is_passed":false},{"stop_id":"U14476Z3","name":"Moravský Krumlov, u přejezdu","arrival_time":"16:53:00","departure_time":"16:53:00","lat":49.045035,"lon":16.339452,"is_passed":false},{"stop_id":"U14482Z1","name":"Moravský Krumlov, hájenka","arrival_time":"16:57:00","departure_time":"16:57:00","lat":49.043838,"lon":16.359682,"is_passed":false},{"stop_id":"U14493Z1","name":"Moravský Krumlov, Stavení","arrival_time":"16:59:00","departure_time":"16:59:00","lat":49.05523,"lon":16.389172,"is_passed":false},{"stop_id":"U14345Z2","name":"Jezeřany-Maršovice, točna","arrival_time":"17:05:00","departure_time":"17:05:00","lat":49.036278,"lon":16.427863,"is_passed":false},{"stop_id":"U14344Z2","name":"Jezeřany-Maršovice, škola","arrival_time":"17:06:00","departure_time":"17:06:00","lat":49.033568,"lon":16.431603,"is_passed":false},{"stop_id":"U14343Z2","name":"Jezeřany-Maršovice, Jezeřany","arrival_time":"17:08:00","departure_time":"17:08:00","lat":49.029257,"lon":16.436803,"is_passed":false},{"stop_id":"U14015Z1","name":"Loděnice, obecní úřad","arrival_time":"17:12:00","departure_time":"17:12:00","lat":49.011475,"lon":16.46323,"is_passed":false}],"5411":[{"stop_id":"U15552Z5","name":"Jiřice u Miroslavi","arrival_time":"4:36:00","departure_time":"4:36:00","lat":48.920697,"lon":16.39138,"is_passed":false},{"stop_id":"U14023Z2","name":"Trnové Pole","arrival_time":"4:40:00","departure_time":"4:40:00","lat":48.94558,"lon":16.409803,"is_passed":false},{"stop_id":"U14011Z2","name":"Branišovice, státní silnice","arrival_time":"4:43:00","departure_time":"4:49:00","lat":48.959163,"lon":16.430035,"is_passed":false},{"stop_id":"U14010Z2","name":"Branišovice, pošta","arrival_time":"4:51:00","departure_time":"4:51:00","lat":48.961817,"lon":16.428575,"is_passed":false},{"stop_id":"U14019Z2","name":"Olbramovice, restaurace","arrival_time":"4:56:00","departure_time":"4:56:00","lat":48.984233,"lon":16.400785,"is_passed":false},{"stop_id":"U14018Z2","name":"Olbramovice, prodejna","arrival_time":"4:58:00","departure_time":"4:58:00","lat":48.98989,"lon":16.39586,"is_passed":false},{"stop_id":"U14541Z2","name":"Bohutice","arrival_time":"5:03:00","departure_time":"5:03:00","lat":48.989738,"lon":16.360072,"is_passed":false},{"stop_id":"U14559Z2","name":"Našiměřice","arrival_time":"5:08:00","departure_time":"5:08:00","lat":48.968258,"lon":16.372205,"is_passed":false},{"stop_id":"U14561Z2","name":"Našiměřice, železniční stanice","arrival_time":"5:11:00","departure_time":"5:11:00","lat":48.963072,"lon":16.350622,"is_passed":false},{"stop_id":"U14546Z10","name":"Miroslav, autobusové nádraží","arrival_time":"5:17:00","departure_time":"5:30:00","lat":48.94661,"lon":16.313115,"is_passed":false}],"5412":[{"stop_id":"U14546Z6","name":"Miroslav, autobusové nádraží","arrival_time":"5:30:00","departure_time":"5:30:00","lat":48.947248,"lon":16.312927,"is_passed":false},{"stop_id":"U14561Z1","name":"Našiměřice, železniční stanice","arrival_time":"5:37:00","departure_time":"5:37:00","lat":48.963217,"lon":16.35083,"is_passed":false},{"stop_id":"U14559Z1","name":"Našiměřice","arrival_time":"5:40:00","departure_time":"5:40:00","lat":48.968258,"lon":16.372205,"is_passed":false},{"stop_id":"U14541Z1","name":"Bohutice","arrival_time":"5:45:00","departure_time":"5:45:00","lat":48.989738,"lon":16.360072,"is_passed":false},{"stop_id":"U14018Z1","name":"Olbramovice, prodejna","arrival_time":"5:50:00","departure_time":"5:52:00","lat":48.989877,"lon":16.395692,"is_passed":false},{"stop_id":"U14019Z1","name":"Olbramovice, restaurace","arrival_time":"5:54:00","departure_time":"5:54:00","lat":48.984167,"lon":16.400743,"is_passed":false},{"stop_id":"U14010Z1","name":"Branišovice, pošta","arrival_time":"5:59:00","departure_time":"5:59:00","lat":48.961775,"lon":16.428677,"is_passed":false},{"stop_id":"U14011Z1","name":"Branišovice, státní silnice","arrival_time":"6:01:00","departure_time":"6:01:00","lat":48.959107,"lon":16.428737,"is_passed":false},{"stop_id":"U14023Z1","name":"Trnové Pole","arrival_time":"6:04:00","departure_time":"6:04:00","lat":48.945552,"lon":16.409551,"is_passed":false},{"stop_id":"U15552Z11","name":"Jiřice u Miroslavi","arrival_time":"6:07:00","departure_time":"6:07:00","lat":48.920697,"lon":16.39138,"is_passed":false}],"5413":[{"stop_id":"U15552Z4","name":"Jiřice u Miroslavi","arrival_time":"6:07:00","departure_time":"6:07:00","lat":48.920697,"lon":16.39138,"is_passed":false},{"stop_id":"U15550Z2","name":"Damnice","arrival_time":"6:10:00","departure_time":"6:10:00","lat":48.920087,"lon":16.373648,"is_passed":false},{"stop_id":"U15551Z1","name":"Dolenice","arrival_time":"6:12:00","departure_time":"6:12:00","lat":48.909272,"lon":16.364848,"is_passed":false}],"5414":[{"stop_id":"U15551Z2","name":"Dolenice","arrival_time":"6:12:00","departure_time":"6:12:00","lat":48.909272,"lon":16.364848,"is_passed":false},{"stop_id":"U15550Z1","name":"Damnice","arrival_time":"6:14:00","departure_time":"6:14:00","lat":48.920138,"lon":16.373542,"is_passed":false},{"stop_id":"U15552Z3","name":"Jiřice u Miroslavi","arrival_time":"6:17:00","departure_time":"6:17:00","lat":48.920697,"lon":16.39138,"is_passed":false},{"stop_id":"U15550Z1","name":"Damnice","arrival_time":"6:20:00","departure_time":"6:20:00","lat":48.920138,"lon":16.373542,"is_passed":false},{"stop_id":"U14552Z4","name":"Miroslav, rozcestí","arrival_time":"6:25:00","departure_time":"6:25:00","lat":48.933498,"lon":16.362293,"is_passed":false},{"stop_id":"U14551Z2","name":"Miroslav, Réna","arrival_time":"6:27:00","departure_time":"6:27:00","lat":48.93358,"lon":16.337223,"is_passed":false},{"stop_id":"U14550Z2","name":"Miroslav, provozovna ČAS","arrival_time":"6:29:00","departure_time":"6:29:00","lat":48.941947,"lon":16.321227,"is_passed":false},{"stop_id":"U14554Z2","name":"Miroslav, statek","arrival_time":"6:30:00","departure_time":"6:30:00","lat":48.945973,"lon":16.317908,"is_passed":false},{"stop_id":"U14546Z2","name":"Miroslav, autobusové nádraží","arrival_time":"6:33:00","departure_time":"6:33:00","lat":48.946832,"lon":16.313061,"is_passed":false}],"5415":[{"stop_id":"U14546Z6","name":"Miroslav, autobusové nádraží","arrival_time":"6:34:00","departure_time":"6:34:00","lat":48.947248,"lon":16.312927,"is_passed":false},{"stop_id":"U14561Z1","name":"Našiměřice, železniční stanice","arrival_time":"6:39:00","departure_time":"6:39:00","lat":48.963217,"lon":16.35083,"is_passed":false},{"stop_id":"U14559Z1","name":"Našiměřice","arrival_time":"6:42:00","departure_time":"6:42:00","lat":48.968258,"lon":16.372205,"is_passed":false},{"stop_id":"U14541Z1","name":"Bohutice","arrival_time":"6:49:00","departure_time":"6:49:00","lat":48.989738,"lon":16.360072,"is_passed":false},{"stop_id":"U14018Z1","name":"Olbramovice, prodejna","arrival_time":"6:54:00","departure_time":"6:54:00","lat":48.989877,"lon":16.395692,"is_passed":false},{"stop_id":"U14019Z1","name":"Olbramovice, restaurace","arrival_time":"6:56:00","departure_time":"6:56:00","lat":48.984167,"lon":16.400743,"is_passed":false},{"stop_id":"U14010Z1","name":"Branišovice, pošta","arrival_time":"7:01:00","departure_time":"7:01:00","lat":48.961775,"lon":16.428677,"is_passed":false},{"stop_id":"U14011Z1","name":"Branišovice, státní silnice","arrival_time":"7:03:00","departure_time":"7:08:00","lat":48.959107,"lon":16.428737,"is_passed":false},{"stop_id":"U14023Z1","name":"Trnové Pole","arrival_time":"7:11:00","departure_time":"7:11:00","lat":48.945552,"lon":16.409551,"is_passed":false},{"stop_id":"U15552Z11","name":"Jiřice u Miroslavi","arrival_time":"7:15:00","departure_time":"7:15:00","lat":48.920697,"lon":16.39138,"is_passed":false}],"5416":[{"stop_id":"U15552Z3","name":"Jiřice u Miroslavi","arrival_time":"7:16:00","departure_time":"7:16:00","lat":48.920697,"lon":16.39138,"is_passed":false},{"stop_id":"U15550Z1","name":"Damnice","arrival_time":"7:19:00","departure_time":"7:19:00","lat":48.920138,"lon":16.373542,"is_passed":false},{"stop_id":"U14551Z2","name":"Miroslav, Réna","arrival_time":"7:24:00","departure_time":"7:24:00","lat":48.93358,"lon":16.337223,"is_passed":false},{"stop_id":"U14550Z2","name":"Miroslav, provozovna ČAS","arrival_time":"7:26:00","departure_time":"7:26:00","lat":48.941947,"lon":16.321227,"is_passed":false},{"stop_id":"U14554Z2","name":"Miroslav, statek","arrival_time":"7:27:00","departure_time":"7:27:00","lat":48.945973,"lon":16.317908,"is_passed":false},{"stop_id":"U14546Z2","name":"Miroslav, autobusové nádraží","arrival_time":"7:30:00","departure_time":"7:30:00","lat":48.946832,"lon":16.313061,"is_passed":false}],"5417":[{"stop_id":"U14546Z6","name":"Miroslav, autobusové nádraží","arrival_time":"9:10:00","departure_time":"9:10:00","lat":48.947248,"lon":16.312927,"is_passed":false},{"stop_id":"U14561Z1","name":"Našiměřice, železniční stanice","arrival_time":"9:17:00","departure_time":"9:17:00","lat":48.963217,"lon":16.35083,"is_passed":false},{"stop_id":"U14559Z1","name":"Našiměřice","arrival_time":"9:20:00","departure_time":"9:20:00","lat":48.968258,"lon":16.372205,"is_passed":false},{"stop_id":"U14541Z1","name":"Bohutice","arrival_time":"9:25:00","departure_time":"9:25:00","lat":48.989738,"lon":16.360072,"is_passed":false},{"stop_id":"U14018Z1","name":"Olbramovice, prodejna","arrival_time":"9:30:00","departure_time":"9:36:00","lat":48.989877,"lon":16.395692,"is_passed":false},{"stop_id":"U14019Z1","name":"Olbramovice, restaurace","arrival_time":"9:38:00","departure_time":"9:38:00","lat":48.984167,"lon":16.400743,"is_passed":false},{"stop_id":"U14010Z1","name":"Branišovice, pošta","arrival_time":"9:43:00","departure_time":"9:43:00","lat":48.961775,"lon":16.428677,"is_passed":false},{"stop_id":"U14011Z1","name":"Branišovice, státní silnice","arrival_time":"9:45:00","departure_time":"9:49:00","lat":48.959107,"lon":16.428737,"is_passed":false},{"stop_id":"U14023Z1","name":"Trnové Pole","arrival_time":"9:52:00","departure_time":"9:52:00","lat":48.945552,"lon":16.409551,"is_passed":false},{"stop_id":"U15552Z11","name":"Jiřice u Miroslavi","arrival_time":"9:56:00","departure_time":"10:01:00","lat":48.920697,"lon":16.39138,"is_passed":false}],"5418":[{"stop_id":"U15552Z5","name":"Jiřice u Miroslavi","arrival_time":"10:01:00","departure_time":"10:01:00","lat":48.920697,"lon":16.39138,"is_passed":false},{"stop_id":"U14023Z2","name":"Trnové Pole","arrival_time":"10:05:00","departure_time":"10:05:00","lat":48.94558,"lon":16.409803,"is_passed":false},{"stop_id":"U14011Z2","name":"Branišovice, státní silnice","arrival_time":"10:08:00","departure_time":"10:10:00","lat":48.959163,"lon":16.430035,"is_passed":false},{"stop_id":"U14010Z2","name":"Branišovice, pošta","arrival_time":"10:12:00","departure_time":"10:12:00","lat":48.961817,"lon":16.428575,"is_passed":false},{"stop_id":"U14019Z2","name":"Olbramovice, restaurace","arrival_time":"10:17:00","departure_time":"10:17:00","lat":48.984233,"lon":16.400785,"is_passed":false},{"stop_id":"U14018Z2","name":"Olbramovice, prodejna","arrival_time":"10:19:00","departure_time":"10:28:00","lat":48.98989,"lon":16.39586,"is_passed":false},{"stop_id":"U14541Z2","name":"Bohutice","arrival_time":"10:33:00","departure_time":"10:33:00","lat":48.989738,"lon":16.360072,"is_passed":false},{"stop_id":"U14559Z2","name":"Našiměřice","arrival_time":"10:38:00","departure_time":"10:38:00","lat":48.968258,"lon":16.372205,"is_passed":false},{"stop_id":"U14561Z2","name":"Našiměřice, železniční stanice","arrival_time":"10:41:00","departure_time":"10:41:00","lat":48.963072,"lon":16.350622,"is_passed":false},{"stop_id":"U14546Z10","name":"Miroslav, autobusové nádraží","arrival_time":"10:47:00","departure_time":"11:10:00","lat":48.94661,"lon":16.313115,"is_passed":false}],"5419":[{"stop_id":"U14546Z6","name":"Miroslav, autobusové nádraží","arrival_time":"11:10:00","departure_time":"11:10:00","lat":48.947248,"lon":16.312927,"is_passed":false},{"stop_id":"U14561Z1","name":"Našiměřice, železniční stanice","arrival_time":"11:17:00","departure_time":"11:17:00","lat":48.963217,"lon":16.35083,"is_passed":false},{"stop_id":"U14559Z1","name":"Našiměřice","arrival_time":"11:20:00","departure_time":"11:20:00","lat":48.968258,"lon":16.372205,"is_passed":false},{"stop_id":"U14541Z1","name":"Bohutice","arrival_time":"11:25:00","departure_time":"11:25:00","lat":48.989738,"lon":16.360072,"is_passed":false},{"stop_id":"U14018Z1","name":"Olbramovice, prodejna","arrival_time":"11:30:00","departure_time":"11:36:00","lat":48.989877,"lon":16.395692,"is_passed":false},{"stop_id":"U14019Z1","name":"Olbramovice, restaurace","arrival_time":"11:38:00","departure_time":"11:38:00","lat":48.984167,"lon":16.400743,"is_passed":false},{"stop_id":"U14010Z1","name":"Branišovice, pošta","arrival_time":"11:43:00","departure_time":"11:43:00","lat":48.961775,"lon":16.428677,"is_passed":false},{"stop_id":"U14011Z1","name":"Branišovice, státní silnice","arrival_time":"11:45:00","departure_time":"11:49:00","lat":48.959107,"lon":16.428737,"is_passed":false},{"stop_id":"U14023Z1","name":"Trnové Pole","arrival_time":"11:52:00","departure_time":"11:52:00","lat":48.945552,"lon":16.409551,"is_passed":false},{"stop_id":"U15552Z11","name":"Jiřice u Miroslavi","arrival_time":"11:56:00","departure_time":"12:01:00","lat":48.920697,"lon":16.39138,"is_passed":false}],"54100":[{"stop_id":"U1146Z8","name":"Hlavní nádraží","arrival_time":"17:15:00","departure_time":"17:15:00","lat":49.191893,"lon":16.613334,"is_passed":false},{"stop_id":"U1746Z1","name":"Vlhká","arrival_time":"17:16:00","departure_time":"17:16:00","lat":49.191847,"lon":16.618976,"is_passed":false},{"stop_id":"U1372Z5","name":"Masná","arrival_time":"17:18:00","departure_time":"17:18:00","lat":49.191189,"lon":16.626548,"is_passed":false},{"stop_id":"U1677Z1","name":"Tržní","arrival_time":"17:20:00","departure_time":"17:20:00","lat":49.189973,"lon":16.632193,"is_passed":false},{"stop_id":"U1068Z1","name":"Černovičky","arrival_time":"17:26:00","departure_time":"17:26:00","lat":49.182244,"lon":16.66894,"is_passed":false},{"stop_id":"U1741Z1","name":"Vlárská","arrival_time":"17:27:00","departure_time":"17:27:00","lat":49.180745,"lon":16.671647,"is_passed":false},{"stop_id":"U1046Z1","name":"Brněnky","arrival_time":"17:28:00","departure_time":"17:28:00","lat":49.17891,"lon":16.674895,"is_passed":false},{"stop_id":"U1562Z1","name":"Řípská","arrival_time":"17:29:00","departure_time":"17:29:00","lat":49.173814,"lon":16.682005,"is_passed":false},{"stop_id":"U1300Z1","name":"Křehlíkova","arrival_time":"17:31:00","departure_time":"17:31:00","lat":49.174839,"lon":16.685145,"is_passed":false},{"stop_id":"U1525Z1","name":"Přemyslovo náměstí","arrival_time":"17:32:00","departure_time":"17:32:00","lat":49.176289,"lon":16.687296,"is_passed":false},{"stop_id":"U1292Z1","name":"Krejčího","arrival_time":"17:33:00","departure_time":"17:33:00","lat":49.177441,"lon":16.690968,"is_passed":false},{"stop_id":"U16165Z1","name":"Šlapanice, sídliště","arrival_time":"17:36:00","departure_time":"17:36:00","lat":49.16703,"lon":16.718338,"is_passed":false},{"stop_id":"U16155Z1","name":"Šlapanice, Čechova","arrival_time":"17:37:00","departure_time":"17:37:00","lat":49.165752,"lon":16.722536,"is_passed":false},{"stop_id":"U16159Z1","name":"Šlapanice, Kalvodova","arrival_time":"17:39:00","departure_time":"17:48:00","lat":49.166442,"lon":16.726521,"is_passed":false}],"54101":[{"stop_id":"U16159Z2","name":"Šlapanice, Kalvodova","arrival_time":"17:48:00","departure_time":"17:48:00","lat":49.166539,"lon":16.726218,"is_passed":false},{"stop_id":"U16155Z2","name":"Šlapanice, Čechova","arrival_time":"17:49:00","departure_time":"17:49:00","lat":49.166076,"lon":16.721551,"is_passed":false},{"stop_id":"U16165Z2","name":"Šlapanice, sídliště","arrival_time":"17:50:00","departure_time":"17:50:00","lat":49.167046,"lon":16.718465,"is_passed":false},{"stop_id":"U1292Z2","name":"Krejčího","arrival_time":"17:54:00","departure_time":"17:54:00","lat":49.177496,"lon":16.690785,"is_passed":false},{"stop_id":"U1525Z2","name":"Přemyslovo náměstí","arrival_time":"17:54:00","departure_time":"17:54:00","lat":49.176456,"lon":16.687324,"is_passed":false},{"stop_id":"U1300Z2","name":"Křehlíkova","arrival_time":"17:55:00","departure_time":"17:55:00","lat":49.174794,"lon":16.685267,"is_passed":false},{"stop_id":"U1562Z2","name":"Řípská","arrival_time":"17:57:00","departure_time":"17:57:00","lat":49.174115,"lon":16.681787,"is_passed":false},{"stop_id":"U1046Z2","name":"Brněnky","arrival_time":"17:58:00","departure_time":"17:58:00","lat":49.178901,"lon":16.675332,"is_passed":false},{"stop_id":"U1741Z4","name":"Vlárská","arrival_time":"17:59:00","departure_time":"17:59:00","lat":49.181675,"lon":16.674379,"is_passed":false},{"stop_id":"U1757Z1","name":"Vozovna Slatina","arrival_time":"18:01:00","departure_time":"18:01:00","lat":49.183032,"lon":16.672807,"is_passed":false}],"54102":[{"stop_id":"U1577Z2","name":"Slatina, sídliště","arrival_time":"5:37:00","departure_time":"5:37:00","lat":49.181605,"lon":16.690121,"is_passed":false},{"stop_id":"U1297Z1","name":"Kroměřížská","arrival_time":"5:37:00","departure_time":"5:37:00","lat":49.178307,"lon":16.688244,"is_passed":false},{"stop_id":"U1382Z1","name":"Mikulčická","arrival_time":"5:38:00","departure_time":"5:38:00","lat":49.178464,"lon":16.683602,"is_passed":false},{"stop_id":"U1323Z1","name":"Langrova","arrival_time":"5:39:00","departure_time":"5:39:00","lat":49.180031,"lon":16.680806,"is_passed":false},{"stop_id":"U1173Z1","name":"Hviezdoslavova","arrival_time":"5:40:00","departure_time":"5:40:00","lat":49.18219,"lon":16.676025,"is_passed":false},{"stop_id":"U1757Z1","name":"Vozovna Slatina","arrival_time":"5:41:00","departure_time":"5:41:00","lat":49.183032,"lon":16.672807,"is_passed":false},{"stop_id":"U1068Z4","name":"Černovičky","arrival_time":"5:42:00","departure_time":"5:42:00","lat":49.183907,"lon":16.668247,"is_passed":false},{"stop_id":"U1814Z4","name":"Životského","arrival_time":"5:47:00","departure_time":"5:47:00","lat":49.190077,"lon":16.634992,"is_passed":false},{"stop_id":"U1372Z2","name":"Masná","arrival_time":"5:49:00","departure_time":"5:49:00","lat":49.191283,"lon":16.6245,"is_passed":false},{"stop_id":"U1746Z2","name":"Vlhká","arrival_time":"5:50:00","departure_time":"5:50:00","lat":49.191852,"lon":16.619157,"is_passed":false},{"stop_id":"U1146Z7","name":"Hlavní nádraží","arrival_time":"5:53:00","departure_time":"5:53:00","lat":49.19213,"lon":16.613467,"is_passed":false}],"54103":[{"stop_id":"U1146Z8","name":"Hlavní nádraží","arrival_time":"6:07:00","departure_time":"6:07:00","lat":49.191893,"lon":16.613334,"is_passed":false},{"stop_id":"U1746Z1","name":"Vlhká","arrival_time":"6:08:00","departure_time":"6:08:00","lat":49.191847,"lon":16.618976,"is_passed":false},{"stop_id":"U1372Z5","name":"Masná","arrival_time":"6:10:00","departure_time":"6:10:00","lat":49.191189,"lon":16.626548,"is_passed":false},{"stop_id":"U1677Z1","name":"Tržní","arrival_time":"6:12:00","departure_time":"6:12:00","lat":49.189973,"lon":16.632193,"is_passed":false},{"stop_id":"U1598Z1","name":"Spáčilova","arrival_time":"6:13:00","departure_time":"6:13:00","lat":49.188674,"lon":16.640942,"is_passed":false},{"stop_id":"U1455Z1","name":"Olomoucká - u školy","arrival_time":"6:15:00","departure_time":"6:15:00","lat":49.186169,"lon":16.652958,"is_passed":false},{"stop_id":"U1665Z1","name":"Těžební","arrival_time":"6:17:00","departure_time":"6:17:00","lat":49.181966,"lon":16.657236,"is_passed":false},{"stop_id":"U1739Z1","name":"Vlastimila Pecha","arrival_time":"6:18:00","departure_time":"6:18:00","lat":49.179379,"lon":16.662741,"is_passed":false},{"stop_id":"U1046Z1","name":"Brněnky","arrival_time":"6:21:00","departure_time":"6:21:00","lat":49.17891,"lon":16.674895,"is_passed":false},{"stop_id":"U1562Z1","name":"Řípská","arrival_time":"6:22:00","departure_time":"6:22:00","lat":49.173814,"lon":16.682005,"is_passed":false},{"stop_id":"U1640Z1","name":"Šmahova","arrival_time":"6:24:00","departure_time":"6:24:00","lat":49.171448,"lon":16.685105,"is_passed":false},{"stop_id":"U1334Z1","name":"Letiště - logistický areál","arrival_time":"6:26:00","departure_time":"6:26:00","lat":49.15627,"lon":16.698196,"is_passed":false},{"stop_id":"U1335Z1","name":"Letiště - služební vstup","arrival_time":"6:27:00","departure_time":"6:27:00","lat":49.155635,"lon":16.691132,"is_passed":false},{"stop_id":"U1337Z1","name":"Letiště Tuřany - terminál","arrival_time":"6:29:00","departure_time":"6:31:00","lat":49.154815,"lon":16.692296,"is_passed":false}],"54104":[{"stop_id":"U16159Z2","name":"Šlapanice, Kalvodova","arrival_time":"6:55:00","departure_time":"6:55:00","lat":49.166539,"lon":16.726218,"is_passed":false},{"stop_id":"U16155Z2","name":"Šlapanice, Čechova","arrival_time":"6:56:00","departure_time":"6:56:00","lat":49.166076,"lon":16.721551,"is_passed":false},{"stop_id":"U16165Z2","name":"Šlapanice, sídliště","arrival_time":"6:57:00","departure_time":"6:57:00","lat":49.167046,"lon":16.718465,"is_passed":false},{"stop_id":"U1292Z2","name":"Krejčího","arrival_time":"7:01:00","departure_time":"7:01:00","lat":49.177496,"lon":16.690785,"is_passed":false},{"stop_id":"U1525Z2","name":"Přemyslovo náměstí","arrival_time":"7:01:00","departure_time":"7:01:00","lat":49.176456,"lon":16.687324,"is_passed":false},{"stop_id":"U1300Z2","name":"Křehlíkova","arrival_time":"7:02:00","departure_time":"7:02:00","lat":49.174794,"lon":16.685267,"is_passed":false},{"stop_id":"U1562Z2","name":"Řípská","arrival_time":"7:04:00","departure_time":"7:04:00","lat":49.174115,"lon":16.681787,"is_passed":false},{"stop_id":"U1046Z2","name":"Brněnky","arrival_time":"7:05:00","departure_time":"7:05:00","lat":49.178901,"lon":16.675332,"is_passed":false},{"stop_id":"U1741Z2","name":"Vlárská","arrival_time":"7:06:00","departure_time":"7:06:00","lat":49.180702,"lon":16.672017,"is_passed":false},{"stop_id":"U1068Z4","name":"Černovičky","arrival_time":"7:08:00","departure_time":"7:08:00","lat":49.183907,"lon":16.668247,"is_passed":false},{"stop_id":"U1814Z4","name":"Životského","arrival_time":"7:13:00","departure_time":"7:13:00","lat":49.190077,"lon":16.634992,"is_passed":false},{"stop_id":"U1372Z2","name":"Masná","arrival_time":"7:15:00","departure_time":"7:15:00","lat":49.191283,"lon":16.6245,"is_passed":false},{"stop_id":"U1746Z2","name":"Vlhká","arrival_time":"7:16:00","departure_time":"7:16:00","lat":49.191852,"lon":16.619157,"is_passed":false},{"stop_id":"U1146Z7","name":"Hlavní nádraží","arrival_time":"7:19:00","departure_time":"7:24:00","lat":49.19213,"lon":16.613467,"is_passed":false}],"54105":[{"stop_id":"U1146Z8","name":"Hlavní nádraží","arrival_time":"7:24:00","departure_time":"7:24:00","lat":49.191893,"lon":16.613334,"is_passed":false},{"stop_id":"U1746Z1","name":"Vlhká","arrival_time":"7:25:00","departure_time":"7:25:00","lat":49.191847,"lon":16.618976,"is_passed":false},{"stop_id":"U1372Z5","name":"Masná","arrival_time":"7:27:00","departure_time":"7:27:00","lat":49.191189,"lon":16.626548,"is_passed":false},{"stop_id":"U1677Z1","name":"Tržní","arrival_time":"7:29:00","departure_time":"7:29:00","lat":49.189973,"lon":16.632193,"is_passed":false},{"stop_id":"U1068Z1","name":"Černovičky","arrival_time":"7:35:00","departure_time":"7:35:00","lat":49.182244,"lon":16.66894,"is_passed":false},{"stop_id":"U1741Z1","name":"Vlárská","arrival_time":"7:36:00","departure_time":"7:36:00","lat":49.180745,"lon":16.671647,"is_passed":false},{"stop_id":"U1046Z1","name":"Brněnky","arrival_time":"7:37:00","departure_time":"7:37:00","lat":49.17891,"lon":16.674895,"is_passed":false},{"stop_id":"U1562Z1","name":"Řípská","arrival_time":"7:38:00","departure_time":"7:38:00","lat":49.173814,"lon":16.682005,"is_passed":false},{"stop_id":"U1300Z1","name":"Křehlíkova","arrival_time":"7:40:00","departure_time":"7:40:00","lat":49.174839,"lon":16.685145,"is_passed":false},{"stop_id":"U1525Z1","name":"Přemyslovo náměstí","arrival_time":"7:41:00","departure_time":"7:41:00","lat":49.176289,"lon":16.687296,"is_passed":false},{"stop_id":"U1292Z1","name":"Krejčího","arrival_time":"7:42:00","departure_time":"7:42:00","lat":49.177441,"lon":16.690968,"is_passed":false},{"stop_id":"U16165Z1","name":"Šlapanice, sídliště","arrival_time":"7:45:00","departure_time":"7:45:00","lat":49.16703,"lon":16.718338,"is_passed":false},{"stop_id":"U16155Z1","name":"Šlapanice, Čechova","arrival_time":"7:46:00","departure_time":"7:46:00","lat":49.165752,"lon":16.722536,"is_passed":false},{"stop_id":"U16159Z1","name":"Šlapanice, Kalvodova","arrival_time":"7:48:00","departure_time":"8:09:00","lat":49.166442,"lon":16.726521,"is_passed":false}],"54106":[{"stop_id":"U16159Z2","name":"Šlapanice, Kalvodova","arrival_time":"8:09:00","departure_time":"8:09:00","lat":49.166539,"lon":16.726218,"is_passed":false},{"stop_id":"U16155Z2","name":"Šlapanice, Čechova","arrival_time":"8:10:00","departure_time":"8:10:00","lat":49.166076,"lon":16.721551,"is_passed":false},{"stop_id":"U16165Z2","name":"Šlapanice, sídliště","arrival_time":"8:11:00","departure_time":"8:11:00","lat":49.167046,"lon":16.718465,"is_passed":false},{"stop_id":"U1292Z2","name":"Krejčího","arrival_time":"8:15:00","departure_time":"8:15:00","lat":49.177496,"lon":16.690785,"is_passed":false},{"stop_id":"U1525Z2","name":"Přemyslovo náměstí","arrival_time":"8:15:00","departure_time":"8:15:00","lat":49.176456,"lon":16.687324,"is_passed":false},{"stop_id":"U1300Z2","name":"Křehlíkova","arrival_time":"8:16:00","departure_time":"8:16:00","lat":49.174794,"lon":16.685267,"is_passed":false},{"stop_id":"U1562Z2","name":"Řípská","arrival_time":"8:18:00","departure_time":"8:18:00","lat":49.174115,"lon":16.681787,"is_passed":false},{"stop_id":"U1046Z2","name":"Brněnky","arrival_time":"8:19:00","departure_time":"8:19:00","lat":49.178901,"lon":16.675332,"is_passed":false},{"stop_id":"U1741Z2","name":"Vlárská","arrival_time":"8:20:00","departure_time":"8:20:00","lat":49.180702,"lon":16.672017,"is_passed":false},{"stop_id":"U1068Z4","name":"Černovičky","arrival_time":"8:22:00","departure_time":"8:22:00","lat":49.183907,"lon":16.668247,"is_passed":false},{"stop_id":"U1814Z4","name":"Životského","arrival_time":"8:27:00","departure_time":"8:27:00","lat":49.190077,"lon":16.634992,"is_passed":false},{"stop_id":"U1372Z2","name":"Masná","arrival_time":"8:29:00","departure_time":"8:29:00","lat":49.191283,"lon":16.6245,"is_passed":false},{"stop_id":"U1746Z2","name":"Vlhká","arrival_time":"8:30:00","departure_time":"8:30:00","lat":49.191852,"lon":16.619157,"is_passed":false},{"stop_id":"U1146Z7","name":"Hlavní nádraží","arrival_time":"8:33:00","departure_time":"8:44:00","lat":49.19213,"lon":16.613467,"is_passed":false}],"54107":[{"stop_id":"U1146Z8","name":"Hlavní nádraží","arrival_time":"8:44:00","departure_time":"8:44:00","lat":49.191893,"lon":16.613334,"is_passed":false},{"stop_id":"U1746Z1","name":"Vlhká","arrival_time":"8:45:00","departure_time":"8:45:00","lat":49.191847,"lon":16.618976,"is_passed":false},{"stop_id":"U1372Z5","name":"Masná","arrival_time":"8:47:00","departure_time":"8:47:00","lat":49.191189,"lon":16.626548,"is_passed":false},{"stop_id":"U1677Z1","name":"Tržní","arrival_time":"8:49:00","departure_time":"8:49:00","lat":49.189973,"lon":16.632193,"is_passed":false},{"stop_id":"U1068Z1","name":"Černovičky","arrival_time":"8:55:00","departure_time":"8:55:00","lat":49.182244,"lon":16.66894,"is_passed":false},{"stop_id":"U1741Z1","name":"Vlárská","arrival_time":"8:56:00","departure_time":"8:56:00","lat":49.180745,"lon":16.671647,"is_passed":false},{"stop_id":"U1046Z1","name":"Brněnky","arrival_time":"8:57:00","departure_time":"8:57:00","lat":49.17891,"lon":16.674895,"is_passed":false},{"stop_id":"U1562Z1","name":"Řípská","arrival_time":"8:58:00","departure_time":"8:58:00","lat":49.173814,"lon":16.682005,"is_passed":false},{"stop_id":"U1300Z1","name":"Křehlíkova","arrival_time":"9:00:00","departure_time":"9:00:00","lat":49.174839,"lon":16.685145,"is_passed":false},{"stop_id":"U1525Z1","name":"Přemyslovo náměstí","arrival_time":"9:01:00","departure_time":"9:01:00","lat":49.176289,"lon":16.687296,"is_passed":false},{"stop_id":"U1292Z1","name":"Krejčího","arrival_time":"9:02:00","departure_time":"9:02:00","lat":49.177441,"lon":16.690968,"is_passed":false},{"stop_id":"U16165Z1","name":"Šlapanice, sídliště","arrival_time":"9:05:00","departure_time":"9:05:00","lat":49.16703,"lon":16.718338,"is_passed":false},{"stop_id":"U16155Z1","name":"Šlapanice, Čechova","arrival_time":"9:06:00","departure_time":"9:06:00","lat":49.165752,"lon":16.722536,"is_passed":false},{"stop_id":"U16159Z1","name":"Šlapanice, Kalvodova","arrival_time":"9:08:00","departure_time":"9:39:00","lat":49.166442,"lon":16.726521,"is_passed":false}],"54108":[{"stop_id":"U16159Z2","name":"Šlapanice, Kalvodova","arrival_time":"9:39:00","departure_time":"9:39:00","lat":49.166539,"lon":16.726218,"is_passed":false},{"stop_id":"U16155Z2","name":"Šlapanice, Čechova","arrival_time":"9:40:00","departure_time":"9:40:00","lat":49.166076,"lon":16.721551,"is_passed":false},{"stop_id":"U16165Z2","name":"Šlapanice, sídliště","arrival_time":"9:41:00","departure_time":"9:41:00","lat":49.167046,"lon":16.718465,"is_passed":false},{"stop_id":"U1292Z2","name":"Krejčího","arrival_time":"9:45:00","departure_time":"9:45:00","lat":49.177496,"lon":16.690785,"is_passed":false},{"stop_id":"U1525Z2","name":"Přemyslovo náměstí","arrival_time":"9:45:00","departure_time":"9:45:00","lat":49.176456,"lon":16.687324,"is_passed":false},{"stop_id":"U1300Z2","name":"Křehlíkova","arrival_time":"9:46:00","departure_time":"9:46:00","lat":49.174794,"lon":16.685267,"is_passed":false},{"stop_id":"U1562Z2","name":"Řípská","arrival_time":"9:48:00","departure_time":"9:48:00","lat":49.174115,"lon":16.681787,"is_passed":false},{"stop_id":"U1046Z2","name":"Brněnky","arrival_time":"9:49:00","departure_time":"9:49:00","lat":49.178901,"lon":16.675332,"is_passed":false},{"stop_id":"U1741Z2","name":"Vlárská","arrival_time":"9:50:00","departure_time":"9:50:00","lat":49.180702,"lon":16.672017,"is_passed":false},{"stop_id":"U1068Z4","name":"Černovičky","arrival_time":"9:52:00","departure_time":"9:52:00","lat":49.183907,"lon":16.668247,"is_passed":false},{"stop_id":"U1814Z4","name":"Životského","arrival_time":"9:57:00","departure_time":"9:57:00","lat":49.190077,"lon":16.634992,"is_passed":false},{"stop_id":"U1372Z2","name":"Masná","arrival_time":"9:59:00","departure_time":"9:59:00","lat":49.191283,"lon":16.6245,"is_passed":false},{"stop_id":"U1746Z2","name":"Vlhká","arrival_time":"10:00:00","departure_time":"10:00:00","lat":49.191852,"lon":16.619157,"is_passed":false},{"stop_id":"U1146Z7","name":"Hlavní nádraží","arrival_time":"10:03:00","departure_time":"10:03:00","lat":49.19213,"lon":16.613467,"is_passed":false}],"54109":[{"stop_id":"U1146Z8","name":"Hlavní nádraží","arrival_time":"10:09:00","departure_time":"10:09:00","lat":49.191893,"lon":16.613334,"is_passed":false},{"stop_id":"U1746Z1","name":"Vlhká","arrival_time":"10:10:00","departure_time":"10:10:00","lat":49.191847,"lon":16.618976,"is_passed":false},{"stop_id":"U1372Z5","name":"Masná","arrival_time":"10:12:00","departure_time":"10:12:00","lat":49.191189,"lon":16.626548,"is_passed":false},{"stop_id":"U1677Z1","name":"Tržní","arrival_time":"10:14:00","departure_time":"10:14:00","lat":49.189973,"lon":16.632193,"is_passed":false},{"stop_id":"U1598Z1","name":"Spáčilova","arrival_time":"10:15:00","departure_time":"10:15:00","lat":49.188674,"lon":16.640942,"is_passed":false},{"stop_id":"U1455Z1","name":"Olomoucká - u školy","arrival_time":"10:17:00","departure_time":"10:17:00","lat":49.186169,"lon":16.652958,"is_passed":false},{"stop_id":"U1665Z1","name":"Těžební","arrival_time":"10:19:00","departure_time":"10:19:00","lat":49.181966,"lon":16.657236,"is_passed":false},{"stop_id":"U1739Z1","name":"Vlastimila Pecha","arrival_time":"10:20:00","departure_time":"10:20:00","lat":49.179379,"lon":16.662741,"is_passed":false},{"stop_id":"U1046Z1","name":"Brněnky","arrival_time":"10:23:00","departure_time":"10:23:00","lat":49.17891,"lon":16.674895,"is_passed":false},{"stop_id":"U1562Z1","name":"Řípská","arrival_time":"10:24:00","departure_time":"10:24:00","lat":49.173814,"lon":16.682005,"is_passed":false},{"stop_id":"U1640Z1","name":"Šmahova","arrival_time":"10:26:00","departure_time":"10:26:00","lat":49.171448,"lon":16.685105,"is_passed":false},{"stop_id":"U1334Z1","name":"Letiště - logistický areál","arrival_time":"10:28:00","departure_time":"10:28:00","lat":49.15627,"lon":16.698196,"is_passed":false},{"stop_id":"U1335Z1","name":"Letiště - služební vstup","arrival_time":"10:29:00","departure_time":"10:29:00","lat":49.155635,"lon":16.691132,"is_passed":false},{"stop_id":"U1337Z1","name":"Letiště Tuřany - terminál","arrival_time":"10:31:00","departure_time":"10:44:00","lat":49.154815,"lon":16.692296,"is_passed":false}],"54110":[{"stop_id":"U1337Z2","name":"Letiště Tuřany - terminál","arrival_time":"10:44:00","departure_time":"10:44:00","lat":49.154845,"lon":16.692583,"is_passed":false},{"stop_id":"U1334Z2","name":"Letiště - logistický areál","arrival_time":"10:46:00","departure_time":"10:46:00","lat":49.156979,"lon":16.699058,"is_passed":false},{"stop_id":"U1640Z2","name":"Šmahova","arrival_time":"10:48:00","departure_time":"10:48:00","lat":49.172157,"lon":16.684373,"is_passed":false},{"stop_id":"U1562Z2","name":"Řípská","arrival_time":"10:50:00","departure_time":"10:50:00","lat":49.174115,"lon":16.681787,"is_passed":false},{"stop_id":"U1046Z2","name":"Brněnky","arrival_time":"10:51:00","departure_time":"10:51:00","lat":49.178901,"lon":16.675332,"is_passed":false},{"stop_id":"U1105Z4","name":"Ericha Roučky","arrival_time":"10:53:00","departure_time":"10:53:00","lat":49.175789,"lon":16.668403,"is_passed":false},{"stop_id":"U1739Z2","name":"Vlastimila Pecha","arrival_time":"10:54:00","departure_time":"10:54:00","lat":49.179751,"lon":16.662407,"is_passed":false},{"stop_id":"U1665Z2","name":"Těžební","arrival_time":"10:55:00","departure_time":"10:55:00","lat":49.182639,"lon":16.656437,"is_passed":false},{"stop_id":"U1455Z2","name":"Olomoucká - u školy","arrival_time":"10:57:00","departure_time":"10:57:00","lat":49.186437,"lon":16.652477,"is_passed":false},{"stop_id":"U1598Z2","name":"Spáčilova","arrival_time":"10:59:00","departure_time":"10:59:00","lat":49.188617,"lon":16.641569,"is_passed":false},{"stop_id":"U1814Z4","name":"Životského","arrival_time":"11:01:00","departure_time":"11:01:00","lat":49.190077,"lon":16.634992,"is_passed":false},{"stop_id":"U1372Z2","name":"Masná","arrival_time":"11:03:00","departure_time":"11:03:00","lat":49.191283,"lon":16.6245,"is_passed":false},{"stop_id":"U1746Z2","name":"Vlhká","arrival_time":"11:04:00","departure_time":"11:04:00","lat":49.191852,"lon":16.619157,"is_passed":false},{"stop_id":"U1146Z7","name":"Hlavní nádraží","arrival_time":"11:07:00","departure_time":"11:07:00","lat":49.19213,"lon":16.613467,"is_passed":false}],"54111":[{"stop_id":"U1146Z8","name":"Hlavní nádraží","arrival_time":"11:14:00","departure_time":"11:14:00","lat":49.191893,"lon":16.613334,"is_passed":false},{"stop_id":"U1746Z1","name":"Vlhká","arrival_time":"11:15:00","departure_time":"11:15:00","lat":49.191847,"lon":16.618976,"is_passed":false},{"stop_id":"U1372Z5","name":"Masná","arrival_time":"11:17:00","departure_time":"11:17:00","lat":49.191189,"lon":16.626548,"is_passed":false},{"stop_id":"U1677Z1","name":"Tržní","arrival_time":"11:19:00","departure_time":"11:19:00","lat":49.189973,"lon":16.632193,"is_passed":false},{"stop_id":"U1068Z1","name":"Černovičky","arrival_time":"11:25:00","departure_time":"11:25:00","lat":49.182244,"lon":16.66894,"is_passed":false},{"stop_id":"U1741Z1","name":"Vlárská","arrival_time":"11:26:00","departure_time":"11:26:00","lat":49.180745,"lon":16.671647,"is_passed":false},{"stop_id":"U1046Z1","name":"Brněnky","arrival_time":"11:27:00","departure_time":"11:27:00","lat":49.17891,"lon":16.674895,"is_passed":false},{"stop_id":"U1562Z1","name":"Řípská","arrival_time":"11:28:00","departure_time":"11:28:00","lat":49.173814,"lon":16.682005,"is_passed":false},{"stop_id":"U1300Z1","name":"Křehlíkova","arrival_time":"11:30:00","departure_time":"11:30:00","lat":49.174839,"lon":16.685145,"is_passed":false},{"stop_id":"U1525Z1","name":"Přemyslovo náměstí","arrival_time":"11:31:00","departure_time":"11:31:00","lat":49.176289,"lon":16.687296,"is_passed":false},{"stop_id":"U1292Z1","name":"Krejčího","arrival_time":"11:32:00","departure_time":"11:32:00","lat":49.177441,"lon":16.690968,"is_passed":false},{"stop_id":"U16165Z1","name":"Šlapanice, sídliště","arrival_time":"11:35:00","departure_time":"11:35:00","lat":49.16703,"lon":16.718338,"is_passed":false},{"stop_id":"U16155Z1","name":"Šlapanice, Čechova","arrival_time":"11:36:00","departure_time":"11:36:00","lat":49.165752,"lon":16.722536,"is_passed":false},{"stop_id":"U16159Z1","name":"Šlapanice, Kalvodova","arrival_time":"11:38:00","departure_time":"11:59:00","lat":49.166442,"lon":16.726521,"is_passed":false}],"54112":[{"stop_id":"U16159Z2","name":"Šlapanice, Kalvodova","arrival_time":"11:59:00","departure_time":"11:59:00","lat":49.166539,"lon":16.726218,"is_passed":false},{"stop_id":"U16155Z2","name":"Šlapanice, Čechova","arrival_time":"12:00:00","departure_time":"12:00:00","lat":49.166076,"lon":16.721551,"is_passed":false},{"stop_id":"U16165Z2","name":"Šlapanice, sídliště","arrival_time":"12:01:00","departure_time":"12:01:00","lat":49.167046,"lon":16.718465,"is_passed":false},{"stop_id":"U1292Z2","name":"Krejčího","arrival_time":"12:05:00","departure_time":"12:05:00","lat":49.177496,"lon":16.690785,"is_passed":false},{"stop_id":"U1525Z2","name":"Přemyslovo náměstí","arrival_time":"12:05:00","departure_time":"12:05:00","lat":49.176456,"lon":16.687324,"is_passed":false},{"stop_id":"U1300Z2","name":"Křehlíkova","arrival_time":"12:06:00","departure_time":"12:06:00","lat":49.174794,"lon":16.685267,"is_passed":false},{"stop_id":"U1562Z2","name":"Řípská","arrival_time":"12:08:00","departure_time":"12:08:00","lat":49.174115,"lon":16.681787,"is_passed":false},{"stop_id":"U1046Z2","name":"Brněnky","arrival_time":"12:09:00","departure_time":"12:09:00","lat":49.178901,"lon":16.675332,"is_passed":false},{"stop_id":"U1741Z2","name":"Vlárská","arrival_time":"12:10:00","departure_time":"12:10:00","lat":49.180702,"lon":16.672017,"is_passed":false},{"stop_id":"U1068Z4","name":"Černovičky","arrival_time":"12:12:00","departure_time":"12:12:00","lat":49.183907,"lon":16.668247,"is_passed":false},{"stop_id":"U1814Z4","name":"Životského","arrival_time":"12:17:00","departure_time":"12:17:00","lat":49.190077,"lon":16.634992,"is_passed":false},{"stop_id":"U1372Z2","name":"Masná","arrival_time":"12:19:00","departure_time":"12:19:00","lat":49.191283,"lon":16.6245,"is_passed":false},{"stop_id":"U1746Z2","name":"Vlhká","arrival_time":"12:20:00","departure_time":"12:20:00","lat":49.191852,"lon":16.619157,"is_passed":false},{"stop_id":"U1146Z7","name":"Hlavní nádraží","arrival_time":"12:23:00","departure_time":"12:23:00","lat":49.19213,"lon":16.613467,"is_passed":false}],"54113":[{"stop_id":"U1146Z8","name":"Hlavní nádraží","arrival_time":"12:29:00","departure_time":"12:29:00","lat":49.191893,"lon":16.613334,"is_passed":false},{"stop_id":"U1746Z1","name":"Vlhká","arrival_time":"12:30:00","departure_time":"12:30:00","lat":49.191847,"lon":16.618976,"is_passed":false},{"stop_id":"U1372Z5","name":"Masná","arrival_time":"12:32:00","departure_time":"12:32:00","lat":49.191189,"lon":16.626548,"is_passed":false},{"stop_id":"U1677Z1","name":"Tržní","arrival_time":"12:34:00","departure_time":"12:34:00","lat":49.189973,"lon":16.632193,"is_passed":false},{"stop_id":"U1598Z1","name":"Spáčilova","arrival_time":"12:35:00","departure_time":"12:35:00","lat":49.188674,"lon":16.640942,"is_passed":false},{"stop_id":"U1455Z1","name":"Olomoucká - u školy","arrival_time":"12:37:00","departure_time":"12:37:00","lat":49.186169,"lon":16.652958,"is_passed":false},{"stop_id":"U1665Z1","name":"Těžební","arrival_time":"12:39:00","departure_time":"12:39:00","lat":49.181966,"lon":16.657236,"is_passed":false},{"stop_id":"U1739Z1","name":"Vlastimila Pecha","arrival_time":"12:40:00","departure_time":"12:40:00","lat":49.179379,"lon":16.662741,"is_passed":false},{"stop_id":"U1046Z1","name":"Brněnky","arrival_time":"12:43:00","departure_time":"12:43:00","lat":49.17891,"lon":16.674895,"is_passed":false},{"stop_id":"U1562Z1","name":"Řípská","arrival_time":"12:44:00","departure_time":"12:44:00","lat":49.173814,"lon":16.682005,"is_passed":false},{"stop_id":"U1640Z1","name":"Šmahova","arrival_time":"12:46:00","departure_time":"12:46:00","lat":49.171448,"lon":16.685105,"is_passed":false},{"stop_id":"U1334Z1","name":"Letiště - logistický areál","arrival_time":"12:48:00","departure_time":"12:48:00","lat":49.15627,"lon":16.698196,"is_passed":false},{"stop_id":"U1335Z1","name":"Letiště - služební vstup","arrival_time":"12:49:00","departure_time":"12:49:00","lat":49.155635,"lon":16.691132,"is_passed":false},{"stop_id":"U1337Z1","name":"Letiště Tuřany - terminál","arrival_time":"12:51:00","departure_time":"13:04:00","lat":49.154815,"lon":16.692296,"is_passed":false}],"54114":[{"stop_id":"U1337Z2","name":"Letiště Tuřany - terminál","arrival_time":"13:04:00","departure_time":"13:04:00","lat":49.154845,"lon":16.692583,"is_passed":false},{"stop_id":"U1334Z2","name":"Letiště - logistický areál","arrival_time":"13:06:00","departure_time":"13:06:00","lat":49.156979,"lon":16.699058,"is_passed":false},{"stop_id":"U1640Z2","name":"Šmahova","arrival_time":"13:08:00","departure_time":"13:08:00","lat":49.172157,"lon":16.684373,"is_passed":false},{"stop_id":"U1562Z2","name":"Řípská","arrival_time":"13:10:00","departure_time":"13:10:00","lat":49.174115,"lon":16.681787,"is_passed":false},{"stop_id":"U1046Z2","name":"Brněnky","arrival_time":"13:11:00","departure_time":"13:11:00","lat":49.178901,"lon":16.675332,"is_passed":false},{"stop_id":"U1105Z4","name":"Ericha Roučky","arrival_time":"13:13:00","departure_time":"13:13:00","lat":49.175789,"lon":16.668403,"is_passed":false},{"stop_id":"U1739Z2","name":"Vlastimila Pecha","arrival_time":"13:14:00","departure_time":"13:14:00","lat":49.179751,"lon":16.662407,"is_passed":false},{"stop_id":"U1665Z2","name":"Těžební","arrival_time":"13:15:00","departure_time":"13:15:00","lat":49.182639,"lon":16.656437,"is_passed":false},{"stop_id":"U1455Z2","name":"Olomoucká - u školy","arrival_time":"13:17:00","departure_time":"13:17:00","lat":49.186437,"lon":16.652477,"is_passed":false},{"stop_id":"U1598Z2","name":"Spáčilova","arrival_time":"13:19:00","departure_time":"13:19:00","lat":49.188617,"lon":16.641569,"is_passed":false},{"stop_id":"U1814Z4","name":"Životského","arrival_time":"13:21:00","departure_time":"13:21:00","lat":49.190077,"lon":16.634992,"is_passed":false},{"stop_id":"U1372Z2","name":"Masná","arrival_time":"13:23:00","departure_time":"13:23:00","lat":49.191283,"lon":16.6245,"is_passed":false},{"stop_id":"U1746Z2","name":"Vlhká","arrival_time":"13:24:00","departure_time":"13:24:00","lat":49.191852,"lon":16.619157,"is_passed":false},{"stop_id":"U1146Z7","name":"Hlavní nádraží","arrival_time":"13:27:00","departure_time":"13:27:00","lat":49.19213,"lon":16.613467,"is_passed":false}],"54115":[{"stop_id":"U1146Z8","name":"Hlavní nádraží","arrival_time":"13:34:00","departure_time":"13:34:00","lat":49.191893,"lon":16.613334,"is_passed":false},{"stop_id":"U1746Z1","name":"Vlhká","arrival_time":"13:35:00","departure_time":"13:35:00","lat":49.191847,"lon":16.618976,"is_passed":false},{"stop_id":"U1372Z5","name":"Masná","arrival_time":"13:37:00","departure_time":"13:37:00","lat":49.191189,"lon":16.626548,"is_passed":false},{"stop_id":"U1677Z1","name":"Tržní","arrival_time":"13:39:00","departure_time":"13:39:00","lat":49.189973,"lon":16.632193,"is_passed":false},{"stop_id":"U1068Z1","name":"Černovičky","arrival_time":"13:45:00","departure_time":"13:45:00","lat":49.182244,"lon":16.66894,"is_passed":false},{"stop_id":"U1741Z1","name":"Vlárská","arrival_time":"13:46:00","departure_time":"13:46:00","lat":49.180745,"lon":16.671647,"is_passed":false},{"stop_id":"U1046Z1","name":"Brněnky","arrival_time":"13:47:00","departure_time":"13:47:00","lat":49.17891,"lon":16.674895,"is_passed":false},{"stop_id":"U1562Z1","name":"Řípská","arrival_time":"13:48:00","departure_time":"13:48:00","lat":49.173814,"lon":16.682005,"is_passed":false},{"stop_id":"U1300Z1","name":"Křehlíkova","arrival_time":"13:50:00","departure_time":"13:50:00","lat":49.174839,"lon":16.685145,"is_passed":false},{"stop_id":"U1525Z1","name":"Přemyslovo náměstí","arrival_time":"13:51:00","departure_time":"13:51:00","lat":49.176289,"lon":16.687296,"is_passed":false},{"stop_id":"U1292Z1","name":"Krejčího","arrival_time":"13:52:00","departure_time":"13:52:00","lat":49.177441,"lon":16.690968,"is_passed":false},{"stop_id":"U16165Z1","name":"Šlapanice, sídliště","arrival_time":"13:55:00","departure_time":"13:55:00","lat":49.16703,"lon":16.718338,"is_passed":false},{"stop_id":"U16155Z1","name":"Šlapanice, Čechova","arrival_time":"13:56:00","departure_time":"13:56:00","lat":49.165752,"lon":16.722536,"is_passed":false},{"stop_id":"U16159Z1","name":"Šlapanice, Kalvodova","arrival_time":"13:58:00","departure_time":"14:20:00","lat":49.166442,"lon":16.726521,"is_passed":false}],"54116":[{"stop_id":"U16159Z2","name":"Šlapanice, Kalvodova","arrival_time":"14:20:00","departure_time":"14:20:00","lat":49.166539,"lon":16.726218,"is_passed":false},{"stop_id":"U16155Z2","name":"Šlapanice, Čechova","arrival_time":"14:21:00","departure_time":"14:21:00","lat":49.166076,"lon":16.721551,"is_passed":false},{"stop_id":"U16165Z2","name":"Šlapanice, sídliště","arrival_time":"14:22:00","departure_time":"14:22:00","lat":49.167046,"lon":16.718465,"is_passed":false},{"stop_id":"U1292Z2","name":"Krejčího","arrival_time":"14:26:00","departure_time":"14:26:00","lat":49.177496,"lon":16.690785,"is_passed":false},{"stop_id":"U1525Z2","name":"Přemyslovo náměstí","arrival_time":"14:26:00","departure_time":"14:26:00","lat":49.176456,"lon":16.687324,"is_passed":false},{"stop_id":"U1300Z2","name":"Křehlíkova","arrival_time":"14:27:00","departure_time":"14:27:00","lat":49.174794,"lon":16.685267,"is_passed":false},{"stop_id":"U1562Z2","name":"Řípská","arrival_time":"14:29:00","departure_time":"14:29:00","lat":49.174115,"lon":16.681787,"is_passed":false},{"stop_id":"U1046Z2","name":"Brněnky","arrival_time":"14:30:00","departure_time":"14:30:00","lat":49.178901,"lon":16.675332,"is_passed":false},{"stop_id":"U1741Z2","name":"Vlárská","arrival_time":"14:31:00","departure_time":"14:31:00","lat":49.180702,"lon":16.672017,"is_passed":false},{"stop_id":"U1068Z4","name":"Černovičky","arrival_time":"14:33:00","departure_time":"14:33:00","lat":49.183907,"lon":16.668247,"is_passed":false},{"stop_id":"U1814Z4","name":"Životského","arrival_time":"14:38:00","departure_time":"14:38:00","lat":49.190077,"lon":16.634992,"is_passed":false},{"stop_id":"U1372Z2","name":"Masná","arrival_time":"14:40:00","departure_time":"14:40:00","lat":49.191283,"lon":16.6245,"is_passed":false},{"stop_id":"U1746Z2","name":"Vlhká","arrival_time":"14:41:00","departure_time":"14:41:00","lat":49.191852,"lon":16.619157,"is_passed":false},{"stop_id":"U1146Z7","name":"Hlavní nádraží","arrival_time":"14:44:00","departure_time":"14:44:00","lat":49.19213,"lon":16.613467,"is_passed":false}],"54117":[{"stop_id":"U1146Z8","name":"Hlavní nádraží","arrival_time":"14:51:00","departure_time":"14:51:00","lat":49.191893,"lon":16.613334,"is_passed":false},{"stop_id":"U1746Z1","name":"Vlhká","arrival_time":"14:52:00","departure_time":"14:52:00","lat":49.191847,"lon":16.618976,"is_passed":false},{"stop_id":"U1372Z5","name":"Masná","arrival_time":"14:54:00","departure_time":"14:54:00","lat":49.191189,"lon":16.626548,"is_passed":false},{"stop_id":"U1677Z1","name":"Tržní","arrival_time":"14:56:00","departure_time":"14:56:00","lat":49.189973,"lon":16.632193,"is_passed":false},{"stop_id":"U1598Z1","name":"Spáčilova","arrival_time":"14:57:00","departure_time":"14:57:00","lat":49.188674,"lon":16.640942,"is_passed":false},{"stop_id":"U1455Z1","name":"Olomoucká - u školy","arrival_time":"14:59:00","departure_time":"14:59:00","lat":49.186169,"lon":16.652958,"is_passed":false},{"stop_id":"U1665Z1","name":"Těžební","arrival_time":"15:01:00","departure_time":"15:01:00","lat":49.181966,"lon":16.657236,"is_passed":false},{"stop_id":"U1739Z1","name":"Vlastimila Pecha","arrival_time":"15:02:00","departure_time":"15:02:00","lat":49.179379,"lon":16.662741,"is_passed":false},{"stop_id":"U1046Z1","name":"Brněnky","arrival_time":"15:05:00","departure_time":"15:05:00","lat":49.17891,"lon":16.674895,"is_passed":false},{"stop_id":"U1562Z1","name":"Řípská","arrival_time":"15:06:00","departure_time":"15:06:00","lat":49.173814,"lon":16.682005,"is_passed":false},{"stop_id":"U1640Z1","name":"Šmahova","arrival_time":"15:08:00","departure_time":"15:08:00","lat":49.171448,"lon":16.685105,"is_passed":false},{"stop_id":"U1334Z1","name":"Letiště - logistický areál","arrival_time":"15:10:00","departure_time":"15:10:00","lat":49.15627,"lon":16.698196,"is_passed":false},{"stop_id":"U1335Z1","name":"Letiště - služební vstup","arrival_time":"15:11:00","departure_time":"15:11:00","lat":49.155635,"lon":16.691132,"is_passed":false},{"stop_id":"U1337Z1","name":"Letiště Tuřany - terminál","arrival_time":"15:13:00","departure_time":"15:19:00","lat":49.154815,"lon":16.692296,"is_passed":false}],"54118":[{"stop_id":"U1337Z2","name":"Letiště Tuřany - terminál","arrival_time":"15:19:00","departure_time":"15:19:00","lat":49.154845,"lon":16.692583,"is_passed":false},{"stop_id":"U1334Z2","name":"Letiště - logistický areál","arrival_time":"15:21:00","departure_time":"15:21:00","lat":49.156979,"lon":16.699058,"is_passed":false},{"stop_id":"U1640Z2","name":"Šmahova","arrival_time":"15:23:00","departure_time":"15:23:00","lat":49.172157,"lon":16.684373,"is_passed":false},{"stop_id":"U1562Z2","name":"Řípská","arrival_time":"15:25:00","departure_time":"15:25:00","lat":49.174115,"lon":16.681787,"is_passed":false},{"stop_id":"U1046Z2","name":"Brněnky","arrival_time":"15:26:00","departure_time":"15:26:00","lat":49.178901,"lon":16.675332,"is_passed":false},{"stop_id":"U1105Z4","name":"Ericha Roučky","arrival_time":"15:28:00","departure_time":"15:28:00","lat":49.175789,"lon":16.668403,"is_passed":false},{"stop_id":"U1739Z2","name":"Vlastimila Pecha","arrival_time":"15:29:00","departure_time":"15:29:00","lat":49.179751,"lon":16.662407,"is_passed":false},{"stop_id":"U1665Z2","name":"Těžební","arrival_time":"15:30:00","departure_time":"15:30:00","lat":49.182639,"lon":16.656437,"is_passed":false},{"stop_id":"U1455Z2","name":"Olomoucká - u školy","arrival_time":"15:32:00","departure_time":"15:32:00","lat":49.186437,"lon":16.652477,"is_passed":false},{"stop_id":"U1598Z2","name":"Spáčilova","arrival_time":"15:34:00","departure_time":"15:34:00","lat":49.188617,"lon":16.641569,"is_passed":false},{"stop_id":"U1814Z4","name":"Životského","arrival_time":"15:36:00","departure_time":"15:36:00","lat":49.190077,"lon":16.634992,"is_passed":false},{"stop_id":"U1372Z2","name":"Masná","arrival_time":"15:38:00","departure_time":"15:38:00","lat":49.191283,"lon":16.6245,"is_passed":false},{"stop_id":"U1746Z2","name":"Vlhká","arrival_time":"15:39:00","departure_time":"15:39:00","lat":49.191852,"lon":16.619157,"is_passed":false},{"stop_id":"U1146Z7","name":"Hlavní nádraží","arrival_time":"15:42:00","departure_time":"15:42:00","lat":49.19213,"lon":16.613467,"is_passed":false}],"54119":[{"stop_id":"U1146Z8","name":"Hlavní nádraží","arrival_time":"15:45:00","departure_time":"15:45:00","lat":49.191893,"lon":16.613334,"is_passed":false},{"stop_id":"U1746Z1","name":"Vlhká","arrival_time":"15:46:00","departure_time":"15:46:00","lat":49.191847,"lon":16.618976,"is_passed":false},{"stop_id":"U1372Z5","name":"Masná","arrival_time":"15:48:00","departure_time":"15:48:00","lat":49.191189,"lon":16.626548,"is_passed":false},{"stop_id":"U1677Z1","name":"Tržní","arrival_time":"15:50:00","departure_time":"15:50:00","lat":49.189973,"lon":16.632193,"is_passed":false},{"stop_id":"U1068Z1","name":"Černovičky","arrival_time":"15:56:00","departure_time":"15:56:00","lat":49.182244,"lon":16.66894,"is_passed":false},{"stop_id":"U1741Z1","name":"Vlárská","arrival_time":"15:57:00","departure_time":"15:57:00","lat":49.180745,"lon":16.671647,"is_passed":false},{"stop_id":"U1046Z1","name":"Brněnky","arrival_time":"15:58:00","departure_time":"15:58:00","lat":49.17891,"lon":16.674895,"is_passed":false},{"stop_id":"U1562Z1","name":"Řípská","arrival_time":"15:59:00","departure_time":"15:59:00","lat":49.173814,"lon":16.682005,"is_passed":false},{"stop_id":"U1300Z1","name":"Křehlíkova","arrival_time":"16:01:00","departure_time":"16:01:00","lat":49.174839,"lon":16.685145,"is_passed":false},{"stop_id":"U1525Z1","name":"Přemyslovo náměstí","arrival_time":"16:02:00","departure_time":"16:02:00","lat":49.176289,"lon":16.687296,"is_passed":false},{"stop_id":"U1292Z1","name":"Krejčího","arrival_time":"16:03:00","departure_time":"16:03:00","lat":49.177441,"lon":16.690968,"is_passed":false},{"stop_id":"U16165Z1","name":"Šlapanice, sídliště","arrival_time":"16:06:00","departure_time":"16:06:00","lat":49.16703,"lon":16.718338,"is_passed":false},{"stop_id":"U16155Z1","name":"Šlapanice, Čechova","arrival_time":"16:07:00","departure_time":"16:07:00","lat":49.165752,"lon":16.722536,"is_passed":false},{"stop_id":"U16159Z1","name":"Šlapanice, Kalvodova","arrival_time":"16:09:00","departure_time":"16:38:00","lat":49.166442,"lon":16.726521,"is_passed":false}],"54120":[{"stop_id":"U16159Z2","name":"Šlapanice, Kalvodova","arrival_time":"16:38:00","departure_time":"16:38:00","lat":49.166539,"lon":16.726218,"is_passed":false},{"stop_id":"U16155Z2","name":"Šlapanice, Čechova","arrival_time":"16:39:00","departure_time":"16:39:00","lat":49.166076,"lon":16.721551,"is_passed":false},{"stop_id":"U16165Z2","name":"Šlapanice, sídliště","arrival_time":"16:40:00","departure_time":"16:40:00","lat":49.167046,"lon":16.718465,"is_passed":false},{"stop_id":"U1292Z2","name":"Krejčího","arrival_time":"16:44:00","departure_time":"16:44:00","lat":49.177496,"lon":16.690785,"is_passed":false},{"stop_id":"U1525Z2","name":"Přemyslovo náměstí","arrival_time":"16:44:00","departure_time":"16:44:00","lat":49.176456,"lon":16.687324,"is_passed":false},{"stop_id":"U1300Z2","name":"Křehlíkova","arrival_time":"16:45:00","departure_time":"16:45:00","lat":49.174794,"lon":16.685267,"is_passed":false},{"stop_id":"U1562Z2","name":"Řípská","arrival_time":"16:47:00","departure_time":"16:47:00","lat":49.174115,"lon":16.681787,"is_passed":false},{"stop_id":"U1046Z2","name":"Brněnky","arrival_time":"16:48:00","departure_time":"16:48:00","lat":49.178901,"lon":16.675332,"is_passed":false},{"stop_id":"U1741Z2","name":"Vlárská","arrival_time":"16:49:00","departure_time":"16:49:00","lat":49.180702,"lon":16.672017,"is_passed":false},{"stop_id":"U1068Z4","name":"Černovičky","arrival_time":"16:51:00","departure_time":"16:51:00","lat":49.183907,"lon":16.668247,"is_passed":false},{"stop_id":"U1814Z4","name":"Životského","arrival_time":"16:56:00","departure_time":"16:56:00","lat":49.190077,"lon":16.634992,"is_passed":false},{"stop_id":"U1372Z2","name":"Masná","arrival_time":"16:58:00","departure_time":"16:58:00","lat":49.191283,"lon":16.6245,"is_passed":false},{"stop_id":"U1746Z2","name":"Vlhká","arrival_time":"16:59:00","departure_time":"16:59:00","lat":49.191852,"lon":16.619157,"is_passed":false},{"stop_id":"U1146Z7","name":"Hlavní nádraží","arrival_time":"17:02:00","departure_time":"17:02:00","lat":49.19213,"lon":16.613467,"is_passed":false}],"54121":[{"stop_id":"U1146Z8","name":"Hlavní nádraží","arrival_time":"17:07:00","departure_time":"17:07:00","lat":49.191893,"lon":16.613334,"is_passed":false},{"stop_id":"U1746Z1","name":"Vlhká","arrival_time":"17:08:00","departure_time":"17:08:00","lat":49.191847,"lon":16.618976,"is_passed":false},{"stop_id":"U1372Z5","name":"Masná","arrival_time":"17:10:00","departure_time":"17:10:00","lat":49.191189,"lon":16.626548,"is_passed":false},{"stop_id":"U1677Z1","name":"Tržní","arrival_time":"17:12:00","departure_time":"17:12:00","lat":49.189973,"lon":16.632193,"is_passed":false},{"stop_id":"U1598Z1","name":"Spáčilova","arrival_time":"17:13:00","departure_time":"17:13:00","lat":49.188674,"lon":16.640942,"is_passed":false},{"stop_id":"U1455Z1","name":"Olomoucká - u školy","arrival_time":"17:15:00","departure_time":"17:15:00","lat":49.186169,"lon":16.652958,"is_passed":false},{"stop_id":"U1665Z1","name":"Těžební","arrival_time":"17:17:00","departure_time":"17:17:00","lat":49.181966,"lon":16.657236,"is_passed":false},{"stop_id":"U1739Z1","name":"Vlastimila Pecha","arrival_time":"17:18:00","departure_time":"17:18:00","lat":49.179379,"lon":16.662741,"is_passed":false},{"stop_id":"U1046Z1","name":"Brněnky","arrival_time":"17:21:00","departure_time":"17:21:00","lat":49.17891,"lon":16.674895,"is_passed":false},{"stop_id":"U1562Z1","name":"Řípská","arrival_time":"17:22:00","departure_time":"17:22:00","lat":49.173814,"lon":16.682005,"is_passed":false},{"stop_id":"U1640Z1","name":"Šmahova","arrival_time":"17:24:00","departure_time":"17:24:00","lat":49.171448,"lon":16.685105,"is_passed":false},{"stop_id":"U1334Z1","name":"Letiště - logistický areál","arrival_time":"17:26:00","departure_time":"17:26:00","lat":49.15627,"lon":16.698196,"is_passed":false},{"stop_id":"U1335Z1","name":"Letiště - služební vstup","arrival_time":"17:27:00","departure_time":"17:27:00","lat":49.155635,"lon":16.691132,"is_passed":false},{"stop_id":"U1337Z1","name":"Letiště Tuřany - terminál","arrival_time":"17:29:00","departure_time":"17:49:00","lat":49.154815,"lon":16.692296,"is_passed":false}],"54122":[{"stop_id":"U1337Z2","name":"Letiště Tuřany - terminál","arrival_time":"17:49:00","departure_time":"17:49:00","lat":49.154845,"lon":16.692583,"is_passed":false},{"stop_id":"U1334Z2","name":"Letiště - logistický areál","arrival_time":"17:51:00","departure_time":"17:51:00","lat":49.156979,"lon":16.699058,"is_passed":false},{"stop_id":"U1640Z2","name":"Šmahova","arrival_time":"17:53:00","departure_time":"17:53:00","lat":49.172157,"lon":16.684373,"is_passed":false},{"stop_id":"U1562Z2","name":"Řípská","arrival_time":"17:55:00","departure_time":"17:55:00","lat":49.174115,"lon":16.681787,"is_passed":false},{"stop_id":"U1046Z2","name":"Brněnky","arrival_time":"17:56:00","departure_time":"17:56:00","lat":49.178901,"lon":16.675332,"is_passed":false},{"stop_id":"U1105Z4","name":"Ericha Roučky","arrival_time":"17:58:00","departure_time":"17:58:00","lat":49.175789,"lon":16.668403,"is_passed":false},{"stop_id":"U1739Z2","name":"Vlastimila Pecha","arrival_time":"17:59:00","departure_time":"17:59:00","lat":49.179751,"lon":16.662407,"is_passed":false},{"stop_id":"U1665Z2","name":"Těžební","arrival_time":"18:00:00","departure_time":"18:00:00","lat":49.182639,"lon":16.656437,"is_passed":false},{"stop_id":"U1455Z2","name":"Olomoucká - u školy","arrival_time":"18:02:00","departure_time":"18:02:00","lat":49.186437,"lon":16.652477,"is_passed":false},{"stop_id":"U1598Z2","name":"Spáčilova","arrival_time":"18:04:00","departure_time":"18:04:00","lat":49.188617,"lon":16.641569,"is_passed":false},{"stop_id":"U1814Z4","name":"Životského","arrival_time":"18:06:00","departure_time":"18:06:00","lat":49.190077,"lon":16.634992,"is_passed":false},{"stop_id":"U1372Z2","name":"Masná","arrival_time":"18:08:00","departure_time":"18:08:00","lat":49.191283,"lon":16.6245,"is_passed":false},{"stop_id":"U1746Z2","name":"Vlhká","arrival_time":"18:09:00","departure_time":"18:09:00","lat":49.191852,"lon":16.619157,"is_passed":false},{"stop_id":"U1146Z7","name":"Hlavní nádraží","arrival_time":"18:12:00","departure_time":"18:12:00","lat":49.19213,"lon":16.613467,"is_passed":false}],"54123":[{"stop_id":"U1146Z8","name":"Hlavní nádraží","arrival_time":"18:15:00","departure_time":"18:15:00","lat":49.191893,"lon":16.613334,"is_passed":false},{"stop_id":"U1746Z1","name":"Vlhká","arrival_time":"18:16:00","departure_time":"18:16:00","lat":49.191847,"lon":16.618976,"is_passed":false},{"stop_id":"U1372Z5","name":"Masná","arrival_time":"18:18:00","departure_time":"18:18:00","lat":49.191189,"lon":16.626548,"is_passed":false},{"stop_id":"U1677Z1","name":"Tržní","arrival_time":"18:20:00","departure_time":"18:20:00","lat":49.189973,"lon":16.632193,"is_passed":false},{"stop_id":"U1068Z1","name":"Černovičky","arrival_time":"18:26:00","departure_time":"18:26:00","lat":49.182244,"lon":16.66894,"is_passed":false},{"stop_id":"U1741Z1","name":"Vlárská","arrival_time":"18:27:00","departure_time":"18:27:00","lat":49.180745,"lon":16.671647,"is_passed":false},{"stop_id":"U1046Z1","name":"Brněnky","arrival_time":"18:28:00","departure_time":"18:28:00","lat":49.17891,"lon":16.674895,"is_passed":false},{"stop_id":"U1562Z1","name":"Řípská","arrival_time":"18:29:00","departure_time":"18:29:00","lat":49.173814,"lon":16.682005,"is_passed":false},{"stop_id":"U1300Z1","name":"Křehlíkova","arrival_time":"18:31:00","departure_time":"18:31:00","lat":49.174839,"lon":16.685145,"is_passed":false},{"stop_id":"U1525Z1","name":"Přemyslovo náměstí","arrival_time":"18:32:00","departure_time":"18:32:00","lat":49.176289,"lon":16.687296,"is_passed":false},{"stop_id":"U1292Z1","name":"Krejčího","arrival_time":"18:33:00","departure_time":"18:33:00","lat":49.177441,"lon":16.690968,"is_passed":false},{"stop_id":"U16165Z1","name":"Šlapanice, sídliště","arrival_time":"18:36:00","departure_time":"18:36:00","lat":49.16703,"lon":16.718338,"is_passed":false},{"stop_id":"U16155Z1","name":"Šlapanice, Čechova","arrival_time":"18:37:00","departure_time":"18:37:00","lat":49.165752,"lon":16.722536,"is_passed":false},{"stop_id":"U16159Z1","name":"Šlapanice, Kalvodova","arrival_time":"18:39:00","departure_time":"18:42:00","lat":49.166442,"lon":16.726521,"is_passed":false}],"54124":[{"stop_id":"U1068Z1","name":"Černovičky","arrival_time":"5:04:00","departure_time":"5:04:00","lat":49.182244,"lon":16.66894,"is_passed":false},{"stop_id":"U1741Z1","name":"Vlárská","arrival_time":"5:05:00","departure_time":"5:05:00","lat":49.180745,"lon":16.671647,"is_passed":false},{"stop_id":"U1046Z1","name":"Brněnky","arrival_time":"5:06:00","departure_time":"5:06:00","lat":49.17891,"lon":16.674895,"is_passed":false},{"stop_id":"U1562Z1","name":"Řípská","arrival_time":"5:07:00","departure_time":"5:07:00","lat":49.173814,"lon":16.682005,"is_passed":false},{"stop_id":"U1300Z1","name":"Křehlíkova","arrival_time":"5:09:00","departure_time":"5:09:00","lat":49.174839,"lon":16.685145,"is_passed":false},{"stop_id":"U1525Z1","name":"Přemyslovo náměstí","arrival_time":"5:10:00","departure_time":"5:10:00","lat":49.176289,"lon":16.687296,"is_passed":false},{"stop_id":"U1292Z1","name":"Krejčího","arrival_time":"5:11:00","departure_time":"5:11:00","lat":49.177441,"lon":16.690968,"is_passed":false},{"stop_id":"U16165Z1","name":"Šlapanice, sídliště","arrival_time":"5:14:00","departure_time":"5:14:00","lat":49.16703,"lon":16.718338,"is_passed":false},{"stop_id":"U16155Z1","name":"Šlapanice, Čechova","arrival_time":"5:15:00","departure_time":"5:15:00","lat":49.165752,"lon":16.722536,"is_passed":false},{"stop_id":"U16159Z1","name":"Šlapanice, Kalvodova","arrival_time":"5:17:00","departure_time":"5:28:00","lat":49.166442,"lon":16.726521,"is_passed":false}],"54125":[{"stop_id":"U16159Z2","name":"Šlapanice, Kalvodova","arrival_time":"5:28:00","departure_time":"5:28:00","lat":49.166539,"lon":16.726218,"is_passed":false},{"stop_id":"U16155Z2","name":"Šlapanice, Čechova","arrival_time":"5:29:00","departure_time":"5:29:00","lat":49.166076,"lon":16.721551,"is_passed":false},{"stop_id":"U16165Z2","name":"Šlapanice, sídliště","arrival_time":"5:30:00","departure_time":"5:30:00","lat":49.167046,"lon":16.718465,"is_passed":false},{"stop_id":"U1292Z2","name":"Krejčího","arrival_time":"5:34:00","departure_time":"5:34:00","lat":49.177496,"lon":16.690785,"is_passed":false},{"stop_id":"U1525Z2","name":"Přemyslovo náměstí","arrival_time":"5:34:00","departure_time":"5:34:00","lat":49.176456,"lon":16.687324,"is_passed":false},{"stop_id":"U1300Z2","name":"Křehlíkova","arrival_time":"5:35:00","departure_time":"5:35:00","lat":49.174794,"lon":16.685267,"is_passed":false},{"stop_id":"U1562Z2","name":"Řípská","arrival_time":"5:37:00","departure_time":"5:37:00","lat":49.174115,"lon":16.681787,"is_passed":false},{"stop_id":"U1046Z2","name":"Brněnky","arrival_time":"5:38:00","departure_time":"5:38:00","lat":49.178901,"lon":16.675332,"is_passed":false},{"stop_id":"U1741Z2","name":"Vlárská","arrival_time":"5:38:00","departure_time":"5:38:00","lat":49.180702,"lon":16.672017,"is_passed":false},{"stop_id":"U1068Z4","name":"Černovičky","arrival_time":"5:40:00","departure_time":"5:40:00","lat":49.183907,"lon":16.668247,"is_passed":false},{"stop_id":"U1814Z4","name":"Životského","arrival_time":"5:45:00","departure_time":"5:45:00","lat":49.190077,"lon":16.634992,"is_passed":false},{"stop_id":"U1372Z2","name":"Masná","arrival_time":"5:47:00","departure_time":"5:47:00","lat":49.191283,"lon":16.6245,"is_passed":false},{"stop_id":"U1746Z2","name":"Vlhká","arrival_time":"5:48:00","departure_time":"5:48:00","lat":49.191852,"lon":16.619157,"is_passed":false},{"stop_id":"U1146Z7","name":"Hlavní nádraží","arrival_time":"5:51:00","departure_time":"5:54:00","lat":49.19213,"lon":16.613467,"is_passed":false}],"54126":[{"stop_id":"U1146Z8","name":"Hlavní nádraží","arrival_time":"5:54:00","departure_time":"5:54:00","lat":49.191893,"lon":16.613334,"is_passed":false},{"stop_id":"U1746Z1","name":"Vlhká","arrival_time":"5:55:00","departure_time":"5:55:00","lat":49.191847,"lon":16.618976,"is_passed":false},{"stop_id":"U1372Z5","name":"Masná","arrival_time":"5:57:00","departure_time":"5:57:00","lat":49.191189,"lon":16.626548,"is_passed":false},{"stop_id":"U1677Z1","name":"Tržní","arrival_time":"5:59:00","departure_time":"5:59:00","lat":49.189973,"lon":16.632193,"is_passed":false},{"stop_id":"U1068Z1","name":"Černovičky","arrival_time":"6:04:00","departure_time":"6:04:00","lat":49.182244,"lon":16.66894,"is_passed":false},{"stop_id":"U1741Z1","name":"Vlárská","arrival_time":"6:05:00","departure_time":"6:05:00","lat":49.180745,"lon":16.671647,"is_passed":false},{"stop_id":"U1046Z1","name":"Brněnky","arrival_time":"6:06:00","departure_time":"6:06:00","lat":49.17891,"lon":16.674895,"is_passed":false},{"stop_id":"U1562Z1","name":"Řípská","arrival_time":"6:07:00","departure_time":"6:07:00","lat":49.173814,"lon":16.682005,"is_passed":false},{"stop_id":"U1300Z1","name":"Křehlíkova","arrival_time":"6:09:00","departure_time":"6:09:00","lat":49.174839,"lon":16.685145,"is_passed":false},{"stop_id":"U1525Z1","name":"Přemyslovo náměstí","arrival_time":"6:10:00","departure_time":"6:10:00","lat":49.176289,"lon":16.687296,"is_passed":false},{"stop_id":"U1292Z1","name":"Krejčího","arrival_time":"6:11:00","departure_time":"6:11:00","lat":49.177441,"lon":16.690968,"is_passed":false},{"stop_id":"U16165Z1","name":"Šlapanice, sídliště","arrival_time":"6:14:00","departure_time":"6:14:00","lat":49.16703,"lon":16.718338,"is_passed":false},{"stop_id":"U16155Z1","name":"Šlapanice, Čechova","arrival_time":"6:15:00","departure_time":"6:15:00","lat":49.165752,"lon":16.722536,"is_passed":false},{"stop_id":"U16159Z1","name":"Šlapanice, Kalvodova","arrival_time":"6:17:00","departure_time":"6:31:00","lat":49.166442,"lon":16.726521,"is_passed":false}],"54127":[{"stop_id":"U16159Z2","name":"Šlapanice, Kalvodova","arrival_time":"6:31:00","departure_time":"6:31:00","lat":49.166539,"lon":16.726218,"is_passed":false},{"stop_id":"U16155Z2","name":"Šlapanice, Čechova","arrival_time":"6:32:00","departure_time":"6:32:00","lat":49.166076,"lon":16.721551,"is_passed":false},{"stop_id":"U16165Z2","name":"Šlapanice, sídliště","arrival_time":"6:33:00","departure_time":"6:33:00","lat":49.167046,"lon":16.718465,"is_passed":false},{"stop_id":"U1292Z2","name":"Krejčího","arrival_time":"6:37:00","departure_time":"6:37:00","lat":49.177496,"lon":16.690785,"is_passed":false},{"stop_id":"U1525Z2","name":"Přemyslovo náměstí","arrival_time":"6:37:00","departure_time":"6:37:00","lat":49.176456,"lon":16.687324,"is_passed":false},{"stop_id":"U1300Z2","name":"Křehlíkova","arrival_time":"6:38:00","departure_time":"6:38:00","lat":49.174794,"lon":16.685267,"is_passed":false},{"stop_id":"U1562Z2","name":"Řípská","arrival_time":"6:40:00","departure_time":"6:40:00","lat":49.174115,"lon":16.681787,"is_passed":false},{"stop_id":"U1046Z2","name":"Brněnky","arrival_time":"6:41:00","departure_time":"6:41:00","lat":49.178901,"lon":16.675332,"is_passed":false},{"stop_id":"U1741Z2","name":"Vlárská","arrival_time":"6:42:00","departure_time":"6:42:00","lat":49.180702,"lon":16.672017,"is_passed":false},{"stop_id":"U1068Z4","name":"Černovičky","arrival_time":"6:44:00","departure_time":"6:44:00","lat":49.183907,"lon":16.668247,"is_passed":false},{"stop_id":"U1814Z4","name":"Životského","arrival_time":"6:49:00","departure_time":"6:49:00","lat":49.190077,"lon":16.634992,"is_passed":false},{"stop_id":"U1372Z2","name":"Masná","arrival_time":"6:51:00","departure_time":"6:51:00","lat":49.191283,"lon":16.6245,"is_passed":false},{"stop_id":"U1746Z2","name":"Vlhká","arrival_time":"6:52:00","departure_time":"6:52:00","lat":49.191852,"lon":16.619157,"is_passed":false},{"stop_id":"U1146Z7","name":"Hlavní nádraží","arrival_time":"6:55:00","departure_time":"7:04:00","lat":49.19213,"lon":16.613467,"is_passed":false}],"54128":[{"stop_id":"U1146Z8","name":"Hlavní nádraží","arrival_time":"7:04:00","departure_time":"7:04:00","lat":49.191893,"lon":16.613334,"is_passed":false},{"stop_id":"U1746Z1","name":"Vlhká","arrival_time":"7:05:00","departure_time":"7:05:00","lat":49.191847,"lon":16.618976,"is_passed":false},{"stop_id":"U1372Z5","name":"Masná","arrival_time":"7:07:00","departure_time":"7:07:00","lat":49.191189,"lon":16.626548,"is_passed":false},{"stop_id":"U1677Z1","name":"Tržní","arrival_time":"7:09:00","departure_time":"7:09:00","lat":49.189973,"lon":16.632193,"is_passed":false},{"stop_id":"U1068Z1","name":"Černovičky","arrival_time":"7:15:00","departure_time":"7:15:00","lat":49.182244,"lon":16.66894,"is_passed":false},{"stop_id":"U1741Z1","name":"Vlárská","arrival_time":"7:16:00","departure_time":"7:16:00","lat":49.180745,"lon":16.671647,"is_passed":false},{"stop_id":"U1046Z1","name":"Brněnky","arrival_time":"7:17:00","departure_time":"7:17:00","lat":49.17891,"lon":16.674895,"is_passed":false},{"stop_id":"U1562Z1","name":"Řípská","arrival_time":"7:18:00","departure_time":"7:18:00","lat":49.173814,"lon":16.682005,"is_passed":false},{"stop_id":"U1300Z1","name":"Křehlíkova","arrival_time":"7:20:00","departure_time":"7:20:00","lat":49.174839,"lon":16.685145,"is_passed":false},{"stop_id":"U1525Z1","name":"Přemyslovo náměstí","arrival_time":"7:21:00","departure_time":"7:21:00","lat":49.176289,"lon":16.687296,"is_passed":false},{"stop_id":"U1292Z1","name":"Krejčího","arrival_time":"7:22:00","departure_time":"7:22:00","lat":49.177441,"lon":16.690968,"is_passed":false},{"stop_id":"U16165Z1","name":"Šlapanice, sídliště","arrival_time":"7:25:00","departure_time":"7:25:00","lat":49.16703,"lon":16.718338,"is_passed":false},{"stop_id":"U16155Z1","name":"Šlapanice, Čechova","arrival_time":"7:26:00","departure_time":"7:26:00","lat":49.165752,"lon":16.722536,"is_passed":false},{"stop_id":"U16159Z1","name":"Šlapanice, Kalvodova","arrival_time":"7:28:00","departure_time":"7:43:00","lat":49.166442,"lon":16.726521,"is_passed":false}],"54129":[{"stop_id":"U16159Z2","name":"Šlapanice, Kalvodova","arrival_time":"7:43:00","departure_time":"7:43:00","lat":49.166539,"lon":16.726218,"is_passed":false},{"stop_id":"U16155Z2","name":"Šlapanice, Čechova","arrival_time":"7:44:00","departure_time":"7:44:00","lat":49.166076,"lon":16.721551,"is_passed":false},{"stop_id":"U16165Z2","name":"Šlapanice, sídliště","arrival_time":"7:45:00","departure_time":"7:45:00","lat":49.167046,"lon":16.718465,"is_passed":false},{"stop_id":"U1292Z2","name":"Krejčího","arrival_time":"7:49:00","departure_time":"7:49:00","lat":49.177496,"lon":16.690785,"is_passed":false},{"stop_id":"U1525Z2","name":"Přemyslovo náměstí","arrival_time":"7:49:00","departure_time":"7:49:00","lat":49.176456,"lon":16.687324,"is_passed":false},{"stop_id":"U1300Z2","name":"Křehlíkova","arrival_time":"7:50:00","departure_time":"7:50:00","lat":49.174794,"lon":16.685267,"is_passed":false},{"stop_id":"U1562Z2","name":"Řípská","arrival_time":"7:52:00","departure_time":"7:52:00","lat":49.174115,"lon":16.681787,"is_passed":false},{"stop_id":"U1046Z2","name":"Brněnky","arrival_time":"7:53:00","departure_time":"7:53:00","lat":49.178901,"lon":16.675332,"is_passed":false},{"stop_id":"U1741Z2","name":"Vlárská","arrival_time":"7:54:00","departure_time":"7:54:00","lat":49.180702,"lon":16.672017,"is_passed":false},{"stop_id":"U1068Z4","name":"Černovičky","arrival_time":"7:56:00","departure_time":"7:56:00","lat":49.183907,"lon":16.668247,"is_passed":false},{"stop_id":"U1814Z4","name":"Životského","arrival_time":"8:01:00","departure_time":"8:01:00","lat":49.190077,"lon":16.634992,"is_passed":false},{"stop_id":"U1372Z2","name":"Masná","arrival_time":"8:03:00","departure_time":"8:03:00","lat":49.191283,"lon":16.6245,"is_passed":false},{"stop_id":"U1746Z2","name":"Vlhká","arrival_time":"8:04:00","departure_time":"8:04:00","lat":49.191852,"lon":16.619157,"is_passed":false},{"stop_id":"U1146Z7","name":"Hlavní nádraží","arrival_time":"8:07:00","departure_time":"8:14:00","lat":49.19213,"lon":16.613467,"is_passed":false}],"54130":[{"stop_id":"U1146Z8","name":"Hlavní nádraží","arrival_time":"8:14:00","departure_time":"8:14:00","lat":49.191893,"lon":16.613334,"is_passed":false},{"stop_id":"U1746Z1","name":"Vlhká","arrival_time":"8:15:00","departure_time":"8:15:00","lat":49.191847,"lon":16.618976,"is_passed":false},{"stop_id":"U1372Z5","name":"Masná","arrival_time":"8:17:00","departure_time":"8:17:00","lat":49.191189,"lon":16.626548,"is_passed":false},{"stop_id":"U1677Z1","name":"Tržní","arrival_time":"8:19:00","departure_time":"8:19:00","lat":49.189973,"lon":16.632193,"is_passed":false},{"stop_id":"U1068Z1","name":"Černovičky","arrival_time":"8:25:00","departure_time":"8:25:00","lat":49.182244,"lon":16.66894,"is_passed":false},{"stop_id":"U1741Z1","name":"Vlárská","arrival_time":"8:26:00","departure_time":"8:26:00","lat":49.180745,"lon":16.671647,"is_passed":false},{"stop_id":"U1046Z1","name":"Brněnky","arrival_time":"8:27:00","departure_time":"8:27:00","lat":49.17891,"lon":16.674895,"is_passed":false},{"stop_id":"U1562Z1","name":"Řípská","arrival_time":"8:28:00","departure_time":"8:28:00","lat":49.173814,"lon":16.682005,"is_passed":false},{"stop_id":"U1300Z1","name":"Křehlíkova","arrival_time":"8:30:00","departure_time":"8:30:00","lat":49.174839,"lon":16.685145,"is_passed":false},{"stop_id":"U1525Z1","name":"Přemyslovo náměstí","arrival_time":"8:31:00","departure_time":"8:31:00","lat":49.176289,"lon":16.687296,"is_passed":false},{"stop_id":"U1292Z1","name":"Krejčího","arrival_time":"8:32:00","departure_time":"8:32:00","lat":49.177441,"lon":16.690968,"is_passed":false},{"stop_id":"U16165Z1","name":"Šlapanice, sídliště","arrival_time":"8:35:00","departure_time":"8:35:00","lat":49.16703,"lon":16.718338,"is_passed":false},{"stop_id":"U16155Z1","name":"Šlapanice, Čechova","arrival_time":"8:36:00","departure_time":"8:36:00","lat":49.165752,"lon":16.722536,"is_passed":false},{"stop_id":"U16159Z1","name":"Šlapanice, Kalvodova","arrival_time":"8:38:00","departure_time":"9:09:00","lat":49.166442,"lon":16.726521,"is_passed":false}],"54131":[{"stop_id":"U16159Z2","name":"Šlapanice, Kalvodova","arrival_time":"9:09:00","departure_time":"9:09:00","lat":49.166539,"lon":16.726218,"is_passed":false},{"stop_id":"U16155Z2","name":"Šlapanice, Čechova","arrival_time":"9:10:00","departure_time":"9:10:00","lat":49.166076,"lon":16.721551,"is_passed":false},{"stop_id":"U16165Z2","name":"Šlapanice, sídliště","arrival_time":"9:11:00","departure_time":"9:11:00","lat":49.167046,"lon":16.718465,"is_passed":false},{"stop_id":"U1292Z2","name":"Krejčího","arrival_time":"9:15:00","departure_time":"9:15:00","lat":49.177496,"lon":16.690785,"is_passed":false},{"stop_id":"U1525Z2","name":"Přemyslovo náměstí","arrival_time":"9:15:00","departure_time":"9:15:00","lat":49.176456,"lon":16.687324,"is_passed":false},{"stop_id":"U1300Z2","name":"Křehlíkova","arrival_time":"9:16:00","departure_time":"9:16:00","lat":49.174794,"lon":16.685267,"is_passed":false},{"stop_id":"U1562Z2","name":"Řípská","arrival_time":"9:18:00","departure_time":"9:18:00","lat":49.174115,"lon":16.681787,"is_passed":false},{"stop_id":"U1046Z2","name":"Brněnky","arrival_time":"9:19:00","departure_time":"9:19:00","lat":49.178901,"lon":16.675332,"is_passed":false},{"stop_id":"U1741Z2","name":"Vlárská","arrival_time":"9:20:00","departure_time":"9:20:00","lat":49.180702,"lon":16.672017,"is_passed":false},{"stop_id":"U1068Z4","name":"Černovičky","arrival_time":"9:22:00","departure_time":"9:22:00","lat":49.183907,"lon":16.668247,"is_passed":false},{"stop_id":"U1814Z4","name":"Životského","arrival_time":"9:27:00","departure_time":"9:27:00","lat":49.190077,"lon":16.634992,"is_passed":false},{"stop_id":"U1372Z2","name":"Masná","arrival_time":"9:29:00","departure_time":"9:29:00","lat":49.191283,"lon":16.6245,"is_passed":false},{"stop_id":"U1746Z2","name":"Vlhká","arrival_time":"9:30:00","departure_time":"9:30:00","lat":49.191852,"lon":16.619157,"is_passed":false},{"stop_id":"U1146Z7","name":"Hlavní nádraží","arrival_time":"9:33:00","departure_time":"9:44:00","lat":49.19213,"lon":16.613467,"is_passed":false}],"54132":[{"stop_id":"U1146Z8","name":"Hlavní nádraží","arrival_time":"9:44:00","departure_time":"9:44:00","lat":49.191893,"lon":16.613334,"is_passed":false},{"stop_id":"U1746Z1","name":"Vlhká","arrival_time":"9:45:00","departure_time":"9:45:00","lat":49.191847,"lon":16.618976,"is_passed":false},{"stop_id":"U1372Z5","name":"Masná","arrival_time":"9:47:00","departure_time":"9:47:00","lat":49.191189,"lon":16.626548,"is_passed":false},{"stop_id":"U1677Z1","name":"Tržní","arrival_time":"9:49:00","departure_time":"9:49:00","lat":49.189973,"lon":16.632193,"is_passed":false},{"stop_id":"U1068Z1","name":"Černovičky","arrival_time":"9:55:00","departure_time":"9:55:00","lat":49.182244,"lon":16.66894,"is_passed":false},{"stop_id":"U1741Z1","name":"Vlárská","arrival_time":"9:56:00","departure_time":"9:56:00","lat":49.180745,"lon":16.671647,"is_passed":false},{"stop_id":"U1046Z1","name":"Brněnky","arrival_time":"9:57:00","departure_time":"9:57:00","lat":49.17891,"lon":16.674895,"is_passed":false},{"stop_id":"U1562Z1","name":"Řípská","arrival_time":"9:58:00","departure_time":"9:58:00","lat":49.173814,"lon":16.682005,"is_passed":false},{"stop_id":"U1300Z1","name":"Křehlíkova","arrival_time":"10:00:00","departure_time":"10:00:00","lat":49.174839,"lon":16.685145,"is_passed":false},{"stop_id":"U1525Z1","name":"Přemyslovo náměstí","arrival_time":"10:01:00","departure_time":"10:01:00","lat":49.176289,"lon":16.687296,"is_passed":false},{"stop_id":"U1292Z1","name":"Krejčího","arrival_time":"10:02:00","departure_time":"10:02:00","lat":49.177441,"lon":16.690968,"is_passed":false},{"stop_id":"U16165Z1","name":"Šlapanice, sídliště","arrival_time":"10:05:00","departure_time":"10:05:00","lat":49.16703,"lon":16.718338,"is_passed":false},{"stop_id":"U16155Z1","name":"Šlapanice, Čechova","arrival_time":"10:06:00","departure_time":"10:06:00","lat":49.165752,"lon":16.722536,"is_passed":false},{"stop_id":"U16159Z1","name":"Šlapanice, Kalvodova","arrival_time":"10:08:00","departure_time":"10:29:00","lat":49.166442,"lon":16.726521,"is_passed":false}],"54133":[{"stop_id":"U16159Z2","name":"Šlapanice, Kalvodova","arrival_time":"10:29:00","departure_time":"10:29:00","lat":49.166539,"lon":16.726218,"is_passed":false},{"stop_id":"U16155Z2","name":"Šlapanice, Čechova","arrival_time":"10:30:00","departure_time":"10:30:00","lat":49.166076,"lon":16.721551,"is_passed":false},{"stop_id":"U16165Z2","name":"Šlapanice, sídliště","arrival_time":"10:31:00","departure_time":"10:31:00","lat":49.167046,"lon":16.718465,"is_passed":false},{"stop_id":"U1292Z2","name":"Krejčího","arrival_time":"10:35:00","departure_time":"10:35:00","lat":49.177496,"lon":16.690785,"is_passed":false},{"stop_id":"U1525Z2","name":"Přemyslovo náměstí","arrival_time":"10:35:00","departure_time":"10:35:00","lat":49.176456,"lon":16.687324,"is_passed":false},{"stop_id":"U1300Z2","name":"Křehlíkova","arrival_time":"10:36:00","departure_time":"10:36:00","lat":49.174794,"lon":16.685267,"is_passed":false},{"stop_id":"U1562Z2","name":"Řípská","arrival_time":"10:38:00","departure_time":"10:38:00","lat":49.174115,"lon":16.681787,"is_passed":false},{"stop_id":"U1046Z2","name":"Brněnky","arrival_time":"10:39:00","departure_time":"10:39:00","lat":49.178901,"lon":16.675332,"is_passed":false},{"stop_id":"U1741Z2","name":"Vlárská","arrival_time":"10:40:00","departure_time":"10:40:00","lat":49.180702,"lon":16.672017,"is_passed":false},{"stop_id":"U1068Z4","name":"Černovičky","arrival_time":"10:42:00","departure_time":"10:42:00","lat":49.183907,"lon":16.668247,"is_passed":false},{"stop_id":"U1814Z4","name":"Životského","arrival_time":"10:47:00","departure_time":"10:47:00","lat":49.190077,"lon":16.634992,"is_passed":false},{"stop_id":"U1372Z2","name":"Masná","arrival_time":"10:49:00","departure_time":"10:49:00","lat":49.191283,"lon":16.6245,"is_passed":false},{"stop_id":"U1746Z2","name":"Vlhká","arrival_time":"10:50:00","departure_time":"10:50:00","lat":49.191852,"lon":16.619157,"is_passed":false},{"stop_id":"U1146Z7","name":"Hlavní nádraží","arrival_time":"10:53:00","departure_time":"11:04:00","lat":49.19213,"lon":16.613467,"is_passed":false}],"54134":[{"stop_id":"U1146Z8","name":"Hlavní nádraží","arrival_time":"11:04:00","departure_time":"11:04:00","lat":49.191893,"lon":16.613334,"is_passed":false},{"stop_id":"U1746Z1","name":"Vlhká","arrival_time":"11:05:00","departure_time":"11:05:00","lat":49.191847,"lon":16.618976,"is_passed":false},{"stop_id":"U1372Z5","name":"Masná","arrival_time":"11:07:00","departure_time":"11:07:00","lat":49.191189,"lon":16.626548,"is_passed":false},{"stop_id":"U1677Z1","name":"Tržní","arrival_time":"11:09:00","departure_time":"11:09:00","lat":49.189973,"lon":16.632193,"is_passed":false},{"stop_id":"U1068Z1","name":"Černovičky","arrival_time":"11:15:00","departure_time":"11:15:00","lat":49.182244,"lon":16.66894,"is_passed":false},{"stop_id":"U1741Z1","name":"Vlárská","arrival_time":"11:16:00","departure_time":"11:16:00","lat":49.180745,"lon":16.671647,"is_passed":false},{"stop_id":"U1046Z1","name":"Brněnky","arrival_time":"11:17:00","departure_time":"11:17:00","lat":49.17891,"lon":16.674895,"is_passed":false},{"stop_id":"U1562Z1","name":"Řípská","arrival_time":"11:18:00","departure_time":"11:18:00","lat":49.173814,"lon":16.682005,"is_passed":false},{"stop_id":"U1300Z1","name":"Křehlíkova","arrival_time":"11:20:00","departure_time":"11:20:00","lat":49.174839,"lon":16.685145,"is_passed":false},{"stop_id":"U1525Z1","name":"Přemyslovo náměstí","arrival_time":"11:21:00","departure_time":"11:21:00","lat":49.176289,"lon":16.687296,"is_passed":false},{"stop_id":"U1292Z1","name":"Krejčího","arrival_time":"11:22:00","departure_time":"11:22:00","lat":49.177441,"lon":16.690968,"is_passed":false},{"stop_id":"U16165Z1","name":"Šlapanice, sídliště","arrival_time":"11:25:00","departure_time":"11:25:00","lat":49.16703,"lon":16.718338,"is_passed":false},{"stop_id":"U16155Z1","name":"Šlapanice, Čechova","arrival_time":"11:26:00","departure_time":"11:26:00","lat":49.165752,"lon":16.722536,"is_passed":false},{"stop_id":"U16159Z1","name":"Šlapanice, Kalvodova","arrival_time":"11:28:00","departure_time":"11:49:00","lat":49.166442,"lon":16.726521,"is_passed":false}],"54135":[{"stop_id":"U16159Z2","name":"Šlapanice, Kalvodova","arrival_time":"11:49:00","departure_time":"11:49:00","lat":49.166539,"lon":16.726218,"is_passed":false},{"stop_id":"U16155Z2","name":"Šlapanice, Čechova","arrival_time":"11:50:00","departure_time":"11:50:00","lat":49.166076,"lon":16.721551,"is_passed":false},{"stop_id":"U16165Z2","name":"Šlapanice, sídliště","arrival_time":"11:51:00","departure_time":"11:51:00","lat":49.167046,"lon":16.718465,"is_passed":false},{"stop_id":"U1292Z2","name":"Krejčího","arrival_time":"11:55:00","departure_time":"11:55:00","lat":49.177496,"lon":16.690785,"is_passed":false},{"stop_id":"U1525Z2","name":"Přemyslovo náměstí","arrival_time":"11:55:00","departure_time":"11:55:00","lat":49.176456,"lon":16.687324,"is_passed":false},{"stop_id":"U1300Z2","name":"Křehlíkova","arrival_time":"11:56:00","departure_time":"11:56:00","lat":49.174794,"lon":16.685267,"is_passed":false},{"stop_id":"U1562Z2","name":"Řípská","arrival_time":"11:58:00","departure_time":"11:58:00","lat":49.174115,"lon":16.681787,"is_passed":false},{"stop_id":"U1046Z2","name":"Brněnky","arrival_time":"11:59:00","departure_time":"11:59:00","lat":49.178901,"lon":16.675332,"is_passed":false},{"stop_id":"U1741Z2","name":"Vlárská","arrival_time":"12:00:00","departure_time":"12:00:00","lat":49.180702,"lon":16.672017,"is_passed":false},{"stop_id":"U1068Z4","name":"Černovičky","arrival_time":"12:02:00","departure_time":"12:02:00","lat":49.183907,"lon":16.668247,"is_passed":false},{"stop_id":"U1814Z4","name":"Životského","arrival_time":"12:07:00","departure_time":"12:07:00","lat":49.190077,"lon":16.634992,"is_passed":false},{"stop_id":"U1372Z2","name":"Masná","arrival_time":"12:09:00","departure_time":"12:09:00","lat":49.191283,"lon":16.6245,"is_passed":false},{"stop_id":"U1746Z2","name":"Vlhká","arrival_time":"12:10:00","departure_time":"12:10:00","lat":49.191852,"lon":16.619157,"is_passed":false},{"stop_id":"U1146Z7","name":"Hlavní nádraží","arrival_time":"12:13:00","departure_time":"12:24:00","lat":49.19213,"lon":16.613467,"is_passed":false}],"54136":[{"stop_id":"U1146Z8","name":"Hlavní nádraží","arrival_time":"12:24:00","departure_time":"12:24:00","lat":49.191893,"lon":16.613334,"is_passed":false},{"stop_id":"U1746Z1","name":"Vlhká","arrival_time":"12:25:00","departure_time":"12:25:00","lat":49.191847,"lon":16.618976,"is_passed":false},{"stop_id":"U1372Z5","name":"Masná","arrival_time":"12:27:00","departure_time":"12:27:00","lat":49.191189,"lon":16.626548,"is_passed":false},{"stop_id":"U1677Z1","name":"Tržní","arrival_time":"12:29:00","departure_time":"12:29:00","lat":49.189973,"lon":16.632193,"is_passed":false},{"stop_id":"U1068Z1","name":"Černovičky","arrival_time":"12:35:00","departure_time":"12:35:00","lat":49.182244,"lon":16.66894,"is_passed":false},{"stop_id":"U1741Z1","name":"Vlárská","arrival_time":"12:36:00","departure_time":"12:36:00","lat":49.180745,"lon":16.671647,"is_passed":false},{"stop_id":"U1046Z1","name":"Brněnky","arrival_time":"12:37:00","departure_time":"12:37:00","lat":49.17891,"lon":16.674895,"is_passed":false},{"stop_id":"U1562Z1","name":"Řípská","arrival_time":"12:38:00","departure_time":"12:38:00","lat":49.173814,"lon":16.682005,"is_passed":false},{"stop_id":"U1300Z1","name":"Křehlíkova","arrival_time":"12:40:00","departure_time":"12:40:00","lat":49.174839,"lon":16.685145,"is_passed":false},{"stop_id":"U1525Z1","name":"Přemyslovo náměstí","arrival_time":"12:41:00","departure_time":"12:41:00","lat":49.176289,"lon":16.687296,"is_passed":false},{"stop_id":"U1292Z1","name":"Krejčího","arrival_time":"12:42:00","departure_time":"12:42:00","lat":49.177441,"lon":16.690968,"is_passed":false},{"stop_id":"U16165Z1","name":"Šlapanice, sídliště","arrival_time":"12:45:00","departure_time":"12:45:00","lat":49.16703,"lon":16.718338,"is_passed":false},{"stop_id":"U16155Z1","name":"Šlapanice, Čechova","arrival_time":"12:46:00","departure_time":"12:46:00","lat":49.165752,"lon":16.722536,"is_passed":false},{"stop_id":"U16159Z1","name":"Šlapanice, Kalvodova","arrival_time":"12:48:00","departure_time":"13:09:00","lat":49.166442,"lon":16.726521,"is_passed":false}],"54137":[{"stop_id":"U16159Z2","name":"Šlapanice, Kalvodova","arrival_time":"13:09:00","departure_time":"13:09:00","lat":49.166539,"lon":16.726218,"is_passed":false},{"stop_id":"U16155Z2","name":"Šlapanice, Čechova","arrival_time":"13:10:00","departure_time":"13:10:00","lat":49.166076,"lon":16.721551,"is_passed":false},{"stop_id":"U16165Z2","name":"Šlapanice, sídliště","arrival_time":"13:11:00","departure_time":"13:11:00","lat":49.167046,"lon":16.718465,"is_passed":false},{"stop_id":"U1292Z2","name":"Krejčího","arrival_time":"13:15:00","departure_time":"13:15:00","lat":49.177496,"lon":16.690785,"is_passed":false},{"stop_id":"U1525Z2","name":"Přemyslovo náměstí","arrival_time":"13:15:00","departure_time":"13:15:00","lat":49.176456,"lon":16.687324,"is_passed":false},{"stop_id":"U1300Z2","name":"Křehlíkova","arrival_time":"13:16:00","departure_time":"13:16:00","lat":49.174794,"lon":16.685267,"is_passed":false},{"stop_id":"U1562Z2","name":"Řípská","arrival_time":"13:18:00","departure_time":"13:18:00","lat":49.174115,"lon":16.681787,"is_passed":false},{"stop_id":"U1046Z2","name":"Brněnky","arrival_time":"13:19:00","departure_time":"13:19:00","lat":49.178901,"lon":16.675332,"is_passed":false},{"stop_id":"U1741Z2","name":"Vlárská","arrival_time":"13:20:00","departure_time":"13:20:00","lat":49.180702,"lon":16.672017,"is_passed":false},{"stop_id":"U1068Z4","name":"Černovičky","arrival_time":"13:22:00","departure_time":"13:22:00","lat":49.183907,"lon":16.668247,"is_passed":false},{"stop_id":"U1814Z4","name":"Životského","arrival_time":"13:27:00","departure_time":"13:27:00","lat":49.190077,"lon":16.634992,"is_passed":false},{"stop_id":"U1372Z2","name":"Masná","arrival_time":"13:29:00","departure_time":"13:29:00","lat":49.191283,"lon":16.6245,"is_passed":false},{"stop_id":"U1746Z2","name":"Vlhká","arrival_time":"13:30:00","departure_time":"13:30:00","lat":49.191852,"lon":16.619157,"is_passed":false},{"stop_id":"U1146Z7","name":"Hlavní nádraží","arrival_time":"13:33:00","departure_time":"13:44:00","lat":49.19213,"lon":16.613467,"is_passed":false}],"54138":[{"stop_id":"U1146Z8","name":"Hlavní nádraží","arrival_time":"13:44:00","departure_time":"13:44:00","lat":49.191893,"lon":16.613334,"is_passed":false},{"stop_id":"U1746Z1","name":"Vlhká","arrival_time":"13:45:00","departure_time":"13:45:00","lat":49.191847,"lon":16.618976,"is_passed":false},{"stop_id":"U1372Z5","name":"Masná","arrival_time":"13:47:00","departure_time":"13:47:00","lat":49.191189,"lon":16.626548,"is_passed":false},{"stop_id":"U1677Z1","name":"Tržní","arrival_time":"13:49:00","departure_time":"13:49:00","lat":49.189973,"lon":16.632193,"is_passed":false},{"stop_id":"U1068Z1","name":"Černovičky","arrival_time":"13:55:00","departure_time":"13:55:00","lat":49.182244,"lon":16.66894,"is_passed":false},{"stop_id":"U1741Z1","name":"Vlárská","arrival_time":"13:56:00","departure_time":"13:56:00","lat":49.180745,"lon":16.671647,"is_passed":false},{"stop_id":"U1046Z1","name":"Brněnky","arrival_time":"13:57:00","departure_time":"13:57:00","lat":49.17891,"lon":16.674895,"is_passed":false},{"stop_id":"U1562Z1","name":"Řípská","arrival_time":"13:58:00","departure_time":"13:58:00","lat":49.173814,"lon":16.682005,"is_passed":false},{"stop_id":"U1300Z1","name":"Křehlíkova","arrival_time":"14:00:00","departure_time":"14:00:00","lat":49.174839,"lon":16.685145,"is_passed":false},{"stop_id":"U1525Z1","name":"Přemyslovo náměstí","arrival_time":"14:01:00","departure_time":"14:01:00","lat":49.176289,"lon":16.687296,"is_passed":false},{"stop_id":"U1292Z1","name":"Krejčího","arrival_time":"14:02:00","departure_time":"14:02:00","lat":49.177441,"lon":16.690968,"is_passed":false},{"stop_id":"U16165Z1","name":"Šlapanice, sídliště","arrival_time":"14:05:00","departure_time":"14:05:00","lat":49.16703,"lon":16.718338,"is_passed":false},{"stop_id":"U16155Z1","name":"Šlapanice, Čechova","arrival_time":"14:06:00","departure_time":"14:06:00","lat":49.165752,"lon":16.722536,"is_passed":false},{"stop_id":"U16159Z1","name":"Šlapanice, Kalvodova","arrival_time":"14:08:00","departure_time":"14:28:00","lat":49.166442,"lon":16.726521,"is_passed":false}],"54139":[{"stop_id":"U16159Z2","name":"Šlapanice, Kalvodova","arrival_time":"14:28:00","departure_time":"14:28:00","lat":49.166539,"lon":16.726218,"is_passed":false},{"stop_id":"U16155Z2","name":"Šlapanice, Čechova","arrival_time":"14:29:00","departure_time":"14:29:00","lat":49.166076,"lon":16.721551,"is_passed":false},{"stop_id":"U16165Z2","name":"Šlapanice, sídliště","arrival_time":"14:30:00","departure_time":"14:30:00","lat":49.167046,"lon":16.718465,"is_passed":false},{"stop_id":"U1292Z2","name":"Krejčího","arrival_time":"14:34:00","departure_time":"14:34:00","lat":49.177496,"lon":16.690785,"is_passed":false},{"stop_id":"U1525Z2","name":"Přemyslovo náměstí","arrival_time":"14:34:00","departure_time":"14:34:00","lat":49.176456,"lon":16.687324,"is_passed":false},{"stop_id":"U1300Z2","name":"Křehlíkova","arrival_time":"14:35:00","departure_time":"14:35:00","lat":49.174794,"lon":16.685267,"is_passed":false},{"stop_id":"U1562Z2","name":"Řípská","arrival_time":"14:37:00","departure_time":"14:37:00","lat":49.174115,"lon":16.681787,"is_passed":false},{"stop_id":"U1046Z2","name":"Brněnky","arrival_time":"14:38:00","departure_time":"14:38:00","lat":49.178901,"lon":16.675332,"is_passed":false},{"stop_id":"U1741Z2","name":"Vlárská","arrival_time":"14:39:00","departure_time":"14:39:00","lat":49.180702,"lon":16.672017,"is_passed":false},{"stop_id":"U1068Z4","name":"Černovičky","arrival_time":"14:41:00","departure_time":"14:41:00","lat":49.183907,"lon":16.668247,"is_passed":false},{"stop_id":"U1814Z4","name":"Životského","arrival_time":"14:46:00","departure_time":"14:46:00","lat":49.190077,"lon":16.634992,"is_passed":false},{"stop_id":"U1372Z2","name":"Masná","arrival_time":"14:48:00","departure_time":"14:48:00","lat":49.191283,"lon":16.6245,"is_passed":false},{"stop_id":"U1746Z2","name":"Vlhká","arrival_time":"14:49:00","departure_time":"14:49:00","lat":49.191852,"lon":16.619157,"is_passed":false},{"stop_id":"U1146Z7","name":"Hlavní nádraží","arrival_time":"14:52:00","departure_time":"14:55:00","lat":49.19213,"lon":16.613467,"is_passed":false}],"54140":[{"stop_id":"U1146Z8","name":"Hlavní nádraží","arrival_time":"14:55:00","departure_time":"14:55:00","lat":49.191893,"lon":16.613334,"is_passed":false},{"stop_id":"U1746Z1","name":"Vlhká","arrival_time":"14:56:00","departure_time":"14:56:00","lat":49.191847,"lon":16.618976,"is_passed":false},{"stop_id":"U1372Z5","name":"Masná","arrival_time":"14:58:00","departure_time":"14:58:00","lat":49.191189,"lon":16.626548,"is_passed":false},{"stop_id":"U1677Z1","name":"Tržní","arrival_time":"15:00:00","departure_time":"15:00:00","lat":49.189973,"lon":16.632193,"is_passed":false},{"stop_id":"U1068Z1","name":"Černovičky","arrival_time":"15:06:00","departure_time":"15:06:00","lat":49.182244,"lon":16.66894,"is_passed":false},{"stop_id":"U1741Z1","name":"Vlárská","arrival_time":"15:07:00","departure_time":"15:07:00","lat":49.180745,"lon":16.671647,"is_passed":false},{"stop_id":"U1046Z1","name":"Brněnky","arrival_time":"15:08:00","departure_time":"15:08:00","lat":49.17891,"lon":16.674895,"is_passed":false},{"stop_id":"U1562Z1","name":"Řípská","arrival_time":"15:09:00","departure_time":"15:09:00","lat":49.173814,"lon":16.682005,"is_passed":false},{"stop_id":"U1300Z1","name":"Křehlíkova","arrival_time":"15:11:00","departure_time":"15:11:00","lat":49.174839,"lon":16.685145,"is_passed":false},{"stop_id":"U1525Z1","name":"Přemyslovo náměstí","arrival_time":"15:12:00","departure_time":"15:12:00","lat":49.176289,"lon":16.687296,"is_passed":false},{"stop_id":"U1292Z1","name":"Krejčího","arrival_time":"15:13:00","departure_time":"15:13:00","lat":49.177441,"lon":16.690968,"is_passed":false},