{"541":[{"stop_id":"U1146Z27","name":"Hlavní nádraží","arrival_time":"16:20:00","departure_time":"16:20:00","lat":49.190389,"lon":16.610438,"is_passed":false},{"stop_id":"U1141Z1","name":"Heršpická","arrival_time":"16:26:00","departure_time":"16:26:00","lat":49.170255,"lon":16.599363,"is_passed":false},{"stop_id":"U14348Z1","name":"Moravské Bránice, škola","arrival_time":"16:54:00","departure_time":"16:54:00","lat":49.081618,"lon":16.438242,"is_passed":false},{"stop_id":"U14350Z20","name":"Moravské Bránice, žel. st.","arrival_time":"16:57:00","departure_time":"17:02:00","lat":49.084918,"lon":16.429257,"is_passed":false},{"stop_id":"U14452Z2","name":"Ivančice, Stříbský mlýn","arrival_time":"17:07:00","departure_time":"17:07:00","lat":49.089548,"lon":16.404598,"is_passed":false},{"stop_id":"U24403Z52","name":"Ivančice město","arrival_time":"17:10:00","departure_time":"17:10:00","lat":49.099046,"lon":16.382066,"is_passed":false},{"stop_id":"U14454Z20","name":"Ivančice, železniční stanice","arrival_time":"17:13:00","departure_time":"17:13:00","lat":49.097893,"lon":16.373083,"is_passed":false}],"5410":[{"stop_id":"U15140Z2","name":"Modřice, železniční stanice","arrival_time":"16:00:00","departure_time":"16:00:00","lat":49.1337,"lon":16.606717,"is_passed":false},{"stop_id":"U15134Z2","name":"Modřice, smyčka","arrival_time":"16:05:00","departure_time":"16:05:00","lat":49.126517,"lon":16.604633,"is_passed":false},{"stop_id":"U15137Z4","name":"Modřice, Tyršova","arrival_time":"16:06:00","departure_time":"16:06:00","lat":49.129402,"lon":16.603203,"is_passed":false},{"stop_id":"U15166Z1","name":"Rajhrad, stará pošta","arrival_time":"16:12:00","departure_time":"16:12:00","lat":49.087759,"lon":16.591479,"is_passed":false},{"stop_id":"U15182Z1","name":"Rajhrad, GEIS","arrival_time":"16:13:00","departure_time":"16:13:00","lat":49.08538,"lon":16.582,"is_passed":false},{"stop_id":"U15210Z1","name":"Syrovice","arrival_time":"16:16:00","departure_time":"16:16:00","lat":49.080328,"lon":16.548173,"is_passed":false},{"stop_id":"U15243Z1","name":"Syrovice, Chocholáč","arrival_time":"16:17:00","departure_time":"16:17:00","lat":49.075773,"lon":16.541749,"is_passed":false},{"stop_id":"U15201Z1","name":"Bratčice","arrival_time":"16:19:00","departure_time":"16:19:00","lat":49.065403,"lon":16.522683,"is_passed":false},{"stop_id":"U15206Z1","name":"Mělčany","arrival_time":"16:23:00","departure_time":"16:23:00","lat":49.075149,"lon":16.493276,"is_passed":false},{"stop_id":"U14340Z1","name":"Dolní Kounice, Rybárna","arrival_time":"16:27:00","departure_time":"16:27:00","lat":49.071412,"lon":16.469024,"is_passed":false},{"stop_id":"U14339Z1","name":"Dolní Kounice, Masarykovo nám.","arrival_time":"16:29:00","departure_time":"16:31:00","lat":49.070302,"lon":16.464113,"is_passed":false},{"stop_id":"U14342Z1","name":"Dolní Kounice, Trboušanská","arrival_time":"16:33:00","departure_time":"16:33:00","lat":49.06613,"lon":16.468147,"is_passed":false},{"stop_id":"U14357Z1","name":"Trboušany","arrival_time":"16:38:00","departure_time":"16:38:00","lat":49.049142,"lon":16.46398,"is_passed":false},{"stop_id":"U14358Z3","name":"Trboušany, rozc.","arrival_time":"16:39:00","departure_time":"16:39:00","lat":49.044789,"lon":16.470993,"is_passed":false},{"stop_id":"U14356Z1","name":"Pravlov, rozc.","arrival_time":"16:42:00","departure_time":"16:42:00","lat":49.052728,"lon":16.479112,"is_passed":false},{"stop_id":"U14346Z1","name":"Kupařovice","arrival_time":"16:46:00","departure_time":"16:46:00","lat":49.0421,"lon":16.48738,"is_passed":false}],"5411":[{"stop_id":"U14346Z2","name":"Kupařovice","arrival_time":"16:46:00","departure_time":"16:46:00","lat":49.0421,"lon":16.48738,"is_passed":false},{"stop_id":"U14356Z2","name":"Pravlov, rozc.","arrival_time":"16:50:00","departure_time":"16:50:00","lat":49.053284,"lon":16.479035,"is_passed":false},{"stop_id":"U14358Z1","name":"Trboušany, rozc.","arrival_time":"16:53:00","departure_time":"16:53:00","lat":49.044863,"lon":16.471283,"is_passed":false},{"stop_id":"U14357Z2","name":"Trboušany","arrival_time":"16:54:00","departure_time":"16:54:00","lat":49.049142,"lon":16.46398,"is_passed":false},{"stop_id":"U14342Z2","name":"Dolní Kounice, Trboušanská","arrival_time":"16:58:00","departure_time":"16:58:00","lat":49.06613,"lon":16.468147,"is_passed":false},{"stop_id":"U14339Z2","name":"Dolní Kounice, Masarykovo nám.","arrival_time":"17:00:00","departure_time":"17:01:00","lat":49.070302,"lon":16.464113,"is_passed":false},{"stop_id":"U14340Z2","name":"Dolní Kounice, Rybárna","arrival_time":"17:03:00","departure_time":"17:03:00","lat":49.071349,"lon":16.469196,"is_passed":false},{"stop_id":"U15206Z2","name":"Mělčany","arrival_time":"17:08:00","departure_time":"17:08:00","lat":49.075388,"lon":16.493876,"is_passed":false},{"stop_id":"U15201Z2","name":"Bratčice","arrival_time":"17:12:00","departure_time":"17:12:00","lat":49.0656,"lon":16.522952,"is_passed":false},{"stop_id":"U15243Z2","name":"Syrovice, Chocholáč","arrival_time":"17:14:00","departure_time":"17:14:00","lat":49.075586,"lon":16.541475,"is_passed":false},{"stop_id":"U15210Z2","name":"Syrovice","arrival_time":"17:15:00","departure_time":"17:15:00","lat":49.08029,"lon":16.548905,"is_passed":false},{"stop_id":"U15182Z2","name":"Rajhrad, GEIS","arrival_time":"17:17:00","departure_time":"17:17:00","lat":49.085595,"lon":16.583357,"is_passed":false},{"stop_id":"U15166Z2","name":"Rajhrad, stará pošta","arrival_time":"17:18:00","departure_time":"17:18:00","lat":49.087794,"lon":16.591688,"is_passed":false},{"stop_id":"U15134Z1","name":"Modřice, smyčka","arrival_time":"17:26:00","departure_time":"17:26:00","lat":49.127138,"lon":16.604706,"is_passed":false},{"stop_id":"U15122Z2","name":"Modřice, Brněnská","arrival_time":"17:26:00","departure_time":"17:26:00","lat":49.129392,"lon":16.604987,"is_passed":false},{"stop_id":"U15140Z1","name":"Modřice, železniční stanice","arrival_time":"17:28:00","departure_time":"17:30:00","lat":49.134137,"lon":16.606734,"is_passed":false}],"5412":[{"stop_id":"U15140Z2","name":"Modřice, železniční stanice","arrival_time":"17:30:00","departure_time":"17:30:00","lat":49.1337,"lon":16.606717,"is_passed":false},{"stop_id":"U15134Z2","name":"Modřice, smyčka","arrival_time":"17:35:00","departure_time":"17:35:00","lat":49.126517,"lon":16.604633,"is_passed":false},{"stop_id":"U15137Z4","name":"Modřice, Tyršova","arrival_time":"17:36:00","departure_time":"17:36:00","lat":49.129402,"lon":16.603203,"is_passed":false},{"stop_id":"U15166Z1","name":"Rajhrad, stará pošta","arrival_time":"17:42:00","departure_time":"17:42:00","lat":49.087759,"lon":16.591479,"is_passed":false},{"stop_id":"U15182Z1","name":"Rajhrad, GEIS","arrival_time":"17:43:00","departure_time":"17:43:00","lat":49.08538,"lon":16.582,"is_passed":false},{"stop_id":"U15210Z1","name":"Syrovice","arrival_time":"17:46:00","departure_time":"17:46:00","lat":49.080328,"lon":16.548173,"is_passed":false},{"stop_id":"U15243Z1","name":"Syrovice, Chocholáč","arrival_time":"17:47:00","departure_time":"17:47:00","lat":49.075773,"lon":16.541749,"is_passed":false},{"stop_id":"U15201Z1","name":"Bratčice","arrival_time":"17:49:00","departure_time":"17:49:00","lat":49.065403,"lon":16.522683,"is_passed":false},{"stop_id":"U15206Z1","name":"Mělčany","arrival_time":"17:53:00","departure_time":"17:53:00","lat":49.075149,"lon":16.493276,"is_passed":false},{"stop_id":"U14340Z1","name":"Dolní Kounice, Rybárna","arrival_time":"17:57:00","departure_time":"17:57:00","lat":49.071412,"lon":16.469024,"is_passed":false},{"stop_id":"U14339Z1","name":"Dolní Kounice, Masarykovo nám.","arrival_time":"17:59:00","departure_time":"18:01:00","lat":49.070302,"lon":16.464113,"is_passed":false},{"stop_id":"U14342Z1","name":"Dolní Kounice, Trboušanská","arrival_time":"18:03:00","departure_time":"18:03:00","lat":49.06613,"lon":16.468147,"is_passed":false},{"stop_id":"U14357Z1","name":"Trboušany","arrival_time":"18:08:00","departure_time":"18:53:00","lat":49.049142,"lon":16.46398,"is_passed":false}],"5413":[{"stop_id":"U14357Z2","name":"Trboušany","arrival_time":"18:53:00","departure_time":"18:53:00","lat":49.049142,"lon":16.46398,"is_passed":false},{"stop_id":"U14342Z2","name":"Dolní Kounice, Trboušanská","arrival_time":"18:57:00","departure_time":"18:57:00","lat":49.06613,"lon":16.468147,"is_passed":false},{"stop_id":"U14339Z2","name":"Dolní Kounice, Masarykovo nám.","arrival_time":"18:59:00","departure_time":"19:01:00","lat":49.070302,"lon":16.464113,"is_passed":false},{"stop_id":"U14340Z2","name":"Dolní Kounice, Rybárna","arrival_time":"19:03:00","departure_time":"19:03:00","lat":49.071349,"lon":16.469196,"is_passed":false},{"stop_id":"U15206Z2","name":"Mělčany","arrival_time":"19:08:00","departure_time":"19:08:00","lat":49.075388,"lon":16.493876,"is_passed":false},{"stop_id":"U15201Z2","name":"Bratčice","arrival_time":"19:12:00","departure_time":"19:12:00","lat":49.0656,"lon":16.522952,"is_passed":false},{"stop_id":"U15243Z2","name":"Syrovice, Chocholáč","arrival_time":"19:14:00","departure_time":"19:14:00","lat":49.075586,"lon":16.541475,"is_passed":false},{"stop_id":"U15210Z2","name":"Syrovice","arrival_time":"19:15:00","departure_time":"19:15:00","lat":49.08029,"lon":16.548905,"is_passed":false},{"stop_id":"U15182Z2","name":"Rajhrad, GEIS","arrival_time":"19:17:00","departure_time":"19:17:00","lat":49.085595,"lon":16.583357,"is_passed":false},{"stop_id":"U15166Z2","name":"Rajhrad, stará pošta","arrival_time":"19:18:00","departure_time":"19:18:00","lat":49.087794,"lon":16.591688,"is_passed":false},{"stop_id":"U15134Z1","name":"Modřice, smyčka","arrival_time":"19:26:00","departure_time":"19:26:00","lat":49.127138,"lon":16.604706,"is_passed":false},{"stop_id":"U15122Z2","name":"Modřice, Brněnská","arrival_time":"19:26:00","departure_time":"19:26:00","lat":49.129392,"lon":16.604987,"is_passed":false},{"stop_id":"U15140Z1","name":"Modřice, železniční stanice","arrival_time":"19:28:00","departure_time":"19:30:00","lat":49.134137,"lon":16.606734,"is_passed":false}],"5414":[{"stop_id":"U15140Z2","name":"Modřice, železniční stanice","arrival_time":"19:30:00","departure_time":"19:30:00","lat":49.1337,"lon":16.606717,"is_passed":false},{"stop_id":"U15134Z2","name":"Modřice, smyčka","arrival_time":"19:35:00","departure_time":"19:35:00","lat":49.126517,"lon":16.604633,"is_passed":false},{"stop_id":"U15137Z4","name":"Modřice, Tyršova","arrival_time":"19:36:00","departure_time":"19:36:00","lat":49.129402,"lon":16.603203,"is_passed":false},{"stop_id":"U15166Z1","name":"Rajhrad, stará pošta","arrival_time":"19:42:00","departure_time":"19:42:00","lat":49.087759,"lon":16.591479,"is_passed":false},{"stop_id":"U15182Z1","name":"Rajhrad, GEIS","arrival_time":"19:43:00","departure_time":"19:43:00","lat":49.08538,"lon":16.582,"is_passed":false},{"stop_id":"U15210Z1","name":"Syrovice","arrival_time":"19:46:00","departure_time":"19:46:00","lat":49.080328,"lon":16.548173,"is_passed":false},{"stop_id":"U15243Z1","name":"Syrovice, Chocholáč","arrival_time":"19:47:00","departure_time":"19:47:00","lat":49.075773,"lon":16.541749,"is_passed":false},{"stop_id":"U15201Z1","name":"Bratčice","arrival_time":"19:49:00","departure_time":"19:49:00","lat":49.065403,"lon":16.522683,"is_passed":false},{"stop_id":"U15206Z1","name":"Mělčany","arrival_time":"19:53:00","departure_time":"19:53:00","lat":49.075149,"lon":16.493276,"is_passed":false},{"stop_id":"U14340Z1","name":"Dolní Kounice, Rybárna","arrival_time":"19:57:00","departure_time":"19:57:00","lat":49.071412,"lon":16.469024,"is_passed":false},{"stop_id":"U14339Z1","name":"Dolní Kounice, Masarykovo nám.","arrival_time":"19:59:00","departure_time":"19:59:00","lat":49.070302,"lon":16.464113,"is_passed":false}],"5415":[{"stop_id":"U14339Z2","name":"Dolní Kounice, Masarykovo nám.","arrival_time":"20:16:00","departure_time":"20:16:00","lat":49.070302,"lon":16.464113,"is_passed":false},{"stop_id":"U14341Z1","name":"Dolní Kounice, Skalní","arrival_time":"20:17:00","departure_time":"20:17:00","lat":49.070334,"lon":16.456634,"is_passed":false},{"stop_id":"U14351Z1","name":"Nové Bránice","arrival_time":"20:18:00","departure_time":"20:18:00","lat":49.070496,"lon":16.443067,"is_passed":false},{"stop_id":"U14353Z1","name":"Nové Bránice, škola","arrival_time":"20:20:00","departure_time":"20:20:00","lat":49.073418,"lon":16.439379,"is_passed":false},{"stop_id":"U14352Z1","name":"Nové Bránice, rozc.","arrival_time":"20:21:00","departure_time":"20:21:00","lat":49.078247,"lon":16.439327,"is_passed":false},{"stop_id":"U14348Z1","name":"Moravské Bránice, škola","arrival_time":"20:22:00","departure_time":"20:22:00","lat":49.081618,"lon":16.438242,"is_passed":false},{"stop_id":"U14350Z2","name":"Moravské Bránice, žel. st.","arrival_time":"20:26:00","departure_time":"20:38:00","lat":49.084918,"lon":16.429257,"is_passed":false}],"5416":[{"stop_id":"U14350Z1","name":"Moravské Bránice, žel. st.","arrival_time":"20:38:00","departure_time":"20:38:00","lat":49.084918,"lon":16.429257,"is_passed":false},{"stop_id":"U14348Z2","name":"Moravské Bránice, škola","arrival_time":"20:41:00","departure_time":"20:41:00","lat":49.081437,"lon":16.438245,"is_passed":false},{"stop_id":"U14352Z2","name":"Nové Bránice, rozc.","arrival_time":"20:42:00","departure_time":"20:42:00","lat":49.078247,"lon":16.439327,"is_passed":false},{"stop_id":"U14353Z2","name":"Nové Bránice, škola","arrival_time":"20:43:00","departure_time":"20:43:00","lat":49.073323,"lon":16.439369,"is_passed":false},{"stop_id":"U14351Z2","name":"Nové Bránice","arrival_time":"20:45:00","departure_time":"20:45:00","lat":49.070213,"lon":16.443703,"is_passed":false},{"stop_id":"U14341Z2","name":"Dolní Kounice, Skalní","arrival_time":"20:46:00","departure_time":"20:46:00","lat":49.070278,"lon":16.456749,"is_passed":false},{"stop_id":"U14339Z1","name":"Dolní Kounice, Masarykovo nám.","arrival_time":"20:49:00","departure_time":"20:49:00","lat":49.070302,"lon":16.464113,"is_passed":false}],"5417":[{"stop_id":"U14339Z2","name":"Dolní Kounice, Masarykovo nám.","arrival_time":"21:01:00","departure_time":"21:01:00","lat":49.070302,"lon":16.464113,"is_passed":false},{"stop_id":"U14340Z2","name":"Dolní Kounice, Rybárna","arrival_time":"21:03:00","departure_time":"21:03:00","lat":49.071349,"lon":16.469196,"is_passed":false},{"stop_id":"U15206Z2","name":"Mělčany","arrival_time":"21:08:00","departure_time":"21:08:00","lat":49.075388,"lon":16.493876,"is_passed":false},{"stop_id":"U15201Z2","name":"Bratčice","arrival_time":"21:12:00","departure_time":"21:12:00","lat":49.0656,"lon":16.522952,"is_passed":false},{"stop_id":"U15243Z2","name":"Syrovice, Chocholáč","arrival_time":"21:14:00","departure_time":"21:14:00","lat":49.075586,"lon":16.541475,"is_passed":false},{"stop_id":"U15210Z2","name":"Syrovice","arrival_time":"21:15:00","departure_time":"21:15:00","lat":49.08029,"lon":16.548905,"is_passed":false},{"stop_id":"U15182Z2","name":"Rajhrad, GEIS","arrival_time":"21:17:00","departure_time":"21:17:00","lat":49.085595,"lon":16.583357,"is_passed":false},{"stop_id":"U15166Z2","name":"Rajhrad, stará pošta","arrival_time":"21:18:00","departure_time":"21:18:00","lat":49.087794,"lon":16.591688,"is_passed":false},{"stop_id":"U15134Z1","name":"Modřice, smyčka","arrival_time":"21:26:00","departure_time":"21:26:00","lat":49.127138,"lon":16.604706,"is_passed":false},{"stop_id":"U15122Z2","name":"Modřice, Brněnská","arrival_time":"21:26:00","departure_time":"21:26:00","lat":49.129392,"lon":16.604987,"is_passed":false},{"stop_id":"U15140Z1","name":"Modřice, železniční stanice","arrival_time":"21:28:00","departure_time":"21:30:00","lat":49.134137,"lon":16.606734,"is_passed":false}],"5418":[{"stop_id":"U15140Z2","name":"Modřice, železniční stanice","arrival_time":"21:30:00","departure_time":"21:30:00","lat":49.1337,"lon":16.606717,"is_passed":false},{"stop_id":"U15134Z2","name":"Modřice, smyčka","arrival_time":"21:35:00","departure_time":"21:35:00","lat":49.126517,"lon":16.604633,"is_passed":false},{"stop_id":"U15137Z4","name":"Modřice, Tyršova","arrival_time":"21:36:00","departure_time":"21:36:00","lat":49.129402,"lon":16.603203,"is_passed":false},{"stop_id":"U15166Z1","name":"Rajhrad, stará pošta","arrival_time":"21:42:00","departure_time":"21:42:00","lat":49.087759,"lon":16.591479,"is_passed":false},{"stop_id":"U15182Z1","name":"Rajhrad, GEIS","arrival_time":"21:43:00","departure_time":"21:43:00","lat":49.08538,"lon":16.582,"is_passed":false},{"stop_id":"U15210Z1","name":"Syrovice","arrival_time":"21:46:00","departure_time":"21:46:00","lat":49.080328,"lon":16.548173,"is_passed":false},{"stop_id":"U15243Z1","name":"Syrovice, Chocholáč","arrival_time":"21:47:00","departure_time":"21:47:00","lat":49.075773,"lon":16.541749,"is_passed":false},{"stop_id":"U15201Z1","name":"Bratčice","arrival_time":"21:49:00","departure_time":"21:49:00","lat":49.065403,"lon":16.522683,"is_passed":false},{"stop_id":"U15206Z1","name":"Mělčany","arrival_time":"21:53:00","departure_time":"21:53:00","lat":49.075149,"lon":16.493276,"is_passed":false},{"stop_id":"U14340Z1","name":"Dolní Kounice, Rybárna","arrival_time":"21:57:00","departure_time":"21:57:00","lat":49.071412,"lon":16.469024,"is_passed":false},{"stop_id":"U14339Z1","name":"Dolní Kounice, Masarykovo nám.","arrival_time":"21:59:00","departure_time":"22:00:00","lat":49.070302,"lon":16.464113,"is_passed":false}],"5419":[{"stop_id":"U14339Z1","name":"Dolní Kounice, Masarykovo nám.","arrival_time":"22:00:00","departure_time":"22:00:00","lat":49.070302,"lon":16.464113,"is_passed":false},{"stop_id":"U14355Z2","name":"Pravlov, kulturní dům","arrival_time":"22:04:00","departure_time":"22:04:00","lat":49.054267,"lon":16.480336,"is_passed":false},{"stop_id":"U14354Z2","name":"Pravlov","arrival_time":"22:06:00","departure_time":"22:06:00","lat":49.054483,"lon":16.486867,"is_passed":false},{"stop_id":"U15207Z2","name":"Němčičky","arrival_time":"22:08:00","departure_time":"22:08:00","lat":49.050564,"lon":16.501069,"is_passed":false},{"stop_id":"U15202Z2","name":"Bratčice, pískovna","arrival_time":"22:10:00","departure_time":"22:10:00","lat":49.059722,"lon":16.517698,"is_passed":false},{"stop_id":"U15201Z2","name":"Bratčice","arrival_time":"22:12:00","departure_time":"22:12:00","lat":49.0656,"lon":16.522952,"is_passed":false},{"stop_id":"U15243Z2","name":"Syrovice, Chocholáč","arrival_time":"22:14:00","departure_time":"22:14:00","lat":49.075586,"lon":16.541475,"is_passed":false},{"stop_id":"U15212Z1","name":"Syrovice, Sobotovická","arrival_time":"22:15:00","departure_time":"22:15:00","lat":49.077625,"lon":16.545298,"is_passed":false},{"stop_id":"U15209Z1","name":"Sobotovice, transformátor","arrival_time":"22:18:00","departure_time":"22:18:00","lat":49.061401,"lon":16.552707,"is_passed":false},{"stop_id":"U15208Z3","name":"Sobotovice","arrival_time":"22:20:00","departure_time":"22:20:00","lat":49.059067,"lon":16.558138,"is_passed":false},{"stop_id":"U15203Z3","name":"Ledce, obecní úřad","arrival_time":"22:22:00","departure_time":"22:22:00","lat":49.052175,"lon":16.555735,"is_passed":false},{"stop_id":"U15204Z3","name":"Ledce, rozcestí","arrival_time":"22:23:00","departure_time":"22:23:00","lat":49.04971,"lon":16.565488,"is_passed":false},{"stop_id":"U15221Z2","name":"Hrušovany u Brna, VÚZA","arrival_time":"22:25:00","departure_time":"22:25:00","lat":49.042062,"lon":16.577123,"is_passed":false},{"stop_id":"U15220Z2","name":"Hrušovany u Brna, sídliště","arrival_time":"22:27:00","departure_time":"22:27:00","lat":49.039155,"lon":16.584847,"is_passed":false},{"stop_id":"U15222Z2","name":"Hrušovany u Brna, žel. st.","arrival_time":"22:30:00","departure_time":"22:33:00","lat":49.034274,"lon":16.591904,"is_passed":false},{"stop_id":"U15219Z2","name":"Hrušovany u Brna, obecní úřad","arrival_time":"22:34:00","departure_time":"22:34:00","lat":49.039798,"lon":16.595027,"is_passed":false},{"stop_id":"U15230Z1","name":"Židlochovice, škola","arrival_time":"22:37:00","departure_time":"22:37:00","lat":49.037011,"lon":16.610483,"is_passed":false},{"stop_id":"U15229Z8","name":"Židlochovice, aut. st.","arrival_time":"22:40:00","departure_time":"22:40:00","lat":49.035879,"lon":16.614708,"is_passed":false},{"stop_id":"U15241Z51","name":"Židlochovice, železniční stanice","arrival_time":"22:42:00","departure_time":"22:52:00","lat":49.033692,"lon":16.616779,"is_passed":false}],"54100":[{"stop_id":"U1362Z2","name":"Mariánské údolí","arrival_time":"1:30:00","departure_time":"1:30:00","lat":49.20332,"lon":16.71587,"is_passed":false},{"stop_id":"U1497Z2","name":"Podolská","arrival_time":"1:30:00","departure_time":"1:30:00","lat":49.20311,"lon":16.713363,"is_passed":false},{"stop_id":"U1726Z2","name":"Velatická","arrival_time":"1:31:00","departure_time":"1:31:00","lat":49.204666,"lon":16.707253,"is_passed":false},{"stop_id":"U1350Z2","name":"Macháčkova","arrival_time":"1:32:00","departure_time":"1:32:00","lat":49.206174,"lon":16.701931,"is_passed":false},{"stop_id":"U1421Z4","name":"Náměstí Karla IV.","arrival_time":"1:33:00","departure_time":"1:33:00","lat":49.206991,"lon":16.695508,"is_passed":false},{"stop_id":"U1384Z3","name":"Mifkova","arrival_time":"1:33:00","departure_time":"1:33:00","lat":49.20716,"lon":16.692152,"is_passed":false},{"stop_id":"U1208Z5","name":"Jírova","arrival_time":"1:35:00","departure_time":"1:35:00","lat":49.209891,"lon":16.688265,"is_passed":false},{"stop_id":"U1392Z2","name":"Molákova","arrival_time":"1:35:00","departure_time":"1:35:00","lat":49.212602,"lon":16.687063,"is_passed":false},{"stop_id":"U1489Z2","name":"Podbělová","arrival_time":"1:36:00","departure_time":"1:36:00","lat":49.214049,"lon":16.681384,"is_passed":false},{"stop_id":"U1157Z2","name":"Horníkova","arrival_time":"1:37:00","departure_time":"1:37:00","lat":49.211809,"lon":16.67649,"is_passed":false},{"stop_id":"U1103Z2","name":"Elplova","arrival_time":"1:38:00","departure_time":"1:38:00","lat":49.210409,"lon":16.674871,"is_passed":false},{"stop_id":"U1623Z2","name":"Strnadova","arrival_time":"1:39:00","departure_time":"1:39:00","lat":49.205821,"lon":16.668465,"is_passed":false},{"stop_id":"U1551Z2","name":"Růženin dvůr","arrival_time":"1:40:00","departure_time":"1:40:00","lat":49.203263,"lon":16.666525,"is_passed":false},{"stop_id":"U1026Z4","name":"Bílá hora","arrival_time":"1:42:00","departure_time":"1:42:00","lat":49.193975,"lon":16.667677,"is_passed":false},{"stop_id":"U1018Z4","name":"Bělohorská","arrival_time":"1:44:00","departure_time":"1:44:00","lat":49.189904,"lon":16.662135,"is_passed":false},{"stop_id":"U1642Z2","name":"Špačkova","arrival_time":"1:44:00","departure_time":"1:44:00","lat":49.190815,"lon":16.659552,"is_passed":false},{"stop_id":"U1496Z2","name":"Podlomní","arrival_time":"1:45:00","departure_time":"1:45:00","lat":49.192497,"lon":16.654989,"is_passed":false},{"stop_id":"U1082Z2","name":"Dělnický dům","arrival_time":"1:46:00","departure_time":"1:46:00","lat":49.195559,"lon":16.64956,"is_passed":false},{"stop_id":"U1473Z2","name":"Otakara Ševčíka","arrival_time":"1:47:00","departure_time":"1:47:00","lat":49.195268,"lon":16.645381,"is_passed":false},{"stop_id":"U1048Z2","name":"Buzkova","arrival_time":"1:48:00","departure_time":"1:48:00","lat":49.19414,"lon":16.641027,"is_passed":false},{"stop_id":"U1116Z2","name":"Geislerova","arrival_time":"1:49:00","departure_time":"1:49:00","lat":49.192754,"lon":16.634757,"is_passed":false},{"stop_id":"U1814Z2","name":"Životského","arrival_time":"1:50:00","departure_time":"1:50:00","lat":49.190687,"lon":16.633889,"is_passed":false},{"stop_id":"U1372Z2","name":"Masná","arrival_time":"1:51:00","departure_time":"1:51:00","lat":49.191283,"lon":16.6245,"is_passed":false},{"stop_id":"U1746Z2","name":"Vlhká","arrival_time":"1:52:00","departure_time":"1:52:00","lat":49.191852,"lon":16.619157,"is_passed":false},{"stop_id":"U1146Z1","name":"Hlavní nádraží","arrival_time":"1:55:00","departure_time":"2:00:00","lat":49.191185,"lon":16.611879,"is_passed":false},{"stop_id":"U1176Z1","name":"Hybešova","arrival_time":"2:01:00","departure_time":"2:01:00","lat":49.189322,"lon":16.602863,"is_passed":false},{"stop_id":"U1721Z1","name":"Václavská","arrival_time":"2:02:00","departure_time":"2:02:00","lat":49.188681,"lon":16.597217,"is_passed":false},{"stop_id":"U1378Z9","name":"Mendlovo náměstí","arrival_time":"2:04:00","departure_time":"2:04:00","lat":49.190456,"lon":16.593122,"is_passed":false},{"stop_id":"U1307Z2","name":"Křížkovského","arrival_time":"2:05:00","departure_time":"2:05:00","lat":49.18713,"lon":16.58669,"is_passed":false},{"stop_id":"U1728Z2","name":"Velodrom","arrival_time":"2:06:00","departure_time":"2:06:00","lat":49.184406,"lon":16.576944,"is_passed":false},{"stop_id":"U1541Z2","name":"Riviéra","arrival_time":"2:07:00","departure_time":"2:07:00","lat":49.187764,"lon":16.572566,"is_passed":false},{"stop_id":"U1487Z7","name":"Pisárky","arrival_time":"2:08:00","departure_time":"2:08:00","lat":49.193452,"lon":16.569802,"is_passed":false},{"stop_id":"U1007Z1","name":"Anthropos","arrival_time":"2:10:00","departure_time":"2:10:00","lat":49.193461,"lon":16.565902,"is_passed":false},{"stop_id":"U1490Z1","name":"Pod Jurankou","arrival_time":"2:11:00","departure_time":"2:11:00","lat":49.199371,"lon":16.566405,"is_passed":false},{"stop_id":"U1732Z1","name":"Veslařská","arrival_time":"2:11:00","departure_time":"2:11:00","lat":49.202697,"lon":16.565265,"is_passed":false},{"stop_id":"U1216Z1","name":"Jundrov, hřiště","arrival_time":"2:12:00","departure_time":"2:12:00","lat":49.204651,"lon":16.560232,"is_passed":false},{"stop_id":"U1214Z1","name":"Jundrovský most","arrival_time":"2:13:00","departure_time":"2:13:00","lat":49.209437,"lon":16.556755,"is_passed":false},{"stop_id":"U1215Z1","name":"Jundrovská","arrival_time":"2:14:00","departure_time":"2:14:00","lat":49.211867,"lon":16.560093,"is_passed":false},{"stop_id":"U1633Z5","name":"Svratecká","arrival_time":"2:18:00","departure_time":"2:18:00","lat":49.218278,"lon":16.552802,"is_passed":false},{"stop_id":"U1796Z3","name":"Zoologická zahrada","arrival_time":"2:21:00","departure_time":"2:21:00","lat":49.228465,"lon":16.531116,"is_passed":false},{"stop_id":"U1527Z3","name":"Přístaviště","arrival_time":"2:22:00","departure_time":"2:22:00","lat":49.228139,"lon":16.522365,"is_passed":false},{"stop_id":"U1537Z3","name":"Rakovecká","arrival_time":"2:23:00","departure_time":"2:23:00","lat":49.225834,"lon":16.518322,"is_passed":false},{"stop_id":"U1312Z5","name":"Kubíčkova","arrival_time":"2:24:00","departure_time":"2:24:00","lat":49.221996,"lon":16.519339,"is_passed":false},{"stop_id":"U1461Z3","name":"Ondrouškova","arrival_time":"2:25:00","departure_time":"2:25:00","lat":49.217721,"lon":16.517208,"is_passed":false},{"stop_id":"U1102Z3","name":"Ečerova","arrival_time":"2:27:00","departure_time":"2:27:00","lat":49.218746,"lon":16.50885,"is_passed":false},{"stop_id":"U1550Z1","name":"Ruda","arrival_time":"2:28:00","departure_time":"2:28:00","lat":49.220578,"lon":16.502837,"is_passed":false},{"stop_id":"U1559Z51","name":"Říčanská","arrival_time":"2:29:00","departure_time":"2:29:00","lat":49.219414,"lon":16.497216,"is_passed":false},{"stop_id":"U1802Z1","name":"Žebětínský rybník","arrival_time":"2:30:00","departure_time":"2:30:00","lat":49.215096,"lon":16.49364,"is_passed":false},{"stop_id":"U1096Z1","name":"Drdy","arrival_time":"2:31:00","departure_time":"2:31:00","lat":49.209636,"lon":16.492567,"is_passed":false},{"stop_id":"U1302Z1","name":"Křivánkovo náměstí","arrival_time":"2:32:00","departure_time":"2:32:00","lat":49.20718,"lon":16.487513,"is_passed":false},{"stop_id":"U1800Z1","name":"Žebětín, hřbitov","arrival_time":"2:33:00","departure_time":"2:33:00","lat":49.204634,"lon":16.487304,"is_passed":false},{"stop_id":"U1015Z1","name":"Bartolomějská","arrival_time":"2:34:00","departure_time":"3:20:00","lat":49.20362,"lon":16.489502,"is_passed":false}],"54101":[{"stop_id":"U1015Z2","name":"Bartolomějská","arrival_time":"3:20:00","departure_time":"3:20:00","lat":49.203579,"lon":16.489347,"is_passed":false},{"stop_id":"U1302Z2","name":"Křivánkovo náměstí","arrival_time":"3:21:00","departure_time":"3:21:00","lat":49.20688,"lon":16.4876,"is_passed":false},{"stop_id":"U1096Z2","name":"Drdy","arrival_time":"3:22:00","departure_time":"3:22:00","lat":49.209191,"lon":16.492285,"is_passed":false},{"stop_id":"U1802Z2","name":"Žebětínský rybník","arrival_time":"3:22:00","departure_time":"3:22:00","lat":49.215544,"lon":16.493531,"is_passed":false},{"stop_id":"U1559Z52","name":"Říčanská","arrival_time":"3:23:00","departure_time":"3:23:00","lat":49.219429,"lon":16.497339,"is_passed":false},{"stop_id":"U1550Z2","name":"Ruda","arrival_time":"3:24:00","departure_time":"3:24:00","lat":49.220473,"lon":16.502554,"is_passed":false},{"stop_id":"U1102Z4","name":"Ečerova","arrival_time":"3:26:00","departure_time":"3:27:00","lat":49.218044,"lon":16.509781,"is_passed":false},{"stop_id":"U1461Z4","name":"Ondrouškova","arrival_time":"3:28:00","departure_time":"3:28:00","lat":49.217906,"lon":16.518033,"is_passed":false},{"stop_id":"U1312Z6","name":"Kubíčkova","arrival_time":"3:29:00","departure_time":"3:29:00","lat":49.22159,"lon":16.519454,"is_passed":false},{"stop_id":"U1537Z4","name":"Rakovecká","arrival_time":"3:30:00","departure_time":"3:30:00","lat":49.226308,"lon":16.518652,"is_passed":false},{"stop_id":"U1527Z4","name":"Přístaviště","arrival_time":"3:31:00","departure_time":"3:31:00","lat":49.228127,"lon":16.522637,"is_passed":false},{"stop_id":"U1796Z4","name":"Zoologická zahrada","arrival_time":"3:32:00","departure_time":"3:32:00","lat":49.227471,"lon":16.531889,"is_passed":false},{"stop_id":"U1633Z6","name":"Svratecká","arrival_time":"3:36:00","departure_time":"3:36:00","lat":49.21759,"lon":16.553789,"is_passed":false},{"stop_id":"U1215Z2","name":"Jundrovská","arrival_time":"3:37:00","departure_time":"3:37:00","lat":49.211911,"lon":16.560194,"is_passed":false},{"stop_id":"U1214Z2","name":"Jundrovský most","arrival_time":"3:37:00","departure_time":"3:37:00","lat":49.210699,"lon":16.558163,"is_passed":false},{"stop_id":"U1462Z4","name":"Optátova","arrival_time":"3:38:00","departure_time":"3:38:00","lat":49.208328,"lon":16.555591,"is_passed":false},{"stop_id":"U1216Z2","name":"Jundrov, hřiště","arrival_time":"3:39:00","departure_time":"3:39:00","lat":49.204674,"lon":16.56001,"is_passed":false},{"stop_id":"U1732Z2","name":"Veslařská","arrival_time":"3:40:00","departure_time":"3:40:00","lat":49.20282,"lon":16.564736,"is_passed":false},{"stop_id":"U1490Z2","name":"Pod Jurankou","arrival_time":"3:41:00","departure_time":"3:41:00","lat":49.198955,"lon":16.566182,"is_passed":false},{"stop_id":"U1007Z4","name":"Anthropos","arrival_time":"3:44:00","departure_time":"3:44:00","lat":49.193356,"lon":16.56677,"is_passed":false},{"stop_id":"U1487Z8","name":"Pisárky","arrival_time":"3:45:00","departure_time":"3:45:00","lat":49.193578,"lon":16.569575,"is_passed":false},{"stop_id":"U1541Z1","name":"Riviéra","arrival_time":"3:46:00","departure_time":"3:46:00","lat":49.187168,"lon":16.571915,"is_passed":false},{"stop_id":"U1728Z1","name":"Velodrom","arrival_time":"3:47:00","departure_time":"3:47:00","lat":49.18551,"lon":16.586723,"is_passed":false},{"stop_id":"U1307Z1","name":"Křížkovského","arrival_time":"3:48:00","departure_time":"3:48:00","lat":49.187627,"lon":16.587682,"is_passed":false},{"stop_id":"U1378Z8","name":"Mendlovo náměstí","arrival_time":"3:49:00","departure_time":"3:49:00","lat":49.189768,"lon":16.593426,"is_passed":false},{"stop_id":"U1721Z2","name":"Václavská","arrival_time":"3:50:00","departure_time":"3:50:00","lat":49.188715,"lon":16.596878,"is_passed":false},{"stop_id":"U1176Z2","name":"Hybešova","arrival_time":"3:51:00","departure_time":"3:51:00","lat":49.189209,"lon":16.603364,"is_passed":false},{"stop_id":"U1146Z4","name":"Hlavní nádraží","arrival_time":"3:54:00","departure_time":"4:00:00","lat":49.19125,"lon":16.612674,"is_passed":false},{"stop_id":"U1746Z1","name":"Vlhká","arrival_time":"4:01:00","departure_time":"4:01:00","lat":49.191847,"lon":16.618976,"is_passed":false},{"stop_id":"U1372Z1","name":"Masná","arrival_time":"4:02:00","departure_time":"4:02:00","lat":49.191244,"lon":16.625642,"is_passed":false},{"stop_id":"U1814Z1","name":"Životského","arrival_time":"4:03:00","departure_time":"4:03:00","lat":49.191036,"lon":16.633968,"is_passed":false},{"stop_id":"U1116Z1","name":"Geislerova","arrival_time":"4:04:00","departure_time":"4:04:00","lat":49.19278,"lon":16.635345,"is_passed":false},{"stop_id":"U1048Z1","name":"Buzkova","arrival_time":"4:05:00","departure_time":"4:05:00","lat":49.194159,"lon":16.641228,"is_passed":false},{"stop_id":"U1473Z1","name":"Otakara Ševčíka","arrival_time":"4:06:00","departure_time":"4:06:00","lat":49.19523,"lon":16.645949,"is_passed":false},{"stop_id":"U1082Z1","name":"Dělnický dům","arrival_time":"4:07:00","departure_time":"4:07:00","lat":49.195559,"lon":16.650177,"is_passed":false},{"stop_id":"U1496Z1","name":"Podlomní","arrival_time":"4:08:00","departure_time":"4:08:00","lat":49.192252,"lon":16.655367,"is_passed":false},{"stop_id":"U1642Z1","name":"Špačkova","arrival_time":"4:08:00","departure_time":"4:08:00","lat":49.190929,"lon":16.658793,"is_passed":false},{"stop_id":"U1018Z6","name":"Bělohorská","arrival_time":"4:09:00","departure_time":"4:09:00","lat":49.189603,"lon":16.662473,"is_passed":false},{"stop_id":"U1026Z3","name":"Bílá hora","arrival_time":"4:10:00","departure_time":"4:10:00","lat":49.194009,"lon":16.668034,"is_passed":false},{"stop_id":"U1551Z1","name":"Růženin dvůr","arrival_time":"4:12:00","departure_time":"4:12:00","lat":49.203651,"lon":16.666867,"is_passed":false},{"stop_id":"U1623Z1","name":"Strnadova","arrival_time":"4:13:00","departure_time":"4:13:00","lat":49.205754,"lon":16.66904,"is_passed":false},{"stop_id":"U1103Z1","name":"Elplova","arrival_time":"4:14:00","departure_time":"4:14:00","lat":49.210484,"lon":16.675106,"is_passed":false},{"stop_id":"U1157Z1","name":"Horníkova","arrival_time":"4:15:00","departure_time":"4:15:00","lat":49.212138,"lon":16.676622,"is_passed":false},{"stop_id":"U1489Z1","name":"Podbělová","arrival_time":"4:16:00","departure_time":"4:16:00","lat":49.213881,"lon":16.681661,"is_passed":false},{"stop_id":"U1392Z1","name":"Molákova","arrival_time":"4:17:00","departure_time":"4:17:00","lat":49.212873,"lon":16.686835,"is_passed":false},{"stop_id":"U1208Z4","name":"Jírova","arrival_time":"4:19:00","departure_time":"4:19:00","lat":49.209099,"lon":16.688056,"is_passed":false},{"stop_id":"U1421Z3","name":"Náměstí Karla IV.","arrival_time":"4:20:00","departure_time":"4:20:00","lat":49.206713,"lon":16.694241,"is_passed":false},{"stop_id":"U1350Z1","name":"Macháčkova","arrival_time":"4:21:00","departure_time":"4:21:00","lat":49.206052,"lon":16.70193,"is_passed":false},{"stop_id":"U1726Z1","name":"Velatická","arrival_time":"4:22:00","departure_time":"4:22:00","lat":49.204129,"lon":16.708116,"is_passed":false},{"stop_id":"U1497Z1","name":"Podolská","arrival_time":"4:23:00","departure_time":"4:23:00","lat":49.203029,"lon":16.714223,"is_passed":false},{"stop_id":"U1362Z1","name":"Mariánské údolí","arrival_time":"4:24:00","departure_time":"4:24:00","lat":49.203331,"lon":16.716449,"is_passed":false}],"54102":[{"stop_id":"U1362Z2","name":"Mariánské údolí","arrival_time":"5:01:00","departure_time":"5:01:00","lat":49.20332,"lon":16.71587,"is_passed":false},{"stop_id":"U1497Z2","name":"Podolská","arrival_time":"5:01:00","departure_time":"5:01:00","lat":49.20311,"lon":16.713363,"is_passed":false},{"stop_id":"U1726Z2","name":"Velatická","arrival_time":"5:02:00","departure_time":"5:02:00","lat":49.204666,"lon":16.707253,"is_passed":false},{"stop_id":"U1350Z2","name":"Macháčkova","arrival_time":"5:03:00","departure_time":"5:03:00","lat":49.206174,"lon":16.701931,"is_passed":false},{"stop_id":"U1421Z4","name":"Náměstí Karla IV.","arrival_time":"5:04:00","departure_time":"5:04:00","lat":49.206991,"lon":16.695508,"is_passed":false},{"stop_id":"U1384Z3","name":"Mifkova","arrival_time":"5:05:00","departure_time":"5:05:00","lat":49.20716,"lon":16.692152,"is_passed":false},{"stop_id":"U1208Z5","name":"Jírova","arrival_time":"5:07:00","departure_time":"5:07:00","lat":49.209891,"lon":16.688265,"is_passed":false},{"stop_id":"U1392Z2","name":"Molákova","arrival_time":"5:08:00","departure_time":"5:08:00","lat":49.212602,"lon":16.687063,"is_passed":false},{"stop_id":"U1489Z2","name":"Podbělová","arrival_time":"5:09:00","departure_time":"5:09:00","lat":49.214049,"lon":16.681384,"is_passed":false},{"stop_id":"U1157Z2","name":"Horníkova","arrival_time":"5:10:00","departure_time":"5:10:00","lat":49.211809,"lon":16.67649,"is_passed":false},{"stop_id":"U1103Z2","name":"Elplova","arrival_time":"5:11:00","departure_time":"5:11:00","lat":49.210409,"lon":16.674871,"is_passed":false},{"stop_id":"U1623Z2","name":"Strnadova","arrival_time":"5:12:00","departure_time":"5:12:00","lat":49.205821,"lon":16.668465,"is_passed":false},{"stop_id":"U1551Z2","name":"Růženin dvůr","arrival_time":"5:14:00","departure_time":"5:14:00","lat":49.203263,"lon":16.666525,"is_passed":false},{"stop_id":"U1026Z4","name":"Bílá hora","arrival_time":"5:15:00","departure_time":"5:15:00","lat":49.193975,"lon":16.667677,"is_passed":false},{"stop_id":"U1018Z4","name":"Bělohorská","arrival_time":"5:17:00","departure_time":"5:17:00","lat":49.189904,"lon":16.662135,"is_passed":false},{"stop_id":"U1642Z2","name":"Špačkova","arrival_time":"5:18:00","departure_time":"5:18:00","lat":49.190815,"lon":16.659552,"is_passed":false},{"stop_id":"U1496Z2","name":"Podlomní","arrival_time":"5:19:00","departure_time":"5:19:00","lat":49.192497,"lon":16.654989,"is_passed":false},{"stop_id":"U1082Z2","name":"Dělnický dům","arrival_time":"5:20:00","departure_time":"5:20:00","lat":49.195559,"lon":16.64956,"is_passed":false},{"stop_id":"U1113Z2","name":"Gajdošova","arrival_time":"5:21:00","departure_time":"5:21:00","lat":49.198286,"lon":16.645995,"is_passed":false},{"stop_id":"U1611Z6","name":"Stará osada","arrival_time":"5:23:00","departure_time":"5:23:00","lat":49.201731,"lon":16.642184,"is_passed":false},{"stop_id":"U1809Z1","name":"Židenice, nádraží","arrival_time":"5:25:00","departure_time":"5:25:00","lat":49.20162,"lon":16.635716,"is_passed":false}],"54103":[{"stop_id":"U1809Z3","name":"Židenice, nádraží","arrival_time":"5:31:00","departure_time":"5:31:00","lat":49.203338,"lon":16.636772,"is_passed":false},{"stop_id":"U1611Z8","name":"Stará osada","arrival_time":"5:33:00","departure_time":"5:33:00","lat":49.202294,"lon":16.642001,"is_passed":false},{"stop_id":"U1473Z3","name":"Otakara Ševčíka","arrival_time":"5:35:00","departure_time":"5:35:00","lat":49.194578,"lon":16.646459,"is_passed":false},{"stop_id":"U1641Z2","name":"Škroupova","arrival_time":"5:36:00","departure_time":"5:36:00","lat":49.191985,"lon":16.647843,"is_passed":false},{"stop_id":"U1455Z1","name":"Olomoucká - u školy","arrival_time":"5:38:00","departure_time":"5:38:00","lat":49.186169,"lon":16.652958,"is_passed":false},{"stop_id":"U1665Z1","name":"Těžební","arrival_time":"5:40:00","departure_time":"5:40:00","lat":49.181966,"lon":16.657236,"is_passed":false},{"stop_id":"U1739Z1","name":"Vlastimila Pecha","arrival_time":"5:41:00","departure_time":"5:41:00","lat":49.179379,"lon":16.662741,"is_passed":false},{"stop_id":"U1105Z1","name":"Ericha Roučky","arrival_time":"5:43:00","departure_time":"5:43:00","lat":49.174784,"lon":16.66987,"is_passed":false},{"stop_id":"U1064Z1","name":"Černovická terasa I","arrival_time":"5:44:00","departure_time":"5:44:00","lat":49.171172,"lon":16.673495,"is_passed":false},{"stop_id":"U1065Z1","name":"Černovická terasa II","arrival_time":"5:45:00","departure_time":"5:45:00","lat":49.167108,"lon":16.67608,"is_passed":false},{"stop_id":"U1581Z3","name":"Areál Slatina","arrival_time":"5:47:00","departure_time":"5:47:00","lat":49.168533,"lon":16.678786,"is_passed":false}],"54104":[{"stop_id":"U1581Z1","name":"Areál Slatina","arrival_time":"5:56:00","departure_time":"5:56:00","lat":49.168614,"lon":16.67804,"is_passed":false},{"stop_id":"U1065Z2","name":"Černovická terasa II","arrival_time":"5:56:00","departure_time":"5:56:00","lat":49.168348,"lon":16.675307,"is_passed":false},{"stop_id":"U1064Z2","name":"Černovická terasa I","arrival_time":"5:57:00","departure_time":"5:57:00","lat":49.171843,"lon":16.673091,"is_passed":false},{"stop_id":"U1105Z4","name":"Ericha Roučky","arrival_time":"5:59:00","departure_time":"5:59:00","lat":49.175789,"lon":16.668403,"is_passed":false},{"stop_id":"U1739Z2","name":"Vlastimila Pecha","arrival_time":"6:00:00","departure_time":"6:00:00","lat":49.179751,"lon":16.662407,"is_passed":false},{"stop_id":"U1665Z2","name":"Těžební","arrival_time":"6:01:00","departure_time":"6:01:00","lat":49.182639,"lon":16.656437,"is_passed":false},{"stop_id":"U1455Z2","name":"Olomoucká - u školy","arrival_time":"6:02:00","departure_time":"6:02:00","lat":49.186437,"lon":16.652477,"is_passed":false},{"stop_id":"U1598Z2","name":"Spáčilova","arrival_time":"6:03:00","departure_time":"6:03:00","lat":49.188617,"lon":16.641569,"is_passed":false},{"stop_id":"U1677Z2","name":"Tržní","arrival_time":"6:06:00","departure_time":"6:06:00","lat":49.189407,"lon":16.629972,"is_passed":false},{"stop_id":"U1144Z2","name":"Hladíkova","arrival_time":"6:06:00","departure_time":"6:06:00","lat":49.187865,"lon":16.625741,"is_passed":false},{"stop_id":"U1011Z3","name":"Autobusové nádraží","arrival_time":"6:08:00","departure_time":"6:08:00","lat":49.186909,"lon":16.617974,"is_passed":false},{"stop_id":"U1716Z3","name":"Úzká","arrival_time":"6:11:00","departure_time":"6:12:00","lat":49.189244,"lon":16.613733,"is_passed":false}],"54105":[{"stop_id":"U1696Z2","name":"ÚAN Zvonařka","arrival_time":"6:28:00","departure_time":"6:28:00","lat":49.185257,"lon":16.617821,"is_passed":false},{"stop_id":"U1011Z4","name":"Autobusové nádraží","arrival_time":"6:30:00","departure_time":"6:30:00","lat":49.186887,"lon":16.618479,"is_passed":false},{"stop_id":"U1144Z1","name":"Hladíkova","arrival_time":"6:31:00","departure_time":"6:31:00","lat":49.187682,"lon":16.625353,"is_passed":false},{"stop_id":"U1677Z1","name":"Tržní","arrival_time":"6:33:00","departure_time":"6:33:00","lat":49.189973,"lon":16.632193,"is_passed":false},{"stop_id":"U1641Z1","name":"Škroupova","arrival_time":"6:36:00","departure_time":"6:36:00","lat":49.192022,"lon":16.648112,"is_passed":false},{"stop_id":"U1473Z4","name":"Otakara Ševčíka","arrival_time":"6:37:00","departure_time":"6:37:00","lat":49.194988,"lon":16.646643,"is_passed":false},{"stop_id":"U1113Z2","name":"Gajdošova","arrival_time":"6:38:00","departure_time":"6:38:00","lat":49.198286,"lon":16.645995,"is_passed":false},{"stop_id":"U1611Z8","name":"Stará osada","arrival_time":"6:41:00","departure_time":"6:41:00","lat":49.202294,"lon":16.642001,"is_passed":false},{"stop_id":"U1811Z1","name":"Židenice, kasárna","arrival_time":"6:43:00","departure_time":"6:43:00","lat":49.208445,"lon":16.642414,"is_passed":false},{"stop_id":"U1668Z4","name":"Tomkovo náměstí","arrival_time":"6:46:00","departure_time":"6:46:00","lat":49.214128,"lon":16.634545,"is_passed":false},{"stop_id":"U1381Z2","name":"Merhautova","arrival_time":"6:47:00","departure_time":"6:47:00","lat":49.215,"lon":16.627633,"is_passed":false},{"stop_id":"U1646Z3","name":"Štefánikova čtvrť","arrival_time":"6:48:00","departure_time":"6:48:00","lat":49.216958,"lon":16.627543,"is_passed":false},{"stop_id":"U1331Z1","name":"Lesná, nádraží","arrival_time":"6:49:00","departure_time":"6:49:00","lat":49.220041,"lon":16.629534,"is_passed":false},{"stop_id":"U1506Z1","name":"Poliklinika Lesná","arrival_time":"6:50:00","departure_time":"6:50:00","lat":49.222513,"lon":16.625643,"is_passed":false},{"stop_id":"U1128Z3","name":"Halasovo náměstí","arrival_time":"6:51:00","departure_time":"6:51:00","lat":49.223406,"lon":16.622237,"is_passed":false},{"stop_id":"U1692Z2","name":"U tunýlku","arrival_time":"6:52:00","departure_time":"6:52:00","lat":49.222902,"lon":16.617348,"is_passed":false},{"stop_id":"U1087Z2","name":"Divišova čtvrť","arrival_time":"6:53:00","departure_time":"6:53:00","lat":49.223685,"lon":16.612398,"is_passed":false},{"stop_id":"U1288Z2","name":"Královopolská strojírna","arrival_time":"6:54:00","departure_time":"6:54:00","lat":49.224075,"lon":16.607207,"is_passed":false},{"stop_id":"U1246Z2","name":"Kociánka","arrival_time":"6:55:00","departure_time":"6:55:00","lat":49.225972,"lon":16.601746,"is_passed":false},{"stop_id":"U1286Z4","name":"Královo Pole, nádraží","arrival_time":"6:58:00","departure_time":"6:58:00","lat":49.230229,"lon":16.595629,"is_passed":false},{"stop_id":"U1566Z6","name":"Semilasso","arrival_time":"6:59:00","departure_time":"6:59:00","lat":49.228248,"lon":16.593466,"is_passed":false},{"stop_id":"U1171Z4","name":"Husitská","arrival_time":"7:01:00","departure_time":"7:01:00","lat":49.224063,"lon":16.593994,"is_passed":false},{"stop_id":"U1586Z3","name":"Slovanské náměstí","arrival_time":"7:02:00","departure_time":"7:02:00","lat":49.223525,"lon":16.591009,"is_passed":false},{"stop_id":"U1567Z5","name":"Skácelova","arrival_time":"7:03:00","departure_time":"7:03:00","lat":49.221353,"lon":16.584711,"is_passed":false},{"stop_id":"U1777Z1","name":"Záhřebská","arrival_time":"7:05:00","departure_time":"7:05:00","lat":49.219602,"lon":16.579157,"is_passed":false},{"stop_id":"U1528Z3","name":"Přívrat","arrival_time":"7:06:00","departure_time":"7:06:00","lat":49.218788,"lon":16.574147,"is_passed":false},{"stop_id":"U1544Z3","name":"Rosického náměstí","arrival_time":"7:08:00","departure_time":"7:08:00","lat":49.214882,"lon":16.56907,"is_passed":false},{"stop_id":"U1651Z1","name":"Štursova","arrival_time":"7:09:00","departure_time":"7:09:00","lat":49.216462,"lon":16.563614,"is_passed":false},{"stop_id":"U1143Z1","name":"Hlavní","arrival_time":"7:10:00","departure_time":"7:10:00","lat":49.216836,"lon":16.560198,"is_passed":false},{"stop_id":"U1217Z3","name":"Vozovna Komín","arrival_time":"7:11:00","departure_time":"7:11:00","lat":49.214168,"lon":16.559588,"is_passed":false},{"stop_id":"U1214Z2","name":"Jundrovský most","arrival_time":"7:12:00","departure_time":"7:12:00","lat":49.210699,"lon":16.558163,"is_passed":false},{"stop_id":"U1462Z4","name":"Optátova","arrival_time":"7:13:00","departure_time":"7:13:00","lat":49.208328,"lon":16.555591,"is_passed":false},{"stop_id":"U1216Z2","name":"Jundrov, hřiště","arrival_time":"7:14:00","departure_time":"7:14:00","lat":49.204674,"lon":16.56001,"is_passed":false},{"stop_id":"U1732Z2","name":"Veslařská","arrival_time":"7:15:00","departure_time":"7:15:00","lat":49.20282,"lon":16.564736,"is_passed":false},{"stop_id":"U1490Z2","name":"Pod Jurankou","arrival_time":"7:16:00","departure_time":"7:16:00","lat":49.198955,"lon":16.566182,"is_passed":false},{"stop_id":"U1007Z2","name":"Anthropos","arrival_time":"7:17:00","departure_time":"7:17:00","lat":49.193417,"lon":16.565665,"is_passed":false},{"stop_id":"U1487Z8","name":"Pisárky","arrival_time":"7:19:00","departure_time":"7:19:00","lat":49.193578,"lon":16.569575,"is_passed":false},{"stop_id":"U1541Z1","name":"Riviéra","arrival_time":"7:20:00","departure_time":"7:20:00","lat":49.187168,"lon":16.571915,"is_passed":false},{"stop_id":"U1728Z1","name":"Velodrom","arrival_time":"7:22:00","departure_time":"7:22:00","lat":49.18551,"lon":16.586723,"is_passed":false},{"stop_id":"U1307Z1","name":"Křížkovského","arrival_time":"7:23:00","departure_time":"7:23:00","lat":49.187627,"lon":16.587682,"is_passed":false},{"stop_id":"U1378Z8","name":"Mendlovo náměstí","arrival_time":"7:25:00","departure_time":"7:25:00","lat":49.189768,"lon":16.593426,"is_passed":false},{"stop_id":"U1512Z1","name":"Poříčí","arrival_time":"7:27:00","departure_time":"7:27:00","lat":49.187182,"lon":16.594633,"is_passed":false},{"stop_id":"U1301Z5","name":"Křídlovická","arrival_time":"7:29:00","departure_time":"7:29:00","lat":49.184728,"lon":16.601618,"is_passed":false},{"stop_id":"U1149Z2","name":"Holandská","arrival_time":"7:32:00","departure_time":"7:32:00","lat":49.179934,"lon":16.604368,"is_passed":false},{"stop_id":"U1024Z2","name":"Bidláky","arrival_time":"7:33:00","departure_time":"7:33:00","lat":49.177915,"lon":16.606108,"is_passed":false},{"stop_id":"U1622Z1","name":"Strážní","arrival_time":"7:34:00","departure_time":"7:34:00","lat":49.178207,"lon":16.603976,"is_passed":false},{"stop_id":"U1463Z2","name":"Opuštěná","arrival_time":"7:37:00","departure_time":"7:37:00","lat":49.185245,"lon":16.613024,"is_passed":false},{"stop_id":"U1696Z1","name":"ÚAN Zvonařka","arrival_time":"7:39:00","departure_time":"8:17:00","lat":49.185184,"lon":16.617539,"is_passed":false}],"54106":[{"stop_id":"U1696Z2","name":"ÚAN Zvonařka","arrival_time":"8:17:00","departure_time":"8:17:00","lat":49.185257,"lon":16.617821,"is_passed":false},{"stop_id":"U1011Z4","name":"Autobusové nádraží","arrival_time":"8:19:00","departure_time":"8:19:00","lat":49.186887,"lon":16.618479,"is_passed":false},{"stop_id":"U1144Z1","name":"Hladíkova","arrival_time":"8:20:00","departure_time":"8:20:00","lat":49.187682,"lon":16.625353,"is_passed":false},{"stop_id":"U1677Z1","name":"Tržní","arrival_time":"8:22:00","departure_time":"8:22:00","lat":49.189973,"lon":16.632193,"is_passed":false},{"stop_id":"U1641Z1","name":"Škroupova","arrival_time":"8:25:00","departure_time":"8:25:00","lat":49.192022,"lon":16.648112,"is_passed":false},{"stop_id":"U1473Z4","name":"Otakara Ševčíka","arrival_time":"8:26:00","departure_time":"8:26:00","lat":49.194988,"lon":16.646643,"is_passed":false},{"stop_id":"U1113Z2","name":"Gajdošova","arrival_time":"8:27:00","departure_time":"8:27:00","lat":49.198286,"lon":16.645995,"is_passed":false},{"stop_id":"U1611Z8","name":"Stará osada","arrival_time":"8:30:00","departure_time":"8:30:00","lat":49.202294,"lon":16.642001,"is_passed":false},{"stop_id":"U1811Z1","name":"Židenice, kasárna","arrival_time":"8:32:00","departure_time":"8:32:00","lat":49.208445,"lon":16.642414,"is_passed":false},{"stop_id":"U1668Z4","name":"Tomkovo náměstí","arrival_time":"8:35:00","departure_time":"8:35:00","lat":49.214128,"lon":16.634545,"is_passed":false},{"stop_id":"U1381Z2","name":"Merhautova","arrival_time":"8:36:00","departure_time":"8:36:00","lat":49.215,"lon":16.627633,"is_passed":false},{"stop_id":"U1646Z3","name":"Štefánikova čtvrť","arrival_time":"8:37:00","departure_time":"8:37:00","lat":49.216958,"lon":16.627543,"is_passed":false},{"stop_id":"U1331Z1","name":"Lesná, nádraží","arrival_time":"8:38:00","departure_time":"8:38:00","lat":49.220041,"lon":16.629534,"is_passed":false},{"stop_id":"U1506Z1","name":"Poliklinika Lesná","arrival_time":"8:39:00","departure_time":"8:39:00","lat":49.222513,"lon":16.625643,"is_passed":false},{"stop_id":"U1128Z3","name":"Halasovo náměstí","arrival_time":"8:40:00","departure_time":"8:40:00","lat":49.223406,"lon":16.622237,"is_passed":false},{"stop_id":"U1692Z2","name":"U tunýlku","arrival_time":"8:41:00","departure_time":"8:41:00","lat":49.222902,"lon":16.617348,"is_passed":false},{"stop_id":"U1087Z2","name":"Divišova čtvrť","arrival_time":"8:42:00","departure_time":"8:42:00","lat":49.223685,"lon":16.612398,"is_passed":false},{"stop_id":"U1288Z2","name":"Královopolská strojírna","arrival_time":"8:43:00","departure_time":"8:43:00","lat":49.224075,"lon":16.607207,"is_passed":false},{"stop_id":"U1246Z2","name":"Kociánka","arrival_time":"8:44:00","departure_time":"8:44:00","lat":49.225972,"lon":16.601746,"is_passed":false},{"stop_id":"U1286Z4","name":"Královo Pole, nádraží","arrival_time":"8:47:00","departure_time":"8:47:00","lat":49.230229,"lon":16.595629,"is_passed":false},{"stop_id":"U1566Z6","name":"Semilasso","arrival_time":"8:48:00","departure_time":"8:48:00","lat":49.228248,"lon":16.593466,"is_passed":false},{"stop_id":"U1171Z4","name":"Husitská","arrival_time":"8:50:00","departure_time":"8:50:00","lat":49.224063,"lon":16.593994,"is_passed":false},{"stop_id":"U1586Z3","name":"Slovanské náměstí","arrival_time":"8:51:00","departure_time":"8:51:00","lat":49.223525,"lon":16.591009,"is_passed":false},{"stop_id":"U1567Z5","name":"Skácelova","arrival_time":"8:52:00","departure_time":"8:52:00","lat":49.221353,"lon":16.584711,"is_passed":false},{"stop_id":"U1777Z1","name":"Záhřebská","arrival_time":"8:54:00","departure_time":"8:54:00","lat":49.219602,"lon":16.579157,"is_passed":false},{"stop_id":"U1528Z3","name":"Přívrat","arrival_time":"8:55:00","departure_time":"8:55:00","lat":49.218788,"lon":16.574147,"is_passed":false},{"stop_id":"U1544Z3","name":"Rosického náměstí","arrival_time":"8:57:00","departure_time":"8:57:00","lat":49.214882,"lon":16.56907,"is_passed":false},{"stop_id":"U1651Z1","name":"Štursova","arrival_time":"8:58:00","departure_time":"8:58:00","lat":49.216462,"lon":16.563614,"is_passed":false},{"stop_id":"U1143Z1","name":"Hlavní","arrival_time":"8:59:00","departure_time":"8:59:00","lat":49.216836,"lon":16.560198,"is_passed":false},{"stop_id":"U1217Z3","name":"Vozovna Komín","arrival_time":"9:00:00","departure_time":"9:00:00","lat":49.214168,"lon":16.559588,"is_passed":false},{"stop_id":"U1214Z2","name":"Jundrovský most","arrival_time":"9:01:00","departure_time":"9:01:00","lat":49.210699,"lon":16.558163,"is_passed":false},{"stop_id":"U1462Z4","name":"Optátova","arrival_time":"9:02:00","departure_time":"9:02:00","lat":49.208328,"lon":16.555591,"is_passed":false},{"stop_id":"U1216Z2","name":"Jundrov, hřiště","arrival_time":"9:03:00","departure_time":"9:03:00","lat":49.204674,"lon":16.56001,"is_passed":false},{"stop_id":"U1732Z2","name":"Veslařská","arrival_time":"9:04:00","departure_time":"9:04:00","lat":49.20282,"lon":16.564736,"is_passed":false},{"stop_id":"U1490Z2","name":"Pod Jurankou","arrival_time":"9:05:00","departure_time":"9:05:00","lat":49.198955,"lon":16.566182,"is_passed":false},{"stop_id":"U1007Z2","name":"Anthropos","arrival_time":"9:06:00","departure_time":"9:06:00","lat":49.193417,"lon":16.565665,"is_passed":false},{"stop_id":"U1487Z8","name":"Pisárky","arrival_time":"9:08:00","departure_time":"9:08:00","lat":49.193578,"lon":16.569575,"is_passed":false},{"stop_id":"U1541Z1","name":"Riviéra","arrival_time":"9:09:00","departure_time":"9:09:00","lat":49.187168,"lon":16.571915,"is_passed":false},{"stop_id":"U1728Z1","name":"Velodrom","arrival_time":"9:11:00","departure_time":"9:11:00","lat":49.18551,"lon":16.586723,"is_passed":false},{"stop_id":"U1307Z1","name":"Křížkovského","arrival_time":"9:12:00","departure_time":"9:12:00","lat":49.187627,"lon":16.587682,"is_passed":false},{"stop_id":"U1378Z8","name":"Mendlovo náměstí","arrival_time":"9:14:00","departure_time":"9:14:00","lat":49.189768,"lon":16.593426,"is_passed":false},{"stop_id":"U1512Z1","name":"Poříčí","arrival_time":"9:16:00","departure_time":"9:16:00","lat":49.187182,"lon":16.594633,"is_passed":false},{"stop_id":"U1301Z5","name":"Křídlovická","arrival_time":"9:18:00","departure_time":"9:18:00","lat":49.184728,"lon":16.601618,"is_passed":false},{"stop_id":"U1149Z2","name":"Holandská","arrival_time":"9:21:00","departure_time":"9:21:00","lat":49.179934,"lon":16.604368,"is_passed":false},{"stop_id":"U1024Z2","name":"Bidláky","arrival_time":"9:22:00","departure_time":"9:22:00","lat":49.177915,"lon":16.606108,"is_passed":false},{"stop_id":"U1622Z1","name":"Strážní","arrival_time":"9:23:00","departure_time":"9:23:00","lat":49.178207,"lon":16.603976,"is_passed":false},{"stop_id":"U1463Z2","name":"Opuštěná","arrival_time":"9:26:00","departure_time":"9:26:00","lat":49.185245,"lon":16.613024,"is_passed":false},{"stop_id":"U1696Z1","name":"ÚAN Zvonařka","arrival_time":"9:28:00","departure_time":"9:32:00","lat":49.185184,"lon":16.617539,"is_passed":false}],"54107":[{"stop_id":"U1208Z3","name":"Jírova","arrival_time":"22:35:00","departure_time":"22:35:00","lat":49.208886,"lon":16.687979,"is_passed":false},{"stop_id":"U1546Z2","name":"Rotreklova","arrival_time":"22:35:00","departure_time":"22:35:00","lat":49.206534,"lon":16.684689,"is_passed":false},{"stop_id":"U1012Z2","name":"Bartákova","arrival_time":"22:36:00","departure_time":"22:36:00","lat":49.204255,"lon":16.679185,"is_passed":false},{"stop_id":"U1438Z4","name":"Novolíšeňská","arrival_time":"22:37:00","departure_time":"22:37:00","lat":49.201792,"lon":16.670352,"is_passed":false},{"stop_id":"U1058Z2","name":"Čejkovická","arrival_time":"22:38:00","departure_time":"22:38:00","lat":49.200493,"lon":16.661793,"is_passed":false},{"stop_id":"U1477Z2","name":"Pálavské náměstí","arrival_time":"22:41:00","departure_time":"22:41:00","lat":49.20538,"lon":16.658103,"is_passed":false},{"stop_id":"U1052Z2","name":"Bzenecká","arrival_time":"22:42:00","departure_time":"22:42:00","lat":49.205822,"lon":16.661645,"is_passed":false},{"stop_id":"U1523Z2","name":"Prušánecká","arrival_time":"22:43:00","departure_time":"22:43:00","lat":49.209503,"lon":16.663369,"is_passed":false},{"stop_id":"U1743Z2","name":"Vlčnovská","arrival_time":"22:43:00","departure_time":"22:43:00","lat":49.211166,"lon":16.659638,"is_passed":false},{"stop_id":"U1002Z2","name":"Akátky","arrival_time":"22:44:00","departure_time":"22:44:00","lat":49.208751,"lon":16.648718,"is_passed":false},{"stop_id":"U1698Z2","name":"Údolíček","arrival_time":"22:44:00","departure_time":"22:44:00","lat":49.206553,"lon":16.643865,"is_passed":false},{"stop_id":"U1631Z1","name":"Svatoplukova","arrival_time":"22:45:00","departure_time":"22:45:00","lat":49.2051,"lon":16.641425,"is_passed":false},{"stop_id":"U1611Z6","name":"Stará osada","arrival_time":"22:47:00","departure_time":"22:47:00","lat":49.201731,"lon":16.642184,"is_passed":false},{"stop_id":"U1313Z2","name":"Kuldova","arrival_time":"22:48:00","departure_time":"22:48:00","lat":49.201319,"lon":16.634551,"is_passed":false},{"stop_id":"U1773Z2","name":"Vojenská nemocnice","arrival_time":"22:49:00","departure_time":"22:49:00","lat":49.202306,"lon":16.62966,"is_passed":false},{"stop_id":"U1663Z2","name":"Tkalcovská","arrival_time":"22:50:00","departure_time":"22:50:00","lat":49.199805,"lon":16.625934,"is_passed":false},{"stop_id":"U1271Z2","name":"Körnerova","arrival_time":"22:51:00","departure_time":"22:51:00","lat":49.198152,"lon":16.619504,"is_passed":false},{"stop_id":"U1357Z1","name":"Malinovského náměstí","arrival_time":"22:53:00","departure_time":"22:53:00","lat":49.195492,"lon":16.61386,"is_passed":false},{"stop_id":"U1146Z3","name":"Hlavní nádraží","arrival_time":"22:56:00","departure_time":"23:00:00","lat":49.191063,"lon":16.611972,"is_passed":false},{"stop_id":"U1637Z2","name":"Šilingrovo náměstí","arrival_time":"23:01:00","departure_time":"23:01:00","lat":49.192027,"lon":16.605234,"is_passed":false},{"stop_id":"U1073Z4","name":"Česká","arrival_time":"23:03:00","departure_time":"23:03:00","lat":49.198134,"lon":16.605041,"is_passed":false},{"stop_id":"U1121Z1","name":"Grohova","arrival_time":"23:04:00","departure_time":"23:04:00","lat":49.201153,"lon":16.599729,"is_passed":false},{"stop_id":"U1262Z1","name":"Konečného náměstí","arrival_time":"23:05:00","departure_time":"23:05:00","lat":49.204484,"lon":16.595426,"is_passed":false},{"stop_id":"U1431Z1","name":"Nerudova","arrival_time":"23:06:00","departure_time":"23:06:00","lat":49.206566,"lon":16.595654,"is_passed":false},{"stop_id":"U1242Z1","name":"Klusáčkova","arrival_time":"23:07:00","departure_time":"23:07:00","lat":49.212365,"lon":16.592666,"is_passed":false},{"stop_id":"U1661Z1","name":"Tererova","arrival_time":"23:08:00","departure_time":"23:08:00","lat":49.21589,"lon":16.589173,"is_passed":false},{"stop_id":"U1088Z1","name":"Dobrovského","arrival_time":"23:09:00","departure_time":"23:09:00","lat":49.217769,"lon":16.587876,"is_passed":false},{"stop_id":"U1567Z1","name":"Skácelova","arrival_time":"23:10:00","departure_time":"23:10:00","lat":49.221886,"lon":16.585096,"is_passed":false},{"stop_id":"U1072Z1","name":"Červinkova","arrival_time":"23:11:00","departure_time":"23:11:00","lat":49.22545,"lon":16.582624,"is_passed":false},{"stop_id":"U1664Z1","name":"Technické muzeum","arrival_time":"23:12:00","departure_time":"23:12:00","lat":49.228047,"lon":16.582285,"is_passed":false},{"stop_id":"U1104Z1","name":"Edisonova","arrival_time":"23:13:00","departure_time":"23:13:00","lat":49.22828,"lon":16.576461,"is_passed":false},{"stop_id":"U1252Z2","name":"Kolejní","arrival_time":"23:14:00","departure_time":"23:14:00","lat":49.230641,"lon":16.57191,"is_passed":false},{"stop_id":"U1733Z1","name":"Vědeckotechnický park","arrival_time":"23:15:00","departure_time":"23:15:00","lat":49.2326,"lon":16.574806,"is_passed":false},{"stop_id":"U1659Z3","name":"Technologický park","arrival_time":"23:16:00","departure_time":"23:40:00","lat":49.23192,"lon":16.576848,"is_passed":false}],"54108":[{"stop_id":"U1659Z4","name":"Technologický park","arrival_time":"23:40:00","departure_time":"23:40:00","lat":49.231509,"lon":16.576781,"is_passed":false},{"stop_id":"U1664Z2","name":"Technické muzeum","arrival_time":"23:41:00","departure_time":"23:41:00","lat":49.228605,"lon":16.582096,"is_passed":false},{"stop_id":"U1072Z2","name":"Červinkova","arrival_time":"23:42:00","departure_time":"23:42:00","lat":49.223442,"lon":16.583855,"is_passed":false},{"stop_id":"U1567Z2","name":"Skácelova","arrival_time":"23:43:00","departure_time":"23:43:00","lat":49.221651,"lon":16.585163,"is_passed":false},{"stop_id":"U1088Z2","name":"Dobrovského","arrival_time":"23:44:00","departure_time":"23:44:00","lat":49.218351,"lon":16.587423,"is_passed":false},{"stop_id":"U1661Z2","name":"Tererova","arrival_time":"23:44:00","departure_time":"23:44:00","lat":49.215675,"lon":16.589238,"is_passed":false},{"stop_id":"U1242Z2","name":"Klusáčkova","arrival_time":"23:45:00","departure_time":"23:45:00","lat":49.211903,"lon":16.592875,"is_passed":false},{"stop_id":"U1431Z2","name":"Nerudova","arrival_time":"23:46:00","departure_time":"23:46:00","lat":49.205983,"lon":16.595174,"is_passed":false},{"stop_id":"U1262Z2","name":"Konečného náměstí","arrival_time":"23:48:00","departure_time":"23:48:00","lat":49.203961,"lon":16.596051,"is_passed":false},{"stop_id":"U1121Z2","name":"Grohova","arrival_time":"23:49:00","departure_time":"23:49:00","lat":49.201327,"lon":16.59934,"is_passed":false},{"stop_id":"U1073Z3","name":"Česká","arrival_time":"23:51:00","departure_time":"23:51:00","lat":49.197742,"lon":16.605147,"is_passed":false},{"stop_id":"U1637Z1","name":"Šilingrovo náměstí","arrival_time":"23:53:00","departure_time":"23:53:00","lat":49.19171,"lon":16.605355,"is_passed":false},{"stop_id":"U1146Z4","name":"Hlavní nádraží","arrival_time":"23:56:00","departure_time":"24:00:00","lat":49.19125,"lon":16.612674,"is_passed":false},{"stop_id":"U1357Z2","name":"Malinovského náměstí","arrival_time":"24:01:00","departure_time":"24:01:00","lat":49.195034,"lon":16.614825,"is_passed":false},{"stop_id":"U1271Z1","name":"Körnerova","arrival_time":"24:02:00","departure_time":"24:02:00","lat":49.19828,"lon":16.619945,"is_passed":false},{"stop_id":"U1663Z1","name":"Tkalcovská","arrival_time":"24:03:00","departure_time":"24:03:00","lat":49.200261,"lon":16.626109,"is_passed":false},{"stop_id":"U1773Z1","name":"Vojenská nemocnice","arrival_time":"24:04:00","departure_time":"24:04:00","lat":49.202244,"lon":16.629717,"is_passed":false},{"stop_id":"U1313Z1","name":"Kuldova","arrival_time":"24:05:00","departure_time":"24:05:00","lat":49.201297,"lon":16.634306,"is_passed":false},{"stop_id":"U1611Z8","name":"Stará osada","arrival_time":"24:06:00","departure_time":"24:06:00","lat":49.202294,"lon":16.642001,"is_passed":false},{"stop_id":"U1698Z1","name":"Údolíček","arrival_time":"24:07:00","departure_time":"24:07:00","lat":49.206732,"lon":16.644592,"is_passed":false},{"stop_id":"U1002Z1","name":"Akátky","arrival_time":"24:08:00","departure_time":"24:08:00","lat":49.208518,"lon":16.648742,"is_passed":false},{"stop_id":"U1743Z1","name":"Vlčnovská","arrival_time":"24:09:00","departure_time":"24:09:00","lat":49.210995,"lon":16.660327,"is_passed":false},{"stop_id":"U1523Z1","name":"Prušánecká","arrival_time":"24:10:00","departure_time":"24:10:00","lat":49.20827,"lon":16.663465,"is_passed":false},{"stop_id":"U1052Z1","name":"Bzenecká","arrival_time":"24:11:00","departure_time":"24:11:00","lat":49.206117,"lon":16.660595,"is_passed":false},{"stop_id":"U1477Z3","name":"Pálavské náměstí","arrival_time":"24:12:00","departure_time":"24:12:00","lat":49.20612,"lon":16.657683,"is_passed":false},{"stop_id":"U1403Z1","name":"Mutěnická","arrival_time":"24:13:00","departure_time":"24:13:00","lat":49.20299,"lon":16.654796,"is_passed":false},{"stop_id":"U1036Z1","name":"Bořetická","arrival_time":"24:13:00","departure_time":"24:13:00","lat":49.201326,"lon":16.659292,"is_passed":false},{"stop_id":"U1058Z1","name":"Čejkovická","arrival_time":"24:14:00","departure_time":"24:14:00","lat":49.200178,"lon":16.662528,"is_passed":false},{"stop_id":"U1438Z3","name":"Novolíšeňská","arrival_time":"24:15:00","departure_time":"24:15:00","lat":49.201692,"lon":16.670699,"is_passed":false},{"stop_id":"U1012Z1","name":"Bartákova","arrival_time":"24:16:00","departure_time":"24:16:00","lat":49.203714,"lon":16.678742,"is_passed":false},{"stop_id":"U1546Z1","name":"Rotreklova","arrival_time":"24:17:00","departure_time":"24:17:00","lat":49.2066,"lon":16.685331,"is_passed":false},{"stop_id":"U1208Z6","name":"Jírova","arrival_time":"24:19:00","departure_time":"24:35:00","lat":49.209179,"lon":16.688685,"is_passed":false}],"54109":[{"stop_id":"U1208Z3","name":"Jírova","arrival_time":"0:35:00","departure_time":"0:35:00","lat":49.208886,"lon":16.687979,"is_passed":false},{"stop_id":"U1546Z2","name":"Rotreklova","arrival_time":"0:35:00","departure_time":"0:35:00","lat":49.206534,"lon":16.684689,"is_passed":false},{"stop_id":"U1012Z2","name":"Bartákova","arrival_time":"0:36:00","departure_time":"0:36:00","lat":49.204255,"lon":16.679185,"is_passed":false},{"stop_id":"U1438Z4","name":"Novolíšeňská","arrival_time":"0:37:00","departure_time":"0:37:00","lat":49.201792,"lon":16.670352,"is_passed":false},{"stop_id":"U1058Z2","name":"Čejkovická","arrival_time":"0:38:00","departure_time":"0:38:00","lat":49.200493,"lon":16.661793,"is_passed":false},{"stop_id":"U1477Z2","name":"Pálavské náměstí","arrival_time":"0:41:00","departure_time":"0:41:00","lat":49.20538,"lon":16.658103,"is_passed":false},{"stop_id":"U1052Z2","name":"Bzenecká","arrival_time":"0:42:00","departure_time":"0:42:00","lat":49.205822,"lon":16.661645,"is_passed":false},{"stop_id":"U1523Z2","name":"Prušánecká","arrival_time":"0:43:00","departure_time":"0:43:00","lat":49.209503,"lon":16.663369,"is_passed":false},{"stop_id":"U1743Z2","name":"Vlčnovská","arrival_time":"0:43:00","departure_time":"0:43:00","lat":49.211166,"lon":16.659638,"is_passed":false},{"stop_id":"U1002Z2","name":"Akátky","arrival_time":"0:44:00","departure_time":"0:44:00","lat":49.208751,"lon":16.648718,"is_passed":false},{"stop_id":"U1698Z2","name":"Údolíček","arrival_time":"0:44:00","departure_time":"0:44:00","lat":49.206553,"lon":16.643865,"is_passed":false},{"stop_id":"U1631Z1","name":"Svatoplukova","arrival_time":"0:45:00","departure_time":"0:45:00","lat":49.2051,"lon":16.641425,"is_passed":false},{"stop_id":"U1611Z6","name":"Stará osada","arrival_time":"0:47:00","departure_time":"0:47:00","lat":49.201731,"lon":16.642184,"is_passed":false},{"stop_id":"U1313Z2","name":"Kuldova","arrival_time":"0:48:00","departure_time":"0:48:00","lat":49.201319,"lon":16.634551,"is_passed":false},{"stop_id":"U1773Z2","name":"Vojenská nemocnice","arrival_time":"0:49:00","departure_time":"0:49:00","lat":49.202306,"lon":16.62966,"is_passed":false},{"stop_id":"U1663Z2","name":"Tkalcovská","arrival_time":"0:50:00","departure_time":"0:50:00","lat":49.199805,"lon":16.625934,"is_passed":false},{"stop_id":"U1271Z2","name":"Körnerova","arrival_time":"0:51:00","departure_time":"0:51:00","lat":49.198152,"lon":16.619504,"is_passed":false},{"stop_id":"U1357Z1","name":"Malinovského náměstí","arrival_time":"0:53:00","departure_time":"0:53:00","lat":49.195492,"lon":16.61386,"is_passed":false},{"stop_id":"U1146Z3","name":"Hlavní nádraží","arrival_time":"0:56:00","departure_time":"1:00:00","lat":49.191063,"lon":16.611972,"is_passed":false},{"stop_id":"U1637Z2","name":"Šilingrovo náměstí","arrival_time":"1:01:00","departure_time":"1:01:00","lat":49.192027,"lon":16.605234,"is_passed":false},{"stop_id":"U1073Z4","name":"Česká","arrival_time":"1:03:00","departure_time":"1:03:00","lat":49.198134,"lon":16.605041,"is_passed":false},{"stop_id":"U1121Z1","name":"Grohova","arrival_time":"1:04:00","departure_time":"1:04:00","lat":49.201153,"lon":16.599729,"is_passed":false},{"stop_id":"U1262Z1","name":"Konečného náměstí","arrival_time":"1:05:00","departure_time":"1:05:00","lat":49.204484,"lon":16.595426,"is_passed":false},{"stop_id":"U1431Z1","name":"Nerudova","arrival_time":"1:06:00","departure_time":"1:06:00","lat":49.206566,"lon":16.595654,"is_passed":false},{"stop_id":"U1242Z1","name":"Klusáčkova","arrival_time":"1:07:00","departure_time":"1:07:00","lat":49.212365,"lon":16.592666,"is_passed":false},{"stop_id":"U1661Z1","name":"Tererova","arrival_time":"1:08:00","departure_time":"1:08:00","lat":49.21589,"lon":16.589173,"is_passed":false},{"stop_id":"U1088Z1","name":"Dobrovského","arrival_time":"1:09:00","departure_time":"1:09:00","lat":49.217769,"lon":16.587876,"is_passed":false},{"stop_id":"U1567Z1","name":"Skácelova","arrival_time":"1:10:00","departure_time":"1:10:00","lat":49.221886,"lon":16.585096,"is_passed":false},{"stop_id":"U1072Z1","name":"Červinkova","arrival_time":"1:11:00","departure_time":"1:11:00","lat":49.22545,"lon":16.582624,"is_passed":false},{"stop_id":"U1664Z1","name":"Technické muzeum","arrival_time":"1:12:00","departure_time":"1:12:00","lat":49.228047,"lon":16.582285,"is_passed":false},{"stop_id":"U1104Z1","name":"Edisonova","arrival_time":"1:13:00","departure_time":"1:13:00","lat":49.22828,"lon":16.576461,"is_passed":false},{"stop_id":"U1252Z2","name":"Kolejní","arrival_time":"1:14:00","departure_time":"1:14:00","lat":49.230641,"lon":16.57191,"is_passed":false},{"stop_id":"U1733Z1","name":"Vědeckotechnický park","arrival_time":"1:15:00","departure_time":"1:15:00","lat":49.2326,"lon":16.574806,"is_passed":false},{"stop_id":"U1659Z3","name":"Technologický park","arrival_time":"1:16:00","departure_time":"2:40:00","lat":49.23192,"lon":16.576848,"is_passed":false}],"54110":[{"stop_id":"U1659Z4","name":"Technologický park","arrival_time":"2:40:00","departure_time":"2:40:00","lat":49.231509,"lon":16.576781,"is_passed":false},{"stop_id":"U1664Z2","name":"Technické muzeum","arrival_time":"2:41:00","departure_time":"2:41:00","lat":49.228605,"lon":16.582096,"is_passed":false},{"stop_id":"U1072Z2","name":"Červinkova","arrival_time":"2:42:00","departure_time":"2:42:00","lat":49.223442,"lon":16.583855,"is_passed":false},{"stop_id":"U1567Z2","name":"Skácelova","arrival_time":"2:43:00","departure_time":"2:43:00","lat":49.221651,"lon":16.585163,"is_passed":false},{"stop_id":"U1088Z2","name":"Dobrovského","arrival_time":"2:44:00","departure_time":"2:44:00","lat":49.218351,"lon":16.587423,"is_passed":false},{"stop_id":"U1661Z2","name":"Tererova","arrival_time":"2:44:00","departure_time":"2:44:00","lat":49.215675,"lon":16.589238,"is_passed":false},{"stop_id":"U1242Z2","name":"Klusáčkova","arrival_time":"2:45:00","departure_time":"2:45:00","lat":49.211903,"lon":16.592875,"is_passed":false},{"stop_id":"U1431Z2","name":"Nerudova","arrival_time":"2:46:00","departure_time":"2:46:00","lat":49.205983,"lon":16.595174,"is_passed":false},{"stop_id":"U1262Z2","name":"Konečného náměstí","arrival_time":"2:48:00","departure_time":"2:48:00","lat":49.203961,"lon":16.596051,"is_passed":false},{"stop_id":"U1121Z2","name":"Grohova","arrival_time":"2:49:00","departure_time":"2:49:00","lat":49.201327,"lon":16.59934,"is_passed":false},{"stop_id":"U1073Z3","name":"Česká","arrival_time":"2:51:00","departure_time":"2:51:00","lat":49.197742,"lon":16.605147,"is_passed":false},{"stop_id":"U1637Z1","name":"Šilingrovo náměstí","arrival_time":"2:53:00","departure_time":"2:53:00","lat":49.19171,"lon":16.605355,"is_passed":false},{"stop_id":"U1146Z4","name":"Hlavní nádraží","arrival_time":"2:56:00","departure_time":"3:00:00","lat":49.19125,"lon":16.612674,"is_passed":false},{"stop_id":"U1357Z2","name":"Malinovského náměstí","arrival_time":"3:01:00","departure_time":"3:01:00","lat":49.195034,"lon":16.614825,"is_passed":false},{"stop_id":"U1271Z1","name":"Körnerova","arrival_time":"3:02:00","departure_time":"3:02:00","lat":49.19828,"lon":16.619945,"is_passed":false},{"stop_id":"U1663Z1","name":"Tkalcovská","arrival_time":"3:03:00","departure_time":"3:03:00","lat":49.200261,"lon":16.626109,"is_passed":false},{"stop_id":"U1773Z1","name":"Vojenská nemocnice","arrival_time":"3:04:00","departure_time":"3:04:00","lat":49.202244,"lon":16.629717,"is_passed":false},{"stop_id":"U1313Z1","name":"Kuldova","arrival_time":"3:05:00","departure_time":"3:05:00","lat":49.201297,"lon":16.634306,"is_passed":false},{"stop_id":"U1611Z8","name":"Stará osada","arrival_time":"3:06:00","departure_time":"3:06:00","lat":49.202294,"lon":16.642001,"is_passed":false},{"stop_id":"U1698Z1","name":"Údolíček","arrival_time":"3:07:00","departure_time":"3:07:00","lat":49.206732,"lon":16.644592,"is_passed":false},{"stop_id":"U1002Z1","name":"Akátky","arrival_time":"3:08:00","departure_time":"3:08:00","lat":49.208518,"lon":16.648742,"is_passed":false},{"stop_id":"U1743Z1","name":"Vlčnovská","arrival_time":"3:09:00","departure_time":"3:09:00","lat":49.210995,"lon":16.660327,"is_passed":false},{"stop_id":"U1523Z1","name":"Prušánecká","arrival_time":"3:10:00","departure_time":"3:10:00","lat":49.20827,"lon":16.663465,"is_passed":false},{"stop_id":"U1052Z1","name":"Bzenecká","arrival_time":"3:11:00","departure_time":"3:11:00","lat":49.206117,"lon":16.660595,"is_passed":false},{"stop_id":"U1477Z3","name":"Pálavské náměstí","arrival_time":"3:12:00","departure_time":"3:12:00","lat":49.20612,"lon":16.657683,"is_passed":false},{"stop_id":"U1403Z1","name":"Mutěnická","arrival_time":"3:13:00","departure_time":"3:13:00","lat":49.20299,"lon":16.654796,"is_passed":false},{"stop_id":"U1036Z1","name":"Bořetická","arrival_time":"3:13:00","departure_time":"3:13:00","lat":49.201326,"lon":16.659292,"is_passed":false},{"stop_id":"U1058Z1","name":"Čejkovická","arrival_time":"3:14:00","departure_time":"3:14:00","lat":49.200178,"lon":16.662528,"is_passed":false},{"stop_id":"U1438Z3","name":"Novolíšeňská","arrival_time":"3:15:00","departure_time":"3:15:00","lat":49.201692,"lon":16.670699,"is_passed":false},{"stop_id":"U1012Z1","name":"Bartákova","arrival_time":"3:16:00","departure_time":"3:16:00","lat":49.203714,"lon":16.678742,"is_passed":false},{"stop_id":"U1546Z1","name":"Rotreklova","arrival_time":"3:17:00","departure_time":"3:17:00","lat":49.2066,"lon":16.685331,"is_passed":false},{"stop_id":"U1208Z6","name":"Jírova","arrival_time":"3:19:00","departure_time":"3:35:00","lat":49.209179,"lon":16.688685,"is_passed":false}],"54111":[{"stop_id":"U1208Z3","name":"Jírova","arrival_time":"3:35:00","departure_time":"3:35:00","lat":49.208886,"lon":16.687979,"is_passed":false},{"stop_id":"U1546Z2","name":"Rotreklova","arrival_time":"3:35:00","departure_time":"3:35:00","lat":49.206534,"lon":16.684689,"is_passed":false},{"stop_id":"U1012Z2","name":"Bartákova","arrival_time":"3:36:00","departure_time":"3:36:00","lat":49.204255,"lon":16.679185,"is_passed":false},{"stop_id":"U1438Z4","name":"Novolíšeňská","arrival_time":"3:37:00","departure_time":"3:37:00","lat":49.201792,"lon":16.670352,"is_passed":false},{"stop_id":"U1058Z2","name":"Čejkovická","arrival_time":"3:38:00","departure_time":"3:38:00","lat":49.200493,"lon":16.661793,"is_passed":false},{"stop_id":"U1477Z2","name":"Pálavské náměstí","arrival_time":"3:41:00","departure_time":"3:41:00","lat":49.20538,"lon":16.658103,"is_passed":false},{"stop_id":"U1052Z2","name":"Bzenecká","arrival_time":"3:42:00","departure_time":"3:42:00","lat":49.205822,"lon":16.661645,"is_passed":false},{"stop_id":"U1523Z2","name":"Prušánecká","arrival_time":"3:43:00","departure_time":"3:43:00","lat":49.209503,"lon":16.663369,"is_passed":false},{"stop_id":"U1743Z2","name":"Vlčnovská","arrival_time":"3:43:00","departure_time":"3:43:00","lat":49.211166,"lon":16.659638,"is_passed":false},{"stop_id":"U1002Z2","name":"Akátky","arrival_time":"3:44:00","departure_time":"3:44:00","lat":49.208751,"lon":16.648718,"is_passed":false},{"stop_id":"U1698Z2","name":"Údolíček","arrival_time":"3:44:00","departure_time":"3:44:00","lat":49.206553,"lon":16.643865,"is_passed":false},{"stop_id":"U1631Z1","name":"Svatoplukova","arrival_time":"3:45:00","departure_time":"3:45:00","lat":49.2051,"lon":16.641425,"is_passed":false},{"stop_id":"U1611Z6","name":"Stará osada","arrival_time":"3:47:00","departure_time":"3:47:00","lat":49.201731,"lon":16.642184,"is_passed":false},{"stop_id":"U1313Z2","name":"Kuldova","arrival_time":"3:48:00","departure_time":"3:48:00","lat":49.201319,"lon":16.634551,"is_passed":false},{"stop_id":"U1773Z2","name":"Vojenská nemocnice","arrival_time":"3:49:00","departure_time":"3:49:00","lat":49.202306,"lon":16.62966,"is_passed":false},{"stop_id":"U1663Z2","name":"Tkalcovská","arrival_time":"3:50:00","departure_time":"3:50:00","lat":49.199805,"lon":16.625934,"is_passed":false},{"stop_id":"U1271Z2","name":"Körnerova","arrival_time":"3:51:00","departure_time":"3:51:00","lat":49.198152,"lon":16.619504,"is_passed":false},{"stop_id":"U1357Z1","name":"Malinovského náměstí","arrival_time":"3:53:00","departure_time":"3:53:00","lat":49.195492,"lon":16.61386,"is_passed":false},{"stop_id":"U1146Z3","name":"Hlavní nádraží","arrival_time":"3:56:00","departure_time":"4:00:00","lat":49.191063,"lon":16.611972,"is_passed":false},{"stop_id":"U1637Z2","name":"Šilingrovo náměstí","arrival_time":"4:01:00","departure_time":"4:01:00","lat":49.192027,"lon":16.605234,"is_passed":false},{"stop_id":"U1073Z4","name":"Česká","arrival_time":"4:03:00","departure_time":"4:03:00","lat":49.198134,"lon":16.605041,"is_passed":false},{"stop_id":"U1121Z1","name":"Grohova","arrival_time":"4:04:00","departure_time":"4:04:00","lat":49.201153,"lon":16.599729,"is_passed":false},{"stop_id":"U1262Z1","name":"Konečného náměstí","arrival_time":"4:05:00","departure_time":"4:05:00","lat":49.204484,"lon":16.595426,"is_passed":false},{"stop_id":"U1431Z1","name":"Nerudova","arrival_time":"4:06:00","departure_time":"4:06:00","lat":49.206566,"lon":16.595654,"is_passed":false},{"stop_id":"U1242Z1","name":"Klusáčkova","arrival_time":"4:07:00","departure_time":"4:07:00","lat":49.212365,"lon":16.592666,"is_passed":false},{"stop_id":"U1661Z1","name":"Tererova","arrival_time":"4:08:00","departure_time":"4:08:00","lat":49.21589,"lon":16.589173,"is_passed":false},{"stop_id":"U1088Z1","name":"Dobrovského","arrival_time":"4:09:00","departure_time":"4:09:00","lat":49.217769,"lon":16.587876,"is_passed":false},{"stop_id":"U1567Z1","name":"Skácelova","arrival_time":"4:10:00","departure_time":"4:10:00","lat":49.221886,"lon":16.585096,"is_passed":false},{"stop_id":"U1072Z1","name":"Červinkova","arrival_time":"4:11:00","departure_time":"4:11:00","lat":49.22545,"lon":16.582624,"is_passed":false},{"stop_id":"U1664Z1","name":"Technické muzeum","arrival_time":"4:12:00","departure_time":"4:12:00","lat":49.228047,"lon":16.582285,"is_passed":false},{"stop_id":"U1104Z1","name":"Edisonova","arrival_time":"4:13:00","departure_time":"4:13:00","lat":49.22828,"lon":16.576461,"is_passed":false},{"stop_id":"U1252Z2","name":"Kolejní","arrival_time":"4:14:00","departure_time":"4:14:00","lat":49.230641,"lon":16.57191,"is_passed":false},{"stop_id":"U1733Z1","name":"Vědeckotechnický park","arrival_time":"4:15:00","departure_time":"4:15:00","lat":49.2326,"lon":16.574806,"is_passed":false},{"stop_id":"U1659Z3","name":"Technologický park","arrival_time":"4:16:00","departure_time":"4:40:00","lat":49.23192,"lon":16.576848,"is_passed":false}],"54112":[{"stop_id":"U1659Z4","name":"Technologický park","arrival_time":"4:40:00","departure_time":"4:40:00","lat":49.231509,"lon":16.576781,"is_passed":false},{"stop_id":"U1664Z2","name":"Technické muzeum","arrival_time":"4:41:00","departure_time":"4:41:00","lat":49.228605,"lon":16.582096,"is_passed":false},{"stop_id":"U1072Z2","name":"Červinkova","arrival_time":"4:42:00","departure_time":"4:42:00","lat":49.223442,"lon":16.583855,"is_passed":false},{"stop_id":"U1567Z2","name":"Skácelova","arrival_time":"4:43:00","departure_time":"4:43:00","lat":49.221651,"lon":16.585163,"is_passed":false},{"stop_id":"U1088Z2","name":"Dobrovského","arrival_time":"4:44:00","departure_time":"4:44:00","lat":49.218351,"lon":16.587423,"is_passed":false},{"stop_id":"U1661Z2","name":"Tererova","arrival_time":"4:44:00","departure_time":"4:44:00","lat":49.215675,"lon":16.589238,"is_passed":false},{"stop_id":"U1242Z2","name":"Klusáčkova","arrival_time":"4:45:00","departure_time":"4:45:00","lat":49.211903,"lon":16.592875,"is_passed":false},{"stop_id":"U1431Z2","name":"Nerudova","arrival_time":"4:46:00","departure_time":"4:46:00","lat":49.205983,"lon":16.595174,"is_passed":false},{"stop_id":"U1262Z2","name":"Konečného náměstí","arrival_time":"4:48:00","departure_time":"4:48:00","lat":49.203961,"lon":16.596051,"is_passed":false},{"stop_id":"U1121Z2","name":"Grohova","arrival_time":"4:49:00","departure_time":"4:49:00","lat":49.201327,"lon":16.59934,"is_passed":false},{"stop_id":"U1073Z3","name":"Česká","arrival_time":"4:51:00","departure_time":"4:51:00","lat":49.197742,"lon":16.605147,"is_passed":false},{"stop_id":"U1637Z1","name":"Šilingrovo náměstí","arrival_time":"4:53:00","departure_time":"4:53:00","lat":49.19171,"lon":16.605355,"is_passed":false},{"stop_id":"U1146Z4","name":"Hlavní nádraží","arrival_time":"4:56:00","departure_time":"5:00:00","lat":49.19125,"lon":16.612674,"is_passed":false},{"stop_id":"U1357Z2","name":"Malinovského náměstí","arrival_time":"5:01:00","departure_time":"5:01:00","lat":49.195034,"lon":16.614825,"is_passed":false},{"stop_id":"U1271Z1","name":"Körnerova","arrival_time":"5:02:00","departure_time":"5:02:00","lat":49.19828,"lon":16.619945,"is_passed":false},{"stop_id":"U1663Z1","name":"Tkalcovská","arrival_time":"5:03:00","departure_time":"5:03:00","lat":49.200261,"lon":16.626109,"is_passed":false},{"stop_id":"U1773Z1","name":"Vojenská nemocnice","arrival_time":"5:04:00","departure_time":"5:04:00","lat":49.202244,"lon":16.629717,"is_passed":false},{"stop_id":"U1313Z1","name":"Kuldova","arrival_time":"5:05:00","departure_time":"5:05:00","lat":49.201297,"lon":16.634306,"is_passed":false},{"stop_id":"U1611Z8","name":"Stará osada","arrival_time":"5:06:00","departure_time":"5:06:00","lat":49.202294,"lon":16.642001,"is_passed":false},{"stop_id":"U1698Z1","name":"Údolíček","arrival_time":"5:07:00","departure_time":"5:07:00","lat":49.206732,"lon":16.644592,"is_passed":false},{"stop_id":"U1002Z1","name":"Akátky","arrival_time":"5:08:00","departure_time":"5:08:00","lat":49.208518,"lon":16.648742,"is_passed":false},{"stop_id":"U1743Z1","name":"Vlčnovská","arrival_time":"5:09:00","departure_time":"5:09:00","lat":49.210995,"lon":16.660327,"is_passed":false},{"stop_id":"U1523Z1","name":"Prušánecká","arrival_time":"5:10:00","departure_time":"5:10:00","lat":49.20827,"lon":16.663465,"is_passed":false},{"stop_id":"U1052Z1","name":"Bzenecká","arrival_time":"5:11:00","departure_time":"5:11:00","lat":49.206117,"lon":16.660595,"is_passed":false},{"stop_id":"U1477Z3","name":"Pálavské náměstí","arrival_time":"5:12:00","departure_time":"5:12:00","lat":49.20612,"lon":16.657683,"is_passed":false},{"stop_id":"U1403Z1","name":"Mutěnická","arrival_time":"5:13:00","departure_time":"5:13:00","lat":49.20299,"lon":16.654796,"is_passed":false},{"stop_id":"U1036Z1","name":"Bořetická","arrival_time":"5:13:00","departure_time":"5:13:00","lat":49.201326,"lon":16.659292,"is_passed":false},{"stop_id":"U1058Z1","name":"Čejkovická","arrival_time":"5:14:00","departure_time":"5:14:00","lat":49.200178,"lon":16.662528,"is_passed":false},{"stop_id":"U1438Z3","name":"Novolíšeňská","arrival_time":"5:15:00","departure_time":"5:15:00","lat":49.201692,"lon":16.670699,"is_passed":false},{"stop_id":"U1012Z1","name":"Bartákova","arrival_time":"5:16:00","departure_time":"5:16:00","lat":49.203714,"lon":16.678742,"is_passed":false},{"stop_id":"U1546Z1","name":"Rotreklova","arrival_time":"5:17:00","departure_time":"5:17:00","lat":49.2066,"lon":16.685331,"is_passed":false},{"stop_id":"U1208Z4","name":"Jírova","arrival_time":"5:19:00","departure_time":"5:22:00","lat":49.209099,"lon":16.688056,"is_passed":false}],"54113":[{"stop_id":"U1208Z4","name":"Jírova","arrival_time":"5:22:00","departure_time":"5:22:00","lat":49.209099,"lon":16.688056,"is_passed":false},{"stop_id":"U1421Z2","name":"Náměstí Karla IV.","arrival_time":"5:23:00","departure_time":"5:23:00","lat":49.206113,"lon":16.69444,"is_passed":false},{"stop_id":"U1232Z2","name":"Karolíny Světlé","arrival_time":"5:24:00","departure_time":"5:24:00","lat":49.203721,"lon":16.694074,"is_passed":false},{"stop_id":"U1406Z1","name":"Muzeum dopravy","arrival_time":"5:25:00","departure_time":"5:25:00","lat":49.201045,"lon":16.69455,"is_passed":false},{"stop_id":"U1339Z1","name":"Letecká","arrival_time":"5:26:00","departure_time":"5:26:00","lat":49.197603,"lon":16.695882,"is_passed":false},{"stop_id":"U1152Z1","name":"Holzova","arrival_time":"5:27:00","departure_time":"5:27:00","lat":49.194703,"lon":16.696956,"is_passed":false},{"stop_id":"U1356Z1","name":"Malečkova","arrival_time":"5:28:00","departure_time":"5:28:00","lat":49.18583,"lon":16.69265,"is_passed":false},{"stop_id":"U1576Z1","name":"Slatina, rozcestí","arrival_time":"5:30:00","departure_time":"5:30:00","lat":49.181647,"lon":16.691923,"is_passed":false},{"stop_id":"U1292Z2","name":"Krejčího","arrival_time":"5:31:00","departure_time":"5:31:00","lat":49.177496,"lon":16.690785,"is_passed":false},{"stop_id":"U1525Z2","name":"Přemyslovo náměstí","arrival_time":"5:31:00","departure_time":"5:31:00","lat":49.176456,"lon":16.687324,"is_passed":false},{"stop_id":"U1300Z2","name":"Křehlíkova","arrival_time":"5:32:00","departure_time":"5:32:00","lat":49.174794,"lon":16.685267,"is_passed":false},{"stop_id":"U1562Z4","name":"Řípská","arrival_time":"5:34:00","departure_time":"5:34:00","lat":49.172829,"lon":16.682244,"is_passed":false},{"stop_id":"U1581Z1","name":"Areál Slatina","arrival_time":"5:35:00","departure_time":"5:37:00","lat":49.168614,"lon":16.67804,"is_passed":false}],"54114":[{"stop_id":"U1716Z4","name":"Úzká","arrival_time":"6:02:00","departure_time":"6:02:00","lat":49.189107,"lon":16.613266,"is_passed":false},{"stop_id":"U1463Z2","name":"Opuštěná","arrival_time":"6:05:00","departure_time":"6:05:00","lat":49.185245,"lon":16.613024,"is_passed":false},{"stop_id":"U1011Z4","name":"Autobusové nádraží","arrival_time":"6:07:00","departure_time":"6:07:00","lat":49.186887,"lon":16.618479,"is_passed":false},{"stop_id":"U1144Z1","name":"Hladíkova","arrival_time":"6:08:00","departure_time":"6:08:00","lat":49.187682,"lon":16.625353,"is_passed":false},{"stop_id":"U1677Z1","name":"Tržní","arrival_time":"6:10:00","departure_time":"6:10:00","lat":49.189973,"lon":16.632193,"is_passed":false},{"stop_id":"U1598Z1","name":"Spáčilova","arrival_time":"6:11:00","departure_time":"6:11:00","lat":49.188674,"lon":16.640942,"is_passed":false},{"stop_id":"U1455Z1","name":"Olomoucká - u školy","arrival_time":"6:13:00","departure_time":"6:13:00","lat":49.186169,"lon":16.652958,"is_passed":false},{"stop_id":"U1665Z1","name":"Těžební","arrival_time":"6:15:00","departure_time":"6:15:00","lat":49.181966,"lon":16.657236,"is_passed":false},{"stop_id":"U1739Z1","name":"Vlastimila Pecha","arrival_time":"6:16:00","departure_time":"6:16:00","lat":49.179379,"lon":16.662741,"is_passed":false},{"stop_id":"U1105Z1","name":"Ericha Roučky","arrival_time":"6:18:00","departure_time":"6:18:00","lat":49.174784,"lon":16.66987,"is_passed":false},{"stop_id":"U1064Z1","name":"Černovická terasa I","arrival_time":"6:19:00","departure_time":"6:19:00","lat":49.171172,"lon":16.673495,"is_passed":false},{"stop_id":"U1065Z1","name":"Černovická terasa II","arrival_time":"6:20:00","departure_time":"6:20:00","lat":49.167108,"lon":16.67608,"is_passed":false},{"stop_id":"U1581Z3","name":"Areál Slatina","arrival_time":"6:22:00","departure_time":"6:24:00","lat":49.168533,"lon":16.678786,"is_passed":false}],"54115":[{"stop_id":"U1577Z2","name":"Slatina, sídliště","arrival_time":"6:35:00","departure_time":"6:35:00","lat":49.181605,"lon":16.690121,"is_passed":false},{"stop_id":"U1297Z1","name":"Kroměřížská","arrival_time":"6:36:00","departure_time":"6:36:00","lat":49.178307,"lon":16.688244,"is_passed":false},{"stop_id":"U1382Z1","name":"Mikulčická","arrival_time":"6:37:00","departure_time":"6:37:00","lat":49.178464,"lon":16.683602,"is_passed":false},{"stop_id":"U1323Z1","name":"Langrova","arrival_time":"6:38:00","departure_time":"6:38:00","lat":49.180031,"lon":16.680806,"is_passed":false},{"stop_id":"U1173Z1","name":"Hviezdoslavova","arrival_time":"6:39:00","departure_time":"6:39:00","lat":49.18219,"lon":16.676025,"is_passed":false},{"stop_id":"U1757Z1","name":"Vozovna Slatina","arrival_time":"6:40:00","departure_time":"6:40:00","lat":49.183032,"lon":16.672807,"is_passed":false},{"stop_id":"U1068Z4","name":"Černovičky","arrival_time":"6:41:00","departure_time":"6:41:00","lat":49.183907,"lon":16.668247,"is_passed":false},{"stop_id":"U1814Z4","name":"Životského","arrival_time":"6:46:00","departure_time":"6:46:00","lat":49.190077,"lon":16.634992,"is_passed":false},{"stop_id":"U1372Z2","name":"Masná","arrival_time":"6:48:00","departure_time":"6:48:00","lat":49.191283,"lon":16.6245,"is_passed":false},{"stop_id":"U1746Z2","name":"Vlhká","arrival_time":"6:49:00","departure_time":"6:49:00","lat":49.191852,"lon":16.619157,"is_passed":false},{"stop_id":"U1146Z7","name":"Hlavní nádraží","arrival_time":"6:52:00","departure_time":"6:53:00","lat":49.19213,"lon":16.613467,"is_passed":false}],"54116":[{"stop_id":"U1659Z4","name":"Technologický park","arrival_time":"22:40:00","departure_time":"22:40:00","lat":49.231509,"lon":16.576781,"is_passed":false},{"stop_id":"U1664Z2","name":"Technické muzeum","arrival_time":"22:41:00","departure_time":"22:41:00","lat":49.228605,"lon":16.582096,"is_passed":false},{"stop_id":"U1072Z2","name":"Červinkova","arrival_time":"22:42:00","departure_time":"22:42:00","lat":49.223442,"lon":16.583855,"is_passed":false},{"stop_id":"U1567Z2","name":"Skácelova","arrival_time":"22:43:00","departure_time":"22:43:00","lat":49.221651,"lon":16.585163,"is_passed":false},{"stop_id":"U1088Z2","name":"Dobrovského","arrival_time":"22:44:00","departure_time":"22:44:00","lat":49.218351,"lon":16.587423,"is_passed":false},{"stop_id":"U1661Z2","name":"Tererova","arrival_time":"22:44:00","departure_time":"22:44:00","lat":49.215675,"lon":16.589238,"is_passed":false},{"stop_id":"U1242Z2","name":"Klusáčkova","arrival_time":"22:45:00","departure_time":"22:45:00","lat":49.211903,"lon":16.592875,"is_passed":false},{"stop_id":"U1431Z2","name":"Nerudova","arrival_time":"22:46:00","departure_time":"22:46:00","lat":49.205983,"lon":16.595174,"is_passed":false},{"stop_id":"U1262Z2","name":"Konečného náměstí","arrival_time":"22:48:00","departure_time":"22:48:00","lat":49.203961,"lon":16.596051,"is_passed":false},{"stop_id":"U1121Z2","name":"Grohova","arrival_time":"22:49:00","departure_time":"22:49:00","lat":49.201327,"lon":16.59934,"is_passed":false},{"stop_id":"U1073Z3","name":"Česká","arrival_time":"22:51:00","departure_time":"22:51:00","lat":49.197742,"lon":16.605147,"is_passed":false},{"stop_id":"U1637Z1","name":"Šilingrovo náměstí","arrival_time":"22:53:00","departure_time":"22:53:00","lat":49.19171,"lon":16.605355,"is_passed":false},{"stop_id":"U1146Z4","name":"Hlavní nádraží","arrival_time":"22:56:00","departure_time":"23:00:00","lat":49.19125,"lon":16.612674,"is_passed":false},{"stop_id":"U1357Z2","name":"Malinovského náměstí","arrival_time":"23:01:00","departure_time":"23:01:00","lat":49.195034,"lon":16.614825,"is_passed":false},{"stop_id":"U1271Z1","name":"Körnerova","arrival_time":"23:02:00","departure_time":"23:02:00","lat":49.19828,"lon":16.619945,"is_passed":false},{"stop_id":"U1663Z1","name":"Tkalcovská","arrival_time":"23:03:00","departure_time":"23:03:00","lat":49.200261,"lon":16.626109,"is_passed":false},{"stop_id":"U1773Z1","name":"Vojenská nemocnice","arrival_time":"23:04:00","departure_time":"23:04:00","lat":49.202244,"lon":16.629717,"is_passed":false},{"stop_id":"U1313Z1","name":"Kuldova","arrival_time":"23:05:00","departure_time":"23:05:00","lat":49.201297,"lon":16.634306,"is_passed":false},{"stop_id":"U1611Z8","name":"Stará osada","arrival_time":"23:06:00","departure_time":"23:06:00","lat":49.202294,"lon":16.642001,"is_passed":false},{"stop_id":"U1698Z1","name":"Údolíček","arrival_time":"23:07:00","departure_time":"23:07:00","lat":49.206732,"lon":16.644592,"is_passed":false},{"stop_id":"U1002Z1","name":"Akátky","arrival_time":"23:08:00","departure_time":"23:08:00","lat":49.208518,"lon":16.648742,"is_passed":false},{"stop_id":"U1743Z1","name":"Vlčnovská","arrival_time":"23:09:00","departure_time":"23:09:00","lat":49.210995,"lon":16.660327,"is_passed":false},{"stop_id":"U1523Z1","name":"Prušánecká","arrival_time":"23:10:00","departure_time":"23:10:00","lat":49.20827,"lon":16.663465,"is_passed":false},{"stop_id":"U1052Z1","name":"Bzenecká","arrival_time":"23:11:00","departure_time":"23:11:00","lat":49.206117,"lon":16.660595,"is_passed":false},{"stop_id":"U1477Z3","name":"Pálavské náměstí","arrival_time":"23:12:00","departure_time":"23:12:00","lat":49.20612,"lon":16.657683,"is_passed":false},{"stop_id":"U1403Z1","name":"Mutěnická","arrival_time":"23:13:00","departure_time":"23:13:00","lat":49.20299,"lon":16.654796,"is_passed":false},{"stop_id":"U1036Z1","name":"Bořetická","arrival_time":"23:13:00","departure_time":"23:13:00","lat":49.201326,"lon":16.659292,"is_passed":false},{"stop_id":"U1058Z1","name":"Čejkovická","arrival_time":"23:14:00","departure_time":"23:14:00","lat":49.200178,"lon":16.662528,"is_passed":false},{"stop_id":"U1438Z3","name":"Novolíšeňská","arrival_time":"23:15:00","departure_time":"23:15:00","lat":49.201692,"lon":16.670699,"is_passed":false},{"stop_id":"U1012Z1","name":"Bartákova","arrival_time":"23:16:00","departure_time":"23:16:00","lat":49.203714,"lon":16.678742,"is_passed":false},{"stop_id":"U1546Z1","name":"Rotreklova","arrival_time":"23:17:00","departure_time":"23:17:00","lat":49.2066,"lon":16.685331,"is_passed":false},{"stop_id":"U1208Z6","name":"Jírova","arrival_time":"23:19:00","departure_time":"23:35:00","lat":49.209179,"lon":16.688685,"is_passed":false}],"54117":[{"stop_id":"U1208Z3","name":"Jírova","arrival_time":"23:35:00","departure_time":"23:35:00","lat":49.208886,"lon":16.687979,"is_passed":false},{"stop_id":"U1546Z2","name":"Rotreklova","arrival_time":"23:35:00","departure_time":"23:35:00","lat":49.206534,"lon":16.684689,"is_passed":false},{"stop_id":"U1012Z2","name":"Bartákova","arrival_time":"23:36:00","departure_time":"23:36:00","lat":49.204255,"lon":16.679185,"is_passed":false},{"stop_id":"U1438Z4","name":"Novolíšeňská","arrival_time":"23:37:00","departure_time":"23:37:00","lat":49.201792,"lon":16.670352,"is_passed":false},{"stop_id":"U1058Z2","name":"Čejkovická","arrival_time":"23:38:00","departure_time":"23:38:00","lat":49.200493,"lon":16.661793,"is_passed":false},{"stop_id":"U1477Z2","name":"Pálavské náměstí","arrival_time":"23:41:00","departure_time":"23:41:00","lat":49.20538,"lon":16.658103,"is_passed":false},{"stop_id":"U1052Z2","name":"Bzenecká","arrival_time":"23:42:00","departure_time":"23:42:00","lat":49.205822,"lon":16.661645,"is_passed":false},{"stop_id":"U1523Z2","name":"Prušánecká","arrival_time":"23:43:00","departure_time":"23:43:00","lat":49.209503,"lon":16.663369,"is_passed":false},{"stop_id":"U1743Z2","name":"Vlčnovská","arrival_time":"23:43:00","departure_time":"23:43:00","lat":49.211166,"lon":16.659638,"is_passed":false},{"stop_id":"U1002Z2","name":"Akátky","arrival_time":"23:44:00","departure_time":"23:44:00","lat":49.208751,"lon":16.648718,"is_passed":false},{"stop_id":"U1698Z2","name":"Údolíček","arrival_time":"23:44:00","departure_time":"23:44:00","lat":49.206553,"lon":16.643865,"is_passed":false},{"stop_id":"U1631Z1","name":"Svatoplukova","arrival_time":"23:45:00","departure_time":"23:45:00","lat":49.2051,"lon":16.641425,"is_passed":false},{"stop_id":"U1611Z6","name":"Stará osada","arrival_time":"23:47:00","departure_time":"23:47:00","lat":49.201731,"lon":16.642184,"is_passed":false},{"stop_id":"U1313Z2","name":"Kuldova","arrival_time":"23:48:00","departure_time":"23:48:00","lat":49.201319,"lon":16.634551,"is_passed":false},{"stop_id":"U1773Z2","name":"Vojenská nemocnice","arrival_time":"23:49:00","departure_time":"23:49:00","lat":49.202306,"lon":16.62966,"is_passed":false},{"stop_id":"U1663Z2","name":"Tkalcovská","arrival_time":"23:50:00","departure_time":"23:50:00","lat":49.199805,"lon":16.625934,"is_passed":false},{"stop_id":"U1271Z2","name":"Körnerova","arrival_time":"23:51:00","departure_time":"23:51:00","lat":49.198152,"lon":16.619504,"is_passed":false},{"stop_id":"U1357Z1","name":"Malinovského náměstí","arrival_time":"23:53:00","departure_time":"23:53:00","lat":49.195492,"lon":16.61386,"is_passed":false},{"stop_id":"U1146Z3","name":"Hlavní nádraží","arrival_time":"23:56:00","departure_time":"24:00:00","lat":49.191063,"lon":16.611972,"is_passed":false},{"stop_id":"U1637Z2","name":"Šilingrovo náměstí","arrival_time":"24:01:00","departure_time":"24:01:00","lat":49.192027,"lon":16.605234,"is_passed":false},{"stop_id":"U1073Z4","name":"Česká","arrival_time":"24:03:00","departure_time":"24:03:00","lat":49.198134,"lon":16.605041,"is_passed":false},{"stop_id":"U1121Z1","name":"Grohova","arrival_time":"24:04:00","departure_time":"24:04:00","lat":49.201153,"lon":16.599729,"is_passed":false},{"stop_id":"U1262Z1","name":"Konečného náměstí","arrival_time":"24:05:00","departure_time":"24:05:00","lat":49.204484,"lon":16.595426,"is_passed":false},{"stop_id":"U1431Z1","name":"Nerudova","arrival_time":"24:06:00","departure_time":"24:06:00","lat":49.206566,"lon":16.595654,"is_passed":false},{"stop_id":"U1242Z1","name":"Klusáčkova","arrival_time":"24:07:00","departure_time":"24:07:00","lat":49.212365,"lon":16.592666,"is_passed":false},{"stop_id":"U1661Z1","name":"Tererova","arrival_time":"24:08:00","departure_time":"24:08:00","lat":49.21589,"lon":16.589173,"is_passed":false},{"stop_id":"U1088Z1","name":"Dobrovského","arrival_time":"24:09:00","departure_time":"24:09:00","lat":49.217769,"lon":16.587876,"is_passed":false},{"stop_id":"U1567Z1","name":"Skácelova","arrival_time":"24:10:00","departure_time":"24:10:00","lat":49.221886,"lon":16.585096,"is_passed":false},{"stop_id":"U1072Z1","name":"Červinkova","arrival_time":"24:11:00","departure_time":"24:11:00","lat":49.22545,"lon":16.582624,"is_passed":false},{"stop_id":"U1664Z1","name":"Technické muzeum","arrival_time":"24:12:00","departure_time":"24:12:00","lat":49.228047,"lon":16.582285,"is_passed":false},{"stop_id":"U1104Z1","name":"Edisonova","arrival_time":"24:13:00","departure_time":"24:13:00","lat":49.22828,"lon":16.576461,"is_passed":false},{"stop_id":"U1252Z2","name":"Kolejní","arrival_time":"24:14:00","departure_time":"24:14:00","lat":49.230641,"lon":16.57191,"is_passed":false},{"stop_id":"U1733Z1","name":"Vědeckotechnický park","arrival_time":"24:15:00","departure_time":"24:15:00","lat":49.2326,"lon":16.574806,"is_passed":false},{"stop_id":"U1659Z3","name":"Technologický park","arrival_time":"24:16:00","departure_time":"24:40:00","lat":49.23192,"lon":16.576848,"is_passed":false}],"54118":[{"stop_id":"U1659Z4","name":"Technologický park","arrival_time":"0:40:00","departure_time":"0:40:00","lat":49.231509,"lon":16.576781,"is_passed":false},{"stop_id":"U1664Z2","name":"Technické muzeum","arrival_time":"0:41:00","departure_time":"0:41:00","lat":49.228605,"lon":16.582096,"is_passed":false},{"stop_id":"U1072Z2","name":"Červinkova","arrival_time":"0:42:00","departure_time":"0:42:00","lat":49.223442,"lon":16.583855,"is_passed":false},