{"544":[{"stop_id":"U12736Z51","name":"Letovice, železniční stanice","arrival_time":"6:57:00","departure_time":"6:57:00","lat":49.555973,"lon":16.570906,"is_passed":false},{"stop_id":"U22702Z2","name":"Letovice zastávka","arrival_time":"6:59:00","departure_time":"7:00:00","lat":49.536152,"lon":16.576186,"is_passed":false},{"stop_id":"U22701Z2","name":"Zboněk","arrival_time":"7:02:00","departure_time":"7:02:00","lat":49.520482,"lon":16.584439,"is_passed":false},{"stop_id":"U22602Z2","name":"Svitávka","arrival_time":"7:05:00","departure_time":"7:05:00","lat":49.499434,"lon":16.599208,"is_passed":false},{"stop_id":"U12676Z51","name":"Skalice nad Svitavou, žel.st.","arrival_time":"7:08:00","departure_time":"7:12:00","lat":49.480123,"lon":16.609726,"is_passed":false},{"stop_id":"U12511Z51","name":"Doubravice, žel.st.","arrival_time":"7:17:00","departure_time":"7:17:00","lat":49.438707,"lon":16.621809,"is_passed":false},{"stop_id":"U12439Z51","name":"Rájec-Jestřebí, železniční stanice","arrival_time":"7:20:00","departure_time":"7:21:00","lat":49.408206,"lon":16.627711,"is_passed":false},{"stop_id":"U22301Z2","name":"Dolní Lhota","arrival_time":"7:24:00","departure_time":"7:24:00","lat":49.386917,"lon":16.633978,"is_passed":false},{"stop_id":"U22302Z2","name":"Blansko město","arrival_time":"7:27:00","departure_time":"7:28:00","lat":49.360996,"lon":16.639464,"is_passed":false},{"stop_id":"U12342Z29","name":"Blansko, aut. st.","arrival_time":"7:29:00","departure_time":"7:31:00","lat":49.352753,"lon":16.646848,"is_passed":false},{"stop_id":"U12231Z11","name":"Adamov, železniční zastávka","arrival_time":"7:36:00","departure_time":"7:37:00","lat":49.300671,"lon":16.650653,"is_passed":false},{"stop_id":"U12230Z11","name":"Adamov, železniční stanice","arrival_time":"7:38:00","departure_time":"7:39:00","lat":49.295341,"lon":16.663538,"is_passed":false},{"stop_id":"U22101Z2","name":"Babice nad Svitavou","arrival_time":"7:42:00","departure_time":"7:42:00","lat":49.276645,"lon":16.673012,"is_passed":false},{"stop_id":"U12158Z11","name":"Bílovice nad Svitavou, žel. stanice","arrival_time":"7:46:00","departure_time":"7:47:00","lat":49.242715,"lon":16.673677,"is_passed":false},{"stop_id":"U1809Z11","name":"Židenice, nádraží","arrival_time":"7:52:00","departure_time":"7:52:00","lat":49.204282,"lon":16.636042,"is_passed":false},{"stop_id":"U1146Z98","name":"Hlavní nádraží","arrival_time":"7:59:00","departure_time":"8:06:00","lat":49.19035,"lon":16.612342,"is_passed":false},{"stop_id":"U1183Z11","name":"Chrlice, nádraží","arrival_time":"8:14:00","departure_time":"8:17:00","lat":49.132031,"lon":16.657232,"is_passed":false},{"stop_id":"U16149Z11","name":"Sokolnice, železniční stanice","arrival_time":"8:23:00","departure_time":"8:24:00","lat":49.108029,"lon":16.733459,"is_passed":false},{"stop_id":"U26101Z2","name":"Újezd u Brna","arrival_time":"8:25:00","departure_time":"8:26:00","lat":49.107297,"lon":16.745564,"is_passed":false},{"stop_id":"U26102Z2","name":"Hostěrádky-Rešov","arrival_time":"8:29:00","departure_time":"8:29:00","lat":49.119822,"lon":16.782755,"is_passed":false},{"stop_id":"U26201Z2","name":"Zbýšov","arrival_time":"8:32:00","departure_time":"8:32:00","lat":49.132691,"lon":16.806859,"is_passed":false},{"stop_id":"U16212Z11","name":"Křenovice, hor. žel. st.","arrival_time":"8:35:00","departure_time":"8:36:00","lat":49.143553,"lon":16.824564,"is_passed":false},{"stop_id":"U16228Z11","name":"Holubice, žel.st.","arrival_time":"8:40:00","departure_time":"8:53:00","lat":49.179869,"lon":16.824654,"is_passed":false}],"5440":[{"stop_id":"U14546Z6","name":"Miroslav, autobusové nádraží","arrival_time":"6:34:00","departure_time":"6:34:00","lat":48.947248,"lon":16.312927,"is_passed":false},{"stop_id":"U14561Z1","name":"Našiměřice, železniční stanice","arrival_time":"6:39:00","departure_time":"6:39:00","lat":48.963217,"lon":16.35083,"is_passed":false},{"stop_id":"U14559Z1","name":"Našiměřice","arrival_time":"6:42:00","departure_time":"6:42:00","lat":48.968258,"lon":16.372205,"is_passed":false},{"stop_id":"U14541Z1","name":"Bohutice","arrival_time":"6:49:00","departure_time":"6:49:00","lat":48.989738,"lon":16.360072,"is_passed":false},{"stop_id":"U14018Z1","name":"Olbramovice, prodejna","arrival_time":"6:54:00","departure_time":"6:54:00","lat":48.989877,"lon":16.395692,"is_passed":false},{"stop_id":"U14019Z1","name":"Olbramovice, restaurace","arrival_time":"6:56:00","departure_time":"6:56:00","lat":48.984167,"lon":16.400743,"is_passed":false},{"stop_id":"U14010Z1","name":"Branišovice, pošta","arrival_time":"7:01:00","departure_time":"7:01:00","lat":48.961775,"lon":16.428677,"is_passed":false},{"stop_id":"U14011Z1","name":"Branišovice, státní silnice","arrival_time":"7:03:00","departure_time":"7:08:00","lat":48.959107,"lon":16.428737,"is_passed":false},{"stop_id":"U14023Z1","name":"Trnové Pole","arrival_time":"7:11:00","departure_time":"7:11:00","lat":48.945552,"lon":16.409551,"is_passed":false},{"stop_id":"U15552Z11","name":"Jiřice u Miroslavi","arrival_time":"7:15:00","departure_time":"7:15:00","lat":48.920697,"lon":16.39138,"is_passed":false}],"5441":[{"stop_id":"U15552Z3","name":"Jiřice u Miroslavi","arrival_time":"7:16:00","departure_time":"7:16:00","lat":48.920697,"lon":16.39138,"is_passed":false},{"stop_id":"U15550Z1","name":"Damnice","arrival_time":"7:19:00","departure_time":"7:19:00","lat":48.920138,"lon":16.373542,"is_passed":false},{"stop_id":"U14551Z2","name":"Miroslav, Réna","arrival_time":"7:24:00","departure_time":"7:24:00","lat":48.93358,"lon":16.337223,"is_passed":false},{"stop_id":"U14550Z2","name":"Miroslav, provozovna ČAS","arrival_time":"7:26:00","departure_time":"7:26:00","lat":48.941947,"lon":16.321227,"is_passed":false},{"stop_id":"U14554Z2","name":"Miroslav, statek","arrival_time":"7:27:00","departure_time":"7:27:00","lat":48.945973,"lon":16.317908,"is_passed":false},{"stop_id":"U14546Z2","name":"Miroslav, autobusové nádraží","arrival_time":"7:30:00","departure_time":"7:30:00","lat":48.946832,"lon":16.313061,"is_passed":false}],"5442":[{"stop_id":"U14546Z6","name":"Miroslav, autobusové nádraží","arrival_time":"9:10:00","departure_time":"9:10:00","lat":48.947248,"lon":16.312927,"is_passed":false},{"stop_id":"U14561Z1","name":"Našiměřice, železniční stanice","arrival_time":"9:17:00","departure_time":"9:17:00","lat":48.963217,"lon":16.35083,"is_passed":false},{"stop_id":"U14559Z1","name":"Našiměřice","arrival_time":"9:20:00","departure_time":"9:20:00","lat":48.968258,"lon":16.372205,"is_passed":false},{"stop_id":"U14541Z1","name":"Bohutice","arrival_time":"9:25:00","departure_time":"9:25:00","lat":48.989738,"lon":16.360072,"is_passed":false},{"stop_id":"U14018Z1","name":"Olbramovice, prodejna","arrival_time":"9:30:00","departure_time":"9:36:00","lat":48.989877,"lon":16.395692,"is_passed":false},{"stop_id":"U14019Z1","name":"Olbramovice, restaurace","arrival_time":"9:38:00","departure_time":"9:38:00","lat":48.984167,"lon":16.400743,"is_passed":false},{"stop_id":"U14010Z1","name":"Branišovice, pošta","arrival_time":"9:43:00","departure_time":"9:43:00","lat":48.961775,"lon":16.428677,"is_passed":false},{"stop_id":"U14011Z1","name":"Branišovice, státní silnice","arrival_time":"9:45:00","departure_time":"9:49:00","lat":48.959107,"lon":16.428737,"is_passed":false},{"stop_id":"U14023Z1","name":"Trnové Pole","arrival_time":"9:52:00","departure_time":"9:52:00","lat":48.945552,"lon":16.409551,"is_passed":false},{"stop_id":"U15552Z11","name":"Jiřice u Miroslavi","arrival_time":"9:56:00","departure_time":"10:01:00","lat":48.920697,"lon":16.39138,"is_passed":false}],"5443":[{"stop_id":"U15552Z5","name":"Jiřice u Miroslavi","arrival_time":"10:01:00","departure_time":"10:01:00","lat":48.920697,"lon":16.39138,"is_passed":false},{"stop_id":"U14023Z2","name":"Trnové Pole","arrival_time":"10:05:00","departure_time":"10:05:00","lat":48.94558,"lon":16.409803,"is_passed":false},{"stop_id":"U14011Z2","name":"Branišovice, státní silnice","arrival_time":"10:08:00","departure_time":"10:10:00","lat":48.959163,"lon":16.430035,"is_passed":false},{"stop_id":"U14010Z2","name":"Branišovice, pošta","arrival_time":"10:12:00","departure_time":"10:12:00","lat":48.961817,"lon":16.428575,"is_passed":false},{"stop_id":"U14019Z2","name":"Olbramovice, restaurace","arrival_time":"10:17:00","departure_time":"10:17:00","lat":48.984233,"lon":16.400785,"is_passed":false},{"stop_id":"U14018Z2","name":"Olbramovice, prodejna","arrival_time":"10:19:00","departure_time":"10:28:00","lat":48.98989,"lon":16.39586,"is_passed":false},{"stop_id":"U14541Z2","name":"Bohutice","arrival_time":"10:33:00","departure_time":"10:33:00","lat":48.989738,"lon":16.360072,"is_passed":false},{"stop_id":"U14559Z2","name":"Našiměřice","arrival_time":"10:38:00","departure_time":"10:38:00","lat":48.968258,"lon":16.372205,"is_passed":false},{"stop_id":"U14561Z2","name":"Našiměřice, železniční stanice","arrival_time":"10:41:00","departure_time":"10:41:00","lat":48.963072,"lon":16.350622,"is_passed":false},{"stop_id":"U14546Z10","name":"Miroslav, autobusové nádraží","arrival_time":"10:47:00","departure_time":"11:10:00","lat":48.94661,"lon":16.313115,"is_passed":false}],"5444":[{"stop_id":"U14546Z6","name":"Miroslav, autobusové nádraží","arrival_time":"11:10:00","departure_time":"11:10:00","lat":48.947248,"lon":16.312927,"is_passed":false},{"stop_id":"U14561Z1","name":"Našiměřice, železniční stanice","arrival_time":"11:17:00","departure_time":"11:17:00","lat":48.963217,"lon":16.35083,"is_passed":false},{"stop_id":"U14559Z1","name":"Našiměřice","arrival_time":"11:20:00","departure_time":"11:20:00","lat":48.968258,"lon":16.372205,"is_passed":false},{"stop_id":"U14541Z1","name":"Bohutice","arrival_time":"11:25:00","departure_time":"11:25:00","lat":48.989738,"lon":16.360072,"is_passed":false},{"stop_id":"U14018Z1","name":"Olbramovice, prodejna","arrival_time":"11:30:00","departure_time":"11:36:00","lat":48.989877,"lon":16.395692,"is_passed":false},{"stop_id":"U14019Z1","name":"Olbramovice, restaurace","arrival_time":"11:38:00","departure_time":"11:38:00","lat":48.984167,"lon":16.400743,"is_passed":false},{"stop_id":"U14010Z1","name":"Branišovice, pošta","arrival_time":"11:43:00","departure_time":"11:43:00","lat":48.961775,"lon":16.428677,"is_passed":false},{"stop_id":"U14011Z1","name":"Branišovice, státní silnice","arrival_time":"11:45:00","departure_time":"11:49:00","lat":48.959107,"lon":16.428737,"is_passed":false},{"stop_id":"U14023Z1","name":"Trnové Pole","arrival_time":"11:52:00","departure_time":"11:52:00","lat":48.945552,"lon":16.409551,"is_passed":false},{"stop_id":"U15552Z11","name":"Jiřice u Miroslavi","arrival_time":"11:56:00","departure_time":"12:01:00","lat":48.920697,"lon":16.39138,"is_passed":false}],"5445":[{"stop_id":"U15552Z5","name":"Jiřice u Miroslavi","arrival_time":"12:01:00","departure_time":"12:01:00","lat":48.920697,"lon":16.39138,"is_passed":false},{"stop_id":"U14023Z2","name":"Trnové Pole","arrival_time":"12:05:00","departure_time":"12:05:00","lat":48.94558,"lon":16.409803,"is_passed":false},{"stop_id":"U14011Z2","name":"Branišovice, státní silnice","arrival_time":"12:08:00","departure_time":"12:10:00","lat":48.959163,"lon":16.430035,"is_passed":false},{"stop_id":"U14010Z2","name":"Branišovice, pošta","arrival_time":"12:12:00","departure_time":"12:12:00","lat":48.961817,"lon":16.428575,"is_passed":false},{"stop_id":"U14019Z2","name":"Olbramovice, restaurace","arrival_time":"12:17:00","departure_time":"12:17:00","lat":48.984233,"lon":16.400785,"is_passed":false},{"stop_id":"U14018Z2","name":"Olbramovice, prodejna","arrival_time":"12:19:00","departure_time":"12:28:00","lat":48.98989,"lon":16.39586,"is_passed":false},{"stop_id":"U14541Z2","name":"Bohutice","arrival_time":"12:33:00","departure_time":"12:33:00","lat":48.989738,"lon":16.360072,"is_passed":false},{"stop_id":"U14559Z2","name":"Našiměřice","arrival_time":"12:38:00","departure_time":"12:38:00","lat":48.968258,"lon":16.372205,"is_passed":false},{"stop_id":"U14561Z2","name":"Našiměřice, železniční stanice","arrival_time":"12:41:00","departure_time":"12:41:00","lat":48.963072,"lon":16.350622,"is_passed":false},{"stop_id":"U14546Z10","name":"Miroslav, autobusové nádraží","arrival_time":"12:47:00","departure_time":"13:10:00","lat":48.94661,"lon":16.313115,"is_passed":false}],"5446":[{"stop_id":"U14546Z6","name":"Miroslav, autobusové nádraží","arrival_time":"13:10:00","departure_time":"13:10:00","lat":48.947248,"lon":16.312927,"is_passed":false},{"stop_id":"U14561Z1","name":"Našiměřice, železniční stanice","arrival_time":"13:17:00","departure_time":"13:17:00","lat":48.963217,"lon":16.35083,"is_passed":false},{"stop_id":"U14559Z1","name":"Našiměřice","arrival_time":"13:20:00","departure_time":"13:20:00","lat":48.968258,"lon":16.372205,"is_passed":false},{"stop_id":"U14541Z1","name":"Bohutice","arrival_time":"13:25:00","departure_time":"13:25:00","lat":48.989738,"lon":16.360072,"is_passed":false},{"stop_id":"U14018Z1","name":"Olbramovice, prodejna","arrival_time":"13:30:00","departure_time":"13:36:00","lat":48.989877,"lon":16.395692,"is_passed":false},{"stop_id":"U14019Z1","name":"Olbramovice, restaurace","arrival_time":"13:38:00","departure_time":"13:38:00","lat":48.984167,"lon":16.400743,"is_passed":false},{"stop_id":"U14010Z1","name":"Branišovice, pošta","arrival_time":"13:43:00","departure_time":"13:43:00","lat":48.961775,"lon":16.428677,"is_passed":false},{"stop_id":"U14011Z1","name":"Branišovice, státní silnice","arrival_time":"13:45:00","departure_time":"13:49:00","lat":48.959107,"lon":16.428737,"is_passed":false},{"stop_id":"U14023Z1","name":"Trnové Pole","arrival_time":"13:52:00","departure_time":"13:52:00","lat":48.945552,"lon":16.409551,"is_passed":false},{"stop_id":"U15552Z11","name":"Jiřice u Miroslavi","arrival_time":"13:56:00","departure_time":"14:06:00","lat":48.920697,"lon":16.39138,"is_passed":false}],"5447":[{"stop_id":"U15552Z5","name":"Jiřice u Miroslavi","arrival_time":"14:06:00","departure_time":"14:06:00","lat":48.920697,"lon":16.39138,"is_passed":false},{"stop_id":"U14023Z2","name":"Trnové Pole","arrival_time":"14:10:00","departure_time":"14:10:00","lat":48.94558,"lon":16.409803,"is_passed":false},{"stop_id":"U14011Z2","name":"Branišovice, státní silnice","arrival_time":"14:13:00","departure_time":"14:19:00","lat":48.959163,"lon":16.430035,"is_passed":false},{"stop_id":"U14010Z2","name":"Branišovice, pošta","arrival_time":"14:21:00","departure_time":"14:21:00","lat":48.961817,"lon":16.428575,"is_passed":false},{"stop_id":"U14019Z2","name":"Olbramovice, restaurace","arrival_time":"14:26:00","departure_time":"14:26:00","lat":48.984233,"lon":16.400785,"is_passed":false},{"stop_id":"U14018Z2","name":"Olbramovice, prodejna","arrival_time":"14:28:00","departure_time":"14:28:00","lat":48.98989,"lon":16.39586,"is_passed":false},{"stop_id":"U14541Z2","name":"Bohutice","arrival_time":"14:33:00","departure_time":"14:33:00","lat":48.989738,"lon":16.360072,"is_passed":false},{"stop_id":"U14559Z2","name":"Našiměřice","arrival_time":"14:38:00","departure_time":"14:38:00","lat":48.968258,"lon":16.372205,"is_passed":false},{"stop_id":"U14561Z2","name":"Našiměřice, železniční stanice","arrival_time":"14:39:00","departure_time":"14:39:00","lat":48.963072,"lon":16.350622,"is_passed":false},{"stop_id":"U14546Z10","name":"Miroslav, autobusové nádraží","arrival_time":"14:45:00","departure_time":"14:46:00","lat":48.94661,"lon":16.313115,"is_passed":false}],"5448":[{"stop_id":"U14546Z6","name":"Miroslav, autobusové nádraží","arrival_time":"14:46:00","departure_time":"14:46:00","lat":48.947248,"lon":16.312927,"is_passed":false},{"stop_id":"U14561Z1","name":"Našiměřice, železniční stanice","arrival_time":"14:53:00","departure_time":"14:53:00","lat":48.963217,"lon":16.35083,"is_passed":false},{"stop_id":"U14559Z1","name":"Našiměřice","arrival_time":"14:56:00","departure_time":"14:56:00","lat":48.968258,"lon":16.372205,"is_passed":false},{"stop_id":"U14541Z1","name":"Bohutice","arrival_time":"15:01:00","departure_time":"15:01:00","lat":48.989738,"lon":16.360072,"is_passed":false},{"stop_id":"U14018Z1","name":"Olbramovice, prodejna","arrival_time":"15:06:00","departure_time":"15:09:00","lat":48.989877,"lon":16.395692,"is_passed":false},{"stop_id":"U14019Z1","name":"Olbramovice, restaurace","arrival_time":"15:11:00","departure_time":"15:11:00","lat":48.984167,"lon":16.400743,"is_passed":false},{"stop_id":"U14010Z1","name":"Branišovice, pošta","arrival_time":"15:16:00","departure_time":"15:16:00","lat":48.961775,"lon":16.428677,"is_passed":false},{"stop_id":"U14011Z1","name":"Branišovice, státní silnice","arrival_time":"15:18:00","departure_time":"15:18:00","lat":48.959107,"lon":16.428737,"is_passed":false},{"stop_id":"U14023Z1","name":"Trnové Pole","arrival_time":"15:21:00","departure_time":"15:21:00","lat":48.945552,"lon":16.409551,"is_passed":false},{"stop_id":"U15552Z11","name":"Jiřice u Miroslavi","arrival_time":"15:25:00","departure_time":"15:36:00","lat":48.920697,"lon":16.39138,"is_passed":false}],"5449":[{"stop_id":"U15552Z5","name":"Jiřice u Miroslavi","arrival_time":"15:36:00","departure_time":"15:36:00","lat":48.920697,"lon":16.39138,"is_passed":false},{"stop_id":"U14023Z2","name":"Trnové Pole","arrival_time":"15:40:00","departure_time":"15:40:00","lat":48.94558,"lon":16.409803,"is_passed":false},{"stop_id":"U14011Z2","name":"Branišovice, státní silnice","arrival_time":"15:43:00","departure_time":"15:50:00","lat":48.959163,"lon":16.430035,"is_passed":false},{"stop_id":"U14010Z2","name":"Branišovice, pošta","arrival_time":"15:52:00","departure_time":"15:52:00","lat":48.961817,"lon":16.428575,"is_passed":false},{"stop_id":"U14019Z2","name":"Olbramovice, restaurace","arrival_time":"15:57:00","departure_time":"15:57:00","lat":48.984233,"lon":16.400785,"is_passed":false},{"stop_id":"U14018Z2","name":"Olbramovice, prodejna","arrival_time":"15:59:00","departure_time":"16:08:00","lat":48.98989,"lon":16.39586,"is_passed":false},{"stop_id":"U14541Z2","name":"Bohutice","arrival_time":"16:13:00","departure_time":"16:13:00","lat":48.989738,"lon":16.360072,"is_passed":false},{"stop_id":"U14559Z2","name":"Našiměřice","arrival_time":"16:18:00","departure_time":"16:18:00","lat":48.968258,"lon":16.372205,"is_passed":false},{"stop_id":"U14561Z2","name":"Našiměřice, železniční stanice","arrival_time":"16:19:00","departure_time":"16:19:00","lat":48.963072,"lon":16.350622,"is_passed":false},{"stop_id":"U14546Z10","name":"Miroslav, autobusové nádraží","arrival_time":"16:25:00","departure_time":"16:25:00","lat":48.94661,"lon":16.313115,"is_passed":false}],"54400":[{"stop_id":"U1646Z2","name":"Štefánikova čtvrť","arrival_time":"16:55:00","departure_time":"16:55:00","lat":49.217169,"lon":16.627801,"is_passed":false},{"stop_id":"U1731Z2","name":"Venhudova","arrival_time":"16:56:00","departure_time":"16:56:00","lat":49.212541,"lon":16.62512,"is_passed":false},{"stop_id":"U1782Z2","name":"Zdráhalova","arrival_time":"16:57:00","departure_time":"16:57:00","lat":49.209742,"lon":16.623799,"is_passed":false},{"stop_id":"U1211Z4","name":"Jugoslávská","arrival_time":"16:58:00","departure_time":"16:58:00","lat":49.204725,"lon":16.624081,"is_passed":false},{"stop_id":"U1086Z2","name":"Dětská nemocnice","arrival_time":"16:59:00","departure_time":"16:59:00","lat":49.203029,"lon":16.619052,"is_passed":false},{"stop_id":"U1418Z2","name":"Náměstí 28. října","arrival_time":"17:00:00","departure_time":"17:00:00","lat":49.200787,"lon":16.613174,"is_passed":false},{"stop_id":"U1397Z4","name":"Moravské náměstí","arrival_time":"17:02:00","departure_time":"17:02:00","lat":49.199159,"lon":16.608704,"is_passed":false},{"stop_id":"U1073Z1","name":"Česká","arrival_time":"17:04:00","departure_time":"17:04:00","lat":49.197618,"lon":16.605584,"is_passed":false},{"stop_id":"U1637Z3","name":"Šilingrovo náměstí","arrival_time":"17:07:00","departure_time":"17:07:00","lat":49.1923,"lon":16.60424,"is_passed":false},{"stop_id":"U1428Z2","name":"Nemocnice u sv. Anny","arrival_time":"17:08:00","departure_time":"17:08:00","lat":49.191523,"lon":16.598757,"is_passed":false},{"stop_id":"U1378Z4","name":"Mendlovo náměstí","arrival_time":"17:10:00","departure_time":"17:10:00","lat":49.190204,"lon":16.594235,"is_passed":false},{"stop_id":"U1512Z1","name":"Poříčí","arrival_time":"17:12:00","departure_time":"17:12:00","lat":49.187182,"lon":16.594633,"is_passed":false},{"stop_id":"U1430Z1","name":"Nemocnice Milosrdných bratří","arrival_time":"17:13:00","departure_time":"17:13:00","lat":49.183515,"lon":16.594981,"is_passed":false},{"stop_id":"U1053Z1","name":"Celní","arrival_time":"17:15:00","departure_time":"17:15:00","lat":49.179109,"lon":16.595328,"is_passed":false},{"stop_id":"U1147Z1","name":"Hluboká","arrival_time":"17:16:00","departure_time":"17:16:00","lat":49.175524,"lon":16.596095,"is_passed":false},{"stop_id":"U1703Z1","name":"Ústřední hřbitov","arrival_time":"17:18:00","departure_time":"17:18:00","lat":49.17132,"lon":16.597273,"is_passed":false},{"stop_id":"U1706Z1","name":"Ústřední hřbitov - smyčka","arrival_time":"17:20:00","departure_time":"17:43:00","lat":49.164878,"lon":16.59805,"is_passed":false}],"54401":[{"stop_id":"U1706Z2","name":"Ústřední hřbitov - smyčka","arrival_time":"17:43:00","departure_time":"17:43:00","lat":49.16513,"lon":16.598633,"is_passed":false},{"stop_id":"U1703Z2","name":"Ústřední hřbitov","arrival_time":"17:45:00","departure_time":"17:45:00","lat":49.171209,"lon":16.59734,"is_passed":false},{"stop_id":"U1147Z2","name":"Hluboká","arrival_time":"17:46:00","departure_time":"17:46:00","lat":49.175346,"lon":16.596153,"is_passed":false},{"stop_id":"U1053Z2","name":"Celní","arrival_time":"17:47:00","departure_time":"17:47:00","lat":49.179607,"lon":16.595242,"is_passed":false},{"stop_id":"U1430Z2","name":"Nemocnice Milosrdných bratří","arrival_time":"17:48:00","departure_time":"17:48:00","lat":49.183867,"lon":16.595061,"is_passed":false},{"stop_id":"U1512Z2","name":"Poříčí","arrival_time":"17:50:00","departure_time":"17:50:00","lat":49.187409,"lon":16.594512,"is_passed":false},{"stop_id":"U1378Z3","name":"Mendlovo náměstí","arrival_time":"17:52:00","departure_time":"17:52:00","lat":49.190293,"lon":16.594781,"is_passed":false},{"stop_id":"U1428Z1","name":"Nemocnice u sv. Anny","arrival_time":"17:54:00","departure_time":"17:54:00","lat":49.191471,"lon":16.599302,"is_passed":false},{"stop_id":"U1637Z4","name":"Šilingrovo náměstí","arrival_time":"17:55:00","departure_time":"17:55:00","lat":49.192271,"lon":16.604367,"is_passed":false},{"stop_id":"U1073Z2","name":"Česká","arrival_time":"17:59:00","departure_time":"17:59:00","lat":49.197702,"lon":16.606463,"is_passed":false},{"stop_id":"U1397Z3","name":"Moravské náměstí","arrival_time":"18:00:00","departure_time":"18:00:00","lat":49.199309,"lon":16.609047,"is_passed":false},{"stop_id":"U1418Z1","name":"Náměstí 28. října","arrival_time":"18:01:00","departure_time":"18:01:00","lat":49.200961,"lon":16.613794,"is_passed":false},{"stop_id":"U1086Z1","name":"Dětská nemocnice","arrival_time":"18:02:00","departure_time":"18:02:00","lat":49.202836,"lon":16.618608,"is_passed":false},{"stop_id":"U1211Z3","name":"Jugoslávská","arrival_time":"18:04:00","departure_time":"18:04:00","lat":49.205084,"lon":16.624442,"is_passed":false},{"stop_id":"U1782Z1","name":"Zdráhalova","arrival_time":"18:05:00","departure_time":"18:05:00","lat":49.209297,"lon":16.623791,"is_passed":false},{"stop_id":"U1731Z1","name":"Venhudova","arrival_time":"18:06:00","departure_time":"18:06:00","lat":49.212094,"lon":16.624955,"is_passed":false},{"stop_id":"U1646Z1","name":"Štefánikova čtvrť","arrival_time":"18:08:00","departure_time":"18:15:00","lat":49.216769,"lon":16.627834,"is_passed":false}],"54402":[{"stop_id":"U1646Z2","name":"Štefánikova čtvrť","arrival_time":"18:15:00","departure_time":"18:15:00","lat":49.217169,"lon":16.627801,"is_passed":false},{"stop_id":"U1731Z2","name":"Venhudova","arrival_time":"18:16:00","departure_time":"18:16:00","lat":49.212541,"lon":16.62512,"is_passed":false},{"stop_id":"U1782Z2","name":"Zdráhalova","arrival_time":"18:17:00","departure_time":"18:17:00","lat":49.209742,"lon":16.623799,"is_passed":false},{"stop_id":"U1211Z4","name":"Jugoslávská","arrival_time":"18:18:00","departure_time":"18:18:00","lat":49.204725,"lon":16.624081,"is_passed":false},{"stop_id":"U1086Z2","name":"Dětská nemocnice","arrival_time":"18:19:00","departure_time":"18:19:00","lat":49.203029,"lon":16.619052,"is_passed":false},{"stop_id":"U1418Z2","name":"Náměstí 28. října","arrival_time":"18:20:00","departure_time":"18:20:00","lat":49.200787,"lon":16.613174,"is_passed":false},{"stop_id":"U1397Z4","name":"Moravské náměstí","arrival_time":"18:22:00","departure_time":"18:22:00","lat":49.199159,"lon":16.608704,"is_passed":false},{"stop_id":"U1073Z1","name":"Česká","arrival_time":"18:24:00","departure_time":"18:24:00","lat":49.197618,"lon":16.605584,"is_passed":false},{"stop_id":"U1637Z3","name":"Šilingrovo náměstí","arrival_time":"18:27:00","departure_time":"18:27:00","lat":49.1923,"lon":16.60424,"is_passed":false},{"stop_id":"U1428Z2","name":"Nemocnice u sv. Anny","arrival_time":"18:28:00","departure_time":"18:28:00","lat":49.191523,"lon":16.598757,"is_passed":false},{"stop_id":"U1378Z4","name":"Mendlovo náměstí","arrival_time":"18:30:00","departure_time":"18:30:00","lat":49.190204,"lon":16.594235,"is_passed":false},{"stop_id":"U1512Z1","name":"Poříčí","arrival_time":"18:32:00","departure_time":"18:32:00","lat":49.187182,"lon":16.594633,"is_passed":false},{"stop_id":"U1430Z1","name":"Nemocnice Milosrdných bratří","arrival_time":"18:33:00","departure_time":"18:33:00","lat":49.183515,"lon":16.594981,"is_passed":false},{"stop_id":"U1053Z1","name":"Celní","arrival_time":"18:35:00","departure_time":"18:35:00","lat":49.179109,"lon":16.595328,"is_passed":false},{"stop_id":"U1147Z1","name":"Hluboká","arrival_time":"18:36:00","departure_time":"18:36:00","lat":49.175524,"lon":16.596095,"is_passed":false},{"stop_id":"U1703Z1","name":"Ústřední hřbitov","arrival_time":"18:38:00","departure_time":"18:38:00","lat":49.17132,"lon":16.597273,"is_passed":false},{"stop_id":"U1706Z1","name":"Ústřední hřbitov - smyčka","arrival_time":"18:40:00","departure_time":"19:03:00","lat":49.164878,"lon":16.59805,"is_passed":false}],"54403":[{"stop_id":"U1706Z2","name":"Ústřední hřbitov - smyčka","arrival_time":"19:03:00","departure_time":"19:03:00","lat":49.16513,"lon":16.598633,"is_passed":false},{"stop_id":"U1703Z2","name":"Ústřední hřbitov","arrival_time":"19:05:00","departure_time":"19:05:00","lat":49.171209,"lon":16.59734,"is_passed":false},{"stop_id":"U1147Z2","name":"Hluboká","arrival_time":"19:06:00","departure_time":"19:06:00","lat":49.175346,"lon":16.596153,"is_passed":false},{"stop_id":"U1053Z2","name":"Celní","arrival_time":"19:07:00","departure_time":"19:07:00","lat":49.179607,"lon":16.595242,"is_passed":false},{"stop_id":"U1430Z2","name":"Nemocnice Milosrdných bratří","arrival_time":"19:08:00","departure_time":"19:08:00","lat":49.183867,"lon":16.595061,"is_passed":false},{"stop_id":"U1512Z2","name":"Poříčí","arrival_time":"19:10:00","departure_time":"19:10:00","lat":49.187409,"lon":16.594512,"is_passed":false},{"stop_id":"U1378Z3","name":"Mendlovo náměstí","arrival_time":"19:12:00","departure_time":"19:12:00","lat":49.190293,"lon":16.594781,"is_passed":false},{"stop_id":"U1428Z1","name":"Nemocnice u sv. Anny","arrival_time":"19:14:00","departure_time":"19:14:00","lat":49.191471,"lon":16.599302,"is_passed":false},{"stop_id":"U1637Z4","name":"Šilingrovo náměstí","arrival_time":"19:15:00","departure_time":"19:15:00","lat":49.192271,"lon":16.604367,"is_passed":false},{"stop_id":"U1073Z2","name":"Česká","arrival_time":"19:19:00","departure_time":"19:19:00","lat":49.197702,"lon":16.606463,"is_passed":false},{"stop_id":"U1397Z3","name":"Moravské náměstí","arrival_time":"19:20:00","departure_time":"19:20:00","lat":49.199309,"lon":16.609047,"is_passed":false},{"stop_id":"U1418Z1","name":"Náměstí 28. října","arrival_time":"19:21:00","departure_time":"19:21:00","lat":49.200961,"lon":16.613794,"is_passed":false},{"stop_id":"U1086Z1","name":"Dětská nemocnice","arrival_time":"19:22:00","departure_time":"19:22:00","lat":49.202836,"lon":16.618608,"is_passed":false},{"stop_id":"U1211Z3","name":"Jugoslávská","arrival_time":"19:24:00","departure_time":"19:24:00","lat":49.205084,"lon":16.624442,"is_passed":false},{"stop_id":"U1782Z1","name":"Zdráhalova","arrival_time":"19:25:00","departure_time":"19:25:00","lat":49.209297,"lon":16.623791,"is_passed":false},{"stop_id":"U1731Z1","name":"Venhudova","arrival_time":"19:26:00","departure_time":"19:26:00","lat":49.212094,"lon":16.624955,"is_passed":false},{"stop_id":"U1646Z1","name":"Štefánikova čtvrť","arrival_time":"19:28:00","departure_time":"19:35:00","lat":49.216769,"lon":16.627834,"is_passed":false}],"54404":[{"stop_id":"U1646Z2","name":"Štefánikova čtvrť","arrival_time":"19:35:00","departure_time":"19:35:00","lat":49.217169,"lon":16.627801,"is_passed":false},{"stop_id":"U1731Z2","name":"Venhudova","arrival_time":"19:36:00","departure_time":"19:36:00","lat":49.212541,"lon":16.62512,"is_passed":false},{"stop_id":"U1782Z2","name":"Zdráhalova","arrival_time":"19:37:00","departure_time":"19:37:00","lat":49.209742,"lon":16.623799,"is_passed":false},{"stop_id":"U1211Z4","name":"Jugoslávská","arrival_time":"19:38:00","departure_time":"19:38:00","lat":49.204725,"lon":16.624081,"is_passed":false},{"stop_id":"U1086Z2","name":"Dětská nemocnice","arrival_time":"19:39:00","departure_time":"19:39:00","lat":49.203029,"lon":16.619052,"is_passed":false},{"stop_id":"U1418Z2","name":"Náměstí 28. října","arrival_time":"19:40:00","departure_time":"19:40:00","lat":49.200787,"lon":16.613174,"is_passed":false},{"stop_id":"U1397Z4","name":"Moravské náměstí","arrival_time":"19:42:00","departure_time":"19:42:00","lat":49.199159,"lon":16.608704,"is_passed":false},{"stop_id":"U1073Z1","name":"Česká","arrival_time":"19:44:00","departure_time":"19:44:00","lat":49.197618,"lon":16.605584,"is_passed":false},{"stop_id":"U1637Z3","name":"Šilingrovo náměstí","arrival_time":"19:47:00","departure_time":"19:47:00","lat":49.1923,"lon":16.60424,"is_passed":false},{"stop_id":"U1428Z2","name":"Nemocnice u sv. Anny","arrival_time":"19:48:00","departure_time":"19:48:00","lat":49.191523,"lon":16.598757,"is_passed":false},{"stop_id":"U1378Z4","name":"Mendlovo náměstí","arrival_time":"19:50:00","departure_time":"19:50:00","lat":49.190204,"lon":16.594235,"is_passed":false},{"stop_id":"U1512Z1","name":"Poříčí","arrival_time":"19:52:00","departure_time":"19:52:00","lat":49.187182,"lon":16.594633,"is_passed":false},{"stop_id":"U1430Z1","name":"Nemocnice Milosrdných bratří","arrival_time":"19:53:00","departure_time":"19:53:00","lat":49.183515,"lon":16.594981,"is_passed":false},{"stop_id":"U1053Z1","name":"Celní","arrival_time":"19:55:00","departure_time":"19:55:00","lat":49.179109,"lon":16.595328,"is_passed":false},{"stop_id":"U1147Z1","name":"Hluboká","arrival_time":"19:56:00","departure_time":"19:56:00","lat":49.175524,"lon":16.596095,"is_passed":false},{"stop_id":"U1703Z1","name":"Ústřední hřbitov","arrival_time":"19:58:00","departure_time":"19:58:00","lat":49.17132,"lon":16.597273,"is_passed":false},{"stop_id":"U1706Z1","name":"Ústřední hřbitov - smyčka","arrival_time":"20:00:00","departure_time":"20:13:00","lat":49.164878,"lon":16.59805,"is_passed":false}],"54405":[{"stop_id":"U1706Z2","name":"Ústřední hřbitov - smyčka","arrival_time":"20:13:00","departure_time":"20:13:00","lat":49.16513,"lon":16.598633,"is_passed":false},{"stop_id":"U1703Z2","name":"Ústřední hřbitov","arrival_time":"20:15:00","departure_time":"20:15:00","lat":49.171209,"lon":16.59734,"is_passed":false},{"stop_id":"U1147Z2","name":"Hluboká","arrival_time":"20:16:00","departure_time":"20:16:00","lat":49.175346,"lon":16.596153,"is_passed":false},{"stop_id":"U1053Z2","name":"Celní","arrival_time":"20:17:00","departure_time":"20:17:00","lat":49.179607,"lon":16.595242,"is_passed":false},{"stop_id":"U1430Z2","name":"Nemocnice Milosrdných bratří","arrival_time":"20:18:00","departure_time":"20:18:00","lat":49.183867,"lon":16.595061,"is_passed":false},{"stop_id":"U1512Z2","name":"Poříčí","arrival_time":"20:20:00","departure_time":"20:20:00","lat":49.187409,"lon":16.594512,"is_passed":false},{"stop_id":"U1378Z3","name":"Mendlovo náměstí","arrival_time":"20:22:00","departure_time":"20:22:00","lat":49.190293,"lon":16.594781,"is_passed":false},{"stop_id":"U1428Z1","name":"Nemocnice u sv. Anny","arrival_time":"20:24:00","departure_time":"20:24:00","lat":49.191471,"lon":16.599302,"is_passed":false},{"stop_id":"U1637Z4","name":"Šilingrovo náměstí","arrival_time":"20:25:00","departure_time":"20:25:00","lat":49.192271,"lon":16.604367,"is_passed":false},{"stop_id":"U1073Z2","name":"Česká","arrival_time":"20:29:00","departure_time":"20:29:00","lat":49.197702,"lon":16.606463,"is_passed":false},{"stop_id":"U1397Z3","name":"Moravské náměstí","arrival_time":"20:30:00","departure_time":"20:30:00","lat":49.199309,"lon":16.609047,"is_passed":false},{"stop_id":"U1418Z1","name":"Náměstí 28. října","arrival_time":"20:31:00","departure_time":"20:31:00","lat":49.200961,"lon":16.613794,"is_passed":false},{"stop_id":"U1086Z1","name":"Dětská nemocnice","arrival_time":"20:32:00","departure_time":"20:32:00","lat":49.202836,"lon":16.618608,"is_passed":false},{"stop_id":"U1211Z3","name":"Jugoslávská","arrival_time":"20:34:00","departure_time":"20:34:00","lat":49.205084,"lon":16.624442,"is_passed":false},{"stop_id":"U1782Z1","name":"Zdráhalova","arrival_time":"20:35:00","departure_time":"20:35:00","lat":49.209297,"lon":16.623791,"is_passed":false},{"stop_id":"U1731Z1","name":"Venhudova","arrival_time":"20:36:00","departure_time":"20:36:00","lat":49.212094,"lon":16.624955,"is_passed":false},{"stop_id":"U1646Z1","name":"Štefánikova čtvrť","arrival_time":"20:38:00","departure_time":"20:47:00","lat":49.216769,"lon":16.627834,"is_passed":false}],"54406":[{"stop_id":"U1646Z2","name":"Štefánikova čtvrť","arrival_time":"20:47:00","departure_time":"20:47:00","lat":49.217169,"lon":16.627801,"is_passed":false},{"stop_id":"U1731Z2","name":"Venhudova","arrival_time":"20:48:00","departure_time":"20:48:00","lat":49.212541,"lon":16.62512,"is_passed":false},{"stop_id":"U1782Z2","name":"Zdráhalova","arrival_time":"20:49:00","departure_time":"20:49:00","lat":49.209742,"lon":16.623799,"is_passed":false},{"stop_id":"U1211Z4","name":"Jugoslávská","arrival_time":"20:50:00","departure_time":"20:50:00","lat":49.204725,"lon":16.624081,"is_passed":false},{"stop_id":"U1086Z2","name":"Dětská nemocnice","arrival_time":"20:51:00","departure_time":"20:51:00","lat":49.203029,"lon":16.619052,"is_passed":false},{"stop_id":"U1418Z2","name":"Náměstí 28. října","arrival_time":"20:52:00","departure_time":"20:52:00","lat":49.200787,"lon":16.613174,"is_passed":false},{"stop_id":"U1397Z4","name":"Moravské náměstí","arrival_time":"20:54:00","departure_time":"20:54:00","lat":49.199159,"lon":16.608704,"is_passed":false},{"stop_id":"U1073Z1","name":"Česká","arrival_time":"20:56:00","departure_time":"20:56:00","lat":49.197618,"lon":16.605584,"is_passed":false},{"stop_id":"U1637Z3","name":"Šilingrovo náměstí","arrival_time":"20:58:00","departure_time":"20:58:00","lat":49.1923,"lon":16.60424,"is_passed":false},{"stop_id":"U1428Z2","name":"Nemocnice u sv. Anny","arrival_time":"20:59:00","departure_time":"20:59:00","lat":49.191523,"lon":16.598757,"is_passed":false},{"stop_id":"U1378Z4","name":"Mendlovo náměstí","arrival_time":"21:01:00","departure_time":"21:01:00","lat":49.190204,"lon":16.594235,"is_passed":false},{"stop_id":"U1512Z1","name":"Poříčí","arrival_time":"21:03:00","departure_time":"21:03:00","lat":49.187182,"lon":16.594633,"is_passed":false},{"stop_id":"U1430Z1","name":"Nemocnice Milosrdných bratří","arrival_time":"21:04:00","departure_time":"21:04:00","lat":49.183515,"lon":16.594981,"is_passed":false},{"stop_id":"U1053Z1","name":"Celní","arrival_time":"21:06:00","departure_time":"21:06:00","lat":49.179109,"lon":16.595328,"is_passed":false},{"stop_id":"U1147Z1","name":"Hluboká","arrival_time":"21:07:00","departure_time":"21:07:00","lat":49.175524,"lon":16.596095,"is_passed":false},{"stop_id":"U1703Z1","name":"Ústřední hřbitov","arrival_time":"21:08:00","departure_time":"21:08:00","lat":49.17132,"lon":16.597273,"is_passed":false},{"stop_id":"U1706Z1","name":"Ústřední hřbitov - smyčka","arrival_time":"21:10:00","departure_time":"21:24:00","lat":49.164878,"lon":16.59805,"is_passed":false}],"54407":[{"stop_id":"U1706Z2","name":"Ústřední hřbitov - smyčka","arrival_time":"21:24:00","departure_time":"21:24:00","lat":49.16513,"lon":16.598633,"is_passed":false},{"stop_id":"U1703Z2","name":"Ústřední hřbitov","arrival_time":"21:26:00","departure_time":"21:26:00","lat":49.171209,"lon":16.59734,"is_passed":false},{"stop_id":"U1147Z2","name":"Hluboká","arrival_time":"21:27:00","departure_time":"21:27:00","lat":49.175346,"lon":16.596153,"is_passed":false},{"stop_id":"U1053Z2","name":"Celní","arrival_time":"21:28:00","departure_time":"21:28:00","lat":49.179607,"lon":16.595242,"is_passed":false},{"stop_id":"U1430Z2","name":"Nemocnice Milosrdných bratří","arrival_time":"21:29:00","departure_time":"21:29:00","lat":49.183867,"lon":16.595061,"is_passed":false},{"stop_id":"U1512Z2","name":"Poříčí","arrival_time":"21:31:00","departure_time":"21:31:00","lat":49.187409,"lon":16.594512,"is_passed":false},{"stop_id":"U1378Z3","name":"Mendlovo náměstí","arrival_time":"21:33:00","departure_time":"21:33:00","lat":49.190293,"lon":16.594781,"is_passed":false},{"stop_id":"U1428Z1","name":"Nemocnice u sv. Anny","arrival_time":"21:35:00","departure_time":"21:35:00","lat":49.191471,"lon":16.599302,"is_passed":false},{"stop_id":"U1637Z4","name":"Šilingrovo náměstí","arrival_time":"21:36:00","departure_time":"21:36:00","lat":49.192271,"lon":16.604367,"is_passed":false},{"stop_id":"U1073Z2","name":"Česká","arrival_time":"21:39:00","departure_time":"21:39:00","lat":49.197702,"lon":16.606463,"is_passed":false},{"stop_id":"U1397Z3","name":"Moravské náměstí","arrival_time":"21:40:00","departure_time":"21:40:00","lat":49.199309,"lon":16.609047,"is_passed":false},{"stop_id":"U1418Z1","name":"Náměstí 28. října","arrival_time":"21:41:00","departure_time":"21:41:00","lat":49.200961,"lon":16.613794,"is_passed":false},{"stop_id":"U1086Z1","name":"Dětská nemocnice","arrival_time":"21:42:00","departure_time":"21:42:00","lat":49.202836,"lon":16.618608,"is_passed":false},{"stop_id":"U1211Z3","name":"Jugoslávská","arrival_time":"21:44:00","departure_time":"21:44:00","lat":49.205084,"lon":16.624442,"is_passed":false},{"stop_id":"U1782Z1","name":"Zdráhalova","arrival_time":"21:45:00","departure_time":"21:45:00","lat":49.209297,"lon":16.623791,"is_passed":false},{"stop_id":"U1731Z1","name":"Venhudova","arrival_time":"21:46:00","departure_time":"21:46:00","lat":49.212094,"lon":16.624955,"is_passed":false},{"stop_id":"U1646Z1","name":"Štefánikova čtvrť","arrival_time":"21:48:00","departure_time":"22:02:00","lat":49.216769,"lon":16.627834,"is_passed":false}],"54408":[{"stop_id":"U1646Z2","name":"Štefánikova čtvrť","arrival_time":"22:02:00","departure_time":"22:02:00","lat":49.217169,"lon":16.627801,"is_passed":false},{"stop_id":"U1731Z2","name":"Venhudova","arrival_time":"22:03:00","departure_time":"22:03:00","lat":49.212541,"lon":16.62512,"is_passed":false},{"stop_id":"U1782Z2","name":"Zdráhalova","arrival_time":"22:04:00","departure_time":"22:04:00","lat":49.209742,"lon":16.623799,"is_passed":false},{"stop_id":"U1211Z4","name":"Jugoslávská","arrival_time":"22:05:00","departure_time":"22:05:00","lat":49.204725,"lon":16.624081,"is_passed":false},{"stop_id":"U1086Z2","name":"Dětská nemocnice","arrival_time":"22:06:00","departure_time":"22:06:00","lat":49.203029,"lon":16.619052,"is_passed":false},{"stop_id":"U1418Z2","name":"Náměstí 28. října","arrival_time":"22:07:00","departure_time":"22:07:00","lat":49.200787,"lon":16.613174,"is_passed":false},{"stop_id":"U1397Z4","name":"Moravské náměstí","arrival_time":"22:09:00","departure_time":"22:09:00","lat":49.199159,"lon":16.608704,"is_passed":false},{"stop_id":"U1073Z1","name":"Česká","arrival_time":"22:11:00","departure_time":"22:11:00","lat":49.197618,"lon":16.605584,"is_passed":false},{"stop_id":"U1637Z3","name":"Šilingrovo náměstí","arrival_time":"22:13:00","departure_time":"22:13:00","lat":49.1923,"lon":16.60424,"is_passed":false},{"stop_id":"U1428Z2","name":"Nemocnice u sv. Anny","arrival_time":"22:14:00","departure_time":"22:14:00","lat":49.191523,"lon":16.598757,"is_passed":false},{"stop_id":"U1378Z1","name":"Mendlovo náměstí","arrival_time":"22:16:00","departure_time":"22:16:00","lat":49.189659,"lon":16.592283,"is_passed":false},{"stop_id":"U1768Z1","name":"Výstaviště - hlavní vstup","arrival_time":"22:18:00","departure_time":"22:18:00","lat":49.189583,"lon":16.584499,"is_passed":false},{"stop_id":"U1769Z1","name":"Výstaviště - vstup G2","arrival_time":"22:19:00","departure_time":"22:19:00","lat":49.190338,"lon":16.579837,"is_passed":false},{"stop_id":"U1343Z1","name":"ARENA BRNO","arrival_time":"22:20:00","departure_time":"22:20:00","lat":49.191523,"lon":16.576065,"is_passed":false}],"54409":[{"stop_id":"U1343Z2","name":"ARENA BRNO","arrival_time":"8:38:00","departure_time":"8:38:00","lat":49.191387,"lon":16.576425,"is_passed":false},{"stop_id":"U1769Z2","name":"Výstaviště - vstup G2","arrival_time":"8:39:00","departure_time":"8:39:00","lat":49.190207,"lon":16.580555,"is_passed":false},{"stop_id":"U1768Z2","name":"Výstaviště - hlavní vstup","arrival_time":"8:40:00","departure_time":"8:40:00","lat":49.189325,"lon":16.585699,"is_passed":false},{"stop_id":"U1378Z3","name":"Mendlovo náměstí","arrival_time":"8:42:00","departure_time":"8:42:00","lat":49.190293,"lon":16.594781,"is_passed":false},{"stop_id":"U1428Z1","name":"Nemocnice u sv. Anny","arrival_time":"8:44:00","departure_time":"8:44:00","lat":49.191471,"lon":16.599302,"is_passed":false},{"stop_id":"U1637Z4","name":"Šilingrovo náměstí","arrival_time":"8:45:00","departure_time":"8:45:00","lat":49.192271,"lon":16.604367,"is_passed":false},{"stop_id":"U1073Z2","name":"Česká","arrival_time":"8:49:00","departure_time":"8:49:00","lat":49.197702,"lon":16.606463,"is_passed":false},{"stop_id":"U1397Z3","name":"Moravské náměstí","arrival_time":"8:50:00","departure_time":"8:50:00","lat":49.199309,"lon":16.609047,"is_passed":false},{"stop_id":"U1418Z1","name":"Náměstí 28. října","arrival_time":"8:51:00","departure_time":"8:51:00","lat":49.200961,"lon":16.613794,"is_passed":false},{"stop_id":"U1086Z1","name":"Dětská nemocnice","arrival_time":"8:52:00","departure_time":"8:52:00","lat":49.202836,"lon":16.618608,"is_passed":false},{"stop_id":"U1211Z3","name":"Jugoslávská","arrival_time":"8:54:00","departure_time":"8:54:00","lat":49.205084,"lon":16.624442,"is_passed":false},{"stop_id":"U1782Z1","name":"Zdráhalova","arrival_time":"8:55:00","departure_time":"8:55:00","lat":49.209297,"lon":16.623791,"is_passed":false},{"stop_id":"U1731Z1","name":"Venhudova","arrival_time":"8:56:00","departure_time":"8:56:00","lat":49.212094,"lon":16.624955,"is_passed":false},{"stop_id":"U1646Z1","name":"Štefánikova čtvrť","arrival_time":"8:58:00","departure_time":"8:58:00","lat":49.216769,"lon":16.627834,"is_passed":false}],"54410":[{"stop_id":"U1646Z2","name":"Štefánikova čtvrť","arrival_time":"9:05:00","departure_time":"9:05:00","lat":49.217169,"lon":16.627801,"is_passed":false},{"stop_id":"U1731Z2","name":"Venhudova","arrival_time":"9:06:00","departure_time":"9:06:00","lat":49.212541,"lon":16.62512,"is_passed":false},{"stop_id":"U1782Z2","name":"Zdráhalova","arrival_time":"9:07:00","departure_time":"9:07:00","lat":49.209742,"lon":16.623799,"is_passed":false},{"stop_id":"U1211Z4","name":"Jugoslávská","arrival_time":"9:08:00","departure_time":"9:08:00","lat":49.204725,"lon":16.624081,"is_passed":false},{"stop_id":"U1086Z2","name":"Dětská nemocnice","arrival_time":"9:09:00","departure_time":"9:09:00","lat":49.203029,"lon":16.619052,"is_passed":false},{"stop_id":"U1418Z2","name":"Náměstí 28. října","arrival_time":"9:10:00","departure_time":"9:10:00","lat":49.200787,"lon":16.613174,"is_passed":false},{"stop_id":"U1397Z4","name":"Moravské náměstí","arrival_time":"9:12:00","departure_time":"9:12:00","lat":49.199159,"lon":16.608704,"is_passed":false},{"stop_id":"U1073Z1","name":"Česká","arrival_time":"9:14:00","departure_time":"9:14:00","lat":49.197618,"lon":16.605584,"is_passed":false},{"stop_id":"U1637Z3","name":"Šilingrovo náměstí","arrival_time":"9:17:00","departure_time":"9:17:00","lat":49.1923,"lon":16.60424,"is_passed":false},{"stop_id":"U1428Z2","name":"Nemocnice u sv. Anny","arrival_time":"9:18:00","departure_time":"9:18:00","lat":49.191523,"lon":16.598757,"is_passed":false},{"stop_id":"U1378Z4","name":"Mendlovo náměstí","arrival_time":"9:20:00","departure_time":"9:20:00","lat":49.190204,"lon":16.594235,"is_passed":false},{"stop_id":"U1512Z1","name":"Poříčí","arrival_time":"9:22:00","departure_time":"9:22:00","lat":49.187182,"lon":16.594633,"is_passed":false},{"stop_id":"U1430Z1","name":"Nemocnice Milosrdných bratří","arrival_time":"9:23:00","departure_time":"9:23:00","lat":49.183515,"lon":16.594981,"is_passed":false},{"stop_id":"U1053Z1","name":"Celní","arrival_time":"9:25:00","departure_time":"9:25:00","lat":49.179109,"lon":16.595328,"is_passed":false},{"stop_id":"U1147Z1","name":"Hluboká","arrival_time":"9:26:00","departure_time":"9:26:00","lat":49.175524,"lon":16.596095,"is_passed":false},{"stop_id":"U1703Z1","name":"Ústřední hřbitov","arrival_time":"9:28:00","departure_time":"9:28:00","lat":49.17132,"lon":16.597273,"is_passed":false},{"stop_id":"U1706Z1","name":"Ústřední hřbitov - smyčka","arrival_time":"9:30:00","departure_time":"9:43:00","lat":49.164878,"lon":16.59805,"is_passed":false}],"54411":[{"stop_id":"U1706Z2","name":"Ústřední hřbitov - smyčka","arrival_time":"9:43:00","departure_time":"9:43:00","lat":49.16513,"lon":16.598633,"is_passed":false},{"stop_id":"U1703Z2","name":"Ústřední hřbitov","arrival_time":"9:45:00","departure_time":"9:45:00","lat":49.171209,"lon":16.59734,"is_passed":false},{"stop_id":"U1147Z2","name":"Hluboká","arrival_time":"9:46:00","departure_time":"9:46:00","lat":49.175346,"lon":16.596153,"is_passed":false},{"stop_id":"U1053Z2","name":"Celní","arrival_time":"9:47:00","departure_time":"9:47:00","lat":49.179607,"lon":16.595242,"is_passed":false},{"stop_id":"U1430Z2","name":"Nemocnice Milosrdných bratří","arrival_time":"9:48:00","departure_time":"9:48:00","lat":49.183867,"lon":16.595061,"is_passed":false},{"stop_id":"U1512Z2","name":"Poříčí","arrival_time":"9:50:00","departure_time":"9:50:00","lat":49.187409,"lon":16.594512,"is_passed":false},{"stop_id":"U1378Z3","name":"Mendlovo náměstí","arrival_time":"9:52:00","departure_time":"9:52:00","lat":49.190293,"lon":16.594781,"is_passed":false},{"stop_id":"U1428Z1","name":"Nemocnice u sv. Anny","arrival_time":"9:54:00","departure_time":"9:54:00","lat":49.191471,"lon":16.599302,"is_passed":false},{"stop_id":"U1637Z4","name":"Šilingrovo náměstí","arrival_time":"9:55:00","departure_time":"9:55:00","lat":49.192271,"lon":16.604367,"is_passed":false},{"stop_id":"U1073Z2","name":"Česká","arrival_time":"9:59:00","departure_time":"9:59:00","lat":49.197702,"lon":16.606463,"is_passed":false},{"stop_id":"U1397Z3","name":"Moravské náměstí","arrival_time":"10:00:00","departure_time":"10:00:00","lat":49.199309,"lon":16.609047,"is_passed":false},{"stop_id":"U1418Z1","name":"Náměstí 28. října","arrival_time":"10:01:00","departure_time":"10:01:00","lat":49.200961,"lon":16.613794,"is_passed":false},{"stop_id":"U1086Z1","name":"Dětská nemocnice","arrival_time":"10:02:00","departure_time":"10:02:00","lat":49.202836,"lon":16.618608,"is_passed":false},{"stop_id":"U1211Z3","name":"Jugoslávská","arrival_time":"10:04:00","departure_time":"10:04:00","lat":49.205084,"lon":16.624442,"is_passed":false},{"stop_id":"U1782Z1","name":"Zdráhalova","arrival_time":"10:05:00","departure_time":"10:05:00","lat":49.209297,"lon":16.623791,"is_passed":false},{"stop_id":"U1731Z1","name":"Venhudova","arrival_time":"10:06:00","departure_time":"10:06:00","lat":49.212094,"lon":16.624955,"is_passed":false},{"stop_id":"U1646Z1","name":"Štefánikova čtvrť","arrival_time":"10:08:00","departure_time":"10:15:00","lat":49.216769,"lon":16.627834,"is_passed":false}],"54412":[{"stop_id":"U1646Z2","name":"Štefánikova čtvrť","arrival_time":"10:15:00","departure_time":"10:15:00","lat":49.217169,"lon":16.627801,"is_passed":false},{"stop_id":"U1731Z2","name":"Venhudova","arrival_time":"10:16:00","departure_time":"10:16:00","lat":49.212541,"lon":16.62512,"is_passed":false},{"stop_id":"U1782Z2","name":"Zdráhalova","arrival_time":"10:17:00","departure_time":"10:17:00","lat":49.209742,"lon":16.623799,"is_passed":false},{"stop_id":"U1211Z4","name":"Jugoslávská","arrival_time":"10:18:00","departure_time":"10:18:00","lat":49.204725,"lon":16.624081,"is_passed":false},{"stop_id":"U1086Z2","name":"Dětská nemocnice","arrival_time":"10:19:00","departure_time":"10:19:00","lat":49.203029,"lon":16.619052,"is_passed":false},{"stop_id":"U1418Z2","name":"Náměstí 28. října","arrival_time":"10:20:00","departure_time":"10:20:00","lat":49.200787,"lon":16.613174,"is_passed":false},{"stop_id":"U1397Z4","name":"Moravské náměstí","arrival_time":"10:22:00","departure_time":"10:22:00","lat":49.199159,"lon":16.608704,"is_passed":false},{"stop_id":"U1073Z1","name":"Česká","arrival_time":"10:24:00","departure_time":"10:24:00","lat":49.197618,"lon":16.605584,"is_passed":false},{"stop_id":"U1637Z3","name":"Šilingrovo náměstí","arrival_time":"10:27:00","departure_time":"10:27:00","lat":49.1923,"lon":16.60424,"is_passed":false},{"stop_id":"U1428Z2","name":"Nemocnice u sv. Anny","arrival_time":"10:28:00","departure_time":"10:28:00","lat":49.191523,"lon":16.598757,"is_passed":false},{"stop_id":"U1378Z4","name":"Mendlovo náměstí","arrival_time":"10:30:00","departure_time":"10:30:00","lat":49.190204,"lon":16.594235,"is_passed":false},{"stop_id":"U1512Z1","name":"Poříčí","arrival_time":"10:32:00","departure_time":"10:32:00","lat":49.187182,"lon":16.594633,"is_passed":false},{"stop_id":"U1430Z1","name":"Nemocnice Milosrdných bratří","arrival_time":"10:33:00","departure_time":"10:33:00","lat":49.183515,"lon":16.594981,"is_passed":false},{"stop_id":"U1053Z1","name":"Celní","arrival_time":"10:35:00","departure_time":"10:35:00","lat":49.179109,"lon":16.595328,"is_passed":false},{"stop_id":"U1147Z1","name":"Hluboká","arrival_time":"10:36:00","departure_time":"10:36:00","lat":49.175524,"lon":16.596095,"is_passed":false},{"stop_id":"U1703Z1","name":"Ústřední hřbitov","arrival_time":"10:38:00","departure_time":"10:38:00","lat":49.17132,"lon":16.597273,"is_passed":false},{"stop_id":"U1706Z1","name":"Ústřední hřbitov - smyčka","arrival_time":"10:40:00","departure_time":"11:03:00","lat":49.164878,"lon":16.59805,"is_passed":false}],"54413":[{"stop_id":"U1706Z2","name":"Ústřední hřbitov - smyčka","arrival_time":"11:03:00","departure_time":"11:03:00","lat":49.16513,"lon":16.598633,"is_passed":false},{"stop_id":"U1703Z2","name":"Ústřední hřbitov","arrival_time":"11:05:00","departure_time":"11:05:00","lat":49.171209,"lon":16.59734,"is_passed":false},{"stop_id":"U1147Z2","name":"Hluboká","arrival_time":"11:06:00","departure_time":"11:06:00","lat":49.175346,"lon":16.596153,"is_passed":false},{"stop_id":"U1053Z2","name":"Celní","arrival_time":"11:07:00","departure_time":"11:07:00","lat":49.179607,"lon":16.595242,"is_passed":false},{"stop_id":"U1430Z2","name":"Nemocnice Milosrdných bratří","arrival_time":"11:08:00","departure_time":"11:08:00","lat":49.183867,"lon":16.595061,"is_passed":false},{"stop_id":"U1512Z2","name":"Poříčí","arrival_time":"11:10:00","departure_time":"11:10:00","lat":49.187409,"lon":16.594512,"is_passed":false},{"stop_id":"U1378Z3","name":"Mendlovo náměstí","arrival_time":"11:12:00","departure_time":"11:12:00","lat":49.190293,"lon":16.594781,"is_passed":false},{"stop_id":"U1428Z1","name":"Nemocnice u sv. Anny","arrival_time":"11:14:00","departure_time":"11:14:00","lat":49.191471,"lon":16.599302,"is_passed":false},{"stop_id":"U1637Z4","name":"Šilingrovo náměstí","arrival_time":"11:15:00","departure_time":"11:15:00","lat":49.192271,"lon":16.604367,"is_passed":false},{"stop_id":"U1073Z2","name":"Česká","arrival_time":"11:19:00","departure_time":"11:19:00","lat":49.197702,"lon":16.606463,"is_passed":false},{"stop_id":"U1397Z3","name":"Moravské náměstí","arrival_time":"11:20:00","departure_time":"11:20:00","lat":49.199309,"lon":16.609047,"is_passed":false},{"stop_id":"U1418Z1","name":"Náměstí 28. října","arrival_time":"11:21:00","departure_time":"11:21:00","lat":49.200961,"lon":16.613794,"is_passed":false},{"stop_id":"U1086Z1","name":"Dětská nemocnice","arrival_time":"11:22:00","departure_time":"11:22:00","lat":49.202836,"lon":16.618608,"is_passed":false},{"stop_id":"U1211Z3","name":"Jugoslávská","arrival_time":"11:24:00","departure_time":"11:24:00","lat":49.205084,"lon":16.624442,"is_passed":false},{"stop_id":"U1782Z1","name":"Zdráhalova","arrival_time":"11:25:00","departure_time":"11:25:00","lat":49.209297,"lon":16.623791,"is_passed":false},{"stop_id":"U1731Z1","name":"Venhudova","arrival_time":"11:26:00","departure_time":"11:26:00","lat":49.212094,"lon":16.624955,"is_passed":false},{"stop_id":"U1646Z1","name":"Štefánikova čtvrť","arrival_time":"11:28:00","departure_time":"11:35:00","lat":49.216769,"lon":16.627834,"is_passed":false}],"54414":[{"stop_id":"U1646Z2","name":"Štefánikova čtvrť","arrival_time":"11:35:00","departure_time":"11:35:00","lat":49.217169,"lon":16.627801,"is_passed":false},{"stop_id":"U1731Z2","name":"Venhudova","arrival_time":"11:36:00","departure_time":"11:36:00","lat":49.212541,"lon":16.62512,"is_passed":false},{"stop_id":"U1782Z2","name":"Zdráhalova","arrival_time":"11:37:00","departure_time":"11:37:00","lat":49.209742,"lon":16.623799,"is_passed":false},{"stop_id":"U1211Z4","name":"Jugoslávská","arrival_time":"11:38:00","departure_time":"11:38:00","lat":49.204725,"lon":16.624081,"is_passed":false},{"stop_id":"U1086Z2","name":"Dětská nemocnice","arrival_time":"11:39:00","departure_time":"11:39:00","lat":49.203029,"lon":16.619052,"is_passed":false},{"stop_id":"U1418Z2","name":"Náměstí 28. října","arrival_time":"11:40:00","departure_time":"11:40:00","lat":49.200787,"lon":16.613174,"is_passed":false},{"stop_id":"U1397Z4","name":"Moravské náměstí","arrival_time":"11:42:00","departure_time":"11:42:00","lat":49.199159,"lon":16.608704,"is_passed":false},{"stop_id":"U1073Z1","name":"Česká","arrival_time":"11:44:00","departure_time":"11:44:00","lat":49.197618,"lon":16.605584,"is_passed":false},{"stop_id":"U1637Z3","name":"Šilingrovo náměstí","arrival_time":"11:47:00","departure_time":"11:47:00","lat":49.1923,"lon":16.60424,"is_passed":false},{"stop_id":"U1428Z2","name":"Nemocnice u sv. Anny","arrival_time":"11:48:00","departure_time":"11:48:00","lat":49.191523,"lon":16.598757,"is_passed":false},{"stop_id":"U1378Z4","name":"Mendlovo náměstí","arrival_time":"11:50:00","departure_time":"11:50:00","lat":49.190204,"lon":16.594235,"is_passed":false},{"stop_id":"U1512Z1","name":"Poříčí","arrival_time":"11:52:00","departure_time":"11:52:00","lat":49.187182,"lon":16.594633,"is_passed":false},{"stop_id":"U1430Z1","name":"Nemocnice Milosrdných bratří","arrival_time":"11:53:00","departure_time":"11:53:00","lat":49.183515,"lon":16.594981,"is_passed":false},{"stop_id":"U1053Z1","name":"Celní","arrival_time":"11:55:00","departure_time":"11:55:00","lat":49.179109,"lon":16.595328,"is_passed":false},{"stop_id":"U1147Z1","name":"Hluboká","arrival_time":"11:56:00","departure_time":"11:56:00","lat":49.175524,"lon":16.596095,"is_passed":false},{"stop_id":"U1703Z1","name":"Ústřední hřbitov","arrival_time":"11:58:00","departure_time":"11:58:00","lat":49.17132,"lon":16.597273,"is_passed":false},{"stop_id":"U1706Z1","name":"Ústřední hřbitov - smyčka","arrival_time":"12:00:00","departure_time":"12:23:00","lat":49.164878,"lon":16.59805,"is_passed":false}],"54415":[{"stop_id":"U1706Z2","name":"Ústřední hřbitov - smyčka","arrival_time":"12:23:00","departure_time":"12:23:00","lat":49.16513,"lon":16.598633,"is_passed":false},{"stop_id":"U1703Z2","name":"Ústřední hřbitov","arrival_time":"12:25:00","departure_time":"12:25:00","lat":49.171209,"lon":16.59734,"is_passed":false},{"stop_id":"U1147Z2","name":"Hluboká","arrival_time":"12:26:00","departure_time":"12:26:00","lat":49.175346,"lon":16.596153,"is_passed":false},{"stop_id":"U1053Z2","name":"Celní","arrival_time":"12:27:00","departure_time":"12:27:00","lat":49.179607,"lon":16.595242,"is_passed":false},{"stop_id":"U1430Z2","name":"Nemocnice Milosrdných bratří","arrival_time":"12:28:00","departure_time":"12:28:00","lat":49.183867,"lon":16.595061,"is_passed":false},{"stop_id":"U1512Z2","name":"Poříčí","arrival_time":"12:30:00","departure_time":"12:30:00","lat":49.187409,"lon":16.594512,"is_passed":false},{"stop_id":"U1378Z3","name":"Mendlovo náměstí","arrival_time":"12:32:00","departure_time":"12:32:00","lat":49.190293,"lon":16.594781,"is_passed":false},{"stop_id":"U1428Z1","name":"Nemocnice u sv. Anny","arrival_time":"12:34:00","departure_time":"12:34:00","lat":49.191471,"lon":16.599302,"is_passed":false},{"stop_id":"U1637Z4","name":"Šilingrovo náměstí","arrival_time":"12:35:00","departure_time":"12:35:00","lat":49.192271,"lon":16.604367,"is_passed":false},{"stop_id":"U1073Z2","name":"Česká","arrival_time":"12:39:00","departure_time":"12:39:00","lat":49.197702,"lon":16.606463,"is_passed":false},{"stop_id":"U1397Z3","name":"Moravské náměstí","arrival_time":"12:40:00","departure_time":"12:40:00","lat":49.199309,"lon":16.609047,"is_passed":false},{"stop_id":"U1418Z1","name":"Náměstí 28. října","arrival_time":"12:41:00","departure_time":"12:41:00","lat":49.200961,"lon":16.613794,"is_passed":false},{"stop_id":"U1086Z1","name":"Dětská nemocnice","arrival_time":"12:42:00","departure_time":"12:42:00","lat":49.202836,"lon":16.618608,"is_passed":false},{"stop_id":"U1211Z3","name":"Jugoslávská","arrival_time":"12:44:00","departure_time":"12:44:00","lat":49.205084,"lon":16.624442,"is_passed":false},{"stop_id":"U1782Z1","name":"Zdráhalova","arrival_time":"12:45:00","departure_time":"12:45:00","lat":49.209297,"lon":16.623791,"is_passed":false},{"stop_id":"U1731Z1","name":"Venhudova","arrival_time":"12:46:00","departure_time":"12:46:00","lat":49.212094,"lon":16.624955,"is_passed":false},{"stop_id":"U1646Z1","name":"Štefánikova čtvrť","arrival_time":"12:48:00","departure_time":"12:55:00","lat":49.216769,"lon":16.627834,"is_passed":false}],"54416":[{"stop_id":"U1646Z2","name":"Štefánikova čtvrť","arrival_time":"12:55:00","departure_time":"12:55:00","lat":49.217169,"lon":16.627801,"is_passed":false},{"stop_id":"U1731Z2","name":"Venhudova","arrival_time":"12:56:00","departure_time":"12:56:00","lat":49.212541,"lon":16.62512,"is_passed":false},{"stop_id":"U1782Z2","name":"Zdráhalova","arrival_time":"12:57:00","departure_time":"12:57:00","lat":49.209742,"lon":16.623799,"is_passed":false},{"stop_id":"U1211Z4","name":"Jugoslávská","arrival_time":"12:58:00","departure_time":"12:58:00","lat":49.204725,"lon":16.624081,"is_passed":false},{"stop_id":"U1086Z2","name":"Dětská nemocnice","arrival_time":"12:59:00","departure_time":"12:59:00","lat":49.203029,"lon":16.619052,"is_passed":false},{"stop_id":"U1418Z2","name":"Náměstí 28. října","arrival_time":"13:00:00","departure_time":"13:00:00","lat":49.200787,"lon":16.613174,"is_passed":false},{"stop_id":"U1397Z4","name":"Moravské náměstí","arrival_time":"13:02:00","departure_time":"13:02:00","lat":49.199159,"lon":16.608704,"is_passed":false},{"stop_id":"U1073Z1","name":"Česká","arrival_time":"13:04:00","departure_time":"13:04:00","lat":49.197618,"lon":16.605584,"is_passed":false},{"stop_id":"U1637Z3","name":"Šilingrovo náměstí","arrival_time":"13:07:00","departure_time":"13:07:00","lat":49.1923,"lon":16.60424,"is_passed":false},{"stop_id":"U1428Z2","name":"Nemocnice u sv. Anny","arrival_time":"13:08:00","departure_time":"13:08:00","lat":49.191523,"lon":16.598757,"is_passed":false},{"stop_id":"U1378Z4","name":"Mendlovo náměstí","arrival_time":"13:10:00","departure_time":"13:10:00","lat":49.190204,"lon":16.594235,"is_passed":false},{"stop_id":"U1512Z1","name":"Poříčí","arrival_time":"13:12:00","departure_time":"13:12:00","lat":49.187182,"lon":16.594633,"is_passed":false},{"stop_id":"U1430Z1","name":"Nemocnice Milosrdných bratří","arrival_time":"13:13:00","departure_time":"13:13:00","lat":49.183515,"lon":16.594981,"is_passed":false},{"stop_id":"U1053Z1","name":"Celní","arrival_time":"13:15:00","departure_time":"13:15:00","lat":49.179109,"lon":16.595328,"is_passed":false},{"stop_id":"U1147Z1","name":"Hluboká","arrival_time":"13:16:00","departure_time":"13:16:00","lat":49.175524,"lon":16.596095,"is_passed":false},{"stop_id":"U1703Z1","name":"Ústřední hřbitov","arrival_time":"13:18:00","departure_time":"13:18:00","lat":49.17132,"lon":16.597273,"is_passed":false},{"stop_id":"U1706Z1","name":"Ústřední hřbitov - smyčka","arrival_time":"13:20:00","departure_time":"13:43:00","lat":49.164878,"lon":16.59805,"is_passed":false}],"54417":[{"stop_id":"U1706Z2","name":"Ústřední hřbitov - smyčka","arrival_time":"13:43:00","departure_time":"13:43:00","lat":49.16513,"lon":16.598633,"is_passed":false},{"stop_id":"U1703Z2","name":"Ústřední hřbitov","arrival_time":"13:45:00","departure_time":"13:45:00","lat":49.171209,"lon":16.59734,"is_passed":false},{"stop_id":"U1147Z2","name":"Hluboká","arrival_time":"13:46:00","departure_time":"13:46:00","lat":49.175346,"lon":16.596153,"is_passed":false},{"stop_id":"U1053Z2","name":"Celní","arrival_time":"13:47:00","departure_time":"13:47:00","lat":49.179607,"lon":16.595242,"is_passed":false},{"stop_id":"U1430Z2","name":"Nemocnice Milosrdných bratří","arrival_time":"13:48:00","departure_time":"13:48:00","lat":49.183867,"lon":16.595061,"is_passed":false},{"stop_id":"U1512Z2","name":"Poříčí","arrival_time":"13:50:00","departure_time":"13:50:00","lat":49.187409,"lon":16.594512,"is_passed":false},{"stop_id":"U1378Z3","name":"Mendlovo náměstí","arrival_time":"13:52:00","departure_time":"13:52:00","lat":49.190293,"lon":16.594781,"is_passed":false},{"stop_id":"U1428Z1","name":"Nemocnice u sv. Anny","arrival_time":"13:54:00","departure_time":"13:54:00","lat":49.191471,"lon":16.599302,"is_passed":false},{"stop_id":"U1637Z4","name":"Šilingrovo náměstí","arrival_time":"13:55:00","departure_time":"13:55:00","lat":49.192271,"lon":16.604367,"is_passed":false},{"stop_id":"U1073Z2","name":"Česká","arrival_time":"13:59:00","departure_time":"13:59:00","lat":49.197702,"lon":16.606463,"is_passed":false},{"stop_id":"U1397Z3","name":"Moravské náměstí","arrival_time":"14:00:00","departure_time":"14:00:00","lat":49.199309,"lon":16.609047,"is_passed":false},{"stop_id":"U1418Z1","name":"Náměstí 28. října","arrival_time":"14:01:00","departure_time":"14:01:00","lat":49.200961,"lon":16.613794,"is_passed":false},{"stop_id":"U1086Z1","name":"Dětská nemocnice","arrival_time":"14:02:00","departure_time":"14:02:00","lat":49.202836,"lon":16.618608,"is_passed":false},{"stop_id":"U1211Z3","name":"Jugoslávská","arrival_time":"14:04:00","departure_time":"14:04:00","lat":49.205084,"lon":16.624442,"is_passed":false},{"stop_id":"U1782Z1","name":"Zdráhalova","arrival_time":"14:05:00","departure_time":"14:05:00","lat":49.209297,"lon":16.623791,"is_passed":false},{"stop_id":"U1731Z1","name":"Venhudova","arrival_time":"14:06:00","departure_time":"14:06:00","lat":49.212094,"lon":16.624955,"is_passed":false},{"stop_id":"U1646Z1","name":"Štefánikova čtvrť","arrival_time":"14:08:00","departure_time":"14:15:00","lat":49.216769,"lon":16.627834,"is_passed":false}],"54418":[{"stop_id":"U1646Z2","name":"Štefánikova čtvrť","arrival_time":"14:15:00","departure_time":"14:15:00","lat":49.217169,"lon":16.627801,"is_passed":false},{"stop_id":"U1731Z2","name":"Venhudova","arrival_time":"14:16:00","departure_time":"14:16:00","lat":49.212541,"lon":16.62512,"is_passed":false},{"stop_id":"U1782Z2","name":"Zdráhalova","arrival_time":"14:17:00","departure_time":"14:17:00","lat":49.209742,"lon":16.623799,"is_passed":false},{"stop_id":"U1211Z4","name":"Jugoslávská","arrival_time":"14:18:00","departure_time":"14:18:00","lat":49.204725,"lon":16.624081,"is_passed":false},{"stop_id":"U1086Z2","name":"Dětská nemocnice","arrival_time":"14:19:00","departure_time":"14:19:00","lat":49.203029,"lon":16.619052,"is_passed":false},{"stop_id":"U1418Z2","name":"Náměstí 28. října","arrival_time":"14:20:00","departure_time":"14:20:00","lat":49.200787,"lon":16.613174,"is_passed":false},{"stop_id":"U1397Z4","name":"Moravské náměstí","arrival_time":"14:22:00","departure_time":"14:22:00","lat":49.199159,"lon":16.608704,"is_passed":false},{"stop_id":"U1073Z1","name":"Česká","arrival_time":"14:24:00","departure_time":"14:24:00","lat":49.197618,"lon":16.605584,"is_passed":false},{"stop_id":"U1637Z3","name":"Šilingrovo náměstí","arrival_time":"14:27:00","departure_time":"14:27:00","lat":49.1923,"lon":16.60424,"is_passed":false},{"stop_id":"U1428Z2","name":"Nemocnice u sv. Anny","arrival_time":"14:28:00","departure_time":"14:28:00","lat":49.191523,"lon":16.598757,"is_passed":false},{"stop_id":"U1378Z4","name":"Mendlovo náměstí","arrival_time":"14:30:00","departure_time":"14:30:00","lat":49.190204,"lon":16.594235,"is_passed":false},{"stop_id":"U1512Z1","name":"Poříčí","arrival_time":"14:32:00","departure_time":"14:32:00","lat":49.187182,"lon":16.594633,"is_passed":false},{"stop_id":"U1430Z1","name":"Nemocnice Milosrdných bratří","arrival_time":"14:33:00","departure_time":"14:33:00","lat":49.183515,"lon":16.594981,"is_passed":false},{"stop_id":"U1053Z1","name":"Celní","arrival_time":"14:35:00","departure_time":"14:35:00","lat":49.179109,"lon":16.595328,"is_passed":false},{"stop_id":"U1147Z1","name":"Hluboká","arrival_time":"14:36:00","departure_time":"14:36:00","lat":49.175524,"lon":16.596095,"is_passed":false},{"stop_id":"U1703Z1","name":"Ústřední hřbitov","arrival_time":"14:38:00","departure_time":"14:38:00","lat":49.17132,"lon":16.597273,"is_passed":false},{"stop_id":"U1706Z1","name":"Ústřední hřbitov - smyčka","arrival_time":"14:40:00","departure_time":"15:23:00","lat":49.164878,"lon":16.59805,"is_passed":false}],"54419":[{"stop_id":"U1706Z2","name":"Ústřední hřbitov - smyčka","arrival_time":"15:23:00","departure_time":"15:23:00","lat":49.16513,"lon":16.598633,"is_passed":false},{"stop_id":"U1703Z2","name":"Ústřední hřbitov","arrival_time":"15:25:00","departure_time":"15:25:00","lat":49.171209,"lon":16.59734,"is_passed":false},{"stop_id":"U1147Z2","name":"Hluboká","arrival_time":"15:26:00","departure_time":"15:26:00","lat":49.175346,"lon":16.596153,"is_passed":false},{"stop_id":"U1053Z2","name":"Celní","arrival_time":"15:27:00","departure_time":"15:27:00","lat":49.179607,"lon":16.595242,"is_passed":false},{"stop_id":"U1430Z2","name":"Nemocnice Milosrdných bratří","arrival_time":"15:28:00","departure_time":"15:28:00","lat":49.183867,"lon":16.595061,"is_passed":false},{"stop_id":"U1512Z2","name":"Poříčí","arrival_time":"15:30:00","departure_time":"15:30:00","lat":49.187409,"lon":16.594512,"is_passed":false},{"stop_id":"U1378Z3","name":"Mendlovo náměstí","arrival_time":"15:32:00","departure_time":"15:32:00","lat":49.190293,"lon":16.594781,"is_passed":false},{"stop_id":"U1428Z1","name":"Nemocnice u sv. Anny","arrival_time":"15:34:00","departure_time":"15:34:00","lat":49.191471,"lon":16.599302,"is_passed":false},{"stop_id":"U1637Z4","name":"Šilingrovo náměstí","arrival_time":"15:35:00","departure_time":"15:35:00","lat":49.192271,"lon":16.604367,"is_passed":false},{"stop_id":"U1073Z2","name":"Česká","arrival_time":"15:39:00","departure_time":"15:39:00","lat":49.197702,"lon":16.606463,"is_passed":false},{"stop_id":"U1397Z3","name":"Moravské náměstí","arrival_time":"15:40:00","departure_time":"15:40:00","lat":49.199309,"lon":16.609047,"is_passed":false},{"stop_id":"U1418Z1","name":"Náměstí 28. října","arrival_time":"15:41:00","departure_time":"15:41:00","lat":49.200961,"lon":16.613794,"is_passed":false},{"stop_id":"U1086Z1","name":"Dětská nemocnice","arrival_time":"15:42:00","departure_time":"15:42:00","lat":49.202836,"lon":16.618608,"is_passed":false},{"stop_id":"U1211Z3","name":"Jugoslávská","arrival_time":"15:44:00","departure_time":"15:44:00","lat":49.205084,"lon":16.624442,"is_passed":false},{"stop_id":"U1782Z1","name":"Zdráhalova","arrival_time":"15:45:00","departure_time":"15:45:00","lat":49.209297,"lon":16.623791,"is_passed":false},{"stop_id":"U1731Z1","name":"Venhudova","arrival_time":"15:46:00","departure_time":"15:46:00","lat":49.212094,"lon":16.624955,"is_passed":false},{"stop_id":"U1646Z1","name":"Štefánikova čtvrť","arrival_time":"15:48:00","departure_time":"15:55:00","lat":49.216769,"lon":16.627834,"is_passed":false}],"54420":[{"stop_id":"U1646Z2","name":"Štefánikova čtvrť","arrival_time":"15:55:00","departure_time":"15:55:00","lat":49.217169,"lon":16.627801,"is_passed":false},{"stop_id":"U1731Z2","name":"Venhudova","arrival_time":"15:56:00","departure_time":"15:56:00","lat":49.212541,"lon":16.62512,"is_passed":false},{"stop_id":"U1782Z2","name":"Zdráhalova","arrival_time":"15:57:00","departure_time":"15:57:00","lat":49.209742,"lon":16.623799,"is_passed":false},{"stop_id":"U1211Z4","name":"Jugoslávská","arrival_time":"15:58:00","departure_time":"15:58:00","lat":49.204725,"lon":16.624081,"is_passed":false},{"stop_id":"U1086Z2","name":"Dětská nemocnice","arrival_time":"15:59:00","departure_time":"15:59:00","lat":49.203029,"lon":16.619052,"is_passed":false},{"stop_id":"U1418Z2","name":"Náměstí 28. října","arrival_time":"16:00:00","departure_time":"16:00:00","lat":49.200787,"lon":16.613174,"is_passed":false},{"stop_id":"U1397Z4","name":"Moravské náměstí","arrival_time":"16:02:00","departure_time":"16:02:00","lat":49.199159,"lon":16.608704,"is_passed":false},{"stop_id":"U1073Z1","name":"Česká","arrival_time":"16:04:00","departure_time":"16:04:00","lat":49.197618,"lon":16.605584,"is_passed":false},{"stop_id":"U1637Z3","name":"Šilingrovo náměstí","arrival_time":"16:07:00","departure_time":"16:07:00","lat":49.1923,"lon":16.60424,"is_passed":false},{"stop_id":"U1428Z2","name":"Nemocnice u sv. Anny","arrival_time":"16:08:00","departure_time":"16:08:00","lat":49.191523,"lon":16.598757,"is_passed":false},{"stop_id":"U1378Z4","name":"Mendlovo náměstí","arrival_time":"16:10:00","departure_time":"16:10:00","lat":49.190204,"lon":16.594235,"is_passed":false},{"stop_id":"U1512Z1","name":"Poříčí","arrival_time":"16:12:00","departure_time":"16:12:00","lat":49.187182,"lon":16.594633,"is_passed":false},{"stop_id":"U1430Z1","name":"Nemocnice Milosrdných bratří","arrival_time":"16:13:00","departure_time":"16:13:00","lat":49.183515,"lon":16.594981,"is_passed":false},{"stop_id":"U1053Z1","name":"Celní","arrival_time":"16:15:00","departure_time":"16:15:00","lat":49.179109,"lon":16.595328,"is_passed":false},{"stop_id":"U1147Z1","name":"Hluboká","arrival_time":"16:16:00","departure_time":"16:16:00","lat":49.175524,"lon":16.596095,"is_passed":false},{"stop_id":"U1703Z1","name":"Ústřední hřbitov","arrival_time":"16:18:00","departure_time":"16:18:00","lat":49.17132,"lon":16.597273,"is_passed":false},{"stop_id":"U1706Z1","name":"Ústřední hřbitov - smyčka","arrival_time":"16:20:00","departure_time":"16:43:00","lat":49.164878,"lon":16.59805,"is_passed":false}],"54421":[{"stop_id":"U1706Z2","name":"Ústřední hřbitov - smyčka","arrival_time":"16:43:00","departure_time":"16:43:00","lat":49.16513,"lon":16.598633,"is_passed":false},{"stop_id":"U1703Z2","name":"Ústřední hřbitov","arrival_time":"16:45:00","departure_time":"16:45:00","lat":49.171209,"lon":16.59734,"is_passed":false},{"stop_id":"U1147Z2","name":"Hluboká","arrival_time":"16:46:00","departure_time":"16:46:00","lat":49.175346,"lon":16.596153,"is_passed":false},{"stop_id":"U1053Z2","name":"Celní","arrival_time":"16:47:00","departure_time":"16:47:00","lat":49.179607,"lon":16.595242,"is_passed":false},{"stop_id":"U1430Z2","name":"Nemocnice Milosrdných bratří","arrival_time":"16:48:00","departure_time":"16:48:00","lat":49.183867,"lon":16.595061,"is_passed":false},{"stop_id":"U1512Z2","name":"Poříčí","arrival_time":"16:50:00","departure_time":"16:50:00","lat":49.187409,"lon":16.594512,"is_passed":false},{"stop_id":"U1378Z3","name":"Mendlovo náměstí","arrival_time":"16:52:00","departure_time":"16:52:00","lat":49.190293,"lon":16.594781,"is_passed":false},{"stop_id":"U1428Z1","name":"Nemocnice u sv. Anny","arrival_time":"16:54:00","departure_time":"16:54:00","lat":49.191471,"lon":16.599302,"is_passed":false},{"stop_id":"U1637Z4","name":"Šilingrovo náměstí","arrival_time":"16:55:00","departure_time":"16:55:00","lat":49.192271,"lon":16.604367,"is_passed":false},{"stop_id":"U1073Z2","name":"Česká","arrival_time":"16:59:00","departure_time":"16:59:00","lat":49.197702,"lon":16.606463,"is_passed":false},{"stop_id":"U1397Z3","name":"Moravské náměstí","arrival_time":"17:00:00","departure_time":"17:00:00","lat":49.199309,"lon":16.609047,"is_passed":false},{"stop_id":"U1418Z1","name":"Náměstí 28. října","arrival_time":"17:01:00","departure_time":"17:01:00","lat":49.200961,"lon":16.613794,"is_passed":false},{"stop_id":"U1086Z1","name":"Dětská nemocnice","arrival_time":"17:02:00","departure_time":"17:02:00","lat":49.202836,"lon":16.618608,"is_passed":false},{"stop_id":"U1211Z3","name":"Jugoslávská","arrival_time":"17:04:00","departure_time":"17:04:00","lat":49.205084,"lon":16.624442,"is_passed":false},{"stop_id":"U1782Z1","name":"Zdráhalova","arrival_time":"17:05:00","departure_time":"17:05:00","lat":49.209297,"lon":16.623791,"is_passed":false},{"stop_id":"U1731Z1","name":"Venhudova","arrival_time":"17:06:00","departure_time":"17:06:00","lat":49.212094,"lon":16.624955,"is_passed":false},{"stop_id":"U1646Z1","name":"Štefánikova čtvrť","arrival_time":"17:08:00","departure_time":"17:15:00","lat":49.216769,"lon":16.627834,"is_passed":false}],"54422":[{"stop_id":"U1646Z2","name":"Štefánikova čtvrť","arrival_time":"17:15:00","departure_time":"17:15:00","lat":49.217169,"lon":16.627801,"is_passed":false},{"stop_id":"U1731Z2","name":"Venhudova","arrival_time":"17:16:00","departure_time":"17:16:00","lat":49.212541,"lon":16.62512,"is_passed":false},{"stop_id":"U1782Z2","name":"Zdráhalova","arrival_time":"17:17:00","departure_time":"17:17:00","lat":49.209742,"lon":16.623799,"is_passed":false},{"stop_id":"U1211Z4","name":"Jugoslávská","arrival_time":"17:18:00","departure_time":"17:18:00","lat":49.204725,"lon":16.624081,"is_passed":false},{"stop_id":"U1086Z2","name":"Dětská nemocnice","arrival_time":"17:19:00","departure_time":"17:19:00","lat":49.203029,"lon":16.619052,"is_passed":false},{"stop_id":"U1418Z2","name":"Náměstí 28. října","arrival_time":"17:20:00","departure_time":"17:20:00","lat":49.200787,"lon":16.613174,"is_passed":false},{"stop_id":"U1397Z4","name":"Moravské náměstí","arrival_time":"17:22:00","departure_time":"17:22:00","lat":49.199159,"lon":16.608704,"is_passed":false},{"stop_id":"U1073Z1","name":"Česká","arrival_time":"17:24:00","departure_time":"17:24:00","lat":49.197618,"lon":16.605584,"is_passed":false},{"stop_id":"U1637Z3","name":"Šilingrovo náměstí","arrival_time":"17:27:00","departure_time":"17:27:00","lat":49.1923,"lon":16.60424,"is_passed":false},{"stop_id":"U1428Z2","name":"Nemocnice u sv. Anny","arrival_time":"17:28:00","departure_time":"17:28:00","lat":49.191523,"lon":16.598757,"is_passed":false},{"stop_id":"U1378Z4","name":"Mendlovo náměstí","arrival_time":"17:30:00","departure_time":"17:30:00","lat":49.190204,"lon":16.594235,"is_passed":false},{"stop_id":"U1512Z1","name":"Poříčí","arrival_time":"17:32:00","departure_time":"17:32:00","lat":49.187182,"lon":16.594633,"is_passed":false},{"stop_id":"U1430Z1","name":"Nemocnice Milosrdných bratří","arrival_time":"17:33:00","departure_time":"17:33:00","lat":49.183515,"lon":16.594981,"is_passed":false},{"stop_id":"U1053Z1","name":"Celní","arrival_time":"17:35:00","departure_time":"17:35:00","lat":49.179109,"lon":16.595328,"is_passed":false},{"stop_id":"U1147Z1","name":"Hluboká","arrival_time":"17:36:00","departure_time":"17:36:00","lat":49.175524,"lon":16.596095,"is_passed":false},{"stop_id":"U1703Z1","name":"Ústřední hřbitov","arrival_time":"17:38:00","departure_time":"17:38:00","lat":49.17132,"lon":16.597273,"is_passed":false},{"stop_id":"U1706Z1","name":"Ústřední hřbitov - smyčka","arrival_time":"17:40:00","departure_time":"18:03:00","lat":49.164878,"lon":16.59805,"is_passed":false}],"54423":[{"stop_id":"U1706Z2","name":"Ústřední hřbitov - smyčka","arrival_time":"18:03:00","departure_time":"18:03:00","lat":49.16513,"lon":16.598633,"is_passed":false},{"stop_id":"U1703Z2","name":"Ústřední hřbitov","arrival_time":"18:05:00","departure_time":"18:05:00","lat":49.171209,"lon":16.59734,"is_passed":false},{"stop_id":"U1147Z2","name":"Hluboká","arrival_time":"18:06:00","departure_time":"18:06:00","lat":49.175346,"lon":16.596153,"is_passed":false},{"stop_id":"U1053Z2","name":"Celní","arrival_time":"18:07:00","departure_time":"18:07:00","lat":49.179607,"lon":16.595242,"is_passed":false},{"stop_id":"U1430Z2","name":"Nemocnice Milosrdných bratří","arrival_time":"18:08:00","departure_time":"18:08:00","lat":49.183867,"lon":16.595061,"is_passed":false},{"stop_id":"U1512Z2","name":"Poříčí","arrival_time":"18:10:00","departure_time":"18:10:00","lat":49.187409,"lon":16.594512,"is_passed":false},{"stop_id":"U1378Z3","name":"Mendlovo náměstí","arrival_time":"18:12:00","departure_time":"18:12:00","lat":49.190293,"lon":16.594781,"is_passed":false},{"stop_id":"U1428Z1","name":"Nemocnice u sv. Anny","arrival_time":"18:14:00","departure_time":"18:14:00","lat":49.191471,"lon":16.599302,"is_passed":false},{"stop_id":"U1637Z4","name":"Šilingrovo náměstí","arrival_time":"18:15:00","departure_time":"18:15:00","lat":49.192271,"lon":16.604367,"is_passed":false},{"stop_id":"U1073Z2","name":"Česká","arrival_time":"18:19:00","departure_time":"18:19:00","lat":49.197702,"lon":16.606463,"is_passed":false},{"stop_id":"U1397Z3","name":"Moravské náměstí","arrival_time":"18:20:00","departure_time":"18:20:00","lat":49.199309,"lon":16.609047,"is_passed":false},{"stop_id":"U1418Z1","name":"Náměstí 28. října","arrival_time":"18:21:00","departure_time":"18:21:00","lat":49.200961,"lon":16.613794,"is_passed":false},{"stop_id":"U1086Z1","name":"Dětská nemocnice","arrival_time":"18:22:00","departure_time":"18:22:00","lat":49.202836,"lon":16.618608,"is_passed":false},{"stop_id":"U1211Z3","name":"Jugoslávská","arrival_time":"18:24:00","departure_time":"18:24:00","lat":49.205084,"lon":16.624442,"is_passed":false},{"stop_id":"U1782Z1","name":"Zdráhalova","arrival_time":"18:25:00","departure_time":"18:25:00","lat":49.209297,"lon":16.623791,"is_passed":false},{"stop_id":"U1731Z1","name":"Venhudova","arrival_time":"18:26:00","departure_time":"18:26:00","lat":49.212094,"lon":16.624955,"is_passed":false},{"stop_id":"U1646Z1","name":"Štefánikova čtvrť","arrival_time":"18:28:00","departure_time":"18:35:00","lat":49.216769,"lon":16.627834,"is_passed":false}],"54424":[{"stop_id":"U1646Z2","name":"Štefánikova čtvrť","arrival_time":"18:35:00","departure_time":"18:35:00","lat":49.217169,"lon":16.627801,"is_passed":false},{"stop_id":"U1731Z2","name":"Venhudova","arrival_time":"18:36:00","departure_time":"18:36:00","lat":49.212541,"lon":16.62512,"is_passed":false},{"stop_id":"U1782Z2","name":"Zdráhalova","arrival_time":"18:37:00","departure_time":"18:37:00","lat":49.209742,"lon":16.623799,"is_passed":false},{"stop_id":"U1211Z4","name":"Jugoslávská","arrival_time":"18:38:00","departure_time":"18:38:00","lat":49.204725,"lon":16.624081,"is_passed":false},{"stop_id":"U1086Z2","name":"Dětská nemocnice","arrival_time":"18:39:00","departure_time":"18:39:00","lat":49.203029,"lon":16.619052,"is_passed":false},{"stop_id":"U1418Z2","name":"Náměstí 28. října","arrival_time":"18:40:00","departure_time":"18:40:00","lat":49.200787,"lon":16.613174,"is_passed":false},{"stop_id":"U1397Z4","name":"Moravské náměstí","arrival_time":"18:42:00","departure_time":"18:42:00","lat":49.199159,"lon":16.608704,"is_passed":false},{"stop_id":"U1073Z1","name":"Česká","arrival_time":"18:44:00","departure_time":"18:44:00","lat":49.197618,"lon":16.605584,"is_passed":false},{"stop_id":"U1637Z3","name":"Šilingrovo náměstí","arrival_time":"18:47:00","departure_time":"18:47:00","lat":49.1923,"lon":16.60424,"is_passed":false},{"stop_id":"U1428Z2","name":"Nemocnice u sv. Anny","arrival_time":"18:48:00","departure_time":"18:48:00","lat":49.191523,"lon":16.598757,"is_passed":false},{"stop_id":"U1378Z4","name":"Mendlovo náměstí","arrival_time":"18:50:00","departure_time":"18:50:00","lat":49.190204,"lon":16.594235,"is_passed":false},{"stop_id":"U1512Z1","name":"Poříčí","arrival_time":"18:52:00","departure_time":"18:52:00","lat":49.187182,"lon":16.594633,"is_passed":false},{"stop_id":"U1430Z1","name":"Nemocnice Milosrdných bratří","arrival_time":"18:53:00","departure_time":"18:53:00","lat":49.183515,"lon":16.594981,"is_passed":false},{"stop_id":"U1053Z1","name":"Celní","arrival_time":"18:55:00","departure_time":"18:55:00","lat":49.179109,"lon":16.595328,"is_passed":false},{"stop_id":"U1147Z1","name":"Hluboká","arrival_time":"18:56:00","departure_time":"18:56:00","lat":49.175524,"lon":16.596095,"is_passed":false},{"stop_id":"U1703Z1","name":"Ústřední hřbitov","arrival_time":"18:58:00","departure_time":"18:58:00","lat":49.17132,"lon":16.597273,"is_passed":false},{"stop_id":"U1706Z1","name":"Ústřední hřbitov - smyčka","arrival_time":"19:00:00","departure_time":"19:23:00","lat":49.164878,"lon":16.59805,"is_passed":false}],"54425":[{"stop_id":"U1706Z2","name":"Ústřední hřbitov - smyčka","arrival_time":"19:23:00","departure_time":"19:23:00","lat":49.16513,"lon":16.598633,"is_passed":false},{"stop_id":"U1703Z2","name":"Ústřední hřbitov","arrival_time":"19:25:00","departure_time":"19:25:00","lat":49.171209,"lon":16.59734,"is_passed":false},{"stop_id":"U1147Z2","name":"Hluboká","arrival_time":"19:26:00","departure_time":"19:26:00","lat":49.175346,"lon":16.596153,"is_passed":false},{"stop_id":"U1053Z2","name":"Celní","arrival_time":"19:27:00","departure_time":"19:27:00","lat":49.179607,"lon":16.595242,"is_passed":false},{"stop_id":"U1430Z2","name":"Nemocnice Milosrdných bratří","arrival_time":"19:28:00","departure_time":"19:28:00","lat":49.183867,"lon":16.595061,"is_passed":false},{"stop_id":"U1512Z2","name":"Poříčí","arrival_time":"19:30:00","departure_time":"19:30:00","lat":49.187409,"lon":16.594512,"is_passed":false},{"stop_id":"U1378Z3","name":"Mendlovo náměstí","arrival_time":"19:32:00","departure_time":"19:32:00","lat":49.190293,"lon":16.594781,"is_passed":false},{"stop_id":"U1428Z1","name":"Nemocnice u sv. Anny","arrival_time":"19:34:00","departure_time":"19:34:00","lat":49.191471,"lon":16.599302,"is_passed":false},{"stop_id":"U1637Z4","name":"Šilingrovo náměstí","arrival_time":"19:35:00","departure_time":"19:35:00","lat":49.192271,"lon":16.604367,"is_passed":false},{"stop_id":"U1073Z2","name":"Česká","arrival_time":"19:39:00","departure_time":"19:39:00","lat":49.197702,"lon":16.606463,"is_passed":false},{"stop_id":"U1397Z3","name":"Moravské náměstí","arrival_time":"19:40:00","departure_time":"19:40:00","lat":49.199309,"lon":16.609047,"is_passed":false},{"stop_id":"U1418Z1","name":"Náměstí 28. října","arrival_time":"19:41:00","departure_time":"19:41:00","lat":49.200961,"lon":16.613794,"is_passed":false},{"stop_id":"U1086Z1","name":"Dětská nemocnice","arrival_time":"19:42:00","departure_time":"19:42:00","lat":49.202836,"lon":16.618608,"is_passed":false},{"stop_id":"U1211Z3","name":"Jugoslávská","arrival_time":"19:44:00","departure_time":"19:44:00","lat":49.205084,"lon":16.624442,"is_passed":false},{"stop_id":"U1782Z1","name":"Zdráhalova","arrival_time":"19:45:00","departure_time":"19:45:00","lat":49.209297,"lon":16.623791,"is_passed":false},{"stop_id":"U1731Z1","name":"Venhudova","arrival_time":"19:46:00","departure_time":"19:46:00","lat":49.212094,"lon":16.624955,"is_passed":false},{"stop_id":"U1646Z1","name":"Štefánikova čtvrť","arrival_time":"19:48:00","departure_time":"19:55:00","lat":49.216769,"lon":16.627834,"is_passed":false}],"54426":[{"stop_id":"U1646Z2","name":"Štefánikova čtvrť","arrival_time":"19:55:00","departure_time":"19:55:00","lat":49.217169,"lon":16.627801,"is_passed":false},{"stop_id":"U1731Z2","name":"Venhudova","arrival_time":"19:56:00","departure_time":"19:56:00","lat":49.212541,"lon":16.62512,"is_passed":false},{"stop_id":"U1782Z2","name":"Zdráhalova","arrival_time":"19:57:00","departure_time":"19:57:00","lat":49.209742,"lon":16.623799,"is_passed":false},{"stop_id":"U1211Z4","name":"Jugoslávská","arrival_time":"19:58:00","departure_time":"19:58:00","lat":49.204725,"lon":16.624081,"is_passed":false},{"stop_id":"U1086Z2","name":"Dětská nemocnice","arrival_time":"19:59:00","departure_time":"19:59:00","lat":49.203029,"lon":16.619052,"is_passed":false},{"stop_id":"U1418Z2","name":"Náměstí 28. října","arrival_time":"20:00:00","departure_time":"20:00:00","lat":49.200787,"lon":16.613174,"is_passed":false},{"stop_id":"U1397Z4","name":"Moravské náměstí","arrival_time":"20:02:00","departure_time":"20:02:00","lat":49.199159,"lon":16.608704,"is_passed":false},{"stop_id":"U1073Z1","name":"Česká","arrival_time":"20:04:00","departure_time":"20:04:00","lat":49.197618,"lon":16.605584,"is_passed":false},{"stop_id":"U1637Z3","name":"Šilingrovo náměstí","arrival_time":"20:07:00","departure_time":"20:07:00","lat":49.1923,"lon":16.60424,"is_passed":false},{"stop_id":"U1428Z2","name":"Nemocnice u sv. Anny","arrival_time":"20:08:00","departure_time":"20:08:00","lat":49.191523,"lon":16.598757,"is_passed":false},{"stop_id":"U1378Z1","name":"Mendlovo náměstí","arrival_time":"20:10:00","departure_time":"20:10:00","lat":49.189659,"lon":16.592283,"is_passed":false},{"stop_id":"U1768Z1","name":"Výstaviště - hlavní vstup","arrival_time":"20:12:00","departure_time":"20:12:00","lat":49.189583,"lon":16.584499,"is_passed":false},{"stop_id":"U1769Z1","name":"Výstaviště - vstup G2","arrival_time":"20:13:00","departure_time":"20:13:00","lat":49.190338,"lon":16.579837,"is_passed":false},{"stop_id":"U1343Z1","name":"ARENA BRNO","arrival_time":"20:14:00","departure_time":"20:14:00","lat":49.191523,"lon":16.576065,"is_passed":false}],"54427":[{"stop_id":"U1343Z2","name":"ARENA BRNO","arrival_time":"7:29:00","departure_time":"7:29:00","lat":49.191387,"lon":16.576425,"is_passed":false},{"stop_id":"U1769Z2","name":"Výstaviště - vstup G2","arrival_time":"7:30:00","departure_time":"7:30:00","lat":49.190207,"lon":16.580555,"is_passed":false},{"stop_id":"U1768Z2","name":"Výstaviště - hlavní vstup","arrival_time":"7:31:00","departure_time":"7:31:00","lat":49.189325,"lon":16.585699,"is_passed":false},{"stop_id":"U1378Z3","name":"Mendlovo náměstí","arrival_time":"7:33:00","departure_time":"7:33:00","lat":49.190293,"lon":16.594781,"is_passed":false},{"stop_id":"U1428Z1","name":"Nemocnice u sv. Anny","arrival_time":"7:35:00","departure_time":"7:35:00","lat":49.191471,"lon":16.599302,"is_passed":false},{"stop_id":"U1637Z4","name":"Šilingrovo náměstí","arrival_time":"7:36:00","departure_time":"7:36:00","lat":49.192271,"lon":16.604367,"is_passed":false},{"stop_id":"U1073Z2","name":"Česká","arrival_time":"7:39:00","departure_time":"7:39:00","lat":49.197702,"lon":16.606463,"is_passed":false},{"stop_id":"U1397Z3","name":"Moravské náměstí","arrival_time":"7:40:00","departure_time":"7:40:00","lat":49.199309,"lon":16.609047,"is_passed":false},{"stop_id":"U1418Z1","name":"Náměstí 28. října","arrival_time":"7:41:00","departure_time":"7:41:00","lat":49.200961,"lon":16.613794,"is_passed":false},{"stop_id":"U1086Z1","name":"Dětská nemocnice","arrival_time":"7:42:00","departure_time":"7:42:00","lat":49.202836,"lon":16.618608,"is_passed":false},{"stop_id":"U1211Z3","name":"Jugoslávská","arrival_time":"7:44:00","departure_time":"7:44:00","lat":49.205084,"lon":16.624442,"is_passed":false},{"stop_id":"U1782Z1","name":"Zdráhalova","arrival_time":"7:45:00","departure_time":"7:45:00","lat":49.209297,"lon":16.623791,"is_passed":false},{"stop_id":"U1731Z1","name":"Venhudova","arrival_time":"7:46:00","departure_time":"7:46:00","lat":49.212094,"lon":16.624955,"is_passed":false},{"stop_id":"U1646Z1","name":"Štefánikova čtvrť","arrival_time":"7:48:00","departure_time":"7:48:00","lat":49.216769,"lon":16.627834,"is_passed":false}],"54428":[{"stop_id":"U1646Z2","name":"Štefánikova čtvrť","arrival_time":"8:02:00","departure_time":"8:02:00","lat":49.217169,"lon":16.627801,"is_passed":false},{"stop_id":"U1731Z2","name":"Venhudova","arrival_time":"8:03:00","departure_time":"8:03:00","lat":49.212541,"lon":16.62512,"is_passed":false},{"stop_id":"U1782Z2","name":"Zdráhalova","arrival_time":"8:04:00","departure_time":"8:04:00","lat":49.209742,"lon":16.623799,"is_passed":false},{"stop_id":"U1211Z4","name":"Jugoslávská","arrival_time":"8:05:00","departure_time":"8:05:00","lat":49.204725,"lon":16.624081,"is_passed":false},{"stop_id":"U1086Z2","name":"Dětská nemocnice","arrival_time":"8:06:00","departure_time":"8:06:00","lat":49.203029,"lon":16.619052,"is_passed":false},{"stop_id":"U1418Z2","name":"Náměstí 28. října","arrival_time":"8:07:00","departure_time":"8:07:00","lat":49.200787,"lon":16.613174,"is_passed":false},{"stop_id":"U1397Z4","name":"Moravské náměstí","arrival_time":"8:09:00","departure_time":"8:09:00","lat":49.199159,"lon":16.608704,"is_passed":false},{"stop_id":"U1073Z1","name":"Česká","arrival_time":"8:11:00","departure_time":"8:11:00","lat":49.197618,"lon":16.605584,"is_passed":false},{"stop_id":"U1637Z3","name":"Šilingrovo náměstí","arrival_time":"8:13:00","departure_time":"8:13:00","lat":49.1923,"lon":16.60424,"is_passed":false},{"stop_id":"U1428Z2","name":"Nemocnice u sv. Anny","arrival_time":"8:14:00","departure_time":"8:14:00","lat":49.191523,"lon":16.598757,"is_passed":false},{"stop_id":"U1378Z4","name":"Mendlovo náměstí","arrival_time":"8:16:00","departure_time":"8:16:00","lat":49.190204,"lon":16.594235,"is_passed":false},{"stop_id":"U1512Z1","name":"Poříčí","arrival_time":"8:18:00","departure_time":"8:18:00","lat":49.187182,"lon":16.594633,"is_passed":false},{"stop_id":"U1430Z1","name":"Nemocnice Milosrdných bratří","arrival_time":"8:19:00","departure_time":"8:19:00","lat":49.183515,"lon":16.594981,"is_passed":false},{"stop_id":"U1053Z1","name":"Celní","arrival_time":"8:21:00","departure_time":"8:21:00","lat":49.179109,"lon":16.595328,"is_passed":false},{"stop_id":"U1147Z1","name":"Hluboká","arrival_time":"8:22:00","departure_time":"8:22:00","lat":49.175524,"lon":16.596095,"is_passed":false},{"stop_id":"U1703Z1","name":"Ústřední hřbitov","arrival_time":"8:23:00","departure_time":"8:23:00","lat":49.17132,"lon":16.597273,"is_passed":false},{"stop_id":"U1706Z1","name":"Ústřední hřbitov - smyčka","arrival_time":"8:25:00","departure_time":"8:43:00","lat":49.164878,"lon":16.59805,"is_passed":false}],"54429":[{"stop_id":"U1706Z2","name":"Ústřední hřbitov - smyčka","arrival_time":"8:43:00","departure_time":"8:43:00","lat":49.16513,"lon":16.598633,"is_passed":false},{"stop_id":"U1703Z2","name":"Ústřední hřbitov","arrival_time":"8:45:00","departure_time":"8:45:00","lat":49.171209,"lon":16.59734,"is_passed":false},{"stop_id":"U1147Z2","name":"Hluboká","arrival_time":"8:46:00","departure_time":"8:46:00","lat":49.175346,"lon":16.596153,"is_passed":false},{"stop_id":"U1053Z2","name":"Celní","arrival_time":"8:47:00","departure_time":"8:47:00","lat":49.179607,"lon":16.595242,"is_passed":false},{"stop_id":"U1430Z2","name":"Nemocnice Milosrdných bratří","arrival_time":"8:48:00","departure_time":"8:48:00","lat":49.183867,"lon":16.595061,"is_passed":false},{"stop_id":"U1512Z2","name":"Poříčí","arrival_time":"8:50:00","departure_time":"8:50:00","lat":49.187409,"lon":16.594512,"is_passed":false},{"stop_id":"U1378Z3","name":"Mendlovo náměstí","arrival_time":"8:52:00","departure_time":"8:52:00","lat":49.190293,"lon":16.594781,"is_passed":false},{"stop_id":"U1428Z1","name":"Nemocnice u sv. Anny","arrival_time":"8:54:00","departure_time":"8:54:00","lat":49.191471,"lon":16.599302,"is_passed":false},{"stop_id":"U1637Z4","name":"Šilingrovo náměstí","arrival_time":"8:55:00","departure_time":"8:55:00","lat":49.192271,"lon":16.604367,"is_passed":false},{"stop_id":"U1073Z2","name":"Česká","arrival_time":"8:59:00","departure_time":"8:59:00","lat":49.197702,"lon":16.606463,"is_passed":false},{"stop_id":"U1397Z3","name":"Moravské náměstí","arrival_time":"9:00:00","departure_time":"9:00:00","lat":49.199309,"lon":16.609047,"is_passed":false},{"stop_id":"U1418Z1","name":"Náměstí 28. října","arrival_time":"9:01:00","departure_time":"9:01:00","lat":49.200961,"lon":16.613794,"is_passed":false},{"stop_id":"U1086Z1","name":"Dětská nemocnice","arrival_time":"9:02:00","departure_time":"9:02:00","lat":49.202836,"lon":16.618608,"is_passed":false},{"stop_id":"U1211Z3","name":"Jugoslávská","arrival_time":"9:04:00","departure_time":"9:04:00","lat":49.205084,"lon":16.624442,"is_passed":false},{"stop_id":"U1782Z1","name":"Zdráhalova","arrival_time":"9:05:00","departure_time":"9:05:00","lat":49.209297,"lon":16.623791,"is_passed":false},{"stop_id":"U1731Z1","name":"Venhudova","arrival_time":"9:06:00","departure_time":"9:06:00","lat":49.212094,"lon":16.624955,"is_passed":false},{"stop_id":"U1646Z1","name":"Štefánikova čtvrť","arrival_time":"9:08:00","departure_time":"9:15:00","lat":49.216769,"lon":16.627834,"is_passed":false}],"54430":[{"stop_id":"U1646Z2","name":"Štefánikova čtvrť","arrival_time":"9:15:00","departure_time":"9:15:00","lat":49.217169,"lon":16.627801,"is_passed":false},{"stop_id":"U1731Z2","name":"Venhudova","arrival_time":"9:16:00","departure_time":"9:16:00","lat":49.212541,"lon":16.62512,"is_passed":false},{"stop_id":"U1782Z2","name":"Zdráhalova","arrival_time":"9:17:00","departure_time":"9:17:00","lat":49.209742,"lon":16.623799,"is_passed":false},{"stop_id":"U1211Z4","name":"Jugoslávská","arrival_time":"9:18:00","departure_time":"9:18:00","lat":49.204725,"lon":16.624081,"is_passed":false},{"stop_id":"U1086Z2","name":"Dětská nemocnice","arrival_time":"9:19:00","departure_time":"9:19:00","lat":49.203029,"lon":16.619052,"is_passed":false},{"stop_id":"U1418Z2","name":"Náměstí 28. října","arrival_time":"9:20:00","departure_time":"9:20:00","lat":49.200787,"lon":16.613174,"is_passed":false},{"stop_id":"U1397Z4","name":"Moravské náměstí","arrival_time":"9:22:00","departure_time":"9:22:00","lat":49.199159,"lon":16.608704,"is_passed":false},{"stop_id":"U1073Z1","name":"Česká","arrival_time":"9:24:00","departure_time":"9:24:00","lat":49.197618,"lon":16.605584,"is_passed":false},{"stop_id":"U1637Z3","name":"Šilingrovo náměstí","arrival_time":"9:27:00","departure_time":"9:27:00","lat":49.1923,"lon":16.60424,"is_passed":false},{"stop_id":"U1428Z2","name":"Nemocnice u sv. Anny","arrival_time":"9:28:00","departure_time":"9:28:00","lat":49.191523,"lon":16.598757,"is_passed":false},{"stop_id":"U1378Z4","name":"Mendlovo náměstí","arrival_time":"9:30:00","departure_time":"9:30:00","lat":49.190204,"lon":16.594235,"is_passed":false},{"stop_id":"U1512Z1","name":"Poříčí","arrival_time":"9:32:00","departure_time":"9:32:00","lat":49.187182,"lon":16.594633,"is_passed":false},{"stop_id":"U1430Z1","name":"Nemocnice Milosrdných bratří","arrival_time":"9:33:00","departure_time":"9:33:00","lat":49.183515,"lon":16.594981,"is_passed":false},{"stop_id":"U1053Z1","name":"Celní","arrival_time":"9:35:00","departure_time":"9:35:00","lat":49.179109,"lon":16.595328,"is_passed":false},{"stop_id":"U1147Z1","name":"Hluboká","arrival_time":"9:36:00","departure_time":"9:36:00","lat":49.175524,"lon":16.596095,"is_passed":false},{"stop_id":"U1703Z1","name":"Ústřední hřbitov","arrival_time":"9:38:00","departure_time":"9:38:00","lat":49.17132,"lon":16.597273,"is_passed":false},{"stop_id":"U1706Z1","name":"Ústřední hřbitov - smyčka","arrival_time":"9:40:00","departure_time":"9:53:00","lat":49.164878,"lon":16.59805,"is_passed":false}],"54431":[{"stop_id":"U1706Z2","name":"Ústřední hřbitov - smyčka","arrival_time":"9:53:00","departure_time":"9:53:00","lat":49.16513,"lon":16.598633,"is_passed":false},{"stop_id":"U1703Z2","name":"Ústřední hřbitov","arrival_time":"9:55:00","departure_time":"9:55:00","lat":49.171209,"lon":16.59734,"is_passed":false},{"stop_id":"U1147Z2","name":"Hluboká","arrival_time":"9:56:00","departure_time":"9:56:00","lat":49.175346,"lon":16.596153,"is_passed":false},{"stop_id":"U1053Z2","name":"Celní","arrival_time":"9:57:00","departure_time":"9:57:00","lat":49.179607,"lon":16.595242,"is_passed":false},{"stop_id":"U1430Z2","name":"Nemocnice Milosrdných bratří","arrival_time":"9:58:00","departure_time":"9:58:00","lat":49.183867,"lon":16.595061,"is_passed":false},{"stop_id":"U1512Z2","name":"Poříčí","arrival_time":"10:00:00","departure_time":"10:00:00","lat":49.187409,"lon":16.594512,"is_passed":false},{"stop_id":"U1378Z3","name":"Mendlovo náměstí","arrival_time":"10:02:00","departure_time":"10:02:00","lat":49.190293,"lon":16.594781,"is_passed":false},{"stop_id":"U1428Z1","name":"Nemocnice u sv. Anny","arrival_time":"10:04:00","departure_time":"10:04:00","lat":49.191471,"lon":16.599302,"is_passed":false},{"stop_id":"U1637Z4","name":"Šilingrovo náměstí","arrival_time":"10:05:00","departure_time":"10:05:00","lat":49.192271,"lon":16.604367,"is_passed":false},{"stop_id":"U1073Z2","name":"Česká","arrival_time":"10:09:00","departure_time":"10:09:00","lat":49.197702,"lon":16.606463,"is_passed":false},{"stop_id":"U1397Z3","name":"Moravské náměstí","arrival_time":"10:10:00","departure_time":"10:10:00","lat":49.199309,"lon":16.609047,"is_passed":false},{"stop_id":"U1418Z1","name":"Náměstí 28. října","arrival_time":"10:11:00","departure_time":"10:11:00","lat":49.200961,"lon":16.613794,"is_passed":false},{"stop_id":"U1086Z1","name":"Dětská nemocnice","arrival_time":"10:12:00","departure_time":"10:12:00","lat":49.202836,"lon":16.618608,"is_passed":false},{"stop_id":"U1211Z3","name":"Jugoslávská","arrival_time":"10:14:00","departure_time":"10:14:00","lat":49.205084,"lon":16.624442,"is_passed":false},{"stop_id":"U1782Z1","name":"Zdráhalova","arrival_time":"10:15:00","departure_time":"10:15:00","lat":49.209297,"lon":16.623791,"is_passed":false},{"stop_id":"U1731Z1","name":"Venhudova","arrival_time":"10:16:00","departure_time":"10:16:00","lat":49.212094,"lon":16.624955,"is_passed":false},{"stop_id":"U1646Z1","name":"Štefánikova čtvrť","arrival_time":"10:18:00","departure_time":"10:25:00","lat":49.216769,"lon":16.627834,"is_passed":false}],"54432":[{"stop_id":"U1646Z2","name":"Štefánikova čtvrť","arrival_time":"10:25:00","departure_time":"10:25:00","lat":49.217169,"lon":16.627801,"is_passed":false},{"stop_id":"U1731Z2","name":"Venhudova","arrival_time":"10:26:00","departure_time":"10:26:00","lat":49.212541,"lon":16.62512,"is_passed":false},{"stop_id":"U1782Z2","name":"Zdráhalova","arrival_time":"10:27:00","departure_time":"10:27:00","lat":49.209742,"lon":16.623799,"is_passed":false},{"stop_id":"U1211Z4","name":"Jugoslávská","arrival_time":"10:28:00","departure_time":"10:28:00","lat":49.204725,"lon":16.624081,"is_passed":false},{"stop_id":"U1086Z2","name":"Dětská nemocnice","arrival_time":"10:29:00","departure_time":"10:29:00","lat":49.203029,"lon":16.619052,"is_passed":false},{"stop_id":"U1418Z2","name":"Náměstí 28. října","arrival_time":"10:30:00","departure_time":"10:30:00","lat":49.200787,"lon":16.613174,"is_passed":false},{"stop_id":"U1397Z4","name":"Moravské náměstí","arrival_time":"10:32:00","departure_time":"10:32:00","lat":49.199159,"lon":16.608704,"is_passed":false},{"stop_id":"U1073Z1","name":"Česká","arrival_time":"10:34:00","departure_time":"10:34:00","lat":49.197618,"lon":16.605584,"is_passed":false},{"stop_id":"U1637Z3","name":"Šilingrovo náměstí","arrival_time":"10:37:00","departure_time":"10:37:00","lat":49.1923,"lon":16.60424,"is_passed":false},