{"544":[{"stop_id":"U12736Z51","name":"Letovice, železniční stanice","arrival_time":"6:57:00","departure_time":"6:57:00","lat":49.555973,"lon":16.570906,"is_passed":false},{"stop_id":"U22702Z2","name":"Letovice zastávka","arrival_time":"6:59:00","departure_time":"7:00:00","lat":49.536152,"lon":16.576186,"is_passed":false},{"stop_id":"U22701Z2","name":"Zboněk","arrival_time":"7:02:00","departure_time":"7:02:00","lat":49.520482,"lon":16.584439,"is_passed":false},{"stop_id":"U22602Z2","name":"Svitávka","arrival_time":"7:05:00","departure_time":"7:05:00","lat":49.499434,"lon":16.599208,"is_passed":false},{"stop_id":"U12676Z51","name":"Skalice nad Svitavou, žel.st.","arrival_time":"7:08:00","departure_time":"7:12:00","lat":49.480123,"lon":16.609726,"is_passed":false},{"stop_id":"U12511Z51","name":"Doubravice, žel.st.","arrival_time":"7:17:00","departure_time":"7:17:00","lat":49.438707,"lon":16.621809,"is_passed":false},{"stop_id":"U12439Z51","name":"Rájec-Jestřebí, železniční stanice","arrival_time":"7:20:00","departure_time":"7:21:00","lat":49.408206,"lon":16.627711,"is_passed":false},{"stop_id":"U22301Z2","name":"Dolní Lhota","arrival_time":"7:24:00","departure_time":"7:24:00","lat":49.386917,"lon":16.633978,"is_passed":false},{"stop_id":"U22302Z2","name":"Blansko město","arrival_time":"7:27:00","departure_time":"7:28:00","lat":49.360996,"lon":16.639464,"is_passed":false},{"stop_id":"U12342Z29","name":"Blansko, aut. st.","arrival_time":"7:29:00","departure_time":"7:31:00","lat":49.352753,"lon":16.646848,"is_passed":false},{"stop_id":"U12231Z11","name":"Adamov, železniční zastávka","arrival_time":"7:36:00","departure_time":"7:37:00","lat":49.300671,"lon":16.650653,"is_passed":false},{"stop_id":"U12230Z11","name":"Adamov, železniční stanice","arrival_time":"7:38:00","departure_time":"7:39:00","lat":49.295341,"lon":16.663538,"is_passed":false},{"stop_id":"U22101Z2","name":"Babice nad Svitavou","arrival_time":"7:42:00","departure_time":"7:42:00","lat":49.276645,"lon":16.673012,"is_passed":false},{"stop_id":"U12158Z11","name":"Bílovice nad Svitavou, žel. stanice","arrival_time":"7:46:00","departure_time":"7:47:00","lat":49.242715,"lon":16.673677,"is_passed":false},{"stop_id":"U1809Z11","name":"Židenice, nádraží","arrival_time":"7:52:00","departure_time":"7:52:00","lat":49.204282,"lon":16.636042,"is_passed":false},{"stop_id":"U1146Z98","name":"Hlavní nádraží","arrival_time":"7:59:00","departure_time":"8:06:00","lat":49.19035,"lon":16.612342,"is_passed":false},{"stop_id":"U1183Z11","name":"Chrlice, nádraží","arrival_time":"8:14:00","departure_time":"8:17:00","lat":49.132031,"lon":16.657232,"is_passed":false},{"stop_id":"U16149Z11","name":"Sokolnice, železniční stanice","arrival_time":"8:23:00","departure_time":"8:24:00","lat":49.108029,"lon":16.733459,"is_passed":false},{"stop_id":"U26101Z2","name":"Újezd u Brna","arrival_time":"8:25:00","departure_time":"8:26:00","lat":49.107297,"lon":16.745564,"is_passed":false},{"stop_id":"U26102Z2","name":"Hostěrádky-Rešov","arrival_time":"8:29:00","departure_time":"8:29:00","lat":49.119822,"lon":16.782755,"is_passed":false},{"stop_id":"U26201Z2","name":"Zbýšov","arrival_time":"8:32:00","departure_time":"8:32:00","lat":49.132691,"lon":16.806859,"is_passed":false},{"stop_id":"U16212Z11","name":"Křenovice, hor. žel. st.","arrival_time":"8:35:00","departure_time":"8:36:00","lat":49.143553,"lon":16.824564,"is_passed":false},{"stop_id":"U16228Z11","name":"Holubice, žel.st.","arrival_time":"8:40:00","departure_time":"8:53:00","lat":49.179869,"lon":16.824654,"is_passed":false}],"5440":[{"stop_id":"U15116Z2","name":"Nebovidy, dolní konec","arrival_time":"5:39:00","departure_time":"5:39:00","lat":49.141953,"lon":16.54915,"is_passed":false},{"stop_id":"U15118Z2","name":"Nebovidy, u kostela","arrival_time":"5:40:00","departure_time":"5:40:00","lat":49.141783,"lon":16.554006,"is_passed":false},{"stop_id":"U15114Z2","name":"Moravany, Hlavní","arrival_time":"5:44:00","departure_time":"5:44:00","lat":49.147097,"lon":16.578552,"is_passed":false},{"stop_id":"U15113Z2","name":"Moravany, Bohunická cesta","arrival_time":"5:45:00","departure_time":"5:45:00","lat":49.151006,"lon":16.583777,"is_passed":false},{"stop_id":"U1549Z2","name":"Rozhraní","arrival_time":"5:46:00","departure_time":"5:46:00","lat":49.155698,"lon":16.592118,"is_passed":false},{"stop_id":"U1466Z55","name":"Ořechovská","arrival_time":"5:48:00","departure_time":"5:48:00","lat":49.156238,"lon":16.599375,"is_passed":false},{"stop_id":"U1141Z2","name":"Heršpická","arrival_time":"5:51:00","departure_time":"5:51:00","lat":49.170473,"lon":16.599896,"is_passed":false},{"stop_id":"U1703Z5","name":"Ústřední hřbitov","arrival_time":"5:55:00","departure_time":"6:07:00","lat":49.171604,"lon":16.597316,"is_passed":false}],"5441":[{"stop_id":"U1703Z6","name":"Ústřední hřbitov","arrival_time":"6:07:00","departure_time":"6:07:00","lat":49.170744,"lon":16.597612,"is_passed":false},{"stop_id":"U1466Z5","name":"Ořechovská","arrival_time":"6:09:00","departure_time":"6:09:00","lat":49.156238,"lon":16.599375,"is_passed":false},{"stop_id":"U1549Z1","name":"Rozhraní","arrival_time":"6:10:00","departure_time":"6:10:00","lat":49.155854,"lon":16.592288,"is_passed":false},{"stop_id":"U15113Z1","name":"Moravany, Bohunická cesta","arrival_time":"6:11:00","departure_time":"6:11:00","lat":49.15089,"lon":16.583503,"is_passed":false},{"stop_id":"U15114Z1","name":"Moravany, Hlavní","arrival_time":"6:12:00","departure_time":"6:12:00","lat":49.147228,"lon":16.578896,"is_passed":false},{"stop_id":"U15115Z1","name":"Moravany, Nebovidská","arrival_time":"6:13:00","departure_time":"6:13:00","lat":49.147983,"lon":16.569237,"is_passed":false},{"stop_id":"U15118Z1","name":"Nebovidy, u kostela","arrival_time":"6:15:00","departure_time":"6:15:00","lat":49.141636,"lon":16.553667,"is_passed":false},{"stop_id":"U15116Z1","name":"Nebovidy, dolní konec","arrival_time":"6:16:00","departure_time":"6:39:00","lat":49.142128,"lon":16.549075,"is_passed":false}],"5442":[{"stop_id":"U15116Z2","name":"Nebovidy, dolní konec","arrival_time":"6:39:00","departure_time":"6:39:00","lat":49.141953,"lon":16.54915,"is_passed":false},{"stop_id":"U15118Z2","name":"Nebovidy, u kostela","arrival_time":"6:40:00","departure_time":"6:40:00","lat":49.141783,"lon":16.554006,"is_passed":false},{"stop_id":"U15114Z2","name":"Moravany, Hlavní","arrival_time":"6:44:00","departure_time":"6:44:00","lat":49.147097,"lon":16.578552,"is_passed":false},{"stop_id":"U15113Z2","name":"Moravany, Bohunická cesta","arrival_time":"6:45:00","departure_time":"6:45:00","lat":49.151006,"lon":16.583777,"is_passed":false},{"stop_id":"U1549Z2","name":"Rozhraní","arrival_time":"6:46:00","departure_time":"6:46:00","lat":49.155698,"lon":16.592118,"is_passed":false},{"stop_id":"U1466Z55","name":"Ořechovská","arrival_time":"6:48:00","departure_time":"6:48:00","lat":49.156238,"lon":16.599375,"is_passed":false},{"stop_id":"U1141Z2","name":"Heršpická","arrival_time":"6:51:00","departure_time":"6:51:00","lat":49.170473,"lon":16.599896,"is_passed":false},{"stop_id":"U1703Z5","name":"Ústřední hřbitov","arrival_time":"6:55:00","departure_time":"6:55:00","lat":49.171604,"lon":16.597316,"is_passed":false}],"5443":[{"stop_id":"U1703Z6","name":"Ústřední hřbitov","arrival_time":"7:02:00","departure_time":"7:02:00","lat":49.170744,"lon":16.597612,"is_passed":false},{"stop_id":"U1466Z5","name":"Ořechovská","arrival_time":"7:05:00","departure_time":"7:05:00","lat":49.156238,"lon":16.599375,"is_passed":false},{"stop_id":"U1549Z1","name":"Rozhraní","arrival_time":"7:06:00","departure_time":"7:06:00","lat":49.155854,"lon":16.592288,"is_passed":false},{"stop_id":"U15113Z1","name":"Moravany, Bohunická cesta","arrival_time":"7:07:00","departure_time":"7:07:00","lat":49.15089,"lon":16.583503,"is_passed":false},{"stop_id":"U15114Z1","name":"Moravany, Hlavní","arrival_time":"7:08:00","departure_time":"7:08:00","lat":49.147228,"lon":16.578896,"is_passed":false},{"stop_id":"U15115Z1","name":"Moravany, Nebovidská","arrival_time":"7:09:00","departure_time":"7:09:00","lat":49.147983,"lon":16.569237,"is_passed":false},{"stop_id":"U14105Z2","name":"Ostopovice, smyčka","arrival_time":"7:16:00","departure_time":"7:16:00","lat":49.164301,"lon":16.540971,"is_passed":false},{"stop_id":"U14104Z2","name":"Ostopovice, rozcestí","arrival_time":"7:16:00","departure_time":"7:16:00","lat":49.163133,"lon":16.542749,"is_passed":false},{"stop_id":"U14103Z2","name":"Ostopovice, U Kaple","arrival_time":"7:17:00","departure_time":"7:17:00","lat":49.161088,"lon":16.545566,"is_passed":false},{"stop_id":"U14101Z2","name":"Ostopovice, Branky","arrival_time":"7:18:00","departure_time":"7:18:00","lat":49.159942,"lon":16.548414,"is_passed":false},{"stop_id":"U1488Z2","name":"Pod dálnicí","arrival_time":"7:19:00","departure_time":"7:19:00","lat":49.163539,"lon":16.55541,"is_passed":false},{"stop_id":"U1687Z1","name":"U hřiště","arrival_time":"7:20:00","departure_time":"7:20:00","lat":49.166214,"lon":16.558668,"is_passed":false},{"stop_id":"U1722Z3","name":"Valašská","arrival_time":"7:21:00","departure_time":"7:21:00","lat":49.166746,"lon":16.562866,"is_passed":false},{"stop_id":"U1472Z7","name":"Osová","arrival_time":"7:22:00","departure_time":"7:22:00","lat":49.168951,"lon":16.566714,"is_passed":false},{"stop_id":"U7050Z1","name":"ZŠ Vedlejší","arrival_time":"7:22:00","departure_time":"7:22:00","lat":49.171054,"lon":16.569191,"is_passed":false},{"stop_id":"U1492Z1","name":"Pod nemocnicí","arrival_time":"7:23:00","departure_time":"7:23:00","lat":49.172412,"lon":16.569624,"is_passed":false},{"stop_id":"U1429Z7","name":"Nemocnice Bohunice","arrival_time":"7:25:00","departure_time":"7:43:00","lat":49.176176,"lon":16.567045,"is_passed":false}],"5444":[{"stop_id":"U1429Z5","name":"Nemocnice Bohunice","arrival_time":"7:43:00","departure_time":"7:43:00","lat":49.175206,"lon":16.56694,"is_passed":false},{"stop_id":"U1492Z2","name":"Pod nemocnicí","arrival_time":"7:45:00","departure_time":"7:45:00","lat":49.172338,"lon":16.569417,"is_passed":false},{"stop_id":"U1472Z8","name":"Osová","arrival_time":"7:47:00","departure_time":"7:47:00","lat":49.168617,"lon":16.566306,"is_passed":false},{"stop_id":"U1273Z2","name":"Kosmonautů","arrival_time":"7:47:00","departure_time":"7:47:00","lat":49.167124,"lon":16.56745,"is_passed":false},{"stop_id":"U1627Z1","name":"Svah","arrival_time":"7:48:00","departure_time":"7:48:00","lat":49.165199,"lon":16.567969,"is_passed":false},{"stop_id":"U1061Z1","name":"Čermákova","arrival_time":"7:48:00","departure_time":"7:48:00","lat":49.164336,"lon":16.565516,"is_passed":false},{"stop_id":"U1666Z1","name":"Točná","arrival_time":"7:49:00","departure_time":"7:49:00","lat":49.16476,"lon":16.561692,"is_passed":false},{"stop_id":"U1488Z1","name":"Pod dálnicí","arrival_time":"7:50:00","departure_time":"7:50:00","lat":49.163512,"lon":16.555152,"is_passed":false},{"stop_id":"U14101Z1","name":"Ostopovice, Branky","arrival_time":"7:51:00","departure_time":"7:51:00","lat":49.159937,"lon":16.548801,"is_passed":false},{"stop_id":"U14103Z1","name":"Ostopovice, U Kaple","arrival_time":"7:52:00","departure_time":"7:52:00","lat":49.161083,"lon":16.545743,"is_passed":false},{"stop_id":"U14104Z1","name":"Ostopovice, rozcestí","arrival_time":"7:52:00","departure_time":"7:52:00","lat":49.163046,"lon":16.542924,"is_passed":false},{"stop_id":"U14105Z2","name":"Ostopovice, smyčka","arrival_time":"7:53:00","departure_time":"7:53:00","lat":49.164301,"lon":16.540971,"is_passed":false},{"stop_id":"U15114Z2","name":"Moravany, Hlavní","arrival_time":"7:59:00","departure_time":"7:59:00","lat":49.147097,"lon":16.578552,"is_passed":false},{"stop_id":"U15113Z2","name":"Moravany, Bohunická cesta","arrival_time":"8:00:00","departure_time":"8:00:00","lat":49.151006,"lon":16.583777,"is_passed":false},{"stop_id":"U1549Z2","name":"Rozhraní","arrival_time":"8:01:00","departure_time":"8:01:00","lat":49.155698,"lon":16.592118,"is_passed":false},{"stop_id":"U1466Z55","name":"Ořechovská","arrival_time":"8:03:00","departure_time":"8:03:00","lat":49.156238,"lon":16.599375,"is_passed":false},{"stop_id":"U1141Z2","name":"Heršpická","arrival_time":"8:06:00","departure_time":"8:06:00","lat":49.170473,"lon":16.599896,"is_passed":false},{"stop_id":"U1703Z5","name":"Ústřední hřbitov","arrival_time":"8:10:00","departure_time":"8:10:00","lat":49.171604,"lon":16.597316,"is_passed":false}],"5445":[{"stop_id":"U1703Z6","name":"Ústřední hřbitov","arrival_time":"8:22:00","departure_time":"8:22:00","lat":49.170744,"lon":16.597612,"is_passed":false},{"stop_id":"U1466Z5","name":"Ořechovská","arrival_time":"8:25:00","departure_time":"8:25:00","lat":49.156238,"lon":16.599375,"is_passed":false},{"stop_id":"U1549Z1","name":"Rozhraní","arrival_time":"8:26:00","departure_time":"8:26:00","lat":49.155854,"lon":16.592288,"is_passed":false},{"stop_id":"U15113Z1","name":"Moravany, Bohunická cesta","arrival_time":"8:27:00","departure_time":"8:27:00","lat":49.15089,"lon":16.583503,"is_passed":false},{"stop_id":"U15114Z1","name":"Moravany, Hlavní","arrival_time":"8:28:00","departure_time":"8:28:00","lat":49.147228,"lon":16.578896,"is_passed":false},{"stop_id":"U15115Z1","name":"Moravany, Nebovidská","arrival_time":"8:29:00","departure_time":"8:29:00","lat":49.147983,"lon":16.569237,"is_passed":false},{"stop_id":"U15118Z1","name":"Nebovidy, u kostela","arrival_time":"8:31:00","departure_time":"8:31:00","lat":49.141636,"lon":16.553667,"is_passed":false},{"stop_id":"U15116Z1","name":"Nebovidy, dolní konec","arrival_time":"8:32:00","departure_time":"8:32:00","lat":49.142128,"lon":16.549075,"is_passed":false},{"stop_id":"U15117Z1","name":"Nebovidy, rozcestí Střelice","arrival_time":"8:34:00","departure_time":"8:34:00","lat":49.144946,"lon":16.530984,"is_passed":false},{"stop_id":"U15119Z1","name":"Nebovidy, Závist","arrival_time":"8:36:00","departure_time":"8:36:00","lat":49.13415,"lon":16.529119,"is_passed":false},{"stop_id":"U14202Z1","name":"Ořechov, Kerendov","arrival_time":"8:39:00","departure_time":"8:39:00","lat":49.117361,"lon":16.525717,"is_passed":false},{"stop_id":"U14205Z1","name":"Ořechov, orlovna","arrival_time":"8:40:00","departure_time":"8:40:00","lat":49.111073,"lon":16.526063,"is_passed":false},{"stop_id":"U14204Z1","name":"Ořechov, obecní úřad","arrival_time":"8:41:00","departure_time":"8:41:00","lat":49.111535,"lon":16.518505,"is_passed":false},{"stop_id":"U14201Z3","name":"Ořechov, Jeřábkova","arrival_time":"8:42:00","departure_time":"10:22:00","lat":49.108927,"lon":16.512613,"is_passed":false}],"5446":[{"stop_id":"U14201Z2","name":"Ořechov, Jeřábkova","arrival_time":"10:22:00","departure_time":"10:22:00","lat":49.108927,"lon":16.512613,"is_passed":false},{"stop_id":"U14204Z2","name":"Ořechov, obecní úřad","arrival_time":"10:24:00","departure_time":"10:24:00","lat":49.111497,"lon":16.51816,"is_passed":false},{"stop_id":"U14205Z2","name":"Ořechov, orlovna","arrival_time":"10:25:00","departure_time":"10:25:00","lat":49.111083,"lon":16.526193,"is_passed":false},{"stop_id":"U14202Z2","name":"Ořechov, Kerendov","arrival_time":"10:27:00","departure_time":"10:27:00","lat":49.11742,"lon":16.52586,"is_passed":false},{"stop_id":"U15119Z2","name":"Nebovidy, Závist","arrival_time":"10:30:00","departure_time":"10:30:00","lat":49.1347,"lon":16.528614,"is_passed":false},{"stop_id":"U15117Z2","name":"Nebovidy, rozcestí Střelice","arrival_time":"10:32:00","departure_time":"10:32:00","lat":49.145888,"lon":16.532103,"is_passed":false},{"stop_id":"U15116Z2","name":"Nebovidy, dolní konec","arrival_time":"10:34:00","departure_time":"10:34:00","lat":49.141953,"lon":16.54915,"is_passed":false},{"stop_id":"U15118Z2","name":"Nebovidy, u kostela","arrival_time":"10:35:00","departure_time":"10:35:00","lat":49.141783,"lon":16.554006,"is_passed":false},{"stop_id":"U15114Z2","name":"Moravany, Hlavní","arrival_time":"10:39:00","departure_time":"10:39:00","lat":49.147097,"lon":16.578552,"is_passed":false},{"stop_id":"U15113Z2","name":"Moravany, Bohunická cesta","arrival_time":"10:40:00","departure_time":"10:40:00","lat":49.151006,"lon":16.583777,"is_passed":false},{"stop_id":"U1549Z2","name":"Rozhraní","arrival_time":"10:41:00","departure_time":"10:41:00","lat":49.155698,"lon":16.592118,"is_passed":false},{"stop_id":"U1466Z55","name":"Ořechovská","arrival_time":"10:43:00","departure_time":"10:43:00","lat":49.156238,"lon":16.599375,"is_passed":false},{"stop_id":"U1141Z2","name":"Heršpická","arrival_time":"10:46:00","departure_time":"10:46:00","lat":49.170473,"lon":16.599896,"is_passed":false},{"stop_id":"U1703Z5","name":"Ústřední hřbitov","arrival_time":"10:50:00","departure_time":"14:17:00","lat":49.171604,"lon":16.597316,"is_passed":false}],"5447":[{"stop_id":"U1703Z6","name":"Ústřední hřbitov","arrival_time":"14:17:00","departure_time":"14:17:00","lat":49.170744,"lon":16.597612,"is_passed":false},{"stop_id":"U1466Z5","name":"Ořechovská","arrival_time":"14:20:00","departure_time":"14:20:00","lat":49.156238,"lon":16.599375,"is_passed":false},{"stop_id":"U1549Z1","name":"Rozhraní","arrival_time":"14:21:00","departure_time":"14:21:00","lat":49.155854,"lon":16.592288,"is_passed":false},{"stop_id":"U15113Z1","name":"Moravany, Bohunická cesta","arrival_time":"14:22:00","departure_time":"14:22:00","lat":49.15089,"lon":16.583503,"is_passed":false},{"stop_id":"U15114Z1","name":"Moravany, Hlavní","arrival_time":"14:23:00","departure_time":"14:23:00","lat":49.147228,"lon":16.578896,"is_passed":false},{"stop_id":"U15115Z1","name":"Moravany, Nebovidská","arrival_time":"14:24:00","departure_time":"14:24:00","lat":49.147983,"lon":16.569237,"is_passed":false},{"stop_id":"U15118Z1","name":"Nebovidy, u kostela","arrival_time":"14:26:00","departure_time":"14:26:00","lat":49.141636,"lon":16.553667,"is_passed":false},{"stop_id":"U15116Z1","name":"Nebovidy, dolní konec","arrival_time":"14:27:00","departure_time":"14:44:00","lat":49.142128,"lon":16.549075,"is_passed":false}],"5448":[{"stop_id":"U15116Z2","name":"Nebovidy, dolní konec","arrival_time":"14:44:00","departure_time":"14:44:00","lat":49.141953,"lon":16.54915,"is_passed":false},{"stop_id":"U15118Z2","name":"Nebovidy, u kostela","arrival_time":"14:45:00","departure_time":"14:45:00","lat":49.141783,"lon":16.554006,"is_passed":false},{"stop_id":"U15114Z2","name":"Moravany, Hlavní","arrival_time":"14:49:00","departure_time":"14:49:00","lat":49.147097,"lon":16.578552,"is_passed":false},{"stop_id":"U15113Z2","name":"Moravany, Bohunická cesta","arrival_time":"14:50:00","departure_time":"14:50:00","lat":49.151006,"lon":16.583777,"is_passed":false},{"stop_id":"U1549Z2","name":"Rozhraní","arrival_time":"14:51:00","departure_time":"14:51:00","lat":49.155698,"lon":16.592118,"is_passed":false},{"stop_id":"U1466Z55","name":"Ořechovská","arrival_time":"14:53:00","departure_time":"14:53:00","lat":49.156238,"lon":16.599375,"is_passed":false},{"stop_id":"U1141Z2","name":"Heršpická","arrival_time":"14:56:00","departure_time":"14:56:00","lat":49.170473,"lon":16.599896,"is_passed":false},{"stop_id":"U1703Z5","name":"Ústřední hřbitov","arrival_time":"15:00:00","departure_time":"15:07:00","lat":49.171604,"lon":16.597316,"is_passed":false}],"5449":[{"stop_id":"U1703Z6","name":"Ústřední hřbitov","arrival_time":"15:07:00","departure_time":"15:07:00","lat":49.170744,"lon":16.597612,"is_passed":false},{"stop_id":"U1466Z5","name":"Ořechovská","arrival_time":"15:10:00","departure_time":"15:10:00","lat":49.156238,"lon":16.599375,"is_passed":false},{"stop_id":"U1549Z1","name":"Rozhraní","arrival_time":"15:11:00","departure_time":"15:11:00","lat":49.155854,"lon":16.592288,"is_passed":false},{"stop_id":"U15113Z1","name":"Moravany, Bohunická cesta","arrival_time":"15:12:00","departure_time":"15:12:00","lat":49.15089,"lon":16.583503,"is_passed":false},{"stop_id":"U15114Z1","name":"Moravany, Hlavní","arrival_time":"15:13:00","departure_time":"15:13:00","lat":49.147228,"lon":16.578896,"is_passed":false},{"stop_id":"U15115Z1","name":"Moravany, Nebovidská","arrival_time":"15:14:00","departure_time":"15:14:00","lat":49.147983,"lon":16.569237,"is_passed":false},{"stop_id":"U15118Z1","name":"Nebovidy, u kostela","arrival_time":"15:16:00","departure_time":"15:16:00","lat":49.141636,"lon":16.553667,"is_passed":false},{"stop_id":"U15116Z1","name":"Nebovidy, dolní konec","arrival_time":"15:17:00","departure_time":"15:54:00","lat":49.142128,"lon":16.549075,"is_passed":false}],"54400":[{"stop_id":"U1286Z2","name":"Královo Pole, nádraží","arrival_time":"9:49:00","departure_time":"9:49:00","lat":49.229691,"lon":16.595601,"is_passed":false},{"stop_id":"U1566Z3","name":"Semilasso","arrival_time":"9:49:00","departure_time":"9:49:00","lat":49.228432,"lon":16.593971,"is_passed":false},{"stop_id":"U1171Z2","name":"Husitská","arrival_time":"9:52:00","departure_time":"9:52:00","lat":49.223415,"lon":16.595016,"is_passed":false},{"stop_id":"U1218Z2","name":"Jungmannova","arrival_time":"9:53:00","departure_time":"9:53:00","lat":49.221083,"lon":16.596416,"is_passed":false},{"stop_id":"U1233Z2","name":"Kartouzská","arrival_time":"9:54:00","departure_time":"9:54:00","lat":49.21665,"lon":16.599078,"is_passed":false},{"stop_id":"U1652Z2","name":"Šumavská","arrival_time":"9:55:00","departure_time":"9:55:00","lat":49.214022,"lon":16.60062,"is_passed":false},{"stop_id":"U1166Z2","name":"Hrnčířská","arrival_time":"9:56:00","departure_time":"9:56:00","lat":49.21062,"lon":16.602628,"is_passed":false},{"stop_id":"U1483Z2","name":"Pionýrská","arrival_time":"9:57:00","departure_time":"9:57:00","lat":49.207904,"lon":16.604201,"is_passed":false},{"stop_id":"U1006Z2","name":"Antonínská","arrival_time":"9:58:00","departure_time":"9:58:00","lat":49.203166,"lon":16.606915,"is_passed":false},{"stop_id":"U1397Z2","name":"Moravské náměstí","arrival_time":"10:00:00","departure_time":"10:00:00","lat":49.199237,"lon":16.608067,"is_passed":false},{"stop_id":"U1073Z1","name":"Česká","arrival_time":"10:02:00","departure_time":"10:02:00","lat":49.197618,"lon":16.605584,"is_passed":false},{"stop_id":"U1637Z3","name":"Šilingrovo náměstí","arrival_time":"10:05:00","departure_time":"10:05:00","lat":49.1923,"lon":16.60424,"is_passed":false},{"stop_id":"U1428Z2","name":"Nemocnice u sv. Anny","arrival_time":"10:06:00","departure_time":"10:06:00","lat":49.191523,"lon":16.598757,"is_passed":false},{"stop_id":"U1378Z4","name":"Mendlovo náměstí","arrival_time":"10:09:00","departure_time":"10:09:00","lat":49.190204,"lon":16.594235,"is_passed":false},{"stop_id":"U1512Z1","name":"Poříčí","arrival_time":"10:11:00","departure_time":"10:11:00","lat":49.187182,"lon":16.594633,"is_passed":false},{"stop_id":"U1430Z1","name":"Nemocnice Milosrdných bratří","arrival_time":"10:12:00","departure_time":"10:12:00","lat":49.183515,"lon":16.594981,"is_passed":false},{"stop_id":"U1053Z1","name":"Celní","arrival_time":"10:14:00","departure_time":"10:14:00","lat":49.179109,"lon":16.595328,"is_passed":false},{"stop_id":"U1293Z1","name":"Krematorium","arrival_time":"10:17:00","departure_time":"10:17:00","lat":49.172308,"lon":16.586427,"is_passed":false},{"stop_id":"U1021Z1","name":"Běloruská","arrival_time":"10:18:00","departure_time":"10:18:00","lat":49.170755,"lon":16.580895,"is_passed":false},{"stop_id":"U1653Z3","name":"Švermova","arrival_time":"10:19:00","departure_time":"10:19:00","lat":49.169262,"lon":16.573246,"is_passed":false},{"stop_id":"U1472Z1","name":"Osová","arrival_time":"10:20:00","departure_time":"10:20:00","lat":49.169023,"lon":16.56653,"is_passed":false},{"stop_id":"U1227Z1","name":"Karpatská","arrival_time":"10:21:00","departure_time":"10:21:00","lat":49.168113,"lon":16.562077,"is_passed":false},{"stop_id":"U1097Z1","name":"Dunajská","arrival_time":"10:22:00","departure_time":"10:22:00","lat":49.169066,"lon":16.55664,"is_passed":false},{"stop_id":"U1616Z1","name":"Starý Lískovec, smyčka","arrival_time":"10:24:00","departure_time":"10:30:00","lat":49.171366,"lon":16.554527,"is_passed":false}],"54401":[{"stop_id":"U1616Z2","name":"Starý Lískovec, smyčka","arrival_time":"10:30:00","departure_time":"10:30:00","lat":49.170465,"lon":16.554565,"is_passed":false},{"stop_id":"U1097Z2","name":"Dunajská","arrival_time":"10:30:00","departure_time":"10:30:00","lat":49.169112,"lon":16.556485,"is_passed":false},{"stop_id":"U1227Z2","name":"Karpatská","arrival_time":"10:31:00","departure_time":"10:31:00","lat":49.168021,"lon":16.561879,"is_passed":false},{"stop_id":"U1472Z2","name":"Osová","arrival_time":"10:33:00","departure_time":"10:33:00","lat":49.169005,"lon":16.567514,"is_passed":false},{"stop_id":"U1653Z4","name":"Švermova","arrival_time":"10:34:00","departure_time":"10:34:00","lat":49.169191,"lon":16.573122,"is_passed":false},{"stop_id":"U1021Z2","name":"Běloruská","arrival_time":"10:35:00","departure_time":"10:35:00","lat":49.170662,"lon":16.580727,"is_passed":false},{"stop_id":"U1293Z2","name":"Krematorium","arrival_time":"10:36:00","departure_time":"10:36:00","lat":49.172257,"lon":16.586414,"is_passed":false},{"stop_id":"U1053Z2","name":"Celní","arrival_time":"10:39:00","departure_time":"10:39:00","lat":49.179607,"lon":16.595242,"is_passed":false},{"stop_id":"U1430Z2","name":"Nemocnice Milosrdných bratří","arrival_time":"10:40:00","departure_time":"10:40:00","lat":49.183867,"lon":16.595061,"is_passed":false},{"stop_id":"U1512Z2","name":"Poříčí","arrival_time":"10:42:00","departure_time":"10:42:00","lat":49.187409,"lon":16.594512,"is_passed":false},{"stop_id":"U1378Z3","name":"Mendlovo náměstí","arrival_time":"10:44:00","departure_time":"10:44:00","lat":49.190293,"lon":16.594781,"is_passed":false},{"stop_id":"U1428Z1","name":"Nemocnice u sv. Anny","arrival_time":"10:46:00","departure_time":"10:46:00","lat":49.191471,"lon":16.599302,"is_passed":false},{"stop_id":"U1637Z4","name":"Šilingrovo náměstí","arrival_time":"10:47:00","departure_time":"10:47:00","lat":49.192271,"lon":16.604367,"is_passed":false},{"stop_id":"U1073Z2","name":"Česká","arrival_time":"10:51:00","departure_time":"10:51:00","lat":49.197702,"lon":16.606463,"is_passed":false},{"stop_id":"U1397Z1","name":"Moravské náměstí","arrival_time":"10:52:00","departure_time":"10:52:00","lat":49.19996,"lon":16.607931,"is_passed":false},{"stop_id":"U1006Z1","name":"Antonínská","arrival_time":"10:54:00","departure_time":"10:54:00","lat":49.203685,"lon":16.606678,"is_passed":false},{"stop_id":"U1483Z1","name":"Pionýrská","arrival_time":"10:55:00","departure_time":"10:55:00","lat":49.207491,"lon":16.604472,"is_passed":false},{"stop_id":"U1166Z1","name":"Hrnčířská","arrival_time":"10:57:00","departure_time":"10:57:00","lat":49.210254,"lon":16.602868,"is_passed":false},{"stop_id":"U1652Z1","name":"Šumavská","arrival_time":"10:58:00","departure_time":"10:58:00","lat":49.213991,"lon":16.600669,"is_passed":false},{"stop_id":"U1233Z1","name":"Kartouzská","arrival_time":"10:59:00","departure_time":"10:59:00","lat":49.216998,"lon":16.598896,"is_passed":false},{"stop_id":"U1218Z1","name":"Jungmannova","arrival_time":"11:00:00","departure_time":"11:00:00","lat":49.220856,"lon":16.596583,"is_passed":false},{"stop_id":"U1171Z1","name":"Husitská","arrival_time":"11:01:00","departure_time":"11:01:00","lat":49.223125,"lon":16.59524,"is_passed":false},{"stop_id":"U1566Z1","name":"Semilasso","arrival_time":"11:03:00","departure_time":"11:03:00","lat":49.227417,"lon":16.592683,"is_passed":false},{"stop_id":"U1286Z1","name":"Královo Pole, nádraží","arrival_time":"11:05:00","departure_time":"11:23:00","lat":49.230031,"lon":16.595374,"is_passed":false}],"54402":[{"stop_id":"U1286Z2","name":"Královo Pole, nádraží","arrival_time":"11:23:00","departure_time":"11:23:00","lat":49.229691,"lon":16.595601,"is_passed":false},{"stop_id":"U1566Z3","name":"Semilasso","arrival_time":"11:23:00","departure_time":"11:23:00","lat":49.228432,"lon":16.593971,"is_passed":false},{"stop_id":"U1171Z2","name":"Husitská","arrival_time":"11:26:00","departure_time":"11:26:00","lat":49.223415,"lon":16.595016,"is_passed":false},{"stop_id":"U1218Z2","name":"Jungmannova","arrival_time":"11:27:00","departure_time":"11:27:00","lat":49.221083,"lon":16.596416,"is_passed":false},{"stop_id":"U1233Z2","name":"Kartouzská","arrival_time":"11:28:00","departure_time":"11:28:00","lat":49.21665,"lon":16.599078,"is_passed":false},{"stop_id":"U1652Z2","name":"Šumavská","arrival_time":"11:29:00","departure_time":"11:29:00","lat":49.214022,"lon":16.60062,"is_passed":false},{"stop_id":"U1166Z2","name":"Hrnčířská","arrival_time":"11:30:00","departure_time":"11:30:00","lat":49.21062,"lon":16.602628,"is_passed":false},{"stop_id":"U1483Z2","name":"Pionýrská","arrival_time":"11:31:00","departure_time":"11:31:00","lat":49.207904,"lon":16.604201,"is_passed":false},{"stop_id":"U1006Z2","name":"Antonínská","arrival_time":"11:32:00","departure_time":"11:32:00","lat":49.203166,"lon":16.606915,"is_passed":false},{"stop_id":"U1397Z2","name":"Moravské náměstí","arrival_time":"11:34:00","departure_time":"11:34:00","lat":49.199237,"lon":16.608067,"is_passed":false},{"stop_id":"U1073Z1","name":"Česká","arrival_time":"11:36:00","departure_time":"11:36:00","lat":49.197618,"lon":16.605584,"is_passed":false},{"stop_id":"U1637Z3","name":"Šilingrovo náměstí","arrival_time":"11:39:00","departure_time":"11:39:00","lat":49.1923,"lon":16.60424,"is_passed":false},{"stop_id":"U1428Z2","name":"Nemocnice u sv. Anny","arrival_time":"11:40:00","departure_time":"11:40:00","lat":49.191523,"lon":16.598757,"is_passed":false},{"stop_id":"U1378Z4","name":"Mendlovo náměstí","arrival_time":"11:43:00","departure_time":"11:43:00","lat":49.190204,"lon":16.594235,"is_passed":false},{"stop_id":"U1512Z1","name":"Poříčí","arrival_time":"11:45:00","departure_time":"11:45:00","lat":49.187182,"lon":16.594633,"is_passed":false},{"stop_id":"U1430Z1","name":"Nemocnice Milosrdných bratří","arrival_time":"11:46:00","departure_time":"11:46:00","lat":49.183515,"lon":16.594981,"is_passed":false},{"stop_id":"U1053Z1","name":"Celní","arrival_time":"11:48:00","departure_time":"11:48:00","lat":49.179109,"lon":16.595328,"is_passed":false},{"stop_id":"U1293Z1","name":"Krematorium","arrival_time":"11:51:00","departure_time":"11:51:00","lat":49.172308,"lon":16.586427,"is_passed":false},{"stop_id":"U1021Z1","name":"Běloruská","arrival_time":"11:52:00","departure_time":"11:52:00","lat":49.170755,"lon":16.580895,"is_passed":false},{"stop_id":"U1653Z3","name":"Švermova","arrival_time":"11:53:00","departure_time":"11:53:00","lat":49.169262,"lon":16.573246,"is_passed":false},{"stop_id":"U1472Z1","name":"Osová","arrival_time":"11:54:00","departure_time":"11:54:00","lat":49.169023,"lon":16.56653,"is_passed":false},{"stop_id":"U1227Z1","name":"Karpatská","arrival_time":"11:55:00","departure_time":"11:55:00","lat":49.168113,"lon":16.562077,"is_passed":false},{"stop_id":"U1097Z1","name":"Dunajská","arrival_time":"11:56:00","departure_time":"11:56:00","lat":49.169066,"lon":16.55664,"is_passed":false},{"stop_id":"U1616Z1","name":"Starý Lískovec, smyčka","arrival_time":"11:58:00","departure_time":"12:03:00","lat":49.171366,"lon":16.554527,"is_passed":false}],"54403":[{"stop_id":"U1616Z2","name":"Starý Lískovec, smyčka","arrival_time":"12:03:00","departure_time":"12:03:00","lat":49.170465,"lon":16.554565,"is_passed":false},{"stop_id":"U1097Z2","name":"Dunajská","arrival_time":"12:03:00","departure_time":"12:03:00","lat":49.169112,"lon":16.556485,"is_passed":false},{"stop_id":"U1227Z2","name":"Karpatská","arrival_time":"12:04:00","departure_time":"12:04:00","lat":49.168021,"lon":16.561879,"is_passed":false},{"stop_id":"U1472Z2","name":"Osová","arrival_time":"12:06:00","departure_time":"12:06:00","lat":49.169005,"lon":16.567514,"is_passed":false},{"stop_id":"U1653Z4","name":"Švermova","arrival_time":"12:07:00","departure_time":"12:07:00","lat":49.169191,"lon":16.573122,"is_passed":false},{"stop_id":"U1021Z2","name":"Běloruská","arrival_time":"12:08:00","departure_time":"12:08:00","lat":49.170662,"lon":16.580727,"is_passed":false},{"stop_id":"U1293Z2","name":"Krematorium","arrival_time":"12:09:00","departure_time":"12:09:00","lat":49.172257,"lon":16.586414,"is_passed":false},{"stop_id":"U1053Z2","name":"Celní","arrival_time":"12:12:00","departure_time":"12:12:00","lat":49.179607,"lon":16.595242,"is_passed":false},{"stop_id":"U1430Z2","name":"Nemocnice Milosrdných bratří","arrival_time":"12:13:00","departure_time":"12:13:00","lat":49.183867,"lon":16.595061,"is_passed":false},{"stop_id":"U1512Z2","name":"Poříčí","arrival_time":"12:15:00","departure_time":"12:15:00","lat":49.187409,"lon":16.594512,"is_passed":false},{"stop_id":"U1378Z3","name":"Mendlovo náměstí","arrival_time":"12:17:00","departure_time":"12:17:00","lat":49.190293,"lon":16.594781,"is_passed":false},{"stop_id":"U1428Z1","name":"Nemocnice u sv. Anny","arrival_time":"12:19:00","departure_time":"12:19:00","lat":49.191471,"lon":16.599302,"is_passed":false},{"stop_id":"U1637Z4","name":"Šilingrovo náměstí","arrival_time":"12:20:00","departure_time":"12:20:00","lat":49.192271,"lon":16.604367,"is_passed":false},{"stop_id":"U1073Z2","name":"Česká","arrival_time":"12:24:00","departure_time":"12:24:00","lat":49.197702,"lon":16.606463,"is_passed":false},{"stop_id":"U1397Z1","name":"Moravské náměstí","arrival_time":"12:25:00","departure_time":"12:25:00","lat":49.19996,"lon":16.607931,"is_passed":false},{"stop_id":"U1006Z1","name":"Antonínská","arrival_time":"12:27:00","departure_time":"12:27:00","lat":49.203685,"lon":16.606678,"is_passed":false},{"stop_id":"U1483Z1","name":"Pionýrská","arrival_time":"12:28:00","departure_time":"12:28:00","lat":49.207491,"lon":16.604472,"is_passed":false},{"stop_id":"U1166Z1","name":"Hrnčířská","arrival_time":"12:30:00","departure_time":"12:30:00","lat":49.210254,"lon":16.602868,"is_passed":false},{"stop_id":"U1652Z1","name":"Šumavská","arrival_time":"12:31:00","departure_time":"12:31:00","lat":49.213991,"lon":16.600669,"is_passed":false},{"stop_id":"U1233Z1","name":"Kartouzská","arrival_time":"12:32:00","departure_time":"12:32:00","lat":49.216998,"lon":16.598896,"is_passed":false},{"stop_id":"U1218Z1","name":"Jungmannova","arrival_time":"12:33:00","departure_time":"12:33:00","lat":49.220856,"lon":16.596583,"is_passed":false},{"stop_id":"U1171Z1","name":"Husitská","arrival_time":"12:34:00","departure_time":"12:34:00","lat":49.223125,"lon":16.59524,"is_passed":false},{"stop_id":"U1566Z1","name":"Semilasso","arrival_time":"12:36:00","departure_time":"12:36:00","lat":49.227417,"lon":16.592683,"is_passed":false},{"stop_id":"U1286Z1","name":"Královo Pole, nádraží","arrival_time":"12:38:00","departure_time":"12:56:00","lat":49.230031,"lon":16.595374,"is_passed":false}],"54404":[{"stop_id":"U1286Z2","name":"Královo Pole, nádraží","arrival_time":"12:56:00","departure_time":"12:56:00","lat":49.229691,"lon":16.595601,"is_passed":false},{"stop_id":"U1566Z3","name":"Semilasso","arrival_time":"12:56:00","departure_time":"12:56:00","lat":49.228432,"lon":16.593971,"is_passed":false},{"stop_id":"U1171Z2","name":"Husitská","arrival_time":"12:59:00","departure_time":"12:59:00","lat":49.223415,"lon":16.595016,"is_passed":false},{"stop_id":"U1218Z2","name":"Jungmannova","arrival_time":"13:00:00","departure_time":"13:00:00","lat":49.221083,"lon":16.596416,"is_passed":false},{"stop_id":"U1233Z2","name":"Kartouzská","arrival_time":"13:01:00","departure_time":"13:01:00","lat":49.21665,"lon":16.599078,"is_passed":false},{"stop_id":"U1652Z2","name":"Šumavská","arrival_time":"13:02:00","departure_time":"13:02:00","lat":49.214022,"lon":16.60062,"is_passed":false},{"stop_id":"U1166Z2","name":"Hrnčířská","arrival_time":"13:03:00","departure_time":"13:03:00","lat":49.21062,"lon":16.602628,"is_passed":false},{"stop_id":"U1483Z2","name":"Pionýrská","arrival_time":"13:04:00","departure_time":"13:04:00","lat":49.207904,"lon":16.604201,"is_passed":false},{"stop_id":"U1006Z2","name":"Antonínská","arrival_time":"13:05:00","departure_time":"13:05:00","lat":49.203166,"lon":16.606915,"is_passed":false},{"stop_id":"U1397Z2","name":"Moravské náměstí","arrival_time":"13:07:00","departure_time":"13:07:00","lat":49.199237,"lon":16.608067,"is_passed":false},{"stop_id":"U1073Z1","name":"Česká","arrival_time":"13:09:00","departure_time":"13:09:00","lat":49.197618,"lon":16.605584,"is_passed":false},{"stop_id":"U1637Z3","name":"Šilingrovo náměstí","arrival_time":"13:12:00","departure_time":"13:12:00","lat":49.1923,"lon":16.60424,"is_passed":false},{"stop_id":"U1428Z2","name":"Nemocnice u sv. Anny","arrival_time":"13:13:00","departure_time":"13:13:00","lat":49.191523,"lon":16.598757,"is_passed":false},{"stop_id":"U1378Z4","name":"Mendlovo náměstí","arrival_time":"13:16:00","departure_time":"13:16:00","lat":49.190204,"lon":16.594235,"is_passed":false},{"stop_id":"U1512Z1","name":"Poříčí","arrival_time":"13:18:00","departure_time":"13:18:00","lat":49.187182,"lon":16.594633,"is_passed":false},{"stop_id":"U1430Z1","name":"Nemocnice Milosrdných bratří","arrival_time":"13:19:00","departure_time":"13:19:00","lat":49.183515,"lon":16.594981,"is_passed":false},{"stop_id":"U1053Z1","name":"Celní","arrival_time":"13:21:00","departure_time":"13:21:00","lat":49.179109,"lon":16.595328,"is_passed":false},{"stop_id":"U1293Z1","name":"Krematorium","arrival_time":"13:24:00","departure_time":"13:24:00","lat":49.172308,"lon":16.586427,"is_passed":false},{"stop_id":"U1021Z1","name":"Běloruská","arrival_time":"13:25:00","departure_time":"13:25:00","lat":49.170755,"lon":16.580895,"is_passed":false},{"stop_id":"U1653Z3","name":"Švermova","arrival_time":"13:26:00","departure_time":"13:26:00","lat":49.169262,"lon":16.573246,"is_passed":false},{"stop_id":"U1472Z1","name":"Osová","arrival_time":"13:27:00","departure_time":"13:27:00","lat":49.169023,"lon":16.56653,"is_passed":false},{"stop_id":"U1227Z1","name":"Karpatská","arrival_time":"13:28:00","departure_time":"13:28:00","lat":49.168113,"lon":16.562077,"is_passed":false},{"stop_id":"U1097Z1","name":"Dunajská","arrival_time":"13:29:00","departure_time":"13:29:00","lat":49.169066,"lon":16.55664,"is_passed":false},{"stop_id":"U1616Z1","name":"Starý Lískovec, smyčka","arrival_time":"13:31:00","departure_time":"13:36:00","lat":49.171366,"lon":16.554527,"is_passed":false}],"54405":[{"stop_id":"U1616Z2","name":"Starý Lískovec, smyčka","arrival_time":"13:36:00","departure_time":"13:36:00","lat":49.170465,"lon":16.554565,"is_passed":false},{"stop_id":"U1097Z2","name":"Dunajská","arrival_time":"13:36:00","departure_time":"13:36:00","lat":49.169112,"lon":16.556485,"is_passed":false},{"stop_id":"U1227Z2","name":"Karpatská","arrival_time":"13:37:00","departure_time":"13:37:00","lat":49.168021,"lon":16.561879,"is_passed":false},{"stop_id":"U1472Z2","name":"Osová","arrival_time":"13:39:00","departure_time":"13:39:00","lat":49.169005,"lon":16.567514,"is_passed":false},{"stop_id":"U1653Z4","name":"Švermova","arrival_time":"13:40:00","departure_time":"13:40:00","lat":49.169191,"lon":16.573122,"is_passed":false},{"stop_id":"U1021Z2","name":"Běloruská","arrival_time":"13:41:00","departure_time":"13:41:00","lat":49.170662,"lon":16.580727,"is_passed":false},{"stop_id":"U1293Z2","name":"Krematorium","arrival_time":"13:42:00","departure_time":"13:42:00","lat":49.172257,"lon":16.586414,"is_passed":false},{"stop_id":"U1053Z2","name":"Celní","arrival_time":"13:45:00","departure_time":"13:45:00","lat":49.179607,"lon":16.595242,"is_passed":false},{"stop_id":"U1430Z2","name":"Nemocnice Milosrdných bratří","arrival_time":"13:46:00","departure_time":"13:46:00","lat":49.183867,"lon":16.595061,"is_passed":false},{"stop_id":"U1512Z2","name":"Poříčí","arrival_time":"13:48:00","departure_time":"13:48:00","lat":49.187409,"lon":16.594512,"is_passed":false},{"stop_id":"U1378Z3","name":"Mendlovo náměstí","arrival_time":"13:50:00","departure_time":"13:50:00","lat":49.190293,"lon":16.594781,"is_passed":false},{"stop_id":"U1428Z1","name":"Nemocnice u sv. Anny","arrival_time":"13:52:00","departure_time":"13:52:00","lat":49.191471,"lon":16.599302,"is_passed":false},{"stop_id":"U1637Z4","name":"Šilingrovo náměstí","arrival_time":"13:53:00","departure_time":"13:53:00","lat":49.192271,"lon":16.604367,"is_passed":false},{"stop_id":"U1073Z2","name":"Česká","arrival_time":"13:57:00","departure_time":"13:57:00","lat":49.197702,"lon":16.606463,"is_passed":false},{"stop_id":"U1397Z1","name":"Moravské náměstí","arrival_time":"13:58:00","departure_time":"13:58:00","lat":49.19996,"lon":16.607931,"is_passed":false},{"stop_id":"U1006Z1","name":"Antonínská","arrival_time":"14:00:00","departure_time":"14:00:00","lat":49.203685,"lon":16.606678,"is_passed":false},{"stop_id":"U1483Z1","name":"Pionýrská","arrival_time":"14:01:00","departure_time":"14:01:00","lat":49.207491,"lon":16.604472,"is_passed":false},{"stop_id":"U1166Z1","name":"Hrnčířská","arrival_time":"14:03:00","departure_time":"14:03:00","lat":49.210254,"lon":16.602868,"is_passed":false},{"stop_id":"U1652Z1","name":"Šumavská","arrival_time":"14:04:00","departure_time":"14:04:00","lat":49.213991,"lon":16.600669,"is_passed":false},{"stop_id":"U1233Z1","name":"Kartouzská","arrival_time":"14:05:00","departure_time":"14:05:00","lat":49.216998,"lon":16.598896,"is_passed":false},{"stop_id":"U1218Z1","name":"Jungmannova","arrival_time":"14:06:00","departure_time":"14:06:00","lat":49.220856,"lon":16.596583,"is_passed":false},{"stop_id":"U1171Z1","name":"Husitská","arrival_time":"14:07:00","departure_time":"14:07:00","lat":49.223125,"lon":16.59524,"is_passed":false},{"stop_id":"U1566Z1","name":"Semilasso","arrival_time":"14:09:00","departure_time":"14:09:00","lat":49.227417,"lon":16.592683,"is_passed":false},{"stop_id":"U1286Z1","name":"Královo Pole, nádraží","arrival_time":"14:11:00","departure_time":"14:29:00","lat":49.230031,"lon":16.595374,"is_passed":false}],"54406":[{"stop_id":"U1286Z2","name":"Královo Pole, nádraží","arrival_time":"14:29:00","departure_time":"14:29:00","lat":49.229691,"lon":16.595601,"is_passed":false},{"stop_id":"U1566Z3","name":"Semilasso","arrival_time":"14:29:00","departure_time":"14:29:00","lat":49.228432,"lon":16.593971,"is_passed":false},{"stop_id":"U1171Z2","name":"Husitská","arrival_time":"14:32:00","departure_time":"14:32:00","lat":49.223415,"lon":16.595016,"is_passed":false},{"stop_id":"U1218Z2","name":"Jungmannova","arrival_time":"14:33:00","departure_time":"14:33:00","lat":49.221083,"lon":16.596416,"is_passed":false},{"stop_id":"U1233Z2","name":"Kartouzská","arrival_time":"14:34:00","departure_time":"14:34:00","lat":49.21665,"lon":16.599078,"is_passed":false},{"stop_id":"U1652Z2","name":"Šumavská","arrival_time":"14:35:00","departure_time":"14:35:00","lat":49.214022,"lon":16.60062,"is_passed":false},{"stop_id":"U1166Z2","name":"Hrnčířská","arrival_time":"14:36:00","departure_time":"14:36:00","lat":49.21062,"lon":16.602628,"is_passed":false},{"stop_id":"U1483Z2","name":"Pionýrská","arrival_time":"14:37:00","departure_time":"14:37:00","lat":49.207904,"lon":16.604201,"is_passed":false},{"stop_id":"U1006Z2","name":"Antonínská","arrival_time":"14:38:00","departure_time":"14:38:00","lat":49.203166,"lon":16.606915,"is_passed":false},{"stop_id":"U1397Z2","name":"Moravské náměstí","arrival_time":"14:40:00","departure_time":"14:40:00","lat":49.199237,"lon":16.608067,"is_passed":false},{"stop_id":"U1073Z1","name":"Česká","arrival_time":"14:42:00","departure_time":"14:42:00","lat":49.197618,"lon":16.605584,"is_passed":false},{"stop_id":"U1637Z3","name":"Šilingrovo náměstí","arrival_time":"14:45:00","departure_time":"14:45:00","lat":49.1923,"lon":16.60424,"is_passed":false},{"stop_id":"U1428Z2","name":"Nemocnice u sv. Anny","arrival_time":"14:46:00","departure_time":"14:46:00","lat":49.191523,"lon":16.598757,"is_passed":false},{"stop_id":"U1378Z4","name":"Mendlovo náměstí","arrival_time":"14:49:00","departure_time":"14:49:00","lat":49.190204,"lon":16.594235,"is_passed":false},{"stop_id":"U1512Z1","name":"Poříčí","arrival_time":"14:51:00","departure_time":"14:51:00","lat":49.187182,"lon":16.594633,"is_passed":false},{"stop_id":"U1430Z1","name":"Nemocnice Milosrdných bratří","arrival_time":"14:52:00","departure_time":"14:52:00","lat":49.183515,"lon":16.594981,"is_passed":false},{"stop_id":"U1053Z1","name":"Celní","arrival_time":"14:54:00","departure_time":"14:54:00","lat":49.179109,"lon":16.595328,"is_passed":false},{"stop_id":"U1293Z1","name":"Krematorium","arrival_time":"14:57:00","departure_time":"14:57:00","lat":49.172308,"lon":16.586427,"is_passed":false},{"stop_id":"U1021Z1","name":"Běloruská","arrival_time":"14:58:00","departure_time":"14:58:00","lat":49.170755,"lon":16.580895,"is_passed":false},{"stop_id":"U1653Z3","name":"Švermova","arrival_time":"14:59:00","departure_time":"14:59:00","lat":49.169262,"lon":16.573246,"is_passed":false},{"stop_id":"U1472Z1","name":"Osová","arrival_time":"15:00:00","departure_time":"15:00:00","lat":49.169023,"lon":16.56653,"is_passed":false},{"stop_id":"U1227Z1","name":"Karpatská","arrival_time":"15:01:00","departure_time":"15:01:00","lat":49.168113,"lon":16.562077,"is_passed":false},{"stop_id":"U1097Z1","name":"Dunajská","arrival_time":"15:02:00","departure_time":"15:02:00","lat":49.169066,"lon":16.55664,"is_passed":false},{"stop_id":"U1616Z1","name":"Starý Lískovec, smyčka","arrival_time":"15:04:00","departure_time":"15:10:00","lat":49.171366,"lon":16.554527,"is_passed":false}],"54407":[{"stop_id":"U1616Z2","name":"Starý Lískovec, smyčka","arrival_time":"15:10:00","departure_time":"15:10:00","lat":49.170465,"lon":16.554565,"is_passed":false},{"stop_id":"U1097Z2","name":"Dunajská","arrival_time":"15:10:00","departure_time":"15:10:00","lat":49.169112,"lon":16.556485,"is_passed":false},{"stop_id":"U1227Z2","name":"Karpatská","arrival_time":"15:11:00","departure_time":"15:11:00","lat":49.168021,"lon":16.561879,"is_passed":false},{"stop_id":"U1472Z2","name":"Osová","arrival_time":"15:13:00","departure_time":"15:13:00","lat":49.169005,"lon":16.567514,"is_passed":false},{"stop_id":"U1653Z4","name":"Švermova","arrival_time":"15:14:00","departure_time":"15:14:00","lat":49.169191,"lon":16.573122,"is_passed":false},{"stop_id":"U1021Z2","name":"Běloruská","arrival_time":"15:15:00","departure_time":"15:15:00","lat":49.170662,"lon":16.580727,"is_passed":false},{"stop_id":"U1293Z2","name":"Krematorium","arrival_time":"15:16:00","departure_time":"15:16:00","lat":49.172257,"lon":16.586414,"is_passed":false},{"stop_id":"U1053Z2","name":"Celní","arrival_time":"15:19:00","departure_time":"15:19:00","lat":49.179607,"lon":16.595242,"is_passed":false},{"stop_id":"U1430Z2","name":"Nemocnice Milosrdných bratří","arrival_time":"15:20:00","departure_time":"15:20:00","lat":49.183867,"lon":16.595061,"is_passed":false},{"stop_id":"U1512Z2","name":"Poříčí","arrival_time":"15:22:00","departure_time":"15:22:00","lat":49.187409,"lon":16.594512,"is_passed":false},{"stop_id":"U1378Z3","name":"Mendlovo náměstí","arrival_time":"15:24:00","departure_time":"15:24:00","lat":49.190293,"lon":16.594781,"is_passed":false},{"stop_id":"U1428Z1","name":"Nemocnice u sv. Anny","arrival_time":"15:26:00","departure_time":"15:26:00","lat":49.191471,"lon":16.599302,"is_passed":false},{"stop_id":"U1637Z4","name":"Šilingrovo náměstí","arrival_time":"15:27:00","departure_time":"15:27:00","lat":49.192271,"lon":16.604367,"is_passed":false},{"stop_id":"U1073Z2","name":"Česká","arrival_time":"15:31:00","departure_time":"15:31:00","lat":49.197702,"lon":16.606463,"is_passed":false},{"stop_id":"U1397Z1","name":"Moravské náměstí","arrival_time":"15:32:00","departure_time":"15:32:00","lat":49.19996,"lon":16.607931,"is_passed":false},{"stop_id":"U1006Z1","name":"Antonínská","arrival_time":"15:34:00","departure_time":"15:34:00","lat":49.203685,"lon":16.606678,"is_passed":false},{"stop_id":"U1483Z1","name":"Pionýrská","arrival_time":"15:35:00","departure_time":"15:35:00","lat":49.207491,"lon":16.604472,"is_passed":false},{"stop_id":"U1166Z1","name":"Hrnčířská","arrival_time":"15:37:00","departure_time":"15:37:00","lat":49.210254,"lon":16.602868,"is_passed":false},{"stop_id":"U1652Z1","name":"Šumavská","arrival_time":"15:38:00","departure_time":"15:38:00","lat":49.213991,"lon":16.600669,"is_passed":false},{"stop_id":"U1233Z1","name":"Kartouzská","arrival_time":"15:39:00","departure_time":"15:39:00","lat":49.216998,"lon":16.598896,"is_passed":false},{"stop_id":"U1218Z1","name":"Jungmannova","arrival_time":"15:40:00","departure_time":"15:40:00","lat":49.220856,"lon":16.596583,"is_passed":false},{"stop_id":"U1171Z1","name":"Husitská","arrival_time":"15:41:00","departure_time":"15:41:00","lat":49.223125,"lon":16.59524,"is_passed":false},{"stop_id":"U1566Z1","name":"Semilasso","arrival_time":"15:43:00","departure_time":"15:43:00","lat":49.227417,"lon":16.592683,"is_passed":false},{"stop_id":"U1286Z1","name":"Královo Pole, nádraží","arrival_time":"15:45:00","departure_time":"16:09:00","lat":49.230031,"lon":16.595374,"is_passed":false}],"54408":[{"stop_id":"U1286Z2","name":"Královo Pole, nádraží","arrival_time":"16:09:00","departure_time":"16:09:00","lat":49.229691,"lon":16.595601,"is_passed":false},{"stop_id":"U1566Z3","name":"Semilasso","arrival_time":"16:09:00","departure_time":"16:09:00","lat":49.228432,"lon":16.593971,"is_passed":false},{"stop_id":"U1171Z2","name":"Husitská","arrival_time":"16:12:00","departure_time":"16:12:00","lat":49.223415,"lon":16.595016,"is_passed":false},{"stop_id":"U1218Z2","name":"Jungmannova","arrival_time":"16:13:00","departure_time":"16:13:00","lat":49.221083,"lon":16.596416,"is_passed":false},{"stop_id":"U1233Z2","name":"Kartouzská","arrival_time":"16:14:00","departure_time":"16:14:00","lat":49.21665,"lon":16.599078,"is_passed":false},{"stop_id":"U1652Z2","name":"Šumavská","arrival_time":"16:15:00","departure_time":"16:15:00","lat":49.214022,"lon":16.60062,"is_passed":false},{"stop_id":"U1166Z2","name":"Hrnčířská","arrival_time":"16:16:00","departure_time":"16:16:00","lat":49.21062,"lon":16.602628,"is_passed":false},{"stop_id":"U1483Z2","name":"Pionýrská","arrival_time":"16:17:00","departure_time":"16:17:00","lat":49.207904,"lon":16.604201,"is_passed":false},{"stop_id":"U1006Z2","name":"Antonínská","arrival_time":"16:18:00","departure_time":"16:18:00","lat":49.203166,"lon":16.606915,"is_passed":false},{"stop_id":"U1397Z2","name":"Moravské náměstí","arrival_time":"16:20:00","departure_time":"16:20:00","lat":49.199237,"lon":16.608067,"is_passed":false},{"stop_id":"U1073Z1","name":"Česká","arrival_time":"16:22:00","departure_time":"16:22:00","lat":49.197618,"lon":16.605584,"is_passed":false},{"stop_id":"U1637Z3","name":"Šilingrovo náměstí","arrival_time":"16:25:00","departure_time":"16:25:00","lat":49.1923,"lon":16.60424,"is_passed":false},{"stop_id":"U1428Z2","name":"Nemocnice u sv. Anny","arrival_time":"16:26:00","departure_time":"16:26:00","lat":49.191523,"lon":16.598757,"is_passed":false},{"stop_id":"U1378Z4","name":"Mendlovo náměstí","arrival_time":"16:29:00","departure_time":"16:29:00","lat":49.190204,"lon":16.594235,"is_passed":false},{"stop_id":"U1512Z1","name":"Poříčí","arrival_time":"16:31:00","departure_time":"16:31:00","lat":49.187182,"lon":16.594633,"is_passed":false},{"stop_id":"U1430Z1","name":"Nemocnice Milosrdných bratří","arrival_time":"16:32:00","departure_time":"16:32:00","lat":49.183515,"lon":16.594981,"is_passed":false},{"stop_id":"U1053Z1","name":"Celní","arrival_time":"16:34:00","departure_time":"16:34:00","lat":49.179109,"lon":16.595328,"is_passed":false},{"stop_id":"U1293Z1","name":"Krematorium","arrival_time":"16:37:00","departure_time":"16:37:00","lat":49.172308,"lon":16.586427,"is_passed":false},{"stop_id":"U1021Z1","name":"Běloruská","arrival_time":"16:38:00","departure_time":"16:38:00","lat":49.170755,"lon":16.580895,"is_passed":false},{"stop_id":"U1653Z3","name":"Švermova","arrival_time":"16:39:00","departure_time":"16:39:00","lat":49.169262,"lon":16.573246,"is_passed":false},{"stop_id":"U1472Z1","name":"Osová","arrival_time":"16:40:00","departure_time":"16:40:00","lat":49.169023,"lon":16.56653,"is_passed":false},{"stop_id":"U1227Z1","name":"Karpatská","arrival_time":"16:41:00","departure_time":"16:41:00","lat":49.168113,"lon":16.562077,"is_passed":false},{"stop_id":"U1097Z1","name":"Dunajská","arrival_time":"16:42:00","departure_time":"16:42:00","lat":49.169066,"lon":16.55664,"is_passed":false},{"stop_id":"U1616Z1","name":"Starý Lískovec, smyčka","arrival_time":"16:44:00","departure_time":"16:50:00","lat":49.171366,"lon":16.554527,"is_passed":false}],"54409":[{"stop_id":"U1616Z2","name":"Starý Lískovec, smyčka","arrival_time":"16:50:00","departure_time":"16:50:00","lat":49.170465,"lon":16.554565,"is_passed":false},{"stop_id":"U1097Z2","name":"Dunajská","arrival_time":"16:50:00","departure_time":"16:50:00","lat":49.169112,"lon":16.556485,"is_passed":false},{"stop_id":"U1227Z2","name":"Karpatská","arrival_time":"16:51:00","departure_time":"16:51:00","lat":49.168021,"lon":16.561879,"is_passed":false},{"stop_id":"U1472Z2","name":"Osová","arrival_time":"16:53:00","departure_time":"16:53:00","lat":49.169005,"lon":16.567514,"is_passed":false},{"stop_id":"U1653Z4","name":"Švermova","arrival_time":"16:54:00","departure_time":"16:54:00","lat":49.169191,"lon":16.573122,"is_passed":false},{"stop_id":"U1021Z2","name":"Běloruská","arrival_time":"16:55:00","departure_time":"16:55:00","lat":49.170662,"lon":16.580727,"is_passed":false},{"stop_id":"U1293Z2","name":"Krematorium","arrival_time":"16:56:00","departure_time":"16:56:00","lat":49.172257,"lon":16.586414,"is_passed":false},{"stop_id":"U1053Z2","name":"Celní","arrival_time":"16:59:00","departure_time":"16:59:00","lat":49.179607,"lon":16.595242,"is_passed":false},{"stop_id":"U1430Z2","name":"Nemocnice Milosrdných bratří","arrival_time":"17:00:00","departure_time":"17:00:00","lat":49.183867,"lon":16.595061,"is_passed":false},{"stop_id":"U1512Z2","name":"Poříčí","arrival_time":"17:02:00","departure_time":"17:02:00","lat":49.187409,"lon":16.594512,"is_passed":false},{"stop_id":"U1378Z3","name":"Mendlovo náměstí","arrival_time":"17:04:00","departure_time":"17:04:00","lat":49.190293,"lon":16.594781,"is_passed":false},{"stop_id":"U1428Z1","name":"Nemocnice u sv. Anny","arrival_time":"17:06:00","departure_time":"17:06:00","lat":49.191471,"lon":16.599302,"is_passed":false},{"stop_id":"U1637Z4","name":"Šilingrovo náměstí","arrival_time":"17:07:00","departure_time":"17:07:00","lat":49.192271,"lon":16.604367,"is_passed":false},{"stop_id":"U1073Z2","name":"Česká","arrival_time":"17:11:00","departure_time":"17:11:00","lat":49.197702,"lon":16.606463,"is_passed":false},{"stop_id":"U1397Z1","name":"Moravské náměstí","arrival_time":"17:12:00","departure_time":"17:12:00","lat":49.19996,"lon":16.607931,"is_passed":false},{"stop_id":"U1006Z1","name":"Antonínská","arrival_time":"17:14:00","departure_time":"17:14:00","lat":49.203685,"lon":16.606678,"is_passed":false},{"stop_id":"U1483Z1","name":"Pionýrská","arrival_time":"17:15:00","departure_time":"17:15:00","lat":49.207491,"lon":16.604472,"is_passed":false},{"stop_id":"U1166Z1","name":"Hrnčířská","arrival_time":"17:17:00","departure_time":"17:17:00","lat":49.210254,"lon":16.602868,"is_passed":false},{"stop_id":"U1652Z1","name":"Šumavská","arrival_time":"17:18:00","departure_time":"17:18:00","lat":49.213991,"lon":16.600669,"is_passed":false},{"stop_id":"U1233Z1","name":"Kartouzská","arrival_time":"17:19:00","departure_time":"17:19:00","lat":49.216998,"lon":16.598896,"is_passed":false},{"stop_id":"U1218Z1","name":"Jungmannova","arrival_time":"17:20:00","departure_time":"17:20:00","lat":49.220856,"lon":16.596583,"is_passed":false},{"stop_id":"U1171Z1","name":"Husitská","arrival_time":"17:21:00","departure_time":"17:21:00","lat":49.223125,"lon":16.59524,"is_passed":false},{"stop_id":"U1566Z1","name":"Semilasso","arrival_time":"17:23:00","departure_time":"17:23:00","lat":49.227417,"lon":16.592683,"is_passed":false},{"stop_id":"U1286Z1","name":"Královo Pole, nádraží","arrival_time":"17:25:00","departure_time":"17:49:00","lat":49.230031,"lon":16.595374,"is_passed":false}],"54410":[{"stop_id":"U1286Z2","name":"Královo Pole, nádraží","arrival_time":"17:49:00","departure_time":"17:49:00","lat":49.229691,"lon":16.595601,"is_passed":false},{"stop_id":"U1566Z3","name":"Semilasso","arrival_time":"17:49:00","departure_time":"17:49:00","lat":49.228432,"lon":16.593971,"is_passed":false},{"stop_id":"U1171Z2","name":"Husitská","arrival_time":"17:52:00","departure_time":"17:52:00","lat":49.223415,"lon":16.595016,"is_passed":false},{"stop_id":"U1218Z2","name":"Jungmannova","arrival_time":"17:53:00","departure_time":"17:53:00","lat":49.221083,"lon":16.596416,"is_passed":false},{"stop_id":"U1233Z2","name":"Kartouzská","arrival_time":"17:54:00","departure_time":"17:54:00","lat":49.21665,"lon":16.599078,"is_passed":false},{"stop_id":"U1652Z2","name":"Šumavská","arrival_time":"17:55:00","departure_time":"17:55:00","lat":49.214022,"lon":16.60062,"is_passed":false},{"stop_id":"U1166Z2","name":"Hrnčířská","arrival_time":"17:56:00","departure_time":"17:56:00","lat":49.21062,"lon":16.602628,"is_passed":false},{"stop_id":"U1483Z2","name":"Pionýrská","arrival_time":"17:57:00","departure_time":"17:57:00","lat":49.207904,"lon":16.604201,"is_passed":false},{"stop_id":"U1006Z2","name":"Antonínská","arrival_time":"17:58:00","departure_time":"17:58:00","lat":49.203166,"lon":16.606915,"is_passed":false},{"stop_id":"U1397Z2","name":"Moravské náměstí","arrival_time":"18:00:00","departure_time":"18:00:00","lat":49.199237,"lon":16.608067,"is_passed":false},{"stop_id":"U1073Z1","name":"Česká","arrival_time":"18:02:00","departure_time":"18:02:00","lat":49.197618,"lon":16.605584,"is_passed":false},{"stop_id":"U1637Z3","name":"Šilingrovo náměstí","arrival_time":"18:05:00","departure_time":"18:05:00","lat":49.1923,"lon":16.60424,"is_passed":false},{"stop_id":"U1428Z2","name":"Nemocnice u sv. Anny","arrival_time":"18:06:00","departure_time":"18:06:00","lat":49.191523,"lon":16.598757,"is_passed":false},{"stop_id":"U1378Z4","name":"Mendlovo náměstí","arrival_time":"18:09:00","departure_time":"18:09:00","lat":49.190204,"lon":16.594235,"is_passed":false},{"stop_id":"U1512Z1","name":"Poříčí","arrival_time":"18:11:00","departure_time":"18:11:00","lat":49.187182,"lon":16.594633,"is_passed":false},{"stop_id":"U1430Z1","name":"Nemocnice Milosrdných bratří","arrival_time":"18:12:00","departure_time":"18:12:00","lat":49.183515,"lon":16.594981,"is_passed":false},{"stop_id":"U1053Z1","name":"Celní","arrival_time":"18:14:00","departure_time":"18:14:00","lat":49.179109,"lon":16.595328,"is_passed":false},{"stop_id":"U1293Z1","name":"Krematorium","arrival_time":"18:17:00","departure_time":"18:17:00","lat":49.172308,"lon":16.586427,"is_passed":false},{"stop_id":"U1021Z1","name":"Běloruská","arrival_time":"18:18:00","departure_time":"18:18:00","lat":49.170755,"lon":16.580895,"is_passed":false},{"stop_id":"U1653Z3","name":"Švermova","arrival_time":"18:19:00","departure_time":"18:19:00","lat":49.169262,"lon":16.573246,"is_passed":false},{"stop_id":"U1472Z1","name":"Osová","arrival_time":"18:20:00","departure_time":"18:20:00","lat":49.169023,"lon":16.56653,"is_passed":false},{"stop_id":"U1227Z1","name":"Karpatská","arrival_time":"18:21:00","departure_time":"18:21:00","lat":49.168113,"lon":16.562077,"is_passed":false},{"stop_id":"U1097Z1","name":"Dunajská","arrival_time":"18:22:00","departure_time":"18:22:00","lat":49.169066,"lon":16.55664,"is_passed":false},{"stop_id":"U1616Z1","name":"Starý Lískovec, smyčka","arrival_time":"18:24:00","departure_time":"18:44:00","lat":49.171366,"lon":16.554527,"is_passed":false}],"54411":[{"stop_id":"U1616Z2","name":"Starý Lískovec, smyčka","arrival_time":"18:44:00","departure_time":"18:44:00","lat":49.170465,"lon":16.554565,"is_passed":false},{"stop_id":"U1097Z2","name":"Dunajská","arrival_time":"18:44:00","departure_time":"18:44:00","lat":49.169112,"lon":16.556485,"is_passed":false},{"stop_id":"U1227Z2","name":"Karpatská","arrival_time":"18:45:00","departure_time":"18:45:00","lat":49.168021,"lon":16.561879,"is_passed":false},{"stop_id":"U1472Z2","name":"Osová","arrival_time":"18:46:00","departure_time":"18:46:00","lat":49.169005,"lon":16.567514,"is_passed":false},{"stop_id":"U1653Z4","name":"Švermova","arrival_time":"18:47:00","departure_time":"18:47:00","lat":49.169191,"lon":16.573122,"is_passed":false},{"stop_id":"U1021Z2","name":"Běloruská","arrival_time":"18:48:00","departure_time":"18:48:00","lat":49.170662,"lon":16.580727,"is_passed":false},{"stop_id":"U1293Z2","name":"Krematorium","arrival_time":"18:49:00","departure_time":"18:49:00","lat":49.172257,"lon":16.586414,"is_passed":false},{"stop_id":"U1053Z2","name":"Celní","arrival_time":"18:52:00","departure_time":"18:52:00","lat":49.179607,"lon":16.595242,"is_passed":false},{"stop_id":"U1430Z2","name":"Nemocnice Milosrdných bratří","arrival_time":"18:53:00","departure_time":"18:53:00","lat":49.183867,"lon":16.595061,"is_passed":false},{"stop_id":"U1512Z2","name":"Poříčí","arrival_time":"18:55:00","departure_time":"18:55:00","lat":49.187409,"lon":16.594512,"is_passed":false},{"stop_id":"U1378Z3","name":"Mendlovo náměstí","arrival_time":"18:57:00","departure_time":"18:57:00","lat":49.190293,"lon":16.594781,"is_passed":false},{"stop_id":"U1428Z1","name":"Nemocnice u sv. Anny","arrival_time":"18:59:00","departure_time":"18:59:00","lat":49.191471,"lon":16.599302,"is_passed":false},{"stop_id":"U1637Z4","name":"Šilingrovo náměstí","arrival_time":"19:00:00","departure_time":"19:00:00","lat":49.192271,"lon":16.604367,"is_passed":false},{"stop_id":"U1073Z2","name":"Česká","arrival_time":"19:04:00","departure_time":"19:04:00","lat":49.197702,"lon":16.606463,"is_passed":false},{"stop_id":"U1397Z1","name":"Moravské náměstí","arrival_time":"19:05:00","departure_time":"19:05:00","lat":49.19996,"lon":16.607931,"is_passed":false},{"stop_id":"U1006Z1","name":"Antonínská","arrival_time":"19:06:00","departure_time":"19:06:00","lat":49.203685,"lon":16.606678,"is_passed":false},{"stop_id":"U1483Z1","name":"Pionýrská","arrival_time":"19:07:00","departure_time":"19:07:00","lat":49.207491,"lon":16.604472,"is_passed":false},{"stop_id":"U1166Z1","name":"Hrnčířská","arrival_time":"19:09:00","departure_time":"19:09:00","lat":49.210254,"lon":16.602868,"is_passed":false},{"stop_id":"U1652Z1","name":"Šumavská","arrival_time":"19:10:00","departure_time":"19:10:00","lat":49.213991,"lon":16.600669,"is_passed":false},{"stop_id":"U1233Z1","name":"Kartouzská","arrival_time":"19:11:00","departure_time":"19:11:00","lat":49.216998,"lon":16.598896,"is_passed":false},{"stop_id":"U1218Z1","name":"Jungmannova","arrival_time":"19:12:00","departure_time":"19:12:00","lat":49.220856,"lon":16.596583,"is_passed":false},{"stop_id":"U1171Z1","name":"Husitská","arrival_time":"19:13:00","departure_time":"19:13:00","lat":49.223125,"lon":16.59524,"is_passed":false},{"stop_id":"U1566Z1","name":"Semilasso","arrival_time":"19:15:00","departure_time":"19:15:00","lat":49.227417,"lon":16.592683,"is_passed":false},{"stop_id":"U1286Z1","name":"Královo Pole, nádraží","arrival_time":"19:17:00","departure_time":"19:37:00","lat":49.230031,"lon":16.595374,"is_passed":false}],"54412":[{"stop_id":"U1286Z2","name":"Královo Pole, nádraží","arrival_time":"19:37:00","departure_time":"19:37:00","lat":49.229691,"lon":16.595601,"is_passed":false},{"stop_id":"U1566Z3","name":"Semilasso","arrival_time":"19:37:00","departure_time":"19:37:00","lat":49.228432,"lon":16.593971,"is_passed":false},{"stop_id":"U1171Z2","name":"Husitská","arrival_time":"19:40:00","departure_time":"19:40:00","lat":49.223415,"lon":16.595016,"is_passed":false},{"stop_id":"U1218Z2","name":"Jungmannova","arrival_time":"19:41:00","departure_time":"19:41:00","lat":49.221083,"lon":16.596416,"is_passed":false},{"stop_id":"U1233Z2","name":"Kartouzská","arrival_time":"19:42:00","departure_time":"19:42:00","lat":49.21665,"lon":16.599078,"is_passed":false},{"stop_id":"U1652Z2","name":"Šumavská","arrival_time":"19:43:00","departure_time":"19:43:00","lat":49.214022,"lon":16.60062,"is_passed":false},{"stop_id":"U1166Z2","name":"Hrnčířská","arrival_time":"19:44:00","departure_time":"19:44:00","lat":49.21062,"lon":16.602628,"is_passed":false},{"stop_id":"U1483Z2","name":"Pionýrská","arrival_time":"19:45:00","departure_time":"19:45:00","lat":49.207904,"lon":16.604201,"is_passed":false},{"stop_id":"U1006Z2","name":"Antonínská","arrival_time":"19:46:00","departure_time":"19:46:00","lat":49.203166,"lon":16.606915,"is_passed":false},{"stop_id":"U1397Z2","name":"Moravské náměstí","arrival_time":"19:48:00","departure_time":"19:48:00","lat":49.199237,"lon":16.608067,"is_passed":false},{"stop_id":"U1073Z1","name":"Česká","arrival_time":"19:50:00","departure_time":"19:50:00","lat":49.197618,"lon":16.605584,"is_passed":false},{"stop_id":"U1637Z3","name":"Šilingrovo náměstí","arrival_time":"19:53:00","departure_time":"19:53:00","lat":49.1923,"lon":16.60424,"is_passed":false},{"stop_id":"U1428Z2","name":"Nemocnice u sv. Anny","arrival_time":"19:54:00","departure_time":"19:54:00","lat":49.191523,"lon":16.598757,"is_passed":false},{"stop_id":"U1378Z4","name":"Mendlovo náměstí","arrival_time":"19:56:00","departure_time":"19:56:00","lat":49.190204,"lon":16.594235,"is_passed":false},{"stop_id":"U1512Z1","name":"Poříčí","arrival_time":"19:58:00","departure_time":"19:58:00","lat":49.187182,"lon":16.594633,"is_passed":false},{"stop_id":"U1430Z1","name":"Nemocnice Milosrdných bratří","arrival_time":"19:59:00","departure_time":"19:59:00","lat":49.183515,"lon":16.594981,"is_passed":false},{"stop_id":"U1053Z1","name":"Celní","arrival_time":"20:01:00","departure_time":"20:01:00","lat":49.179109,"lon":16.595328,"is_passed":false},{"stop_id":"U1293Z1","name":"Krematorium","arrival_time":"20:03:00","departure_time":"20:03:00","lat":49.172308,"lon":16.586427,"is_passed":false},{"stop_id":"U1021Z1","name":"Běloruská","arrival_time":"20:04:00","departure_time":"20:04:00","lat":49.170755,"lon":16.580895,"is_passed":false},{"stop_id":"U1653Z3","name":"Švermova","arrival_time":"20:05:00","departure_time":"20:05:00","lat":49.169262,"lon":16.573246,"is_passed":false},{"stop_id":"U1472Z1","name":"Osová","arrival_time":"20:06:00","departure_time":"20:06:00","lat":49.169023,"lon":16.56653,"is_passed":false},{"stop_id":"U1227Z1","name":"Karpatská","arrival_time":"20:07:00","departure_time":"20:07:00","lat":49.168113,"lon":16.562077,"is_passed":false},{"stop_id":"U1097Z1","name":"Dunajská","arrival_time":"20:08:00","departure_time":"20:08:00","lat":49.169066,"lon":16.55664,"is_passed":false},{"stop_id":"U1616Z1","name":"Starý Lískovec, smyčka","arrival_time":"20:10:00","departure_time":"20:14:00","lat":49.171366,"lon":16.554527,"is_passed":false}],"54413":[{"stop_id":"U1616Z2","name":"Starý Lískovec, smyčka","arrival_time":"20:14:00","departure_time":"20:14:00","lat":49.170465,"lon":16.554565,"is_passed":false},{"stop_id":"U1097Z2","name":"Dunajská","arrival_time":"20:14:00","departure_time":"20:14:00","lat":49.169112,"lon":16.556485,"is_passed":false},{"stop_id":"U1227Z2","name":"Karpatská","arrival_time":"20:15:00","departure_time":"20:15:00","lat":49.168021,"lon":16.561879,"is_passed":false},{"stop_id":"U1472Z2","name":"Osová","arrival_time":"20:16:00","departure_time":"20:16:00","lat":49.169005,"lon":16.567514,"is_passed":false},{"stop_id":"U1653Z4","name":"Švermova","arrival_time":"20:17:00","departure_time":"20:17:00","lat":49.169191,"lon":16.573122,"is_passed":false},{"stop_id":"U1021Z2","name":"Běloruská","arrival_time":"20:18:00","departure_time":"20:18:00","lat":49.170662,"lon":16.580727,"is_passed":false},{"stop_id":"U1293Z2","name":"Krematorium","arrival_time":"20:19:00","departure_time":"20:19:00","lat":49.172257,"lon":16.586414,"is_passed":false},{"stop_id":"U1053Z2","name":"Celní","arrival_time":"20:22:00","departure_time":"20:22:00","lat":49.179607,"lon":16.595242,"is_passed":false},{"stop_id":"U1430Z2","name":"Nemocnice Milosrdných bratří","arrival_time":"20:23:00","departure_time":"20:23:00","lat":49.183867,"lon":16.595061,"is_passed":false},{"stop_id":"U1512Z2","name":"Poříčí","arrival_time":"20:25:00","departure_time":"20:25:00","lat":49.187409,"lon":16.594512,"is_passed":false},{"stop_id":"U1378Z1","name":"Mendlovo náměstí","arrival_time":"20:27:00","departure_time":"20:27:00","lat":49.189659,"lon":16.592283,"is_passed":false},{"stop_id":"U1768Z1","name":"Výstaviště - hlavní vstup","arrival_time":"20:29:00","departure_time":"20:29:00","lat":49.189583,"lon":16.584499,"is_passed":false},{"stop_id":"U1769Z1","name":"Výstaviště - vstup G2","arrival_time":"20:30:00","departure_time":"20:30:00","lat":49.190338,"lon":16.579837,"is_passed":false},{"stop_id":"U1343Z1","name":"ARENA BRNO","arrival_time":"20:31:00","departure_time":"20:31:00","lat":49.191523,"lon":16.576065,"is_passed":false}],"54414":[{"stop_id":"U1286Z2","name":"Královo Pole, nádraží","arrival_time":"6:43:00","departure_time":"6:43:00","lat":49.229691,"lon":16.595601,"is_passed":false},{"stop_id":"U1566Z3","name":"Semilasso","arrival_time":"6:43:00","departure_time":"6:43:00","lat":49.228432,"lon":16.593971,"is_passed":false},{"stop_id":"U1171Z2","name":"Husitská","arrival_time":"6:46:00","departure_time":"6:46:00","lat":49.223415,"lon":16.595016,"is_passed":false},{"stop_id":"U1218Z2","name":"Jungmannova","arrival_time":"6:47:00","departure_time":"6:47:00","lat":49.221083,"lon":16.596416,"is_passed":false},{"stop_id":"U1233Z2","name":"Kartouzská","arrival_time":"6:48:00","departure_time":"6:48:00","lat":49.21665,"lon":16.599078,"is_passed":false},{"stop_id":"U1652Z2","name":"Šumavská","arrival_time":"6:49:00","departure_time":"6:49:00","lat":49.214022,"lon":16.60062,"is_passed":false},{"stop_id":"U1166Z2","name":"Hrnčířská","arrival_time":"6:50:00","departure_time":"6:50:00","lat":49.21062,"lon":16.602628,"is_passed":false},{"stop_id":"U1483Z2","name":"Pionýrská","arrival_time":"6:51:00","departure_time":"6:51:00","lat":49.207904,"lon":16.604201,"is_passed":false},{"stop_id":"U1006Z2","name":"Antonínská","arrival_time":"6:52:00","departure_time":"6:52:00","lat":49.203166,"lon":16.606915,"is_passed":false},{"stop_id":"U1397Z2","name":"Moravské náměstí","arrival_time":"6:54:00","departure_time":"6:54:00","lat":49.199237,"lon":16.608067,"is_passed":false},{"stop_id":"U1073Z1","name":"Česká","arrival_time":"6:56:00","departure_time":"6:56:00","lat":49.197618,"lon":16.605584,"is_passed":false},{"stop_id":"U1637Z3","name":"Šilingrovo náměstí","arrival_time":"6:59:00","departure_time":"6:59:00","lat":49.1923,"lon":16.60424,"is_passed":false},{"stop_id":"U1428Z2","name":"Nemocnice u sv. Anny","arrival_time":"7:00:00","departure_time":"7:00:00","lat":49.191523,"lon":16.598757,"is_passed":false},{"stop_id":"U1378Z4","name":"Mendlovo náměstí","arrival_time":"7:03:00","departure_time":"7:03:00","lat":49.190204,"lon":16.594235,"is_passed":false},{"stop_id":"U1512Z1","name":"Poříčí","arrival_time":"7:05:00","departure_time":"7:05:00","lat":49.187182,"lon":16.594633,"is_passed":false},{"stop_id":"U1430Z1","name":"Nemocnice Milosrdných bratří","arrival_time":"7:06:00","departure_time":"7:06:00","lat":49.183515,"lon":16.594981,"is_passed":false},{"stop_id":"U1053Z1","name":"Celní","arrival_time":"7:08:00","departure_time":"7:08:00","lat":49.179109,"lon":16.595328,"is_passed":false},{"stop_id":"U1293Z1","name":"Krematorium","arrival_time":"7:11:00","departure_time":"7:11:00","lat":49.172308,"lon":16.586427,"is_passed":false},{"stop_id":"U1021Z1","name":"Běloruská","arrival_time":"7:12:00","departure_time":"7:12:00","lat":49.170755,"lon":16.580895,"is_passed":false},{"stop_id":"U1653Z3","name":"Švermova","arrival_time":"7:13:00","departure_time":"7:13:00","lat":49.169262,"lon":16.573246,"is_passed":false},{"stop_id":"U1472Z1","name":"Osová","arrival_time":"7:14:00","departure_time":"7:14:00","lat":49.169023,"lon":16.56653,"is_passed":false},{"stop_id":"U1227Z1","name":"Karpatská","arrival_time":"7:15:00","departure_time":"7:15:00","lat":49.168113,"lon":16.562077,"is_passed":false},{"stop_id":"U1097Z1","name":"Dunajská","arrival_time":"7:16:00","departure_time":"7:16:00","lat":49.169066,"lon":16.55664,"is_passed":false},{"stop_id":"U1616Z1","name":"Starý Lískovec, smyčka","arrival_time":"7:18:00","departure_time":"7:23:00","lat":49.171366,"lon":16.554527,"is_passed":false}],"54415":[{"stop_id":"U1616Z2","name":"Starý Lískovec, smyčka","arrival_time":"7:23:00","departure_time":"7:23:00","lat":49.170465,"lon":16.554565,"is_passed":false},{"stop_id":"U1097Z2","name":"Dunajská","arrival_time":"7:23:00","departure_time":"7:23:00","lat":49.169112,"lon":16.556485,"is_passed":false},{"stop_id":"U1227Z2","name":"Karpatská","arrival_time":"7:24:00","departure_time":"7:24:00","lat":49.168021,"lon":16.561879,"is_passed":false},{"stop_id":"U1472Z2","name":"Osová","arrival_time":"7:26:00","departure_time":"7:26:00","lat":49.169005,"lon":16.567514,"is_passed":false},{"stop_id":"U1653Z4","name":"Švermova","arrival_time":"7:27:00","departure_time":"7:27:00","lat":49.169191,"lon":16.573122,"is_passed":false},{"stop_id":"U1021Z2","name":"Běloruská","arrival_time":"7:28:00","departure_time":"7:28:00","lat":49.170662,"lon":16.580727,"is_passed":false},{"stop_id":"U1293Z2","name":"Krematorium","arrival_time":"7:29:00","departure_time":"7:29:00","lat":49.172257,"lon":16.586414,"is_passed":false},{"stop_id":"U1053Z2","name":"Celní","arrival_time":"7:32:00","departure_time":"7:32:00","lat":49.179607,"lon":16.595242,"is_passed":false},{"stop_id":"U1430Z2","name":"Nemocnice Milosrdných bratří","arrival_time":"7:33:00","departure_time":"7:33:00","lat":49.183867,"lon":16.595061,"is_passed":false},{"stop_id":"U1512Z2","name":"Poříčí","arrival_time":"7:35:00","departure_time":"7:35:00","lat":49.187409,"lon":16.594512,"is_passed":false},{"stop_id":"U1378Z3","name":"Mendlovo náměstí","arrival_time":"7:37:00","departure_time":"7:37:00","lat":49.190293,"lon":16.594781,"is_passed":false},{"stop_id":"U1428Z1","name":"Nemocnice u sv. Anny","arrival_time":"7:39:00","departure_time":"7:39:00","lat":49.191471,"lon":16.599302,"is_passed":false},{"stop_id":"U1637Z4","name":"Šilingrovo náměstí","arrival_time":"7:40:00","departure_time":"7:40:00","lat":49.192271,"lon":16.604367,"is_passed":false},{"stop_id":"U1073Z2","name":"Česká","arrival_time":"7:44:00","departure_time":"7:44:00","lat":49.197702,"lon":16.606463,"is_passed":false},{"stop_id":"U1397Z1","name":"Moravské náměstí","arrival_time":"7:45:00","departure_time":"7:45:00","lat":49.19996,"lon":16.607931,"is_passed":false},{"stop_id":"U1006Z1","name":"Antonínská","arrival_time":"7:47:00","departure_time":"7:47:00","lat":49.203685,"lon":16.606678,"is_passed":false},{"stop_id":"U1483Z1","name":"Pionýrská","arrival_time":"7:48:00","departure_time":"7:48:00","lat":49.207491,"lon":16.604472,"is_passed":false},{"stop_id":"U1166Z1","name":"Hrnčířská","arrival_time":"7:50:00","departure_time":"7:50:00","lat":49.210254,"lon":16.602868,"is_passed":false},{"stop_id":"U1652Z1","name":"Šumavská","arrival_time":"7:51:00","departure_time":"7:51:00","lat":49.213991,"lon":16.600669,"is_passed":false},{"stop_id":"U1233Z1","name":"Kartouzská","arrival_time":"7:52:00","departure_time":"7:52:00","lat":49.216998,"lon":16.598896,"is_passed":false},{"stop_id":"U1218Z1","name":"Jungmannova","arrival_time":"7:53:00","departure_time":"7:53:00","lat":49.220856,"lon":16.596583,"is_passed":false},{"stop_id":"U1171Z1","name":"Husitská","arrival_time":"7:54:00","departure_time":"7:54:00","lat":49.223125,"lon":16.59524,"is_passed":false},{"stop_id":"U1566Z1","name":"Semilasso","arrival_time":"7:56:00","departure_time":"7:56:00","lat":49.227417,"lon":16.592683,"is_passed":false},{"stop_id":"U1286Z1","name":"Královo Pole, nádraží","arrival_time":"7:58:00","departure_time":"8:23:00","lat":49.230031,"lon":16.595374,"is_passed":false}],"54416":[{"stop_id":"U1286Z2","name":"Královo Pole, nádraží","arrival_time":"8:23:00","departure_time":"8:23:00","lat":49.229691,"lon":16.595601,"is_passed":false},{"stop_id":"U1566Z3","name":"Semilasso","arrival_time":"8:23:00","departure_time":"8:23:00","lat":49.228432,"lon":16.593971,"is_passed":false},{"stop_id":"U1171Z2","name":"Husitská","arrival_time":"8:26:00","departure_time":"8:26:00","lat":49.223415,"lon":16.595016,"is_passed":false},{"stop_id":"U1218Z2","name":"Jungmannova","arrival_time":"8:27:00","departure_time":"8:27:00","lat":49.221083,"lon":16.596416,"is_passed":false},{"stop_id":"U1233Z2","name":"Kartouzská","arrival_time":"8:28:00","departure_time":"8:28:00","lat":49.21665,"lon":16.599078,"is_passed":false},{"stop_id":"U1652Z2","name":"Šumavská","arrival_time":"8:29:00","departure_time":"8:29:00","lat":49.214022,"lon":16.60062,"is_passed":false},{"stop_id":"U1166Z2","name":"Hrnčířská","arrival_time":"8:30:00","departure_time":"8:30:00","lat":49.21062,"lon":16.602628,"is_passed":false},{"stop_id":"U1483Z2","name":"Pionýrská","arrival_time":"8:31:00","departure_time":"8:31:00","lat":49.207904,"lon":16.604201,"is_passed":false},{"stop_id":"U1006Z2","name":"Antonínská","arrival_time":"8:32:00","departure_time":"8:32:00","lat":49.203166,"lon":16.606915,"is_passed":false},{"stop_id":"U1397Z2","name":"Moravské náměstí","arrival_time":"8:34:00","departure_time":"8:34:00","lat":49.199237,"lon":16.608067,"is_passed":false},{"stop_id":"U1073Z1","name":"Česká","arrival_time":"8:36:00","departure_time":"8:36:00","lat":49.197618,"lon":16.605584,"is_passed":false},{"stop_id":"U1637Z3","name":"Šilingrovo náměstí","arrival_time":"8:39:00","departure_time":"8:39:00","lat":49.1923,"lon":16.60424,"is_passed":false},{"stop_id":"U1428Z2","name":"Nemocnice u sv. Anny","arrival_time":"8:40:00","departure_time":"8:40:00","lat":49.191523,"lon":16.598757,"is_passed":false},{"stop_id":"U1378Z4","name":"Mendlovo náměstí","arrival_time":"8:43:00","departure_time":"8:43:00","lat":49.190204,"lon":16.594235,"is_passed":false},{"stop_id":"U1512Z1","name":"Poříčí","arrival_time":"8:45:00","departure_time":"8:45:00","lat":49.187182,"lon":16.594633,"is_passed":false},{"stop_id":"U1430Z1","name":"Nemocnice Milosrdných bratří","arrival_time":"8:46:00","departure_time":"8:46:00","lat":49.183515,"lon":16.594981,"is_passed":false},{"stop_id":"U1053Z1","name":"Celní","arrival_time":"8:48:00","departure_time":"8:48:00","lat":49.179109,"lon":16.595328,"is_passed":false},{"stop_id":"U1293Z1","name":"Krematorium","arrival_time":"8:51:00","departure_time":"8:51:00","lat":49.172308,"lon":16.586427,"is_passed":false},{"stop_id":"U1021Z1","name":"Běloruská","arrival_time":"8:52:00","departure_time":"8:52:00","lat":49.170755,"lon":16.580895,"is_passed":false},{"stop_id":"U1653Z3","name":"Švermova","arrival_time":"8:53:00","departure_time":"8:53:00","lat":49.169262,"lon":16.573246,"is_passed":false},{"stop_id":"U1472Z1","name":"Osová","arrival_time":"8:54:00","departure_time":"8:54:00","lat":49.169023,"lon":16.56653,"is_passed":false},{"stop_id":"U1227Z1","name":"Karpatská","arrival_time":"8:55:00","departure_time":"8:55:00","lat":49.168113,"lon":16.562077,"is_passed":false},{"stop_id":"U1097Z1","name":"Dunajská","arrival_time":"8:56:00","departure_time":"8:56:00","lat":49.169066,"lon":16.55664,"is_passed":false},{"stop_id":"U1616Z1","name":"Starý Lískovec, smyčka","arrival_time":"8:58:00","departure_time":"9:03:00","lat":49.171366,"lon":16.554527,"is_passed":false}],"54417":[{"stop_id":"U1616Z2","name":"Starý Lískovec, smyčka","arrival_time":"9:03:00","departure_time":"9:03:00","lat":49.170465,"lon":16.554565,"is_passed":false},{"stop_id":"U1097Z2","name":"Dunajská","arrival_time":"9:03:00","departure_time":"9:03:00","lat":49.169112,"lon":16.556485,"is_passed":false},{"stop_id":"U1227Z2","name":"Karpatská","arrival_time":"9:04:00","departure_time":"9:04:00","lat":49.168021,"lon":16.561879,"is_passed":false},{"stop_id":"U1472Z2","name":"Osová","arrival_time":"9:06:00","departure_time":"9:06:00","lat":49.169005,"lon":16.567514,"is_passed":false},{"stop_id":"U1653Z4","name":"Švermova","arrival_time":"9:07:00","departure_time":"9:07:00","lat":49.169191,"lon":16.573122,"is_passed":false},{"stop_id":"U1021Z2","name":"Běloruská","arrival_time":"9:08:00","departure_time":"9:08:00","lat":49.170662,"lon":16.580727,"is_passed":false},{"stop_id":"U1293Z2","name":"Krematorium","arrival_time":"9:09:00","departure_time":"9:09:00","lat":49.172257,"lon":16.586414,"is_passed":false},{"stop_id":"U1053Z2","name":"Celní","arrival_time":"9:12:00","departure_time":"9:12:00","lat":49.179607,"lon":16.595242,"is_passed":false},{"stop_id":"U1430Z2","name":"Nemocnice Milosrdných bratří","arrival_time":"9:13:00","departure_time":"9:13:00","lat":49.183867,"lon":16.595061,"is_passed":false},{"stop_id":"U1512Z2","name":"Poříčí","arrival_time":"9:15:00","departure_time":"9:15:00","lat":49.187409,"lon":16.594512,"is_passed":false},{"stop_id":"U1378Z3","name":"Mendlovo náměstí","arrival_time":"9:17:00","departure_time":"9:17:00","lat":49.190293,"lon":16.594781,"is_passed":false},{"stop_id":"U1428Z1","name":"Nemocnice u sv. Anny","arrival_time":"9:19:00","departure_time":"9:19:00","lat":49.191471,"lon":16.599302,"is_passed":false},{"stop_id":"U1637Z4","name":"Šilingrovo náměstí","arrival_time":"9:20:00","departure_time":"9:20:00","lat":49.192271,"lon":16.604367,"is_passed":false},{"stop_id":"U1073Z2","name":"Česká","arrival_time":"9:24:00","departure_time":"9:24:00","lat":49.197702,"lon":16.606463,"is_passed":false},{"stop_id":"U1397Z1","name":"Moravské náměstí","arrival_time":"9:25:00","departure_time":"9:25:00","lat":49.19996,"lon":16.607931,"is_passed":false},{"stop_id":"U1006Z1","name":"Antonínská","arrival_time":"9:27:00","departure_time":"9:27:00","lat":49.203685,"lon":16.606678,"is_passed":false},{"stop_id":"U1483Z1","name":"Pionýrská","arrival_time":"9:28:00","departure_time":"9:28:00","lat":49.207491,"lon":16.604472,"is_passed":false},{"stop_id":"U1166Z1","name":"Hrnčířská","arrival_time":"9:30:00","departure_time":"9:30:00","lat":49.210254,"lon":16.602868,"is_passed":false},{"stop_id":"U1652Z1","name":"Šumavská","arrival_time":"9:31:00","departure_time":"9:31:00","lat":49.213991,"lon":16.600669,"is_passed":false},{"stop_id":"U1233Z1","name":"Kartouzská","arrival_time":"9:32:00","departure_time":"9:32:00","lat":49.216998,"lon":16.598896,"is_passed":false},{"stop_id":"U1218Z1","name":"Jungmannova","arrival_time":"9:33:00","departure_time":"9:33:00","lat":49.220856,"lon":16.596583,"is_passed":false},{"stop_id":"U1171Z1","name":"Husitská","arrival_time":"9:34:00","departure_time":"9:34:00","lat":49.223125,"lon":16.59524,"is_passed":false},{"stop_id":"U1566Z1","name":"Semilasso","arrival_time":"9:36:00","departure_time":"9:36:00","lat":49.227417,"lon":16.592683,"is_passed":false},{"stop_id":"U1286Z1","name":"Královo Pole, nádraží","arrival_time":"9:38:00","departure_time":"9:56:00","lat":49.230031,"lon":16.595374,"is_passed":false}],"54418":[{"stop_id":"U1286Z2","name":"Královo Pole, nádraží","arrival_time":"9:56:00","departure_time":"9:56:00","lat":49.229691,"lon":16.595601,"is_passed":false},{"stop_id":"U1566Z3","name":"Semilasso","arrival_time":"9:56:00","departure_time":"9:56:00","lat":49.228432,"lon":16.593971,"is_passed":false},{"stop_id":"U1171Z2","name":"Husitská","arrival_time":"9:59:00","departure_time":"9:59:00","lat":49.223415,"lon":16.595016,"is_passed":false},{"stop_id":"U1218Z2","name":"Jungmannova","arrival_time":"10:00:00","departure_time":"10:00:00","lat":49.221083,"lon":16.596416,"is_passed":false},{"stop_id":"U1233Z2","name":"Kartouzská","arrival_time":"10:01:00","departure_time":"10:01:00","lat":49.21665,"lon":16.599078,"is_passed":false},{"stop_id":"U1652Z2","name":"Šumavská","arrival_time":"10:02:00","departure_time":"10:02:00","lat":49.214022,"lon":16.60062,"is_passed":false},{"stop_id":"U1166Z2","name":"Hrnčířská","arrival_time":"10:03:00","departure_time":"10:03:00","lat":49.21062,"lon":16.602628,"is_passed":false},{"stop_id":"U1483Z2","name":"Pionýrská","arrival_time":"10:04:00","departure_time":"10:04:00","lat":49.207904,"lon":16.604201,"is_passed":false},{"stop_id":"U1006Z2","name":"Antonínská","arrival_time":"10:05:00","departure_time":"10:05:00","lat":49.203166,"lon":16.606915,"is_passed":false},{"stop_id":"U1397Z2","name":"Moravské náměstí","arrival_time":"10:07:00","departure_time":"10:07:00","lat":49.199237,"lon":16.608067,"is_passed":false},{"stop_id":"U1073Z1","name":"Česká","arrival_time":"10:09:00","departure_time":"10:09:00","lat":49.197618,"lon":16.605584,"is_passed":false},{"stop_id":"U1637Z3","name":"Šilingrovo náměstí","arrival_time":"10:12:00","departure_time":"10:12:00","lat":49.1923,"lon":16.60424,"is_passed":false},{"stop_id":"U1428Z2","name":"Nemocnice u sv. Anny","arrival_time":"10:13:00","departure_time":"10:13:00","lat":49.191523,"lon":16.598757,"is_passed":false},{"stop_id":"U1378Z4","name":"Mendlovo náměstí","arrival_time":"10:16:00","departure_time":"10:16:00","lat":49.190204,"lon":16.594235,"is_passed":false},{"stop_id":"U1512Z1","name":"Poříčí","arrival_time":"10:18:00","departure_time":"10:18:00","lat":49.187182,"lon":16.594633,"is_passed":false},{"stop_id":"U1430Z1","name":"Nemocnice Milosrdných bratří","arrival_time":"10:19:00","departure_time":"10:19:00","lat":49.183515,"lon":16.594981,"is_passed":false},{"stop_id":"U1053Z1","name":"Celní","arrival_time":"10:21:00","departure_time":"10:21:00","lat":49.179109,"lon":16.595328,"is_passed":false},{"stop_id":"U1293Z1","name":"Krematorium","arrival_time":"10:24:00","departure_time":"10:24:00","lat":49.172308,"lon":16.586427,"is_passed":false},{"stop_id":"U1021Z1","name":"Běloruská","arrival_time":"10:25:00","departure_time":"10:25:00","lat":49.170755,"lon":16.580895,"is_passed":false},{"stop_id":"U1653Z3","name":"Švermova","arrival_time":"10:26:00","departure_time":"10:26:00","lat":49.169262,"lon":16.573246,"is_passed":false},{"stop_id":"U1472Z1","name":"Osová","arrival_time":"10:27:00","departure_time":"10:27:00","lat":49.169023,"lon":16.56653,"is_passed":false},{"stop_id":"U1227Z1","name":"Karpatská","arrival_time":"10:28:00","departure_time":"10:28:00","lat":49.168113,"lon":16.562077,"is_passed":false},{"stop_id":"U1097Z1","name":"Dunajská","arrival_time":"10:29:00","departure_time":"10:29:00","lat":49.169066,"lon":16.55664,"is_passed":false},{"stop_id":"U1616Z1","name":"Starý Lískovec, smyčka","arrival_time":"10:31:00","departure_time":"10:36:00","lat":49.171366,"lon":16.554527,"is_passed":false}],"54419":[{"stop_id":"U1616Z2","name":"Starý Lískovec, smyčka","arrival_time":"10:36:00","departure_time":"10:36:00","lat":49.170465,"lon":16.554565,"is_passed":false},{"stop_id":"U1097Z2","name":"Dunajská","arrival_time":"10:36:00","departure_time":"10:36:00","lat":49.169112,"lon":16.556485,"is_passed":false},{"stop_id":"U1227Z2","name":"Karpatská","arrival_time":"10:37:00","departure_time":"10:37:00","lat":49.168021,"lon":16.561879,"is_passed":false},{"stop_id":"U1472Z2","name":"Osová","arrival_time":"10:39:00","departure_time":"10:39:00","lat":49.169005,"lon":16.567514,"is_passed":false},{"stop_id":"U1653Z4","name":"Švermova","arrival_time":"10:40:00","departure_time":"10:40:00","lat":49.169191,"lon":16.573122,"is_passed":false},{"stop_id":"U1021Z2","name":"Běloruská","arrival_time":"10:41:00","departure_time":"10:41:00","lat":49.170662,"lon":16.580727,"is_passed":false},{"stop_id":"U1293Z2","name":"Krematorium","arrival_time":"10:42:00","departure_time":"10:42:00","lat":49.172257,"lon":16.586414,"is_passed":false},{"stop_id":"U1053Z2","name":"Celní","arrival_time":"10:45:00","departure_time":"10:45:00","lat":49.179607,"lon":16.595242,"is_passed":false},{"stop_id":"U1430Z2","name":"Nemocnice Milosrdných bratří","arrival_time":"10:46:00","departure_time":"10:46:00","lat":49.183867,"lon":16.595061,"is_passed":false},{"stop_id":"U1512Z2","name":"Poříčí","arrival_time":"10:48:00","departure_time":"10:48:00","lat":49.187409,"lon":16.594512,"is_passed":false},{"stop_id":"U1378Z3","name":"Mendlovo náměstí","arrival_time":"10:50:00","departure_time":"10:50:00","lat":49.190293,"lon":16.594781,"is_passed":false},{"stop_id":"U1428Z1","name":"Nemocnice u sv. Anny","arrival_time":"10:52:00","departure_time":"10:52:00","lat":49.191471,"lon":16.599302,"is_passed":false},{"stop_id":"U1637Z4","name":"Šilingrovo náměstí","arrival_time":"10:53:00","departure_time":"10:53:00","lat":49.192271,"lon":16.604367,"is_passed":false},{"stop_id":"U1073Z2","name":"Česká","arrival_time":"10:57:00","departure_time":"10:57:00","lat":49.197702,"lon":16.606463,"is_passed":false},{"stop_id":"U1397Z1","name":"Moravské náměstí","arrival_time":"10:58:00","departure_time":"10:58:00","lat":49.19996,"lon":16.607931,"is_passed":false},{"stop_id":"U1006Z1","name":"Antonínská","arrival_time":"11:00:00","departure_time":"11:00:00","lat":49.203685,"lon":16.606678,"is_passed":false},{"stop_id":"U1483Z1","name":"Pionýrská","arrival_time":"11:01:00","departure_time":"11:01:00","lat":49.207491,"lon":16.604472,"is_passed":false},{"stop_id":"U1166Z1","name":"Hrnčířská","arrival_time":"11:03:00","departure_time":"11:03:00","lat":49.210254,"lon":16.602868,"is_passed":false},{"stop_id":"U1652Z1","name":"Šumavská","arrival_time":"11:04:00","departure_time":"11:04:00","lat":49.213991,"lon":16.600669,"is_passed":false},{"stop_id":"U1233Z1","name":"Kartouzská","arrival_time":"11:05:00","departure_time":"11:05:00","lat":49.216998,"lon":16.598896,"is_passed":false},{"stop_id":"U1218Z1","name":"Jungmannova","arrival_time":"11:06:00","departure_time":"11:06:00","lat":49.220856,"lon":16.596583,"is_passed":false},{"stop_id":"U1171Z1","name":"Husitská","arrival_time":"11:07:00","departure_time":"11:07:00","lat":49.223125,"lon":16.59524,"is_passed":false},{"stop_id":"U1566Z1","name":"Semilasso","arrival_time":"11:09:00","departure_time":"11:09:00","lat":49.227417,"lon":16.592683,"is_passed":false},{"stop_id":"U1286Z1","name":"Královo Pole, nádraží","arrival_time":"11:11:00","departure_time":"11:29:00","lat":49.230031,"lon":16.595374,"is_passed":false}],"54420":[{"stop_id":"U1286Z2","name":"Královo Pole, nádraží","arrival_time":"11:29:00","departure_time":"11:29:00","lat":49.229691,"lon":16.595601,"is_passed":false},{"stop_id":"U1566Z3","name":"Semilasso","arrival_time":"11:29:00","departure_time":"11:29:00","lat":49.228432,"lon":16.593971,"is_passed":false},{"stop_id":"U1171Z2","name":"Husitská","arrival_time":"11:32:00","departure_time":"11:32:00","lat":49.223415,"lon":16.595016,"is_passed":false},{"stop_id":"U1218Z2","name":"Jungmannova","arrival_time":"11:33:00","departure_time":"11:33:00","lat":49.221083,"lon":16.596416,"is_passed":false},{"stop_id":"U1233Z2","name":"Kartouzská","arrival_time":"11:34:00","departure_time":"11:34:00","lat":49.21665,"lon":16.599078,"is_passed":false},{"stop_id":"U1652Z2","name":"Šumavská","arrival_time":"11:35:00","departure_time":"11:35:00","lat":49.214022,"lon":16.60062,"is_passed":false},{"stop_id":"U1166Z2","name":"Hrnčířská","arrival_time":"11:36:00","departure_time":"11:36:00","lat":49.21062,"lon":16.602628,"is_passed":false},{"stop_id":"U1483Z2","name":"Pionýrská","arrival_time":"11:37:00","departure_time":"11:37:00","lat":49.207904,"lon":16.604201,"is_passed":false},{"stop_id":"U1006Z2","name":"Antonínská","arrival_time":"11:38:00","departure_time":"11:38:00","lat":49.203166,"lon":16.606915,"is_passed":false},{"stop_id":"U1397Z2","name":"Moravské náměstí","arrival_time":"11:40:00","departure_time":"11:40:00","lat":49.199237,"lon":16.608067,"is_passed":false},{"stop_id":"U1073Z1","name":"Česká","arrival_time":"11:42:00","departure_time":"11:42:00","lat":49.197618,"lon":16.605584,"is_passed":false},{"stop_id":"U1637Z3","name":"Šilingrovo náměstí","arrival_time":"11:45:00","departure_time":"11:45:00","lat":49.1923,"lon":16.60424,"is_passed":false},{"stop_id":"U1428Z2","name":"Nemocnice u sv. Anny","arrival_time":"11:46:00","departure_time":"11:46:00","lat":49.191523,"lon":16.598757,"is_passed":false},{"stop_id":"U1378Z4","name":"Mendlovo náměstí","arrival_time":"11:49:00","departure_time":"11:49:00","lat":49.190204,"lon":16.594235,"is_passed":false},{"stop_id":"U1512Z1","name":"Poříčí","arrival_time":"11:51:00","departure_time":"11:51:00","lat":49.187182,"lon":16.594633,"is_passed":false},{"stop_id":"U1430Z1","name":"Nemocnice Milosrdných bratří","arrival_time":"11:52:00","departure_time":"11:52:00","lat":49.183515,"lon":16.594981,"is_passed":false},{"stop_id":"U1053Z1","name":"Celní","arrival_time":"11:54:00","departure_time":"11:54:00","lat":49.179109,"lon":16.595328,"is_passed":false},{"stop_id":"U1293Z1","name":"Krematorium","arrival_time":"11:57:00","departure_time":"11:57:00","lat":49.172308,"lon":16.586427,"is_passed":false},{"stop_id":"U1021Z1","name":"Běloruská","arrival_time":"11:58:00","departure_time":"11:58:00","lat":49.170755,"lon":16.580895,"is_passed":false},{"stop_id":"U1653Z3","name":"Švermova","arrival_time":"11:59:00","departure_time":"11:59:00","lat":49.169262,"lon":16.573246,"is_passed":false},{"stop_id":"U1472Z1","name":"Osová","arrival_time":"12:00:00","departure_time":"12:00:00","lat":49.169023,"lon":16.56653,"is_passed":false},{"stop_id":"U1227Z1","name":"Karpatská","arrival_time":"12:01:00","departure_time":"12:01:00","lat":49.168113,"lon":16.562077,"is_passed":false},{"stop_id":"U1097Z1","name":"Dunajská","arrival_time":"12:02:00","departure_time":"12:02:00","lat":49.169066,"lon":16.55664,"is_passed":false},{"stop_id":"U1616Z1","name":"Starý Lískovec, smyčka","arrival_time":"12:04:00","departure_time":"12:10:00","lat":49.171366,"lon":16.554527,"is_passed":false}],"54421":[{"stop_id":"U1616Z2","name":"Starý Lískovec, smyčka","arrival_time":"12:10:00","departure_time":"12:10:00","lat":49.170465,"lon":16.554565,"is_passed":false},{"stop_id":"U1097Z2","name":"Dunajská","arrival_time":"12:10:00","departure_time":"12:10:00","lat":49.169112,"lon":16.556485,"is_passed":false},{"stop_id":"U1227Z2","name":"Karpatská","arrival_time":"12:11:00","departure_time":"12:11:00","lat":49.168021,"lon":16.561879,"is_passed":false},{"stop_id":"U1472Z2","name":"Osová","arrival_time":"12:13:00","departure_time":"12:13:00","lat":49.169005,"lon":16.567514,"is_passed":false},{"stop_id":"U1653Z4","name":"Švermova","arrival_time":"12:14:00","departure_time":"12:14:00","lat":49.169191,"lon":16.573122,"is_passed":false},{"stop_id":"U1021Z2","name":"Běloruská","arrival_time":"12:15:00","departure_time":"12:15:00","lat":49.170662,"lon":16.580727,"is_passed":false},{"stop_id":"U1293Z2","name":"Krematorium","arrival_time":"12:16:00","departure_time":"12:16:00","lat":49.172257,"lon":16.586414,"is_passed":false},{"stop_id":"U1053Z2","name":"Celní","arrival_time":"12:19:00","departure_time":"12:19:00","lat":49.179607,"lon":16.595242,"is_passed":false},{"stop_id":"U1430Z2","name":"Nemocnice Milosrdných bratří","arrival_time":"12:20:00","departure_time":"12:20:00","lat":49.183867,"lon":16.595061,"is_passed":false},{"stop_id":"U1512Z2","name":"Poříčí","arrival_time":"12:22:00","departure_time":"12:22:00","lat":49.187409,"lon":16.594512,"is_passed":false},{"stop_id":"U1378Z3","name":"Mendlovo náměstí","arrival_time":"12:24:00","departure_time":"12:24:00","lat":49.190293,"lon":16.594781,"is_passed":false},{"stop_id":"U1428Z1","name":"Nemocnice u sv. Anny","arrival_time":"12:26:00","departure_time":"12:26:00","lat":49.191471,"lon":16.599302,"is_passed":false},{"stop_id":"U1637Z4","name":"Šilingrovo náměstí","arrival_time":"12:27:00","departure_time":"12:27:00","lat":49.192271,"lon":16.604367,"is_passed":false},{"stop_id":"U1073Z2","name":"Česká","arrival_time":"12:31:00","departure_time":"12:31:00","lat":49.197702,"lon":16.606463,"is_passed":false},{"stop_id":"U1397Z1","name":"Moravské náměstí","arrival_time":"12:32:00","departure_time":"12:32:00","lat":49.19996,"lon":16.607931,"is_passed":false},{"stop_id":"U1006Z1","name":"Antonínská","arrival_time":"12:34:00","departure_time":"12:34:00","lat":49.203685,"lon":16.606678,"is_passed":false},{"stop_id":"U1483Z1","name":"Pionýrská","arrival_time":"12:35:00","departure_time":"12:35:00","lat":49.207491,"lon":16.604472,"is_passed":false},{"stop_id":"U1166Z1","name":"Hrnčířská","arrival_time":"12:37:00","departure_time":"12:37:00","lat":49.210254,"lon":16.602868,"is_passed":false},{"stop_id":"U1652Z1","name":"Šumavská","arrival_time":"12:38:00","departure_time":"12:38:00","lat":49.213991,"lon":16.600669,"is_passed":false},{"stop_id":"U1233Z1","name":"Kartouzská","arrival_time":"12:39:00","departure_time":"12:39:00","lat":49.216998,"lon":16.598896,"is_passed":false},{"stop_id":"U1218Z1","name":"Jungmannova","arrival_time":"12:40:00","departure_time":"12:40:00","lat":49.220856,"lon":16.596583,"is_passed":false},{"stop_id":"U1171Z1","name":"Husitská","arrival_time":"12:41:00","departure_time":"12:41:00","lat":49.223125,"lon":16.59524,"is_passed":false},{"stop_id":"U1566Z1","name":"Semilasso","arrival_time":"12:43:00","departure_time":"12:43:00","lat":49.227417,"lon":16.592683,"is_passed":false},{"stop_id":"U1286Z1","name":"Královo Pole, nádraží","arrival_time":"12:45:00","departure_time":"13:03:00","lat":49.230031,"lon":16.595374,"is_passed":false}],"54422":[{"stop_id":"U1286Z2","name":"Královo Pole, nádraží","arrival_time":"13:03:00","departure_time":"13:03:00","lat":49.229691,"lon":16.595601,"is_passed":false},{"stop_id":"U1566Z3","name":"Semilasso","arrival_time":"13:03:00","departure_time":"13:03:00","lat":49.228432,"lon":16.593971,"is_passed":false},{"stop_id":"U1171Z2","name":"Husitská","arrival_time":"13:06:00","departure_time":"13:06:00","lat":49.223415,"lon":16.595016,"is_passed":false},{"stop_id":"U1218Z2","name":"Jungmannova","arrival_time":"13:07:00","departure_time":"13:07:00","lat":49.221083,"lon":16.596416,"is_passed":false},{"stop_id":"U1233Z2","name":"Kartouzská","arrival_time":"13:08:00","departure_time":"13:08:00","lat":49.21665,"lon":16.599078,"is_passed":false},{"stop_id":"U1652Z2","name":"Šumavská","arrival_time":"13:09:00","departure_time":"13:09:00","lat":49.214022,"lon":16.60062,"is_passed":false},{"stop_id":"U1166Z2","name":"Hrnčířská","arrival_time":"13:10:00","departure_time":"13:10:00","lat":49.21062,"lon":16.602628,"is_passed":false},{"stop_id":"U1483Z2","name":"Pionýrská","arrival_time":"13:11:00","departure_time":"13:11:00","lat":49.207904,"lon":16.604201,"is_passed":false},{"stop_id":"U1006Z2","name":"Antonínská","arrival_time":"13:12:00","departure_time":"13:12:00","lat":49.203166,"lon":16.606915,"is_passed":false},{"stop_id":"U1397Z2","name":"Moravské náměstí","arrival_time":"13:14:00","departure_time":"13:14:00","lat":49.199237,"lon":16.608067,"is_passed":false},{"stop_id":"U1073Z1","name":"Česká","arrival_time":"13:16:00","departure_time":"13:16:00","lat":49.197618,"lon":16.605584,"is_passed":false},{"stop_id":"U1637Z3","name":"Šilingrovo náměstí","arrival_time":"13:19:00","departure_time":"13:19:00","lat":49.1923,"lon":16.60424,"is_passed":false},{"stop_id":"U1428Z2","name":"Nemocnice u sv. Anny","arrival_time":"13:20:00","departure_time":"13:20:00","lat":49.191523,"lon":16.598757,"is_passed":false},{"stop_id":"U1378Z4","name":"Mendlovo náměstí","arrival_time":"13:23:00","departure_time":"13:23:00","lat":49.190204,"lon":16.594235,"is_passed":false},{"stop_id":"U1512Z1","name":"Poříčí","arrival_time":"13:25:00","departure_time":"13:25:00","lat":49.187182,"lon":16.594633,"is_passed":false},{"stop_id":"U1430Z1","name":"Nemocnice Milosrdných bratří","arrival_time":"13:26:00","departure_time":"13:26:00","lat":49.183515,"lon":16.594981,"is_passed":false},{"stop_id":"U1053Z1","name":"Celní","arrival_time":"13:28:00","departure_time":"13:28:00","lat":49.179109,"lon":16.595328,"is_passed":false},{"stop_id":"U1293Z1","name":"Krematorium","arrival_time":"13:31:00","departure_time":"13:31:00","lat":49.172308,"lon":16.586427,"is_passed":false},{"stop_id":"U1021Z1","name":"Běloruská","arrival_time":"13:32:00","departure_time":"13:32:00","lat":49.170755,"lon":16.580895,"is_passed":false},{"stop_id":"U1653Z3","name":"Švermova","arrival_time":"13:33:00","departure_time":"13:33:00","lat":49.169262,"lon":16.573246,"is_passed":false},{"stop_id":"U1472Z1","name":"Osová","arrival_time":"13:34:00","departure_time":"13:34:00","lat":49.169023,"lon":16.56653,"is_passed":false},