{"545":[{"stop_id":"U12736Z51","name":"Letovice, železniční stanice","arrival_time":"13:57:00","departure_time":"13:57:00","lat":49.555973,"lon":16.570906,"is_passed":false},{"stop_id":"U22702Z2","name":"Letovice zastávka","arrival_time":"13:59:00","departure_time":"14:00:00","lat":49.536152,"lon":16.576186,"is_passed":false},{"stop_id":"U22701Z2","name":"Zboněk","arrival_time":"14:02:00","departure_time":"14:02:00","lat":49.520482,"lon":16.584439,"is_passed":false},{"stop_id":"U22602Z2","name":"Svitávka","arrival_time":"14:05:00","departure_time":"14:05:00","lat":49.499434,"lon":16.599208,"is_passed":false},{"stop_id":"U12676Z51","name":"Skalice nad Svitavou, žel.st.","arrival_time":"14:08:00","departure_time":"14:13:00","lat":49.480123,"lon":16.609726,"is_passed":false},{"stop_id":"U12511Z51","name":"Doubravice, žel.st.","arrival_time":"14:18:00","departure_time":"14:18:00","lat":49.438707,"lon":16.621809,"is_passed":false},{"stop_id":"U12439Z51","name":"Rájec-Jestřebí, železniční stanice","arrival_time":"14:21:00","departure_time":"14:22:00","lat":49.408206,"lon":16.627711,"is_passed":false},{"stop_id":"U22301Z2","name":"Dolní Lhota","arrival_time":"14:24:00","departure_time":"14:25:00","lat":49.386917,"lon":16.633978,"is_passed":false},{"stop_id":"U22302Z2","name":"Blansko město","arrival_time":"14:27:00","departure_time":"14:28:00","lat":49.360996,"lon":16.639464,"is_passed":false},{"stop_id":"U12342Z29","name":"Blansko, aut. st.","arrival_time":"14:30:00","departure_time":"14:31:00","lat":49.352753,"lon":16.646848,"is_passed":false},{"stop_id":"U12231Z11","name":"Adamov, železniční zastávka","arrival_time":"14:36:00","departure_time":"14:37:00","lat":49.300671,"lon":16.650653,"is_passed":false},{"stop_id":"U12230Z11","name":"Adamov, železniční stanice","arrival_time":"14:38:00","departure_time":"14:39:00","lat":49.295341,"lon":16.663538,"is_passed":false},{"stop_id":"U22101Z2","name":"Babice nad Svitavou","arrival_time":"14:42:00","departure_time":"14:42:00","lat":49.276645,"lon":16.673012,"is_passed":false},{"stop_id":"U12158Z11","name":"Bílovice nad Svitavou, žel. stanice","arrival_time":"14:46:00","departure_time":"14:47:00","lat":49.242715,"lon":16.673677,"is_passed":false},{"stop_id":"U1809Z11","name":"Židenice, nádraží","arrival_time":"14:52:00","departure_time":"14:52:00","lat":49.204282,"lon":16.636042,"is_passed":false},{"stop_id":"U1146Z98","name":"Hlavní nádraží","arrival_time":"14:59:00","departure_time":"15:06:00","lat":49.19035,"lon":16.612342,"is_passed":false},{"stop_id":"U1183Z11","name":"Chrlice, nádraží","arrival_time":"15:14:00","departure_time":"15:17:00","lat":49.132031,"lon":16.657232,"is_passed":false},{"stop_id":"U16149Z11","name":"Sokolnice, železniční stanice","arrival_time":"15:23:00","departure_time":"15:24:00","lat":49.108029,"lon":16.733459,"is_passed":false},{"stop_id":"U26101Z2","name":"Újezd u Brna","arrival_time":"15:25:00","departure_time":"15:26:00","lat":49.107297,"lon":16.745564,"is_passed":false},{"stop_id":"U26102Z2","name":"Hostěrádky-Rešov","arrival_time":"15:29:00","departure_time":"15:29:00","lat":49.119822,"lon":16.782755,"is_passed":false},{"stop_id":"U26201Z2","name":"Zbýšov","arrival_time":"15:32:00","departure_time":"15:32:00","lat":49.132691,"lon":16.806859,"is_passed":false},{"stop_id":"U16212Z11","name":"Křenovice, hor. žel. st.","arrival_time":"15:35:00","departure_time":"15:36:00","lat":49.143553,"lon":16.824564,"is_passed":false},{"stop_id":"U16228Z11","name":"Holubice, žel.st.","arrival_time":"15:40:00","departure_time":"15:53:00","lat":49.179869,"lon":16.824654,"is_passed":false}],"5450":[{"stop_id":"U14201Z2","name":"Ořechov, Jeřábkova","arrival_time":"10:22:00","departure_time":"10:22:00","lat":49.108927,"lon":16.512613,"is_passed":false},{"stop_id":"U14204Z2","name":"Ořechov, obecní úřad","arrival_time":"10:24:00","departure_time":"10:24:00","lat":49.111497,"lon":16.51816,"is_passed":false},{"stop_id":"U14205Z2","name":"Ořechov, orlovna","arrival_time":"10:25:00","departure_time":"10:25:00","lat":49.111083,"lon":16.526193,"is_passed":false},{"stop_id":"U14202Z2","name":"Ořechov, Kerendov","arrival_time":"10:27:00","departure_time":"10:27:00","lat":49.11742,"lon":16.52586,"is_passed":false},{"stop_id":"U15119Z2","name":"Nebovidy, Závist","arrival_time":"10:30:00","departure_time":"10:30:00","lat":49.1347,"lon":16.528614,"is_passed":false},{"stop_id":"U15117Z2","name":"Nebovidy, rozcestí Střelice","arrival_time":"10:32:00","departure_time":"10:32:00","lat":49.145888,"lon":16.532103,"is_passed":false},{"stop_id":"U15116Z2","name":"Nebovidy, dolní konec","arrival_time":"10:34:00","departure_time":"10:34:00","lat":49.141953,"lon":16.54915,"is_passed":false},{"stop_id":"U15118Z2","name":"Nebovidy, u kostela","arrival_time":"10:35:00","departure_time":"10:35:00","lat":49.141783,"lon":16.554006,"is_passed":false},{"stop_id":"U15114Z2","name":"Moravany, Hlavní","arrival_time":"10:39:00","departure_time":"10:39:00","lat":49.147097,"lon":16.578552,"is_passed":false},{"stop_id":"U15113Z2","name":"Moravany, Bohunická cesta","arrival_time":"10:40:00","departure_time":"10:40:00","lat":49.151006,"lon":16.583777,"is_passed":false},{"stop_id":"U1549Z2","name":"Rozhraní","arrival_time":"10:41:00","departure_time":"10:41:00","lat":49.155698,"lon":16.592118,"is_passed":false},{"stop_id":"U1466Z55","name":"Ořechovská","arrival_time":"10:43:00","departure_time":"10:43:00","lat":49.156238,"lon":16.599375,"is_passed":false},{"stop_id":"U1141Z2","name":"Heršpická","arrival_time":"10:46:00","departure_time":"10:46:00","lat":49.170473,"lon":16.599896,"is_passed":false},{"stop_id":"U1703Z5","name":"Ústřední hřbitov","arrival_time":"10:50:00","departure_time":"14:17:00","lat":49.171604,"lon":16.597316,"is_passed":false}],"5451":[{"stop_id":"U1703Z6","name":"Ústřední hřbitov","arrival_time":"14:17:00","departure_time":"14:17:00","lat":49.170744,"lon":16.597612,"is_passed":false},{"stop_id":"U1466Z5","name":"Ořechovská","arrival_time":"14:20:00","departure_time":"14:20:00","lat":49.156238,"lon":16.599375,"is_passed":false},{"stop_id":"U1549Z1","name":"Rozhraní","arrival_time":"14:21:00","departure_time":"14:21:00","lat":49.155854,"lon":16.592288,"is_passed":false},{"stop_id":"U15113Z1","name":"Moravany, Bohunická cesta","arrival_time":"14:22:00","departure_time":"14:22:00","lat":49.15089,"lon":16.583503,"is_passed":false},{"stop_id":"U15114Z1","name":"Moravany, Hlavní","arrival_time":"14:23:00","departure_time":"14:23:00","lat":49.147228,"lon":16.578896,"is_passed":false},{"stop_id":"U15115Z1","name":"Moravany, Nebovidská","arrival_time":"14:24:00","departure_time":"14:24:00","lat":49.147983,"lon":16.569237,"is_passed":false},{"stop_id":"U15118Z1","name":"Nebovidy, u kostela","arrival_time":"14:26:00","departure_time":"14:26:00","lat":49.141636,"lon":16.553667,"is_passed":false},{"stop_id":"U15116Z1","name":"Nebovidy, dolní konec","arrival_time":"14:27:00","departure_time":"14:44:00","lat":49.142128,"lon":16.549075,"is_passed":false}],"5452":[{"stop_id":"U15116Z2","name":"Nebovidy, dolní konec","arrival_time":"14:44:00","departure_time":"14:44:00","lat":49.141953,"lon":16.54915,"is_passed":false},{"stop_id":"U15118Z2","name":"Nebovidy, u kostela","arrival_time":"14:45:00","departure_time":"14:45:00","lat":49.141783,"lon":16.554006,"is_passed":false},{"stop_id":"U15114Z2","name":"Moravany, Hlavní","arrival_time":"14:49:00","departure_time":"14:49:00","lat":49.147097,"lon":16.578552,"is_passed":false},{"stop_id":"U15113Z2","name":"Moravany, Bohunická cesta","arrival_time":"14:50:00","departure_time":"14:50:00","lat":49.151006,"lon":16.583777,"is_passed":false},{"stop_id":"U1549Z2","name":"Rozhraní","arrival_time":"14:51:00","departure_time":"14:51:00","lat":49.155698,"lon":16.592118,"is_passed":false},{"stop_id":"U1466Z55","name":"Ořechovská","arrival_time":"14:53:00","departure_time":"14:53:00","lat":49.156238,"lon":16.599375,"is_passed":false},{"stop_id":"U1141Z2","name":"Heršpická","arrival_time":"14:56:00","departure_time":"14:56:00","lat":49.170473,"lon":16.599896,"is_passed":false},{"stop_id":"U1703Z5","name":"Ústřední hřbitov","arrival_time":"15:00:00","departure_time":"15:07:00","lat":49.171604,"lon":16.597316,"is_passed":false}],"5453":[{"stop_id":"U1703Z6","name":"Ústřední hřbitov","arrival_time":"15:07:00","departure_time":"15:07:00","lat":49.170744,"lon":16.597612,"is_passed":false},{"stop_id":"U1466Z5","name":"Ořechovská","arrival_time":"15:10:00","departure_time":"15:10:00","lat":49.156238,"lon":16.599375,"is_passed":false},{"stop_id":"U1549Z1","name":"Rozhraní","arrival_time":"15:11:00","departure_time":"15:11:00","lat":49.155854,"lon":16.592288,"is_passed":false},{"stop_id":"U15113Z1","name":"Moravany, Bohunická cesta","arrival_time":"15:12:00","departure_time":"15:12:00","lat":49.15089,"lon":16.583503,"is_passed":false},{"stop_id":"U15114Z1","name":"Moravany, Hlavní","arrival_time":"15:13:00","departure_time":"15:13:00","lat":49.147228,"lon":16.578896,"is_passed":false},{"stop_id":"U15115Z1","name":"Moravany, Nebovidská","arrival_time":"15:14:00","departure_time":"15:14:00","lat":49.147983,"lon":16.569237,"is_passed":false},{"stop_id":"U15118Z1","name":"Nebovidy, u kostela","arrival_time":"15:16:00","departure_time":"15:16:00","lat":49.141636,"lon":16.553667,"is_passed":false},{"stop_id":"U15116Z1","name":"Nebovidy, dolní konec","arrival_time":"15:17:00","departure_time":"15:54:00","lat":49.142128,"lon":16.549075,"is_passed":false}],"5454":[{"stop_id":"U15116Z2","name":"Nebovidy, dolní konec","arrival_time":"15:54:00","departure_time":"15:54:00","lat":49.141953,"lon":16.54915,"is_passed":false},{"stop_id":"U15118Z2","name":"Nebovidy, u kostela","arrival_time":"15:55:00","departure_time":"15:55:00","lat":49.141783,"lon":16.554006,"is_passed":false},{"stop_id":"U15114Z2","name":"Moravany, Hlavní","arrival_time":"15:59:00","departure_time":"15:59:00","lat":49.147097,"lon":16.578552,"is_passed":false},{"stop_id":"U15113Z2","name":"Moravany, Bohunická cesta","arrival_time":"16:00:00","departure_time":"16:00:00","lat":49.151006,"lon":16.583777,"is_passed":false},{"stop_id":"U1549Z2","name":"Rozhraní","arrival_time":"16:01:00","departure_time":"16:01:00","lat":49.155698,"lon":16.592118,"is_passed":false},{"stop_id":"U1466Z55","name":"Ořechovská","arrival_time":"16:03:00","departure_time":"16:03:00","lat":49.156238,"lon":16.599375,"is_passed":false},{"stop_id":"U1141Z2","name":"Heršpická","arrival_time":"16:06:00","departure_time":"16:06:00","lat":49.170473,"lon":16.599896,"is_passed":false},{"stop_id":"U1703Z5","name":"Ústřední hřbitov","arrival_time":"16:10:00","departure_time":"16:10:00","lat":49.171604,"lon":16.597316,"is_passed":false}],"5455":[{"stop_id":"U1703Z6","name":"Ústřední hřbitov","arrival_time":"16:22:00","departure_time":"16:22:00","lat":49.170744,"lon":16.597612,"is_passed":false},{"stop_id":"U1466Z5","name":"Ořechovská","arrival_time":"16:25:00","departure_time":"16:25:00","lat":49.156238,"lon":16.599375,"is_passed":false},{"stop_id":"U1549Z1","name":"Rozhraní","arrival_time":"16:26:00","departure_time":"16:26:00","lat":49.155854,"lon":16.592288,"is_passed":false},{"stop_id":"U15113Z1","name":"Moravany, Bohunická cesta","arrival_time":"16:27:00","departure_time":"16:27:00","lat":49.15089,"lon":16.583503,"is_passed":false},{"stop_id":"U15114Z1","name":"Moravany, Hlavní","arrival_time":"16:28:00","departure_time":"16:28:00","lat":49.147228,"lon":16.578896,"is_passed":false},{"stop_id":"U15115Z1","name":"Moravany, Nebovidská","arrival_time":"16:29:00","departure_time":"16:29:00","lat":49.147983,"lon":16.569237,"is_passed":false},{"stop_id":"U14105Z2","name":"Ostopovice, smyčka","arrival_time":"16:36:00","departure_time":"16:36:00","lat":49.164301,"lon":16.540971,"is_passed":false},{"stop_id":"U14104Z2","name":"Ostopovice, rozcestí","arrival_time":"16:36:00","departure_time":"16:36:00","lat":49.163133,"lon":16.542749,"is_passed":false},{"stop_id":"U14103Z2","name":"Ostopovice, U Kaple","arrival_time":"16:37:00","departure_time":"16:37:00","lat":49.161088,"lon":16.545566,"is_passed":false},{"stop_id":"U14101Z2","name":"Ostopovice, Branky","arrival_time":"16:38:00","departure_time":"16:38:00","lat":49.159942,"lon":16.548414,"is_passed":false},{"stop_id":"U1488Z2","name":"Pod dálnicí","arrival_time":"16:39:00","departure_time":"16:39:00","lat":49.163539,"lon":16.55541,"is_passed":false},{"stop_id":"U1687Z1","name":"U hřiště","arrival_time":"16:40:00","departure_time":"16:40:00","lat":49.166214,"lon":16.558668,"is_passed":false},{"stop_id":"U1722Z3","name":"Valašská","arrival_time":"16:41:00","departure_time":"16:41:00","lat":49.166746,"lon":16.562866,"is_passed":false},{"stop_id":"U1472Z7","name":"Osová","arrival_time":"16:42:00","departure_time":"16:42:00","lat":49.168951,"lon":16.566714,"is_passed":false},{"stop_id":"U7050Z1","name":"ZŠ Vedlejší","arrival_time":"16:42:00","departure_time":"16:42:00","lat":49.171054,"lon":16.569191,"is_passed":false},{"stop_id":"U1492Z1","name":"Pod nemocnicí","arrival_time":"16:43:00","departure_time":"16:43:00","lat":49.172412,"lon":16.569624,"is_passed":false},{"stop_id":"U1429Z7","name":"Nemocnice Bohunice","arrival_time":"16:45:00","departure_time":"17:03:00","lat":49.176176,"lon":16.567045,"is_passed":false}],"5456":[{"stop_id":"U1429Z5","name":"Nemocnice Bohunice","arrival_time":"17:03:00","departure_time":"17:03:00","lat":49.175206,"lon":16.56694,"is_passed":false},{"stop_id":"U1492Z2","name":"Pod nemocnicí","arrival_time":"17:05:00","departure_time":"17:05:00","lat":49.172338,"lon":16.569417,"is_passed":false},{"stop_id":"U1472Z8","name":"Osová","arrival_time":"17:07:00","departure_time":"17:07:00","lat":49.168617,"lon":16.566306,"is_passed":false},{"stop_id":"U1273Z2","name":"Kosmonautů","arrival_time":"17:07:00","departure_time":"17:07:00","lat":49.167124,"lon":16.56745,"is_passed":false},{"stop_id":"U1627Z1","name":"Svah","arrival_time":"17:08:00","departure_time":"17:08:00","lat":49.165199,"lon":16.567969,"is_passed":false},{"stop_id":"U1061Z1","name":"Čermákova","arrival_time":"17:08:00","departure_time":"17:08:00","lat":49.164336,"lon":16.565516,"is_passed":false},{"stop_id":"U1666Z1","name":"Točná","arrival_time":"17:09:00","departure_time":"17:09:00","lat":49.16476,"lon":16.561692,"is_passed":false},{"stop_id":"U1488Z1","name":"Pod dálnicí","arrival_time":"17:10:00","departure_time":"17:10:00","lat":49.163512,"lon":16.555152,"is_passed":false},{"stop_id":"U14101Z1","name":"Ostopovice, Branky","arrival_time":"17:11:00","departure_time":"17:11:00","lat":49.159937,"lon":16.548801,"is_passed":false},{"stop_id":"U14103Z1","name":"Ostopovice, U Kaple","arrival_time":"17:12:00","departure_time":"17:12:00","lat":49.161083,"lon":16.545743,"is_passed":false},{"stop_id":"U14104Z1","name":"Ostopovice, rozcestí","arrival_time":"17:12:00","departure_time":"17:12:00","lat":49.163046,"lon":16.542924,"is_passed":false},{"stop_id":"U14105Z2","name":"Ostopovice, smyčka","arrival_time":"17:13:00","departure_time":"17:13:00","lat":49.164301,"lon":16.540971,"is_passed":false},{"stop_id":"U15114Z2","name":"Moravany, Hlavní","arrival_time":"17:19:00","departure_time":"17:19:00","lat":49.147097,"lon":16.578552,"is_passed":false},{"stop_id":"U15113Z2","name":"Moravany, Bohunická cesta","arrival_time":"17:20:00","departure_time":"17:20:00","lat":49.151006,"lon":16.583777,"is_passed":false},{"stop_id":"U1549Z2","name":"Rozhraní","arrival_time":"17:21:00","departure_time":"17:21:00","lat":49.155698,"lon":16.592118,"is_passed":false},{"stop_id":"U1466Z55","name":"Ořechovská","arrival_time":"17:23:00","departure_time":"17:23:00","lat":49.156238,"lon":16.599375,"is_passed":false},{"stop_id":"U1141Z2","name":"Heršpická","arrival_time":"17:26:00","departure_time":"17:26:00","lat":49.170473,"lon":16.599896,"is_passed":false},{"stop_id":"U1703Z5","name":"Ústřední hřbitov","arrival_time":"17:30:00","departure_time":"17:30:00","lat":49.171604,"lon":16.597316,"is_passed":false}],"5457":[{"stop_id":"U1703Z6","name":"Ústřední hřbitov","arrival_time":"18:42:00","departure_time":"18:42:00","lat":49.170744,"lon":16.597612,"is_passed":false},{"stop_id":"U1466Z5","name":"Ořechovská","arrival_time":"18:45:00","departure_time":"18:45:00","lat":49.156238,"lon":16.599375,"is_passed":false},{"stop_id":"U1549Z1","name":"Rozhraní","arrival_time":"18:46:00","departure_time":"18:46:00","lat":49.155854,"lon":16.592288,"is_passed":false},{"stop_id":"U15113Z1","name":"Moravany, Bohunická cesta","arrival_time":"18:47:00","departure_time":"18:47:00","lat":49.15089,"lon":16.583503,"is_passed":false},{"stop_id":"U15114Z1","name":"Moravany, Hlavní","arrival_time":"18:48:00","departure_time":"18:48:00","lat":49.147228,"lon":16.578896,"is_passed":false},{"stop_id":"U15115Z1","name":"Moravany, Nebovidská","arrival_time":"18:49:00","departure_time":"18:49:00","lat":49.147983,"lon":16.569237,"is_passed":false},{"stop_id":"U15118Z1","name":"Nebovidy, u kostela","arrival_time":"18:51:00","departure_time":"18:51:00","lat":49.141636,"lon":16.553667,"is_passed":false},{"stop_id":"U15116Z1","name":"Nebovidy, dolní konec","arrival_time":"18:52:00","departure_time":"18:52:00","lat":49.142128,"lon":16.549075,"is_passed":false},{"stop_id":"U15117Z1","name":"Nebovidy, rozcestí Střelice","arrival_time":"18:54:00","departure_time":"18:54:00","lat":49.144946,"lon":16.530984,"is_passed":false},{"stop_id":"U15119Z1","name":"Nebovidy, Závist","arrival_time":"18:56:00","departure_time":"18:56:00","lat":49.13415,"lon":16.529119,"is_passed":false},{"stop_id":"U14202Z1","name":"Ořechov, Kerendov","arrival_time":"18:59:00","departure_time":"18:59:00","lat":49.117361,"lon":16.525717,"is_passed":false},{"stop_id":"U14205Z1","name":"Ořechov, orlovna","arrival_time":"19:00:00","departure_time":"19:00:00","lat":49.111073,"lon":16.526063,"is_passed":false},{"stop_id":"U14204Z1","name":"Ořechov, obecní úřad","arrival_time":"19:01:00","departure_time":"19:01:00","lat":49.111535,"lon":16.518505,"is_passed":false},{"stop_id":"U14201Z3","name":"Ořechov, Jeřábkova","arrival_time":"19:02:00","departure_time":"19:17:00","lat":49.108927,"lon":16.512613,"is_passed":false}],"5458":[{"stop_id":"U14201Z2","name":"Ořechov, Jeřábkova","arrival_time":"19:17:00","departure_time":"19:17:00","lat":49.108927,"lon":16.512613,"is_passed":false},{"stop_id":"U14204Z2","name":"Ořechov, obecní úřad","arrival_time":"19:19:00","departure_time":"19:19:00","lat":49.111497,"lon":16.51816,"is_passed":false},{"stop_id":"U14205Z2","name":"Ořechov, orlovna","arrival_time":"19:20:00","departure_time":"19:20:00","lat":49.111083,"lon":16.526193,"is_passed":false},{"stop_id":"U14202Z2","name":"Ořechov, Kerendov","arrival_time":"19:22:00","departure_time":"19:22:00","lat":49.11742,"lon":16.52586,"is_passed":false},{"stop_id":"U15119Z2","name":"Nebovidy, Závist","arrival_time":"19:25:00","departure_time":"19:25:00","lat":49.1347,"lon":16.528614,"is_passed":false},{"stop_id":"U15117Z2","name":"Nebovidy, rozcestí Střelice","arrival_time":"19:27:00","departure_time":"19:27:00","lat":49.145888,"lon":16.532103,"is_passed":false},{"stop_id":"U15116Z2","name":"Nebovidy, dolní konec","arrival_time":"19:29:00","departure_time":"19:29:00","lat":49.141953,"lon":16.54915,"is_passed":false},{"stop_id":"U15118Z2","name":"Nebovidy, u kostela","arrival_time":"19:30:00","departure_time":"19:30:00","lat":49.141783,"lon":16.554006,"is_passed":false},{"stop_id":"U15114Z2","name":"Moravany, Hlavní","arrival_time":"19:34:00","departure_time":"19:34:00","lat":49.147097,"lon":16.578552,"is_passed":false},{"stop_id":"U15113Z2","name":"Moravany, Bohunická cesta","arrival_time":"19:35:00","departure_time":"19:35:00","lat":49.151006,"lon":16.583777,"is_passed":false},{"stop_id":"U1549Z2","name":"Rozhraní","arrival_time":"19:36:00","departure_time":"19:36:00","lat":49.155698,"lon":16.592118,"is_passed":false},{"stop_id":"U1466Z55","name":"Ořechovská","arrival_time":"19:38:00","departure_time":"19:38:00","lat":49.156238,"lon":16.599375,"is_passed":false},{"stop_id":"U1141Z2","name":"Heršpická","arrival_time":"19:41:00","departure_time":"19:41:00","lat":49.170473,"lon":16.599896,"is_passed":false},{"stop_id":"U1703Z5","name":"Ústřední hřbitov","arrival_time":"19:45:00","departure_time":"21:22:00","lat":49.171604,"lon":16.597316,"is_passed":false}],"5459":[{"stop_id":"U1703Z6","name":"Ústřední hřbitov","arrival_time":"21:22:00","departure_time":"21:22:00","lat":49.170744,"lon":16.597612,"is_passed":false},{"stop_id":"U1466Z5","name":"Ořechovská","arrival_time":"21:25:00","departure_time":"21:25:00","lat":49.156238,"lon":16.599375,"is_passed":false},{"stop_id":"U1549Z1","name":"Rozhraní","arrival_time":"21:26:00","departure_time":"21:26:00","lat":49.155854,"lon":16.592288,"is_passed":false},{"stop_id":"U15113Z1","name":"Moravany, Bohunická cesta","arrival_time":"21:27:00","departure_time":"21:27:00","lat":49.15089,"lon":16.583503,"is_passed":false},{"stop_id":"U15114Z1","name":"Moravany, Hlavní","arrival_time":"21:28:00","departure_time":"21:28:00","lat":49.147228,"lon":16.578896,"is_passed":false},{"stop_id":"U15115Z1","name":"Moravany, Nebovidská","arrival_time":"21:29:00","departure_time":"21:29:00","lat":49.147983,"lon":16.569237,"is_passed":false},{"stop_id":"U15118Z1","name":"Nebovidy, u kostela","arrival_time":"21:31:00","departure_time":"21:31:00","lat":49.141636,"lon":16.553667,"is_passed":false},{"stop_id":"U15116Z1","name":"Nebovidy, dolní konec","arrival_time":"21:32:00","departure_time":"22:06:00","lat":49.142128,"lon":16.549075,"is_passed":false}],"54500":[{"stop_id":"U1146Z8","name":"Hlavní nádraží","arrival_time":"12:31:00","departure_time":"12:31:00","lat":49.191893,"lon":16.613334,"is_passed":false},{"stop_id":"U1746Z1","name":"Vlhká","arrival_time":"12:32:00","departure_time":"12:32:00","lat":49.191847,"lon":16.618976,"is_passed":false},{"stop_id":"U1372Z5","name":"Masná","arrival_time":"12:34:00","departure_time":"12:34:00","lat":49.191189,"lon":16.626548,"is_passed":false},{"stop_id":"U1677Z1","name":"Tržní","arrival_time":"12:36:00","departure_time":"12:36:00","lat":49.189973,"lon":16.632193,"is_passed":false},{"stop_id":"U1598Z1","name":"Spáčilova","arrival_time":"12:37:00","departure_time":"12:37:00","lat":49.188674,"lon":16.640942,"is_passed":false},{"stop_id":"U1455Z1","name":"Olomoucká - u školy","arrival_time":"12:39:00","departure_time":"12:39:00","lat":49.186169,"lon":16.652958,"is_passed":false},{"stop_id":"U1665Z1","name":"Těžební","arrival_time":"12:41:00","departure_time":"12:41:00","lat":49.181966,"lon":16.657236,"is_passed":false},{"stop_id":"U1739Z1","name":"Vlastimila Pecha","arrival_time":"12:42:00","departure_time":"12:42:00","lat":49.179379,"lon":16.662741,"is_passed":false},{"stop_id":"U1741Z2","name":"Vlárská","arrival_time":"12:46:00","departure_time":"12:46:00","lat":49.180702,"lon":16.672017,"is_passed":false},{"stop_id":"U1068Z3","name":"Černovičky","arrival_time":"12:48:00","departure_time":"12:48:00","lat":49.183143,"lon":16.669108,"is_passed":false},{"stop_id":"U1757Z2","name":"Vozovna Slatina","arrival_time":"12:49:00","departure_time":"12:49:00","lat":49.182866,"lon":16.673489,"is_passed":false},{"stop_id":"U1173Z2","name":"Hviezdoslavova","arrival_time":"12:50:00","departure_time":"12:50:00","lat":49.181664,"lon":16.677149,"is_passed":false},{"stop_id":"U1323Z2","name":"Langrova","arrival_time":"12:51:00","departure_time":"12:51:00","lat":49.17982,"lon":16.68105,"is_passed":false},{"stop_id":"U1382Z2","name":"Mikulčická","arrival_time":"12:52:00","departure_time":"12:52:00","lat":49.178227,"lon":16.684944,"is_passed":false},{"stop_id":"U1297Z2","name":"Kroměřížská","arrival_time":"12:53:00","departure_time":"12:53:00","lat":49.178988,"lon":16.689151,"is_passed":false},{"stop_id":"U1577Z1","name":"Slatina, sídliště","arrival_time":"12:55:00","departure_time":"13:50:00","lat":49.181827,"lon":16.690272,"is_passed":false}],"54501":[{"stop_id":"U1577Z2","name":"Slatina, sídliště","arrival_time":"13:50:00","departure_time":"13:50:00","lat":49.181605,"lon":16.690121,"is_passed":false},{"stop_id":"U1297Z1","name":"Kroměřížská","arrival_time":"13:51:00","departure_time":"13:51:00","lat":49.178307,"lon":16.688244,"is_passed":false},{"stop_id":"U1382Z1","name":"Mikulčická","arrival_time":"13:52:00","departure_time":"13:52:00","lat":49.178464,"lon":16.683602,"is_passed":false},{"stop_id":"U1323Z1","name":"Langrova","arrival_time":"13:53:00","departure_time":"13:53:00","lat":49.180031,"lon":16.680806,"is_passed":false},{"stop_id":"U1173Z1","name":"Hviezdoslavova","arrival_time":"13:54:00","departure_time":"13:54:00","lat":49.18219,"lon":16.676025,"is_passed":false},{"stop_id":"U1757Z1","name":"Vozovna Slatina","arrival_time":"13:55:00","departure_time":"13:55:00","lat":49.183032,"lon":16.672807,"is_passed":false},{"stop_id":"U1068Z1","name":"Černovičky","arrival_time":"13:57:00","departure_time":"13:57:00","lat":49.182244,"lon":16.66894,"is_passed":false},{"stop_id":"U1741Z1","name":"Vlárská","arrival_time":"13:58:00","departure_time":"13:58:00","lat":49.180745,"lon":16.671647,"is_passed":false},{"stop_id":"U1105Z4","name":"Ericha Roučky","arrival_time":"14:00:00","departure_time":"14:00:00","lat":49.175789,"lon":16.668403,"is_passed":false},{"stop_id":"U1739Z2","name":"Vlastimila Pecha","arrival_time":"14:01:00","departure_time":"14:01:00","lat":49.179751,"lon":16.662407,"is_passed":false},{"stop_id":"U1665Z2","name":"Těžební","arrival_time":"14:02:00","departure_time":"14:02:00","lat":49.182639,"lon":16.656437,"is_passed":false},{"stop_id":"U1455Z2","name":"Olomoucká - u školy","arrival_time":"14:04:00","departure_time":"14:04:00","lat":49.186437,"lon":16.652477,"is_passed":false},{"stop_id":"U1598Z2","name":"Spáčilova","arrival_time":"14:06:00","departure_time":"14:06:00","lat":49.188617,"lon":16.641569,"is_passed":false},{"stop_id":"U1814Z4","name":"Životského","arrival_time":"14:08:00","departure_time":"14:08:00","lat":49.190077,"lon":16.634992,"is_passed":false},{"stop_id":"U1372Z2","name":"Masná","arrival_time":"14:10:00","departure_time":"14:10:00","lat":49.191283,"lon":16.6245,"is_passed":false},{"stop_id":"U1746Z2","name":"Vlhká","arrival_time":"14:11:00","departure_time":"14:11:00","lat":49.191852,"lon":16.619157,"is_passed":false},{"stop_id":"U1146Z7","name":"Hlavní nádraží","arrival_time":"14:14:00","departure_time":"14:16:00","lat":49.19213,"lon":16.613467,"is_passed":false}],"54502":[{"stop_id":"U1146Z8","name":"Hlavní nádraží","arrival_time":"14:16:00","departure_time":"14:16:00","lat":49.191893,"lon":16.613334,"is_passed":false},{"stop_id":"U1746Z1","name":"Vlhká","arrival_time":"14:17:00","departure_time":"14:17:00","lat":49.191847,"lon":16.618976,"is_passed":false},{"stop_id":"U1372Z5","name":"Masná","arrival_time":"14:19:00","departure_time":"14:19:00","lat":49.191189,"lon":16.626548,"is_passed":false},{"stop_id":"U1677Z1","name":"Tržní","arrival_time":"14:21:00","departure_time":"14:21:00","lat":49.189973,"lon":16.632193,"is_passed":false},{"stop_id":"U1598Z1","name":"Spáčilova","arrival_time":"14:22:00","departure_time":"14:22:00","lat":49.188674,"lon":16.640942,"is_passed":false},{"stop_id":"U1455Z1","name":"Olomoucká - u školy","arrival_time":"14:24:00","departure_time":"14:24:00","lat":49.186169,"lon":16.652958,"is_passed":false},{"stop_id":"U1665Z1","name":"Těžební","arrival_time":"14:26:00","departure_time":"14:26:00","lat":49.181966,"lon":16.657236,"is_passed":false},{"stop_id":"U1739Z1","name":"Vlastimila Pecha","arrival_time":"14:27:00","departure_time":"14:27:00","lat":49.179379,"lon":16.662741,"is_passed":false},{"stop_id":"U1741Z2","name":"Vlárská","arrival_time":"14:31:00","departure_time":"14:31:00","lat":49.180702,"lon":16.672017,"is_passed":false},{"stop_id":"U1068Z3","name":"Černovičky","arrival_time":"14:33:00","departure_time":"14:33:00","lat":49.183143,"lon":16.669108,"is_passed":false},{"stop_id":"U1757Z2","name":"Vozovna Slatina","arrival_time":"14:34:00","departure_time":"14:34:00","lat":49.182866,"lon":16.673489,"is_passed":false},{"stop_id":"U1173Z2","name":"Hviezdoslavova","arrival_time":"14:35:00","departure_time":"14:35:00","lat":49.181664,"lon":16.677149,"is_passed":false},{"stop_id":"U1323Z2","name":"Langrova","arrival_time":"14:36:00","departure_time":"14:36:00","lat":49.17982,"lon":16.68105,"is_passed":false},{"stop_id":"U1382Z2","name":"Mikulčická","arrival_time":"14:37:00","departure_time":"14:37:00","lat":49.178227,"lon":16.684944,"is_passed":false},{"stop_id":"U1297Z2","name":"Kroměřížská","arrival_time":"14:38:00","departure_time":"14:38:00","lat":49.178988,"lon":16.689151,"is_passed":false},{"stop_id":"U1577Z1","name":"Slatina, sídliště","arrival_time":"14:40:00","departure_time":"14:56:00","lat":49.181827,"lon":16.690272,"is_passed":false}],"54503":[{"stop_id":"U1577Z2","name":"Slatina, sídliště","arrival_time":"14:56:00","departure_time":"14:56:00","lat":49.181605,"lon":16.690121,"is_passed":false},{"stop_id":"U1297Z1","name":"Kroměřížská","arrival_time":"14:57:00","departure_time":"14:57:00","lat":49.178307,"lon":16.688244,"is_passed":false},{"stop_id":"U1382Z1","name":"Mikulčická","arrival_time":"14:58:00","departure_time":"14:58:00","lat":49.178464,"lon":16.683602,"is_passed":false},{"stop_id":"U1323Z1","name":"Langrova","arrival_time":"14:59:00","departure_time":"14:59:00","lat":49.180031,"lon":16.680806,"is_passed":false},{"stop_id":"U1173Z1","name":"Hviezdoslavova","arrival_time":"15:00:00","departure_time":"15:00:00","lat":49.18219,"lon":16.676025,"is_passed":false},{"stop_id":"U1757Z1","name":"Vozovna Slatina","arrival_time":"15:01:00","departure_time":"15:01:00","lat":49.183032,"lon":16.672807,"is_passed":false},{"stop_id":"U1068Z1","name":"Černovičky","arrival_time":"15:03:00","departure_time":"15:03:00","lat":49.182244,"lon":16.66894,"is_passed":false},{"stop_id":"U1741Z1","name":"Vlárská","arrival_time":"15:04:00","departure_time":"15:04:00","lat":49.180745,"lon":16.671647,"is_passed":false},{"stop_id":"U1105Z4","name":"Ericha Roučky","arrival_time":"15:06:00","departure_time":"15:06:00","lat":49.175789,"lon":16.668403,"is_passed":false},{"stop_id":"U1739Z2","name":"Vlastimila Pecha","arrival_time":"15:07:00","departure_time":"15:07:00","lat":49.179751,"lon":16.662407,"is_passed":false},{"stop_id":"U1665Z2","name":"Těžební","arrival_time":"15:08:00","departure_time":"15:08:00","lat":49.182639,"lon":16.656437,"is_passed":false},{"stop_id":"U1455Z2","name":"Olomoucká - u školy","arrival_time":"15:10:00","departure_time":"15:10:00","lat":49.186437,"lon":16.652477,"is_passed":false},{"stop_id":"U1598Z2","name":"Spáčilova","arrival_time":"15:12:00","departure_time":"15:12:00","lat":49.188617,"lon":16.641569,"is_passed":false},{"stop_id":"U1814Z4","name":"Životského","arrival_time":"15:14:00","departure_time":"15:14:00","lat":49.190077,"lon":16.634992,"is_passed":false},{"stop_id":"U1372Z2","name":"Masná","arrival_time":"15:16:00","departure_time":"15:16:00","lat":49.191283,"lon":16.6245,"is_passed":false},{"stop_id":"U1746Z2","name":"Vlhká","arrival_time":"15:17:00","departure_time":"15:17:00","lat":49.191852,"lon":16.619157,"is_passed":false},{"stop_id":"U1146Z7","name":"Hlavní nádraží","arrival_time":"15:20:00","departure_time":"15:29:00","lat":49.19213,"lon":16.613467,"is_passed":false}],"54504":[{"stop_id":"U1146Z8","name":"Hlavní nádraží","arrival_time":"15:29:00","departure_time":"15:29:00","lat":49.191893,"lon":16.613334,"is_passed":false},{"stop_id":"U1746Z1","name":"Vlhká","arrival_time":"15:30:00","departure_time":"15:30:00","lat":49.191847,"lon":16.618976,"is_passed":false},{"stop_id":"U1372Z5","name":"Masná","arrival_time":"15:32:00","departure_time":"15:32:00","lat":49.191189,"lon":16.626548,"is_passed":false},{"stop_id":"U1677Z1","name":"Tržní","arrival_time":"15:34:00","departure_time":"15:34:00","lat":49.189973,"lon":16.632193,"is_passed":false},{"stop_id":"U1598Z1","name":"Spáčilova","arrival_time":"15:35:00","departure_time":"15:35:00","lat":49.188674,"lon":16.640942,"is_passed":false},{"stop_id":"U1455Z1","name":"Olomoucká - u školy","arrival_time":"15:37:00","departure_time":"15:37:00","lat":49.186169,"lon":16.652958,"is_passed":false},{"stop_id":"U1665Z1","name":"Těžební","arrival_time":"15:39:00","departure_time":"15:39:00","lat":49.181966,"lon":16.657236,"is_passed":false},{"stop_id":"U1739Z1","name":"Vlastimila Pecha","arrival_time":"15:40:00","departure_time":"15:40:00","lat":49.179379,"lon":16.662741,"is_passed":false},{"stop_id":"U1741Z2","name":"Vlárská","arrival_time":"15:44:00","departure_time":"15:44:00","lat":49.180702,"lon":16.672017,"is_passed":false},{"stop_id":"U1068Z3","name":"Černovičky","arrival_time":"15:46:00","departure_time":"15:46:00","lat":49.183143,"lon":16.669108,"is_passed":false},{"stop_id":"U1757Z2","name":"Vozovna Slatina","arrival_time":"15:47:00","departure_time":"15:47:00","lat":49.182866,"lon":16.673489,"is_passed":false},{"stop_id":"U1173Z2","name":"Hviezdoslavova","arrival_time":"15:48:00","departure_time":"15:48:00","lat":49.181664,"lon":16.677149,"is_passed":false},{"stop_id":"U1323Z2","name":"Langrova","arrival_time":"15:49:00","departure_time":"15:49:00","lat":49.17982,"lon":16.68105,"is_passed":false},{"stop_id":"U1382Z2","name":"Mikulčická","arrival_time":"15:50:00","departure_time":"15:50:00","lat":49.178227,"lon":16.684944,"is_passed":false},{"stop_id":"U1297Z2","name":"Kroměřížská","arrival_time":"15:51:00","departure_time":"15:51:00","lat":49.178988,"lon":16.689151,"is_passed":false},{"stop_id":"U1577Z1","name":"Slatina, sídliště","arrival_time":"15:53:00","departure_time":"16:11:00","lat":49.181827,"lon":16.690272,"is_passed":false}],"54505":[{"stop_id":"U1577Z2","name":"Slatina, sídliště","arrival_time":"16:11:00","departure_time":"16:11:00","lat":49.181605,"lon":16.690121,"is_passed":false},{"stop_id":"U1297Z1","name":"Kroměřížská","arrival_time":"16:12:00","departure_time":"16:12:00","lat":49.178307,"lon":16.688244,"is_passed":false},{"stop_id":"U1382Z1","name":"Mikulčická","arrival_time":"16:13:00","departure_time":"16:13:00","lat":49.178464,"lon":16.683602,"is_passed":false},{"stop_id":"U1323Z1","name":"Langrova","arrival_time":"16:14:00","departure_time":"16:14:00","lat":49.180031,"lon":16.680806,"is_passed":false},{"stop_id":"U1173Z1","name":"Hviezdoslavova","arrival_time":"16:15:00","departure_time":"16:15:00","lat":49.18219,"lon":16.676025,"is_passed":false},{"stop_id":"U1757Z1","name":"Vozovna Slatina","arrival_time":"16:16:00","departure_time":"16:16:00","lat":49.183032,"lon":16.672807,"is_passed":false},{"stop_id":"U1068Z1","name":"Černovičky","arrival_time":"16:18:00","departure_time":"16:18:00","lat":49.182244,"lon":16.66894,"is_passed":false},{"stop_id":"U1741Z1","name":"Vlárská","arrival_time":"16:19:00","departure_time":"16:19:00","lat":49.180745,"lon":16.671647,"is_passed":false},{"stop_id":"U1105Z4","name":"Ericha Roučky","arrival_time":"16:21:00","departure_time":"16:21:00","lat":49.175789,"lon":16.668403,"is_passed":false},{"stop_id":"U1739Z2","name":"Vlastimila Pecha","arrival_time":"16:22:00","departure_time":"16:22:00","lat":49.179751,"lon":16.662407,"is_passed":false},{"stop_id":"U1665Z2","name":"Těžební","arrival_time":"16:23:00","departure_time":"16:23:00","lat":49.182639,"lon":16.656437,"is_passed":false},{"stop_id":"U1455Z2","name":"Olomoucká - u školy","arrival_time":"16:25:00","departure_time":"16:25:00","lat":49.186437,"lon":16.652477,"is_passed":false},{"stop_id":"U1598Z2","name":"Spáčilova","arrival_time":"16:27:00","departure_time":"16:27:00","lat":49.188617,"lon":16.641569,"is_passed":false},{"stop_id":"U1814Z4","name":"Životského","arrival_time":"16:29:00","departure_time":"16:29:00","lat":49.190077,"lon":16.634992,"is_passed":false},{"stop_id":"U1372Z2","name":"Masná","arrival_time":"16:31:00","departure_time":"16:31:00","lat":49.191283,"lon":16.6245,"is_passed":false},{"stop_id":"U1746Z2","name":"Vlhká","arrival_time":"16:32:00","departure_time":"16:32:00","lat":49.191852,"lon":16.619157,"is_passed":false},{"stop_id":"U1146Z7","name":"Hlavní nádraží","arrival_time":"16:35:00","departure_time":"16:35:00","lat":49.19213,"lon":16.613467,"is_passed":false}],"54506":[{"stop_id":"U1146Z8","name":"Hlavní nádraží","arrival_time":"16:39:00","departure_time":"16:39:00","lat":49.191893,"lon":16.613334,"is_passed":false},{"stop_id":"U1746Z1","name":"Vlhká","arrival_time":"16:40:00","departure_time":"16:40:00","lat":49.191847,"lon":16.618976,"is_passed":false},{"stop_id":"U1372Z5","name":"Masná","arrival_time":"16:42:00","departure_time":"16:42:00","lat":49.191189,"lon":16.626548,"is_passed":false},{"stop_id":"U1677Z1","name":"Tržní","arrival_time":"16:44:00","departure_time":"16:44:00","lat":49.189973,"lon":16.632193,"is_passed":false},{"stop_id":"U1068Z3","name":"Černovičky","arrival_time":"16:49:00","departure_time":"16:49:00","lat":49.183143,"lon":16.669108,"is_passed":false},{"stop_id":"U1757Z2","name":"Vozovna Slatina","arrival_time":"16:50:00","departure_time":"16:50:00","lat":49.182866,"lon":16.673489,"is_passed":false},{"stop_id":"U1173Z2","name":"Hviezdoslavova","arrival_time":"16:51:00","departure_time":"16:51:00","lat":49.181664,"lon":16.677149,"is_passed":false},{"stop_id":"U1323Z2","name":"Langrova","arrival_time":"16:52:00","departure_time":"16:52:00","lat":49.17982,"lon":16.68105,"is_passed":false},{"stop_id":"U1382Z2","name":"Mikulčická","arrival_time":"16:53:00","departure_time":"16:53:00","lat":49.178227,"lon":16.684944,"is_passed":false},{"stop_id":"U1297Z2","name":"Kroměřížská","arrival_time":"16:54:00","departure_time":"16:54:00","lat":49.178988,"lon":16.689151,"is_passed":false},{"stop_id":"U1577Z1","name":"Slatina, sídliště","arrival_time":"16:56:00","departure_time":"16:56:00","lat":49.181827,"lon":16.690272,"is_passed":false}],"54507":[{"stop_id":"U1577Z2","name":"Slatina, sídliště","arrival_time":"17:26:00","departure_time":"17:26:00","lat":49.181605,"lon":16.690121,"is_passed":false},{"stop_id":"U1297Z1","name":"Kroměřížská","arrival_time":"17:27:00","departure_time":"17:27:00","lat":49.178307,"lon":16.688244,"is_passed":false},{"stop_id":"U1382Z1","name":"Mikulčická","arrival_time":"17:28:00","departure_time":"17:28:00","lat":49.178464,"lon":16.683602,"is_passed":false},{"stop_id":"U1323Z1","name":"Langrova","arrival_time":"17:29:00","departure_time":"17:29:00","lat":49.180031,"lon":16.680806,"is_passed":false},{"stop_id":"U1173Z1","name":"Hviezdoslavova","arrival_time":"17:30:00","departure_time":"17:30:00","lat":49.18219,"lon":16.676025,"is_passed":false},{"stop_id":"U1757Z1","name":"Vozovna Slatina","arrival_time":"17:31:00","departure_time":"17:31:00","lat":49.183032,"lon":16.672807,"is_passed":false},{"stop_id":"U1068Z1","name":"Černovičky","arrival_time":"17:33:00","departure_time":"17:33:00","lat":49.182244,"lon":16.66894,"is_passed":false},{"stop_id":"U1741Z1","name":"Vlárská","arrival_time":"17:34:00","departure_time":"17:34:00","lat":49.180745,"lon":16.671647,"is_passed":false},{"stop_id":"U1105Z4","name":"Ericha Roučky","arrival_time":"17:36:00","departure_time":"17:36:00","lat":49.175789,"lon":16.668403,"is_passed":false},{"stop_id":"U1739Z2","name":"Vlastimila Pecha","arrival_time":"17:37:00","departure_time":"17:37:00","lat":49.179751,"lon":16.662407,"is_passed":false},{"stop_id":"U1665Z2","name":"Těžební","arrival_time":"17:38:00","departure_time":"17:38:00","lat":49.182639,"lon":16.656437,"is_passed":false},{"stop_id":"U1455Z2","name":"Olomoucká - u školy","arrival_time":"17:40:00","departure_time":"17:40:00","lat":49.186437,"lon":16.652477,"is_passed":false},{"stop_id":"U1598Z2","name":"Spáčilova","arrival_time":"17:42:00","departure_time":"17:42:00","lat":49.188617,"lon":16.641569,"is_passed":false},{"stop_id":"U1814Z4","name":"Životského","arrival_time":"17:44:00","departure_time":"17:44:00","lat":49.190077,"lon":16.634992,"is_passed":false},{"stop_id":"U1372Z2","name":"Masná","arrival_time":"17:46:00","departure_time":"17:46:00","lat":49.191283,"lon":16.6245,"is_passed":false},{"stop_id":"U1746Z2","name":"Vlhká","arrival_time":"17:47:00","departure_time":"17:47:00","lat":49.191852,"lon":16.619157,"is_passed":false},{"stop_id":"U1146Z7","name":"Hlavní nádraží","arrival_time":"17:50:00","departure_time":"17:59:00","lat":49.19213,"lon":16.613467,"is_passed":false}],"54508":[{"stop_id":"U1146Z8","name":"Hlavní nádraží","arrival_time":"17:59:00","departure_time":"17:59:00","lat":49.191893,"lon":16.613334,"is_passed":false},{"stop_id":"U1746Z1","name":"Vlhká","arrival_time":"18:00:00","departure_time":"18:00:00","lat":49.191847,"lon":16.618976,"is_passed":false},{"stop_id":"U1372Z5","name":"Masná","arrival_time":"18:02:00","departure_time":"18:02:00","lat":49.191189,"lon":16.626548,"is_passed":false},{"stop_id":"U1677Z1","name":"Tržní","arrival_time":"18:04:00","departure_time":"18:04:00","lat":49.189973,"lon":16.632193,"is_passed":false},{"stop_id":"U1598Z1","name":"Spáčilova","arrival_time":"18:05:00","departure_time":"18:05:00","lat":49.188674,"lon":16.640942,"is_passed":false},{"stop_id":"U1455Z1","name":"Olomoucká - u školy","arrival_time":"18:07:00","departure_time":"18:07:00","lat":49.186169,"lon":16.652958,"is_passed":false},{"stop_id":"U1665Z1","name":"Těžební","arrival_time":"18:09:00","departure_time":"18:09:00","lat":49.181966,"lon":16.657236,"is_passed":false},{"stop_id":"U1739Z1","name":"Vlastimila Pecha","arrival_time":"18:10:00","departure_time":"18:10:00","lat":49.179379,"lon":16.662741,"is_passed":false},{"stop_id":"U1741Z2","name":"Vlárská","arrival_time":"18:14:00","departure_time":"18:14:00","lat":49.180702,"lon":16.672017,"is_passed":false},{"stop_id":"U1068Z3","name":"Černovičky","arrival_time":"18:16:00","departure_time":"18:16:00","lat":49.183143,"lon":16.669108,"is_passed":false},{"stop_id":"U1757Z2","name":"Vozovna Slatina","arrival_time":"18:17:00","departure_time":"18:17:00","lat":49.182866,"lon":16.673489,"is_passed":false},{"stop_id":"U1173Z2","name":"Hviezdoslavova","arrival_time":"18:18:00","departure_time":"18:18:00","lat":49.181664,"lon":16.677149,"is_passed":false},{"stop_id":"U1323Z2","name":"Langrova","arrival_time":"18:19:00","departure_time":"18:19:00","lat":49.17982,"lon":16.68105,"is_passed":false},{"stop_id":"U1382Z2","name":"Mikulčická","arrival_time":"18:20:00","departure_time":"18:20:00","lat":49.178227,"lon":16.684944,"is_passed":false},{"stop_id":"U1297Z2","name":"Kroměřížská","arrival_time":"18:21:00","departure_time":"18:21:00","lat":49.178988,"lon":16.689151,"is_passed":false},{"stop_id":"U1577Z1","name":"Slatina, sídliště","arrival_time":"18:23:00","departure_time":"18:37:00","lat":49.181827,"lon":16.690272,"is_passed":false}],"54509":[{"stop_id":"U1577Z2","name":"Slatina, sídliště","arrival_time":"18:37:00","departure_time":"18:37:00","lat":49.181605,"lon":16.690121,"is_passed":false},{"stop_id":"U1297Z1","name":"Kroměřížská","arrival_time":"18:37:00","departure_time":"18:37:00","lat":49.178307,"lon":16.688244,"is_passed":false},{"stop_id":"U1382Z1","name":"Mikulčická","arrival_time":"18:38:00","departure_time":"18:38:00","lat":49.178464,"lon":16.683602,"is_passed":false},{"stop_id":"U1323Z1","name":"Langrova","arrival_time":"18:39:00","departure_time":"18:39:00","lat":49.180031,"lon":16.680806,"is_passed":false},{"stop_id":"U1173Z1","name":"Hviezdoslavova","arrival_time":"18:40:00","departure_time":"18:40:00","lat":49.18219,"lon":16.676025,"is_passed":false},{"stop_id":"U1757Z1","name":"Vozovna Slatina","arrival_time":"18:41:00","departure_time":"18:41:00","lat":49.183032,"lon":16.672807,"is_passed":false},{"stop_id":"U1068Z1","name":"Černovičky","arrival_time":"18:42:00","departure_time":"18:42:00","lat":49.182244,"lon":16.66894,"is_passed":false},{"stop_id":"U1741Z1","name":"Vlárská","arrival_time":"18:43:00","departure_time":"18:43:00","lat":49.180745,"lon":16.671647,"is_passed":false},{"stop_id":"U1105Z4","name":"Ericha Roučky","arrival_time":"18:45:00","departure_time":"18:45:00","lat":49.175789,"lon":16.668403,"is_passed":false},{"stop_id":"U1739Z2","name":"Vlastimila Pecha","arrival_time":"18:46:00","departure_time":"18:46:00","lat":49.179751,"lon":16.662407,"is_passed":false},{"stop_id":"U1665Z2","name":"Těžební","arrival_time":"18:47:00","departure_time":"18:47:00","lat":49.182639,"lon":16.656437,"is_passed":false},{"stop_id":"U1455Z2","name":"Olomoucká - u školy","arrival_time":"18:48:00","departure_time":"18:48:00","lat":49.186437,"lon":16.652477,"is_passed":false},{"stop_id":"U1598Z2","name":"Spáčilova","arrival_time":"18:49:00","departure_time":"18:49:00","lat":49.188617,"lon":16.641569,"is_passed":false},{"stop_id":"U1814Z4","name":"Životského","arrival_time":"18:51:00","departure_time":"18:51:00","lat":49.190077,"lon":16.634992,"is_passed":false},{"stop_id":"U1372Z2","name":"Masná","arrival_time":"18:53:00","departure_time":"18:53:00","lat":49.191283,"lon":16.6245,"is_passed":false},{"stop_id":"U1746Z2","name":"Vlhká","arrival_time":"18:54:00","departure_time":"18:54:00","lat":49.191852,"lon":16.619157,"is_passed":false},{"stop_id":"U1146Z7","name":"Hlavní nádraží","arrival_time":"18:57:00","departure_time":"19:00:00","lat":49.19213,"lon":16.613467,"is_passed":false}],"54510":[{"stop_id":"U1146Z8","name":"Hlavní nádraží","arrival_time":"19:00:00","departure_time":"19:00:00","lat":49.191893,"lon":16.613334,"is_passed":false},{"stop_id":"U1746Z1","name":"Vlhká","arrival_time":"19:01:00","departure_time":"19:01:00","lat":49.191847,"lon":16.618976,"is_passed":false},{"stop_id":"U1372Z5","name":"Masná","arrival_time":"19:02:00","departure_time":"19:02:00","lat":49.191189,"lon":16.626548,"is_passed":false},{"stop_id":"U1677Z1","name":"Tržní","arrival_time":"19:04:00","departure_time":"19:04:00","lat":49.189973,"lon":16.632193,"is_passed":false},{"stop_id":"U1598Z1","name":"Spáčilova","arrival_time":"19:05:00","departure_time":"19:05:00","lat":49.188674,"lon":16.640942,"is_passed":false},{"stop_id":"U1455Z1","name":"Olomoucká - u školy","arrival_time":"19:06:00","departure_time":"19:06:00","lat":49.186169,"lon":16.652958,"is_passed":false},{"stop_id":"U1665Z1","name":"Těžební","arrival_time":"19:08:00","departure_time":"19:08:00","lat":49.181966,"lon":16.657236,"is_passed":false},{"stop_id":"U1739Z1","name":"Vlastimila Pecha","arrival_time":"19:09:00","departure_time":"19:09:00","lat":49.179379,"lon":16.662741,"is_passed":false},{"stop_id":"U1741Z2","name":"Vlárská","arrival_time":"19:12:00","departure_time":"19:12:00","lat":49.180702,"lon":16.672017,"is_passed":false},{"stop_id":"U1068Z3","name":"Černovičky","arrival_time":"19:14:00","departure_time":"19:14:00","lat":49.183143,"lon":16.669108,"is_passed":false},{"stop_id":"U1757Z2","name":"Vozovna Slatina","arrival_time":"19:15:00","departure_time":"19:15:00","lat":49.182866,"lon":16.673489,"is_passed":false},{"stop_id":"U1173Z2","name":"Hviezdoslavova","arrival_time":"19:16:00","departure_time":"19:16:00","lat":49.181664,"lon":16.677149,"is_passed":false},{"stop_id":"U1323Z2","name":"Langrova","arrival_time":"19:17:00","departure_time":"19:17:00","lat":49.17982,"lon":16.68105,"is_passed":false},{"stop_id":"U1382Z2","name":"Mikulčická","arrival_time":"19:18:00","departure_time":"19:18:00","lat":49.178227,"lon":16.684944,"is_passed":false},{"stop_id":"U1297Z2","name":"Kroměřížská","arrival_time":"19:19:00","departure_time":"19:19:00","lat":49.178988,"lon":16.689151,"is_passed":false},{"stop_id":"U1577Z1","name":"Slatina, sídliště","arrival_time":"19:21:00","departure_time":"19:23:00","lat":49.181827,"lon":16.690272,"is_passed":false}],"54511":[{"stop_id":"U1146Z4","name":"Hlavní nádraží","arrival_time":"4:58:00","departure_time":"4:58:00","lat":49.19125,"lon":16.612674,"is_passed":false},{"stop_id":"U1746Z1","name":"Vlhká","arrival_time":"4:59:00","departure_time":"4:59:00","lat":49.191847,"lon":16.618976,"is_passed":false},{"stop_id":"U1372Z1","name":"Masná","arrival_time":"5:00:00","departure_time":"5:00:00","lat":49.191244,"lon":16.625642,"is_passed":false},{"stop_id":"U1677Z1","name":"Tržní","arrival_time":"5:02:00","departure_time":"5:02:00","lat":49.189973,"lon":16.632193,"is_passed":false},{"stop_id":"U1641Z1","name":"Škroupova","arrival_time":"5:04:00","departure_time":"5:04:00","lat":49.192022,"lon":16.648112,"is_passed":false},{"stop_id":"U1473Z4","name":"Otakara Ševčíka","arrival_time":"5:05:00","departure_time":"5:05:00","lat":49.194988,"lon":16.646643,"is_passed":false},{"stop_id":"U1082Z1","name":"Dělnický dům","arrival_time":"5:06:00","departure_time":"5:06:00","lat":49.195559,"lon":16.650177,"is_passed":false},{"stop_id":"U1496Z1","name":"Podlomní","arrival_time":"5:07:00","departure_time":"5:07:00","lat":49.192252,"lon":16.655367,"is_passed":false},{"stop_id":"U1642Z1","name":"Špačkova","arrival_time":"5:07:00","departure_time":"5:07:00","lat":49.190929,"lon":16.658793,"is_passed":false},{"stop_id":"U1018Z6","name":"Bělohorská","arrival_time":"5:08:00","departure_time":"5:08:00","lat":49.189603,"lon":16.662473,"is_passed":false},{"stop_id":"U1501Z4","name":"Podstránská","arrival_time":"5:08:00","departure_time":"5:08:00","lat":49.186139,"lon":16.667061,"is_passed":false},{"stop_id":"U1068Z1","name":"Černovičky","arrival_time":"5:10:00","departure_time":"5:10:00","lat":49.182244,"lon":16.66894,"is_passed":false},{"stop_id":"U1741Z1","name":"Vlárská","arrival_time":"5:10:00","departure_time":"5:10:00","lat":49.180745,"lon":16.671647,"is_passed":false},{"stop_id":"U1105Z1","name":"Ericha Roučky","arrival_time":"5:12:00","departure_time":"5:12:00","lat":49.174784,"lon":16.66987,"is_passed":false},{"stop_id":"U1064Z1","name":"Černovická terasa I","arrival_time":"5:13:00","departure_time":"5:13:00","lat":49.171172,"lon":16.673495,"is_passed":false},{"stop_id":"U1065Z1","name":"Černovická terasa II","arrival_time":"5:13:00","departure_time":"5:13:00","lat":49.167108,"lon":16.67608,"is_passed":false},{"stop_id":"U1581Z3","name":"Areál Slatina","arrival_time":"5:14:00","departure_time":"5:16:00","lat":49.168533,"lon":16.678786,"is_passed":false}],"54512":[{"stop_id":"U1577Z2","name":"Slatina, sídliště","arrival_time":"5:27:00","departure_time":"5:27:00","lat":49.181605,"lon":16.690121,"is_passed":false},{"stop_id":"U1297Z1","name":"Kroměřížská","arrival_time":"5:27:00","departure_time":"5:27:00","lat":49.178307,"lon":16.688244,"is_passed":false},{"stop_id":"U1382Z1","name":"Mikulčická","arrival_time":"5:28:00","departure_time":"5:28:00","lat":49.178464,"lon":16.683602,"is_passed":false},{"stop_id":"U1323Z1","name":"Langrova","arrival_time":"5:29:00","departure_time":"5:29:00","lat":49.180031,"lon":16.680806,"is_passed":false},{"stop_id":"U1173Z1","name":"Hviezdoslavova","arrival_time":"5:30:00","departure_time":"5:30:00","lat":49.18219,"lon":16.676025,"is_passed":false},{"stop_id":"U1757Z1","name":"Vozovna Slatina","arrival_time":"5:31:00","departure_time":"5:31:00","lat":49.183032,"lon":16.672807,"is_passed":false},{"stop_id":"U1068Z1","name":"Černovičky","arrival_time":"5:32:00","departure_time":"5:32:00","lat":49.182244,"lon":16.66894,"is_passed":false},{"stop_id":"U1741Z1","name":"Vlárská","arrival_time":"5:33:00","departure_time":"5:33:00","lat":49.180745,"lon":16.671647,"is_passed":false},{"stop_id":"U1105Z4","name":"Ericha Roučky","arrival_time":"5:35:00","departure_time":"5:35:00","lat":49.175789,"lon":16.668403,"is_passed":false},{"stop_id":"U1739Z2","name":"Vlastimila Pecha","arrival_time":"5:36:00","departure_time":"5:36:00","lat":49.179751,"lon":16.662407,"is_passed":false},{"stop_id":"U1665Z2","name":"Těžební","arrival_time":"5:37:00","departure_time":"5:37:00","lat":49.182639,"lon":16.656437,"is_passed":false},{"stop_id":"U1455Z2","name":"Olomoucká - u školy","arrival_time":"5:38:00","departure_time":"5:38:00","lat":49.186437,"lon":16.652477,"is_passed":false},{"stop_id":"U1598Z2","name":"Spáčilova","arrival_time":"5:39:00","departure_time":"5:39:00","lat":49.188617,"lon":16.641569,"is_passed":false},{"stop_id":"U1814Z4","name":"Životského","arrival_time":"5:41:00","departure_time":"5:41:00","lat":49.190077,"lon":16.634992,"is_passed":false},{"stop_id":"U1372Z2","name":"Masná","arrival_time":"5:43:00","departure_time":"5:43:00","lat":49.191283,"lon":16.6245,"is_passed":false},{"stop_id":"U1746Z2","name":"Vlhká","arrival_time":"5:44:00","departure_time":"5:44:00","lat":49.191852,"lon":16.619157,"is_passed":false},{"stop_id":"U1146Z7","name":"Hlavní nádraží","arrival_time":"5:47:00","departure_time":"6:00:00","lat":49.19213,"lon":16.613467,"is_passed":false}],"54513":[{"stop_id":"U1146Z8","name":"Hlavní nádraží","arrival_time":"6:00:00","departure_time":"6:00:00","lat":49.191893,"lon":16.613334,"is_passed":false},{"stop_id":"U1746Z1","name":"Vlhká","arrival_time":"6:01:00","departure_time":"6:01:00","lat":49.191847,"lon":16.618976,"is_passed":false},{"stop_id":"U1372Z5","name":"Masná","arrival_time":"6:02:00","departure_time":"6:02:00","lat":49.191189,"lon":16.626548,"is_passed":false},{"stop_id":"U1677Z1","name":"Tržní","arrival_time":"6:04:00","departure_time":"6:04:00","lat":49.189973,"lon":16.632193,"is_passed":false},{"stop_id":"U1598Z1","name":"Spáčilova","arrival_time":"6:05:00","departure_time":"6:05:00","lat":49.188674,"lon":16.640942,"is_passed":false},{"stop_id":"U1455Z1","name":"Olomoucká - u školy","arrival_time":"6:06:00","departure_time":"6:06:00","lat":49.186169,"lon":16.652958,"is_passed":false},{"stop_id":"U1665Z1","name":"Těžební","arrival_time":"6:08:00","departure_time":"6:08:00","lat":49.181966,"lon":16.657236,"is_passed":false},{"stop_id":"U1739Z1","name":"Vlastimila Pecha","arrival_time":"6:09:00","departure_time":"6:09:00","lat":49.179379,"lon":16.662741,"is_passed":false},{"stop_id":"U1741Z2","name":"Vlárská","arrival_time":"6:12:00","departure_time":"6:12:00","lat":49.180702,"lon":16.672017,"is_passed":false},{"stop_id":"U1068Z3","name":"Černovičky","arrival_time":"6:14:00","departure_time":"6:14:00","lat":49.183143,"lon":16.669108,"is_passed":false},{"stop_id":"U1757Z2","name":"Vozovna Slatina","arrival_time":"6:15:00","departure_time":"6:15:00","lat":49.182866,"lon":16.673489,"is_passed":false},{"stop_id":"U1173Z2","name":"Hviezdoslavova","arrival_time":"6:16:00","departure_time":"6:16:00","lat":49.181664,"lon":16.677149,"is_passed":false},{"stop_id":"U1323Z2","name":"Langrova","arrival_time":"6:17:00","departure_time":"6:17:00","lat":49.17982,"lon":16.68105,"is_passed":false},{"stop_id":"U1382Z2","name":"Mikulčická","arrival_time":"6:18:00","departure_time":"6:18:00","lat":49.178227,"lon":16.684944,"is_passed":false},{"stop_id":"U1297Z2","name":"Kroměřížská","arrival_time":"6:19:00","departure_time":"6:19:00","lat":49.178988,"lon":16.689151,"is_passed":false},{"stop_id":"U1577Z1","name":"Slatina, sídliště","arrival_time":"6:21:00","departure_time":"6:39:00","lat":49.181827,"lon":16.690272,"is_passed":false}],"54514":[{"stop_id":"U1577Z2","name":"Slatina, sídliště","arrival_time":"6:39:00","departure_time":"6:39:00","lat":49.181605,"lon":16.690121,"is_passed":false},{"stop_id":"U1297Z1","name":"Kroměřížská","arrival_time":"6:40:00","departure_time":"6:40:00","lat":49.178307,"lon":16.688244,"is_passed":false},{"stop_id":"U1382Z1","name":"Mikulčická","arrival_time":"6:41:00","departure_time":"6:41:00","lat":49.178464,"lon":16.683602,"is_passed":false},{"stop_id":"U1323Z1","name":"Langrova","arrival_time":"6:42:00","departure_time":"6:42:00","lat":49.180031,"lon":16.680806,"is_passed":false},{"stop_id":"U1173Z1","name":"Hviezdoslavova","arrival_time":"6:43:00","departure_time":"6:43:00","lat":49.18219,"lon":16.676025,"is_passed":false},{"stop_id":"U1757Z1","name":"Vozovna Slatina","arrival_time":"6:44:00","departure_time":"6:44:00","lat":49.183032,"lon":16.672807,"is_passed":false},{"stop_id":"U1068Z1","name":"Černovičky","arrival_time":"6:46:00","departure_time":"6:46:00","lat":49.182244,"lon":16.66894,"is_passed":false},{"stop_id":"U1741Z1","name":"Vlárská","arrival_time":"6:47:00","departure_time":"6:47:00","lat":49.180745,"lon":16.671647,"is_passed":false},{"stop_id":"U1105Z4","name":"Ericha Roučky","arrival_time":"6:49:00","departure_time":"6:49:00","lat":49.175789,"lon":16.668403,"is_passed":false},{"stop_id":"U1739Z2","name":"Vlastimila Pecha","arrival_time":"6:50:00","departure_time":"6:50:00","lat":49.179751,"lon":16.662407,"is_passed":false},{"stop_id":"U1665Z2","name":"Těžební","arrival_time":"6:51:00","departure_time":"6:51:00","lat":49.182639,"lon":16.656437,"is_passed":false},{"stop_id":"U1455Z2","name":"Olomoucká - u školy","arrival_time":"6:53:00","departure_time":"6:53:00","lat":49.186437,"lon":16.652477,"is_passed":false},{"stop_id":"U1598Z2","name":"Spáčilova","arrival_time":"6:55:00","departure_time":"6:55:00","lat":49.188617,"lon":16.641569,"is_passed":false},{"stop_id":"U1814Z4","name":"Životského","arrival_time":"6:57:00","departure_time":"6:57:00","lat":49.190077,"lon":16.634992,"is_passed":false},{"stop_id":"U1372Z2","name":"Masná","arrival_time":"6:59:00","departure_time":"6:59:00","lat":49.191283,"lon":16.6245,"is_passed":false},{"stop_id":"U1746Z2","name":"Vlhká","arrival_time":"7:00:00","departure_time":"7:00:00","lat":49.191852,"lon":16.619157,"is_passed":false},{"stop_id":"U1146Z7","name":"Hlavní nádraží","arrival_time":"7:03:00","departure_time":"7:05:00","lat":49.19213,"lon":16.613467,"is_passed":false}],"54515":[{"stop_id":"U1146Z8","name":"Hlavní nádraží","arrival_time":"7:05:00","departure_time":"7:05:00","lat":49.191893,"lon":16.613334,"is_passed":false},{"stop_id":"U1746Z1","name":"Vlhká","arrival_time":"7:06:00","departure_time":"7:06:00","lat":49.191847,"lon":16.618976,"is_passed":false},{"stop_id":"U1372Z5","name":"Masná","arrival_time":"7:08:00","departure_time":"7:08:00","lat":49.191189,"lon":16.626548,"is_passed":false},{"stop_id":"U1677Z1","name":"Tržní","arrival_time":"7:10:00","departure_time":"7:10:00","lat":49.189973,"lon":16.632193,"is_passed":false},{"stop_id":"U1598Z1","name":"Spáčilova","arrival_time":"7:11:00","departure_time":"7:11:00","lat":49.188674,"lon":16.640942,"is_passed":false},{"stop_id":"U1455Z1","name":"Olomoucká - u školy","arrival_time":"7:13:00","departure_time":"7:13:00","lat":49.186169,"lon":16.652958,"is_passed":false},{"stop_id":"U1665Z1","name":"Těžební","arrival_time":"7:15:00","departure_time":"7:15:00","lat":49.181966,"lon":16.657236,"is_passed":false},{"stop_id":"U1739Z1","name":"Vlastimila Pecha","arrival_time":"7:16:00","departure_time":"7:16:00","lat":49.179379,"lon":16.662741,"is_passed":false},{"stop_id":"U1741Z2","name":"Vlárská","arrival_time":"7:20:00","departure_time":"7:20:00","lat":49.180702,"lon":16.672017,"is_passed":false},{"stop_id":"U1068Z3","name":"Černovičky","arrival_time":"7:22:00","departure_time":"7:22:00","lat":49.183143,"lon":16.669108,"is_passed":false},{"stop_id":"U1757Z2","name":"Vozovna Slatina","arrival_time":"7:23:00","departure_time":"7:23:00","lat":49.182866,"lon":16.673489,"is_passed":false},{"stop_id":"U1173Z2","name":"Hviezdoslavova","arrival_time":"7:24:00","departure_time":"7:24:00","lat":49.181664,"lon":16.677149,"is_passed":false},{"stop_id":"U1323Z2","name":"Langrova","arrival_time":"7:25:00","departure_time":"7:25:00","lat":49.17982,"lon":16.68105,"is_passed":false},{"stop_id":"U1382Z2","name":"Mikulčická","arrival_time":"7:26:00","departure_time":"7:26:00","lat":49.178227,"lon":16.684944,"is_passed":false},{"stop_id":"U1297Z2","name":"Kroměřížská","arrival_time":"7:27:00","departure_time":"7:27:00","lat":49.178988,"lon":16.689151,"is_passed":false},{"stop_id":"U1577Z1","name":"Slatina, sídliště","arrival_time":"7:29:00","departure_time":"7:48:00","lat":49.181827,"lon":16.690272,"is_passed":false}],"54516":[{"stop_id":"U1577Z2","name":"Slatina, sídliště","arrival_time":"7:48:00","departure_time":"7:48:00","lat":49.181605,"lon":16.690121,"is_passed":false},{"stop_id":"U1297Z1","name":"Kroměřížská","arrival_time":"7:49:00","departure_time":"7:49:00","lat":49.178307,"lon":16.688244,"is_passed":false},{"stop_id":"U1382Z1","name":"Mikulčická","arrival_time":"7:50:00","departure_time":"7:50:00","lat":49.178464,"lon":16.683602,"is_passed":false},{"stop_id":"U1323Z1","name":"Langrova","arrival_time":"7:51:00","departure_time":"7:51:00","lat":49.180031,"lon":16.680806,"is_passed":false},{"stop_id":"U1173Z1","name":"Hviezdoslavova","arrival_time":"7:52:00","departure_time":"7:52:00","lat":49.18219,"lon":16.676025,"is_passed":false},{"stop_id":"U1757Z1","name":"Vozovna Slatina","arrival_time":"7:53:00","departure_time":"7:53:00","lat":49.183032,"lon":16.672807,"is_passed":false},{"stop_id":"U1068Z1","name":"Černovičky","arrival_time":"7:55:00","departure_time":"7:55:00","lat":49.182244,"lon":16.66894,"is_passed":false},{"stop_id":"U1741Z1","name":"Vlárská","arrival_time":"7:56:00","departure_time":"7:56:00","lat":49.180745,"lon":16.671647,"is_passed":false},{"stop_id":"U1105Z4","name":"Ericha Roučky","arrival_time":"7:58:00","departure_time":"7:58:00","lat":49.175789,"lon":16.668403,"is_passed":false},{"stop_id":"U1739Z2","name":"Vlastimila Pecha","arrival_time":"7:59:00","departure_time":"7:59:00","lat":49.179751,"lon":16.662407,"is_passed":false},{"stop_id":"U1665Z2","name":"Těžební","arrival_time":"8:00:00","departure_time":"8:00:00","lat":49.182639,"lon":16.656437,"is_passed":false},{"stop_id":"U1455Z2","name":"Olomoucká - u školy","arrival_time":"8:02:00","departure_time":"8:02:00","lat":49.186437,"lon":16.652477,"is_passed":false},{"stop_id":"U1598Z2","name":"Spáčilova","arrival_time":"8:04:00","departure_time":"8:04:00","lat":49.188617,"lon":16.641569,"is_passed":false},{"stop_id":"U1814Z4","name":"Životského","arrival_time":"8:06:00","departure_time":"8:06:00","lat":49.190077,"lon":16.634992,"is_passed":false},{"stop_id":"U1372Z2","name":"Masná","arrival_time":"8:08:00","departure_time":"8:08:00","lat":49.191283,"lon":16.6245,"is_passed":false},{"stop_id":"U1746Z2","name":"Vlhká","arrival_time":"8:09:00","departure_time":"8:09:00","lat":49.191852,"lon":16.619157,"is_passed":false},{"stop_id":"U1146Z7","name":"Hlavní nádraží","arrival_time":"8:12:00","departure_time":"8:16:00","lat":49.19213,"lon":16.613467,"is_passed":false}],"54517":[{"stop_id":"U1146Z8","name":"Hlavní nádraží","arrival_time":"8:16:00","departure_time":"8:16:00","lat":49.191893,"lon":16.613334,"is_passed":false},{"stop_id":"U1746Z1","name":"Vlhká","arrival_time":"8:17:00","departure_time":"8:17:00","lat":49.191847,"lon":16.618976,"is_passed":false},{"stop_id":"U1372Z5","name":"Masná","arrival_time":"8:19:00","departure_time":"8:19:00","lat":49.191189,"lon":16.626548,"is_passed":false},{"stop_id":"U1677Z1","name":"Tržní","arrival_time":"8:21:00","departure_time":"8:21:00","lat":49.189973,"lon":16.632193,"is_passed":false},{"stop_id":"U1598Z1","name":"Spáčilova","arrival_time":"8:22:00","departure_time":"8:22:00","lat":49.188674,"lon":16.640942,"is_passed":false},{"stop_id":"U1455Z1","name":"Olomoucká - u školy","arrival_time":"8:24:00","departure_time":"8:24:00","lat":49.186169,"lon":16.652958,"is_passed":false},{"stop_id":"U1665Z1","name":"Těžební","arrival_time":"8:26:00","departure_time":"8:26:00","lat":49.181966,"lon":16.657236,"is_passed":false},{"stop_id":"U1739Z1","name":"Vlastimila Pecha","arrival_time":"8:27:00","departure_time":"8:27:00","lat":49.179379,"lon":16.662741,"is_passed":false},{"stop_id":"U1741Z2","name":"Vlárská","arrival_time":"8:31:00","departure_time":"8:31:00","lat":49.180702,"lon":16.672017,"is_passed":false},{"stop_id":"U1068Z3","name":"Černovičky","arrival_time":"8:33:00","departure_time":"8:33:00","lat":49.183143,"lon":16.669108,"is_passed":false},{"stop_id":"U1757Z2","name":"Vozovna Slatina","arrival_time":"8:34:00","departure_time":"8:34:00","lat":49.182866,"lon":16.673489,"is_passed":false},{"stop_id":"U1173Z2","name":"Hviezdoslavova","arrival_time":"8:35:00","departure_time":"8:35:00","lat":49.181664,"lon":16.677149,"is_passed":false},{"stop_id":"U1323Z2","name":"Langrova","arrival_time":"8:36:00","departure_time":"8:36:00","lat":49.17982,"lon":16.68105,"is_passed":false},{"stop_id":"U1382Z2","name":"Mikulčická","arrival_time":"8:37:00","departure_time":"8:37:00","lat":49.178227,"lon":16.684944,"is_passed":false},{"stop_id":"U1297Z2","name":"Kroměřížská","arrival_time":"8:38:00","departure_time":"8:38:00","lat":49.178988,"lon":16.689151,"is_passed":false},{"stop_id":"U1577Z1","name":"Slatina, sídliště","arrival_time":"8:40:00","departure_time":"9:05:00","lat":49.181827,"lon":16.690272,"is_passed":false}],"54518":[{"stop_id":"U1577Z2","name":"Slatina, sídliště","arrival_time":"9:05:00","departure_time":"9:05:00","lat":49.181605,"lon":16.690121,"is_passed":false},{"stop_id":"U1297Z1","name":"Kroměřížská","arrival_time":"9:06:00","departure_time":"9:06:00","lat":49.178307,"lon":16.688244,"is_passed":false},{"stop_id":"U1382Z1","name":"Mikulčická","arrival_time":"9:07:00","departure_time":"9:07:00","lat":49.178464,"lon":16.683602,"is_passed":false},{"stop_id":"U1323Z1","name":"Langrova","arrival_time":"9:08:00","departure_time":"9:08:00","lat":49.180031,"lon":16.680806,"is_passed":false},{"stop_id":"U1173Z1","name":"Hviezdoslavova","arrival_time":"9:09:00","departure_time":"9:09:00","lat":49.18219,"lon":16.676025,"is_passed":false},{"stop_id":"U1757Z1","name":"Vozovna Slatina","arrival_time":"9:10:00","departure_time":"9:10:00","lat":49.183032,"lon":16.672807,"is_passed":false},{"stop_id":"U1068Z1","name":"Černovičky","arrival_time":"9:12:00","departure_time":"9:12:00","lat":49.182244,"lon":16.66894,"is_passed":false},{"stop_id":"U1741Z1","name":"Vlárská","arrival_time":"9:13:00","departure_time":"9:13:00","lat":49.180745,"lon":16.671647,"is_passed":false},{"stop_id":"U1105Z4","name":"Ericha Roučky","arrival_time":"9:15:00","departure_time":"9:15:00","lat":49.175789,"lon":16.668403,"is_passed":false},{"stop_id":"U1739Z2","name":"Vlastimila Pecha","arrival_time":"9:16:00","departure_time":"9:16:00","lat":49.179751,"lon":16.662407,"is_passed":false},{"stop_id":"U1665Z2","name":"Těžební","arrival_time":"9:17:00","departure_time":"9:17:00","lat":49.182639,"lon":16.656437,"is_passed":false},{"stop_id":"U1455Z2","name":"Olomoucká - u školy","arrival_time":"9:19:00","departure_time":"9:19:00","lat":49.186437,"lon":16.652477,"is_passed":false},{"stop_id":"U1598Z2","name":"Spáčilova","arrival_time":"9:21:00","departure_time":"9:21:00","lat":49.188617,"lon":16.641569,"is_passed":false},{"stop_id":"U1814Z4","name":"Životského","arrival_time":"9:23:00","departure_time":"9:23:00","lat":49.190077,"lon":16.634992,"is_passed":false},{"stop_id":"U1372Z2","name":"Masná","arrival_time":"9:25:00","departure_time":"9:25:00","lat":49.191283,"lon":16.6245,"is_passed":false},{"stop_id":"U1746Z2","name":"Vlhká","arrival_time":"9:26:00","departure_time":"9:26:00","lat":49.191852,"lon":16.619157,"is_passed":false},{"stop_id":"U1146Z7","name":"Hlavní nádraží","arrival_time":"9:29:00","departure_time":"9:31:00","lat":49.19213,"lon":16.613467,"is_passed":false}],"54519":[{"stop_id":"U1146Z8","name":"Hlavní nádraží","arrival_time":"9:31:00","departure_time":"9:31:00","lat":49.191893,"lon":16.613334,"is_passed":false},{"stop_id":"U1746Z1","name":"Vlhká","arrival_time":"9:32:00","departure_time":"9:32:00","lat":49.191847,"lon":16.618976,"is_passed":false},{"stop_id":"U1372Z5","name":"Masná","arrival_time":"9:34:00","departure_time":"9:34:00","lat":49.191189,"lon":16.626548,"is_passed":false},{"stop_id":"U1677Z1","name":"Tržní","arrival_time":"9:36:00","departure_time":"9:36:00","lat":49.189973,"lon":16.632193,"is_passed":false},{"stop_id":"U1598Z1","name":"Spáčilova","arrival_time":"9:37:00","departure_time":"9:37:00","lat":49.188674,"lon":16.640942,"is_passed":false},{"stop_id":"U1455Z1","name":"Olomoucká - u školy","arrival_time":"9:39:00","departure_time":"9:39:00","lat":49.186169,"lon":16.652958,"is_passed":false},{"stop_id":"U1665Z1","name":"Těžební","arrival_time":"9:41:00","departure_time":"9:41:00","lat":49.181966,"lon":16.657236,"is_passed":false},{"stop_id":"U1739Z1","name":"Vlastimila Pecha","arrival_time":"9:42:00","departure_time":"9:42:00","lat":49.179379,"lon":16.662741,"is_passed":false},{"stop_id":"U1741Z2","name":"Vlárská","arrival_time":"9:46:00","departure_time":"9:46:00","lat":49.180702,"lon":16.672017,"is_passed":false},{"stop_id":"U1068Z3","name":"Černovičky","arrival_time":"9:48:00","departure_time":"9:48:00","lat":49.183143,"lon":16.669108,"is_passed":false},{"stop_id":"U1757Z2","name":"Vozovna Slatina","arrival_time":"9:49:00","departure_time":"9:49:00","lat":49.182866,"lon":16.673489,"is_passed":false},{"stop_id":"U1173Z2","name":"Hviezdoslavova","arrival_time":"9:50:00","departure_time":"9:50:00","lat":49.181664,"lon":16.677149,"is_passed":false},{"stop_id":"U1323Z2","name":"Langrova","arrival_time":"9:51:00","departure_time":"9:51:00","lat":49.17982,"lon":16.68105,"is_passed":false},{"stop_id":"U1382Z2","name":"Mikulčická","arrival_time":"9:52:00","departure_time":"9:52:00","lat":49.178227,"lon":16.684944,"is_passed":false},{"stop_id":"U1297Z2","name":"Kroměřížská","arrival_time":"9:53:00","departure_time":"9:53:00","lat":49.178988,"lon":16.689151,"is_passed":false},{"stop_id":"U1577Z1","name":"Slatina, sídliště","arrival_time":"9:55:00","departure_time":"10:20:00","lat":49.181827,"lon":16.690272,"is_passed":false}],"54520":[{"stop_id":"U1577Z2","name":"Slatina, sídliště","arrival_time":"10:20:00","departure_time":"10:20:00","lat":49.181605,"lon":16.690121,"is_passed":false},{"stop_id":"U1297Z1","name":"Kroměřížská","arrival_time":"10:21:00","departure_time":"10:21:00","lat":49.178307,"lon":16.688244,"is_passed":false},{"stop_id":"U1382Z1","name":"Mikulčická","arrival_time":"10:22:00","departure_time":"10:22:00","lat":49.178464,"lon":16.683602,"is_passed":false},{"stop_id":"U1323Z1","name":"Langrova","arrival_time":"10:23:00","departure_time":"10:23:00","lat":49.180031,"lon":16.680806,"is_passed":false},{"stop_id":"U1173Z1","name":"Hviezdoslavova","arrival_time":"10:24:00","departure_time":"10:24:00","lat":49.18219,"lon":16.676025,"is_passed":false},{"stop_id":"U1757Z1","name":"Vozovna Slatina","arrival_time":"10:25:00","departure_time":"10:25:00","lat":49.183032,"lon":16.672807,"is_passed":false},{"stop_id":"U1068Z1","name":"Černovičky","arrival_time":"10:27:00","departure_time":"10:27:00","lat":49.182244,"lon":16.66894,"is_passed":false},{"stop_id":"U1741Z1","name":"Vlárská","arrival_time":"10:28:00","departure_time":"10:28:00","lat":49.180745,"lon":16.671647,"is_passed":false},{"stop_id":"U1105Z4","name":"Ericha Roučky","arrival_time":"10:30:00","departure_time":"10:30:00","lat":49.175789,"lon":16.668403,"is_passed":false},{"stop_id":"U1739Z2","name":"Vlastimila Pecha","arrival_time":"10:31:00","departure_time":"10:31:00","lat":49.179751,"lon":16.662407,"is_passed":false},{"stop_id":"U1665Z2","name":"Těžební","arrival_time":"10:32:00","departure_time":"10:32:00","lat":49.182639,"lon":16.656437,"is_passed":false},{"stop_id":"U1455Z2","name":"Olomoucká - u školy","arrival_time":"10:34:00","departure_time":"10:34:00","lat":49.186437,"lon":16.652477,"is_passed":false},{"stop_id":"U1598Z2","name":"Spáčilova","arrival_time":"10:36:00","departure_time":"10:36:00","lat":49.188617,"lon":16.641569,"is_passed":false},{"stop_id":"U1814Z4","name":"Životského","arrival_time":"10:38:00","departure_time":"10:38:00","lat":49.190077,"lon":16.634992,"is_passed":false},{"stop_id":"U1372Z2","name":"Masná","arrival_time":"10:40:00","departure_time":"10:40:00","lat":49.191283,"lon":16.6245,"is_passed":false},{"stop_id":"U1746Z2","name":"Vlhká","arrival_time":"10:41:00","departure_time":"10:41:00","lat":49.191852,"lon":16.619157,"is_passed":false},{"stop_id":"U1146Z7","name":"Hlavní nádraží","arrival_time":"10:44:00","departure_time":"10:46:00","lat":49.19213,"lon":16.613467,"is_passed":false}],"54521":[{"stop_id":"U1146Z8","name":"Hlavní nádraží","arrival_time":"10:46:00","departure_time":"10:46:00","lat":49.191893,"lon":16.613334,"is_passed":false},{"stop_id":"U1746Z1","name":"Vlhká","arrival_time":"10:47:00","departure_time":"10:47:00","lat":49.191847,"lon":16.618976,"is_passed":false},{"stop_id":"U1372Z5","name":"Masná","arrival_time":"10:49:00","departure_time":"10:49:00","lat":49.191189,"lon":16.626548,"is_passed":false},{"stop_id":"U1677Z1","name":"Tržní","arrival_time":"10:51:00","departure_time":"10:51:00","lat":49.189973,"lon":16.632193,"is_passed":false},{"stop_id":"U1598Z1","name":"Spáčilova","arrival_time":"10:52:00","departure_time":"10:52:00","lat":49.188674,"lon":16.640942,"is_passed":false},{"stop_id":"U1455Z1","name":"Olomoucká - u školy","arrival_time":"10:54:00","departure_time":"10:54:00","lat":49.186169,"lon":16.652958,"is_passed":false},{"stop_id":"U1665Z1","name":"Těžební","arrival_time":"10:56:00","departure_time":"10:56:00","lat":49.181966,"lon":16.657236,"is_passed":false},{"stop_id":"U1739Z1","name":"Vlastimila Pecha","arrival_time":"10:57:00","departure_time":"10:57:00","lat":49.179379,"lon":16.662741,"is_passed":false},{"stop_id":"U1741Z2","name":"Vlárská","arrival_time":"11:01:00","departure_time":"11:01:00","lat":49.180702,"lon":16.672017,"is_passed":false},{"stop_id":"U1068Z3","name":"Černovičky","arrival_time":"11:03:00","departure_time":"11:03:00","lat":49.183143,"lon":16.669108,"is_passed":false},{"stop_id":"U1757Z2","name":"Vozovna Slatina","arrival_time":"11:04:00","departure_time":"11:04:00","lat":49.182866,"lon":16.673489,"is_passed":false},{"stop_id":"U1173Z2","name":"Hviezdoslavova","arrival_time":"11:05:00","departure_time":"11:05:00","lat":49.181664,"lon":16.677149,"is_passed":false},{"stop_id":"U1323Z2","name":"Langrova","arrival_time":"11:06:00","departure_time":"11:06:00","lat":49.17982,"lon":16.68105,"is_passed":false},{"stop_id":"U1382Z2","name":"Mikulčická","arrival_time":"11:07:00","departure_time":"11:07:00","lat":49.178227,"lon":16.684944,"is_passed":false},{"stop_id":"U1297Z2","name":"Kroměřížská","arrival_time":"11:08:00","departure_time":"11:08:00","lat":49.178988,"lon":16.689151,"is_passed":false},{"stop_id":"U1577Z1","name":"Slatina, sídliště","arrival_time":"11:10:00","departure_time":"11:35:00","lat":49.181827,"lon":16.690272,"is_passed":false}],"54522":[{"stop_id":"U1577Z2","name":"Slatina, sídliště","arrival_time":"11:35:00","departure_time":"11:35:00","lat":49.181605,"lon":16.690121,"is_passed":false},{"stop_id":"U1297Z1","name":"Kroměřížská","arrival_time":"11:36:00","departure_time":"11:36:00","lat":49.178307,"lon":16.688244,"is_passed":false},{"stop_id":"U1382Z1","name":"Mikulčická","arrival_time":"11:37:00","departure_time":"11:37:00","lat":49.178464,"lon":16.683602,"is_passed":false},{"stop_id":"U1323Z1","name":"Langrova","arrival_time":"11:38:00","departure_time":"11:38:00","lat":49.180031,"lon":16.680806,"is_passed":false},{"stop_id":"U1173Z1","name":"Hviezdoslavova","arrival_time":"11:39:00","departure_time":"11:39:00","lat":49.18219,"lon":16.676025,"is_passed":false},{"stop_id":"U1757Z1","name":"Vozovna Slatina","arrival_time":"11:40:00","departure_time":"11:40:00","lat":49.183032,"lon":16.672807,"is_passed":false},{"stop_id":"U1068Z1","name":"Černovičky","arrival_time":"11:42:00","departure_time":"11:42:00","lat":49.182244,"lon":16.66894,"is_passed":false},{"stop_id":"U1741Z1","name":"Vlárská","arrival_time":"11:43:00","departure_time":"11:43:00","lat":49.180745,"lon":16.671647,"is_passed":false},{"stop_id":"U1105Z4","name":"Ericha Roučky","arrival_time":"11:45:00","departure_time":"11:45:00","lat":49.175789,"lon":16.668403,"is_passed":false},{"stop_id":"U1739Z2","name":"Vlastimila Pecha","arrival_time":"11:46:00","departure_time":"11:46:00","lat":49.179751,"lon":16.662407,"is_passed":false},{"stop_id":"U1665Z2","name":"Těžební","arrival_time":"11:47:00","departure_time":"11:47:00","lat":49.182639,"lon":16.656437,"is_passed":false},{"stop_id":"U1455Z2","name":"Olomoucká - u školy","arrival_time":"11:49:00","departure_time":"11:49:00","lat":49.186437,"lon":16.652477,"is_passed":false},{"stop_id":"U1598Z2","name":"Spáčilova","arrival_time":"11:51:00","departure_time":"11:51:00","lat":49.188617,"lon":16.641569,"is_passed":false},{"stop_id":"U1814Z4","name":"Životského","arrival_time":"11:53:00","departure_time":"11:53:00","lat":49.190077,"lon":16.634992,"is_passed":false},{"stop_id":"U1372Z2","name":"Masná","arrival_time":"11:55:00","departure_time":"11:55:00","lat":49.191283,"lon":16.6245,"is_passed":false},{"stop_id":"U1746Z2","name":"Vlhká","arrival_time":"11:56:00","departure_time":"11:56:00","lat":49.191852,"lon":16.619157,"is_passed":false},{"stop_id":"U1146Z7","name":"Hlavní nádraží","arrival_time":"11:59:00","departure_time":"12:01:00","lat":49.19213,"lon":16.613467,"is_passed":false}],"54523":[{"stop_id":"U1146Z8","name":"Hlavní nádraží","arrival_time":"12:01:00","departure_time":"12:01:00","lat":49.191893,"lon":16.613334,"is_passed":false},{"stop_id":"U1746Z1","name":"Vlhká","arrival_time":"12:02:00","departure_time":"12:02:00","lat":49.191847,"lon":16.618976,"is_passed":false},{"stop_id":"U1372Z5","name":"Masná","arrival_time":"12:04:00","departure_time":"12:04:00","lat":49.191189,"lon":16.626548,"is_passed":false},{"stop_id":"U1677Z1","name":"Tržní","arrival_time":"12:06:00","departure_time":"12:06:00","lat":49.189973,"lon":16.632193,"is_passed":false},{"stop_id":"U1598Z1","name":"Spáčilova","arrival_time":"12:07:00","departure_time":"12:07:00","lat":49.188674,"lon":16.640942,"is_passed":false},{"stop_id":"U1455Z1","name":"Olomoucká - u školy","arrival_time":"12:09:00","departure_time":"12:09:00","lat":49.186169,"lon":16.652958,"is_passed":false},{"stop_id":"U1665Z1","name":"Těžební","arrival_time":"12:11:00","departure_time":"12:11:00","lat":49.181966,"lon":16.657236,"is_passed":false},{"stop_id":"U1739Z1","name":"Vlastimila Pecha","arrival_time":"12:12:00","departure_time":"12:12:00","lat":49.179379,"lon":16.662741,"is_passed":false},{"stop_id":"U1741Z2","name":"Vlárská","arrival_time":"12:16:00","departure_time":"12:16:00","lat":49.180702,"lon":16.672017,"is_passed":false},{"stop_id":"U1068Z3","name":"Černovičky","arrival_time":"12:18:00","departure_time":"12:18:00","lat":49.183143,"lon":16.669108,"is_passed":false},{"stop_id":"U1757Z2","name":"Vozovna Slatina","arrival_time":"12:19:00","departure_time":"12:19:00","lat":49.182866,"lon":16.673489,"is_passed":false},{"stop_id":"U1173Z2","name":"Hviezdoslavova","arrival_time":"12:20:00","departure_time":"12:20:00","lat":49.181664,"lon":16.677149,"is_passed":false},{"stop_id":"U1323Z2","name":"Langrova","arrival_time":"12:21:00","departure_time":"12:21:00","lat":49.17982,"lon":16.68105,"is_passed":false},{"stop_id":"U1382Z2","name":"Mikulčická","arrival_time":"12:22:00","departure_time":"12:22:00","lat":49.178227,"lon":16.684944,"is_passed":false},{"stop_id":"U1297Z2","name":"Kroměřížská","arrival_time":"12:23:00","departure_time":"12:23:00","lat":49.178988,"lon":16.689151,"is_passed":false},{"stop_id":"U1577Z1","name":"Slatina, sídliště","arrival_time":"12:25:00","departure_time":"12:50:00","lat":49.181827,"lon":16.690272,"is_passed":false}],"54524":[{"stop_id":"U1577Z2","name":"Slatina, sídliště","arrival_time":"12:50:00","departure_time":"12:50:00","lat":49.181605,"lon":16.690121,"is_passed":false},{"stop_id":"U1297Z1","name":"Kroměřížská","arrival_time":"12:51:00","departure_time":"12:51:00","lat":49.178307,"lon":16.688244,"is_passed":false},{"stop_id":"U1382Z1","name":"Mikulčická","arrival_time":"12:52:00","departure_time":"12:52:00","lat":49.178464,"lon":16.683602,"is_passed":false},{"stop_id":"U1323Z1","name":"Langrova","arrival_time":"12:53:00","departure_time":"12:53:00","lat":49.180031,"lon":16.680806,"is_passed":false},{"stop_id":"U1173Z1","name":"Hviezdoslavova","arrival_time":"12:54:00","departure_time":"12:54:00","lat":49.18219,"lon":16.676025,"is_passed":false},{"stop_id":"U1757Z1","name":"Vozovna Slatina","arrival_time":"12:55:00","departure_time":"12:55:00","lat":49.183032,"lon":16.672807,"is_passed":false},{"stop_id":"U1068Z1","name":"Černovičky","arrival_time":"12:57:00","departure_time":"12:57:00","lat":49.182244,"lon":16.66894,"is_passed":false},{"stop_id":"U1741Z1","name":"Vlárská","arrival_time":"12:58:00","departure_time":"12:58:00","lat":49.180745,"lon":16.671647,"is_passed":false},{"stop_id":"U1105Z4","name":"Ericha Roučky","arrival_time":"13:00:00","departure_time":"13:00:00","lat":49.175789,"lon":16.668403,"is_passed":false},{"stop_id":"U1739Z2","name":"Vlastimila Pecha","arrival_time":"13:01:00","departure_time":"13:01:00","lat":49.179751,"lon":16.662407,"is_passed":false},{"stop_id":"U1665Z2","name":"Těžební","arrival_time":"13:02:00","departure_time":"13:02:00","lat":49.182639,"lon":16.656437,"is_passed":false},{"stop_id":"U1455Z2","name":"Olomoucká - u školy","arrival_time":"13:04:00","departure_time":"13:04:00","lat":49.186437,"lon":16.652477,"is_passed":false},{"stop_id":"U1598Z2","name":"Spáčilova","arrival_time":"13:06:00","departure_time":"13:06:00","lat":49.188617,"lon":16.641569,"is_passed":false},{"stop_id":"U1814Z4","name":"Životského","arrival_time":"13:08:00","departure_time":"13:08:00","lat":49.190077,"lon":16.634992,"is_passed":false},{"stop_id":"U1372Z2","name":"Masná","arrival_time":"13:10:00","departure_time":"13:10:00","lat":49.191283,"lon":16.6245,"is_passed":false},{"stop_id":"U1746Z2","name":"Vlhká","arrival_time":"13:11:00","departure_time":"13:11:00","lat":49.191852,"lon":16.619157,"is_passed":false},{"stop_id":"U1146Z7","name":"Hlavní nádraží","arrival_time":"13:14:00","departure_time":"13:16:00","lat":49.19213,"lon":16.613467,"is_passed":false}],"54525":[{"stop_id":"U1146Z8","name":"Hlavní nádraží","arrival_time":"13:16:00","departure_time":"13:16:00","lat":49.191893,"lon":16.613334,"is_passed":false},{"stop_id":"U1746Z1","name":"Vlhká","arrival_time":"13:17:00","departure_time":"13:17:00","lat":49.191847,"lon":16.618976,"is_passed":false},{"stop_id":"U1372Z5","name":"Masná","arrival_time":"13:19:00","departure_time":"13:19:00","lat":49.191189,"lon":16.626548,"is_passed":false},{"stop_id":"U1677Z1","name":"Tržní","arrival_time":"13:21:00","departure_time":"13:21:00","lat":49.189973,"lon":16.632193,"is_passed":false},{"stop_id":"U1598Z1","name":"Spáčilova","arrival_time":"13:22:00","departure_time":"13:22:00","lat":49.188674,"lon":16.640942,"is_passed":false},{"stop_id":"U1455Z1","name":"Olomoucká - u školy","arrival_time":"13:24:00","departure_time":"13:24:00","lat":49.186169,"lon":16.652958,"is_passed":false},{"stop_id":"U1665Z1","name":"Těžební","arrival_time":"13:26:00","departure_time":"13:26:00","lat":49.181966,"lon":16.657236,"is_passed":false},{"stop_id":"U1739Z1","name":"Vlastimila Pecha","arrival_time":"13:27:00","departure_time":"13:27:00","lat":49.179379,"lon":16.662741,"is_passed":false},{"stop_id":"U1741Z2","name":"Vlárská","arrival_time":"13:31:00","departure_time":"13:31:00","lat":49.180702,"lon":16.672017,"is_passed":false},{"stop_id":"U1068Z3","name":"Černovičky","arrival_time":"13:33:00","departure_time":"13:33:00","lat":49.183143,"lon":16.669108,"is_passed":false},{"stop_id":"U1757Z2","name":"Vozovna Slatina","arrival_time":"13:34:00","departure_time":"13:34:00","lat":49.182866,"lon":16.673489,"is_passed":false},{"stop_id":"U1173Z2","name":"Hviezdoslavova","arrival_time":"13:35:00","departure_time":"13:35:00","lat":49.181664,"lon":16.677149,"is_passed":false},{"stop_id":"U1323Z2","name":"Langrova","arrival_time":"13:36:00","departure_time":"13:36:00","lat":49.17982,"lon":16.68105,"is_passed":false},{"stop_id":"U1382Z2","name":"Mikulčická","arrival_time":"13:37:00","departure_time":"13:37:00","lat":49.178227,"lon":16.684944,"is_passed":false},{"stop_id":"U1297Z2","name":"Kroměřížská","arrival_time":"13:38:00","departure_time":"13:38:00","lat":49.178988,"lon":16.689151,"is_passed":false},{"stop_id":"U1577Z1","name":"Slatina, sídliště","arrival_time":"13:40:00","departure_time":"14:01:00","lat":49.181827,"lon":16.690272,"is_passed":false}],"54526":[{"stop_id":"U1577Z2","name":"Slatina, sídliště","arrival_time":"14:01:00","departure_time":"14:01:00","lat":49.181605,"lon":16.690121,"is_passed":false},{"stop_id":"U1297Z1","name":"Kroměřížská","arrival_time":"14:02:00","departure_time":"14:02:00","lat":49.178307,"lon":16.688244,"is_passed":false},{"stop_id":"U1382Z1","name":"Mikulčická","arrival_time":"14:03:00","departure_time":"14:03:00","lat":49.178464,"lon":16.683602,"is_passed":false},{"stop_id":"U1323Z1","name":"Langrova","arrival_time":"14:04:00","departure_time":"14:04:00","lat":49.180031,"lon":16.680806,"is_passed":false},{"stop_id":"U1173Z1","name":"Hviezdoslavova","arrival_time":"14:05:00","departure_time":"14:05:00","lat":49.18219,"lon":16.676025,"is_passed":false},{"stop_id":"U1757Z1","name":"Vozovna Slatina","arrival_time":"14:06:00","departure_time":"14:06:00","lat":49.183032,"lon":16.672807,"is_passed":false},{"stop_id":"U1068Z1","name":"Černovičky","arrival_time":"14:08:00","departure_time":"14:08:00","lat":49.182244,"lon":16.66894,"is_passed":false},{"stop_id":"U1741Z1","name":"Vlárská","arrival_time":"14:09:00","departure_time":"14:09:00","lat":49.180745,"lon":16.671647,"is_passed":false},{"stop_id":"U1105Z4","name":"Ericha Roučky","arrival_time":"14:11:00","departure_time":"14:11:00","lat":49.175789,"lon":16.668403,"is_passed":false},{"stop_id":"U1739Z2","name":"Vlastimila Pecha","arrival_time":"14:12:00","departure_time":"14:12:00","lat":49.179751,"lon":16.662407,"is_passed":false},{"stop_id":"U1665Z2","name":"Těžební","arrival_time":"14:13:00","departure_time":"14:13:00","lat":49.182639,"lon":16.656437,"is_passed":false},{"stop_id":"U1455Z2","name":"Olomoucká - u školy","arrival_time":"14:15:00","departure_time":"14:15:00","lat":49.186437,"lon":16.652477,"is_passed":false},{"stop_id":"U1598Z2","name":"Spáčilova","arrival_time":"14:17:00","departure_time":"14:17:00","lat":49.188617,"lon":16.641569,"is_passed":false},{"stop_id":"U1814Z4","name":"Životského","arrival_time":"14:19:00","departure_time":"14:19:00","lat":49.190077,"lon":16.634992,"is_passed":false},{"stop_id":"U1372Z2","name":"Masná","arrival_time":"14:21:00","departure_time":"14:21:00","lat":49.191283,"lon":16.6245,"is_passed":false},{"stop_id":"U1746Z2","name":"Vlhká","arrival_time":"14:22:00","departure_time":"14:22:00","lat":49.191852,"lon":16.619157,"is_passed":false},{"stop_id":"U1146Z7","name":"Hlavní nádraží","arrival_time":"14:25:00","departure_time":"14:29:00","lat":49.19213,"lon":16.613467,"is_passed":false}],"54527":[{"stop_id":"U1146Z8","name":"Hlavní nádraží","arrival_time":"14:29:00","departure_time":"14:29:00","lat":49.191893,"lon":16.613334,"is_passed":false},{"stop_id":"U1746Z1","name":"Vlhká","arrival_time":"14:30:00","departure_time":"14:30:00","lat":49.191847,"lon":16.618976,"is_passed":false},{"stop_id":"U1372Z5","name":"Masná","arrival_time":"14:32:00","departure_time":"14:32:00","lat":49.191189,"lon":16.626548,"is_passed":false},{"stop_id":"U1677Z1","name":"Tržní","arrival_time":"14:34:00","departure_time":"14:34:00","lat":49.189973,"lon":16.632193,"is_passed":false},{"stop_id":"U1598Z1","name":"Spáčilova","arrival_time":"14:35:00","departure_time":"14:35:00","lat":49.188674,"lon":16.640942,"is_passed":false},{"stop_id":"U1455Z1","name":"Olomoucká - u školy","arrival_time":"14:37:00","departure_time":"14:37:00","lat":49.186169,"lon":16.652958,"is_passed":false},{"stop_id":"U1665Z1","name":"Těžební","arrival_time":"14:39:00","departure_time":"14:39:00","lat":49.181966,"lon":16.657236,"is_passed":false},{"stop_id":"U1739Z1","name":"Vlastimila Pecha","arrival_time":"14:40:00","departure_time":"14:40:00","lat":49.179379,"lon":16.662741,"is_passed":false},{"stop_id":"U1741Z2","name":"Vlárská","arrival_time":"14:44:00","departure_time":"14:44:00","lat":49.180702,"lon":16.672017,"is_passed":false},{"stop_id":"U1068Z3","name":"Černovičky","arrival_time":"14:46:00","departure_time":"14:46:00","lat":49.183143,"lon":16.669108,"is_passed":false},{"stop_id":"U1757Z2","name":"Vozovna Slatina","arrival_time":"14:47:00","departure_time":"14:47:00","lat":49.182866,"lon":16.673489,"is_passed":false},{"stop_id":"U1173Z2","name":"Hviezdoslavova","arrival_time":"14:48:00","departure_time":"14:48:00","lat":49.181664,"lon":16.677149,"is_passed":false},{"stop_id":"U1323Z2","name":"Langrova","arrival_time":"14:49:00","departure_time":"14:49:00","lat":49.17982,"lon":16.68105,"is_passed":false},{"stop_id":"U1382Z2","name":"Mikulčická","arrival_time":"14:50:00","departure_time":"14:50:00","lat":49.178227,"lon":16.684944,"is_passed":false},{"stop_id":"U1297Z2","name":"Kroměřížská","arrival_time":"14:51:00","departure_time":"14:51:00","lat":49.178988,"lon":16.689151,"is_passed":false},{"stop_id":"U1577Z1","name":"Slatina, sídliště","arrival_time":"14:53:00","departure_time":"15:11:00","lat":49.181827,"lon":16.690272,"is_passed":false}],"54528":[{"stop_id":"U1577Z2","name":"Slatina, sídliště","arrival_time":"15:11:00","departure_time":"15:11:00","lat":49.181605,"lon":16.690121,"is_passed":false},{"stop_id":"U1297Z1","name":"Kroměřížská","arrival_time":"15:12:00","departure_time":"15:12:00","lat":49.178307,"lon":16.688244,"is_passed":false},{"stop_id":"U1382Z1","name":"Mikulčická","arrival_time":"15:13:00","departure_time":"15:13:00","lat":49.178464,"lon":16.683602,"is_passed":false},{"stop_id":"U1323Z1","name":"Langrova","arrival_time":"15:14:00","departure_time":"15:14:00","lat":49.180031,"lon":16.680806,"is_passed":false},{"stop_id":"U1173Z1","name":"Hviezdoslavova","arrival_time":"15:15:00","departure_time":"15:15:00","lat":49.18219,"lon":16.676025,"is_passed":false},{"stop_id":"U1757Z1","name":"Vozovna Slatina","arrival_time":"15:16:00","departure_time":"15:16:00","lat":49.183032,"lon":16.672807,"is_passed":false},{"stop_id":"U1068Z1","name":"Černovičky","arrival_time":"15:18:00","departure_time":"15:18:00","lat":49.182244,"lon":16.66894,"is_passed":false},{"stop_id":"U1741Z1","name":"Vlárská","arrival_time":"15:19:00","departure_time":"15:19:00","lat":49.180745,"lon":16.671647,"is_passed":false},{"stop_id":"U1105Z4","name":"Ericha Roučky","arrival_time":"15:21:00","departure_time":"15:21:00","lat":49.175789,"lon":16.668403,"is_passed":false},{"stop_id":"U1739Z2","name":"Vlastimila Pecha","arrival_time":"15:22:00","departure_time":"15:22:00","lat":49.179751,"lon":16.662407,"is_passed":false},{"stop_id":"U1665Z2","name":"Těžební","arrival_time":"15:23:00","departure_time":"15:23:00","lat":49.182639,"lon":16.656437,"is_passed":false},{"stop_id":"U1455Z2","name":"Olomoucká - u školy","arrival_time":"15:25:00","departure_time":"15:25:00","lat":49.186437,"lon":16.652477,"is_passed":false},{"stop_id":"U1598Z2","name":"Spáčilova","arrival_time":"15:27:00","departure_time":"15:27:00","lat":49.188617,"lon":16.641569,"is_passed":false},{"stop_id":"U1814Z4","name":"Životského","arrival_time":"15:29:00","departure_time":"15:29:00","lat":49.190077,"lon":16.634992,"is_passed":false},{"stop_id":"U1372Z2","name":"Masná","arrival_time":"15:31:00","departure_time":"15:31:00","lat":49.191283,"lon":16.6245,"is_passed":false},{"stop_id":"U1746Z2","name":"Vlhká","arrival_time":"15:32:00","departure_time":"15:32:00","lat":49.191852,"lon":16.619157,"is_passed":false},{"stop_id":"U1146Z7","name":"Hlavní nádraží","arrival_time":"15:35:00","departure_time":"15:35:00","lat":49.19213,"lon":16.613467,"is_passed":false}],"54529":[{"stop_id":"U1146Z8","name":"Hlavní nádraží","arrival_time":"15:39:00","departure_time":"15:39:00","lat":49.191893,"lon":16.613334,"is_passed":false},{"stop_id":"U1746Z1","name":"Vlhká","arrival_time":"15:40:00","departure_time":"15:40:00","lat":49.191847,"lon":16.618976,"is_passed":false},{"stop_id":"U1372Z5","name":"Masná","arrival_time":"15:42:00","departure_time":"15:42:00","lat":49.191189,"lon":16.626548,"is_passed":false},{"stop_id":"U1677Z1","name":"Tržní","arrival_time":"15:44:00","departure_time":"15:44:00","lat":49.189973,"lon":16.632193,"is_passed":false},{"stop_id":"U1068Z3","name":"Černovičky","arrival_time":"15:49:00","departure_time":"15:49:00","lat":49.183143,"lon":16.669108,"is_passed":false},{"stop_id":"U1757Z2","name":"Vozovna Slatina","arrival_time":"15:50:00","departure_time":"15:50:00","lat":49.182866,"lon":16.673489,"is_passed":false},{"stop_id":"U1173Z2","name":"Hviezdoslavova","arrival_time":"15:51:00","departure_time":"15:51:00","lat":49.181664,"lon":16.677149,"is_passed":false},{"stop_id":"U1323Z2","name":"Langrova","arrival_time":"15:52:00","departure_time":"15:52:00","lat":49.17982,"lon":16.68105,"is_passed":false},{"stop_id":"U1382Z2","name":"Mikulčická","arrival_time":"15:53:00","departure_time":"15:53:00","lat":49.178227,"lon":16.684944,"is_passed":false},{"stop_id":"U1297Z2","name":"Kroměřížská","arrival_time":"15:54:00","departure_time":"15:54:00","lat":49.178988,"lon":16.689151,"is_passed":false},{"stop_id":"U1577Z1","name":"Slatina, sídliště","arrival_time":"15:56:00","departure_time":"15:56:00","lat":49.181827,"lon":16.690272,"is_passed":false}],"54530":[{"stop_id":"U1577Z2","name":"Slatina, sídliště","arrival_time":"16:26:00","departure_time":"16:26:00","lat":49.181605,"lon":16.690121,"is_passed":false},{"stop_id":"U1297Z1","name":"Kroměřížská","arrival_time":"16:27:00","departure_time":"16:27:00","lat":49.178307,"lon":16.688244,"is_passed":false},{"stop_id":"U1382Z1","name":"Mikulčická","arrival_time":"16:28:00","departure_time":"16:28:00","lat":49.178464,"lon":16.683602,"is_passed":false},{"stop_id":"U1323Z1","name":"Langrova","arrival_time":"16:29:00","departure_time":"16:29:00","lat":49.180031,"lon":16.680806,"is_passed":false},{"stop_id":"U1173Z1","name":"Hviezdoslavova","arrival_time":"16:30:00","departure_time":"16:30:00","lat":49.18219,"lon":16.676025,"is_passed":false},{"stop_id":"U1757Z1","name":"Vozovna Slatina","arrival_time":"16:31:00","departure_time":"16:31:00","lat":49.183032,"lon":16.672807,"is_passed":false},{"stop_id":"U1068Z1","name":"Černovičky","arrival_time":"16:33:00","departure_time":"16:33:00","lat":49.182244,"lon":16.66894,"is_passed":false},{"stop_id":"U1741Z1","name":"Vlárská","arrival_time":"16:34:00","departure_time":"16:34:00","lat":49.180745,"lon":16.671647,"is_passed":false},{"stop_id":"U1105Z4","name":"Ericha Roučky","arrival_time":"16:36:00","departure_time":"16:36:00","lat":49.175789,"lon":16.668403,"is_passed":false},{"stop_id":"U1739Z2","name":"Vlastimila Pecha","arrival_time":"16:37:00","departure_time":"16:37:00","lat":49.179751,"lon":16.662407,"is_passed":false},{"stop_id":"U1665Z2","name":"Těžební","arrival_time":"16:38:00","departure_time":"16:38:00","lat":49.182639,"lon":16.656437,"is_passed":false},{"stop_id":"U1455Z2","name":"Olomoucká - u školy","arrival_time":"16:40:00","departure_time":"16:40:00","lat":49.186437,"lon":16.652477,"is_passed":false},{"stop_id":"U1598Z2","name":"Spáčilova","arrival_time":"16:42:00","departure_time":"16:42:00","lat":49.188617,"lon":16.641569,"is_passed":false},{"stop_id":"U1814Z4","name":"Životského","arrival_time":"16:44:00","departure_time":"16:44:00","lat":49.190077,"lon":16.634992,"is_passed":false},{"stop_id":"U1372Z2","name":"Masná","arrival_time":"16:46:00","departure_time":"16:46:00","lat":49.191283,"lon":16.6245,"is_passed":false},{"stop_id":"U1746Z2","name":"Vlhká","arrival_time":"16:47:00","departure_time":"16:47:00","lat":49.191852,"lon":16.619157,"is_passed":false},{"stop_id":"U1146Z7","name":"Hlavní nádraží","arrival_time":"16:50:00","departure_time":"16:59:00","lat":49.19213,"lon":16.613467,"is_passed":false}],"54531":[{"stop_id":"U1146Z8","name":"Hlavní nádraží","arrival_time":"16:59:00","departure_time":"16:59:00","lat":49.191893,"lon":16.613334,"is_passed":false},{"stop_id":"U1746Z1","name":"Vlhká","arrival_time":"17:00:00","departure_time":"17:00:00","lat":49.191847,"lon":16.618976,"is_passed":false},{"stop_id":"U1372Z5","name":"Masná","arrival_time":"17:02:00","departure_time":"17:02:00","lat":49.191189,"lon":16.626548,"is_passed":false},{"stop_id":"U1677Z1","name":"Tržní","arrival_time":"17:04:00","departure_time":"17:04:00","lat":49.189973,"lon":16.632193,"is_passed":false},{"stop_id":"U1598Z1","name":"Spáčilova","arrival_time":"17:05:00","departure_time":"17:05:00","lat":49.188674,"lon":16.640942,"is_passed":false},{"stop_id":"U1455Z1","name":"Olomoucká - u školy","arrival_time":"17:07:00","departure_time":"17:07:00","lat":49.186169,"lon":16.652958,"is_passed":false},{"stop_id":"U1665Z1","name":"Těžební","arrival_time":"17:09:00","departure_time":"17:09:00","lat":49.181966,"lon":16.657236,"is_passed":false},{"stop_id":"U1739Z1","name":"Vlastimila Pecha","arrival_time":"17:10:00","departure_time":"17:10:00","lat":49.179379,"lon":16.662741,"is_passed":false},{"stop_id":"U1741Z2","name":"Vlárská","arrival_time":"17:14:00","departure_time":"17:14:00","lat":49.180702,"lon":16.672017,"is_passed":false},{"stop_id":"U1068Z3","name":"Černovičky","arrival_time":"17:16:00","departure_time":"17:16:00","lat":49.183143,"lon":16.669108,"is_passed":false},{"stop_id":"U1757Z2","name":"Vozovna Slatina","arrival_time":"17:17:00","departure_time":"17:17:00","lat":49.182866,"lon":16.673489,"is_passed":false},{"stop_id":"U1173Z2","name":"Hviezdoslavova","arrival_time":"17:18:00","departure_time":"17:18:00","lat":49.181664,"lon":16.677149,"is_passed":false},{"stop_id":"U1323Z2","name":"Langrova","arrival_time":"17:19:00","departure_time":"17:19:00","lat":49.17982,"lon":16.68105,"is_passed":false},{"stop_id":"U1382Z2","name":"Mikulčická","arrival_time":"17:20:00","departure_time":"17:20:00","lat":49.178227,"lon":16.684944,"is_passed":false},{"stop_id":"U1297Z2","name":"Kroměřížská","arrival_time":"17:21:00","departure_time":"17:21:00","lat":49.178988,"lon":16.689151,"is_passed":false},{"stop_id":"U1577Z1","name":"Slatina, sídliště","arrival_time":"17:23:00","departure_time":"17:41:00","lat":49.181827,"lon":16.690272,"is_passed":false}],"54532":[{"stop_id":"U1577Z2","name":"Slatina, sídliště","arrival_time":"17:41:00","departure_time":"17:41:00","lat":49.181605,"lon":16.690121,"is_passed":false},{"stop_id":"U1297Z1","name":"Kroměřížská","arrival_time":"17:42:00","departure_time":"17:42:00","lat":49.178307,"lon":16.688244,"is_passed":false},{"stop_id":"U1382Z1","name":"Mikulčická","arrival_time":"17:43:00","departure_time":"17:43:00","lat":49.178464,"lon":16.683602,"is_passed":false},{"stop_id":"U1323Z1","name":"Langrova","arrival_time":"17:44:00","departure_time":"17:44:00","lat":49.180031,"lon":16.680806,"is_passed":false},{"stop_id":"U1173Z1","name":"Hviezdoslavova","arrival_time":"17:45:00","departure_time":"17:45:00","lat":49.18219,"lon":16.676025,"is_passed":false},{"stop_id":"U1757Z1","name":"Vozovna Slatina","arrival_time":"17:46:00","departure_time":"17:46:00","lat":49.183032,"lon":16.672807,"is_passed":false},{"stop_id":"U1068Z1","name":"Černovičky","arrival_time":"17:48:00","departure_time":"17:48:00","lat":49.182244,"lon":16.66894,"is_passed":false},{"stop_id":"U1741Z1","name":"Vlárská","arrival_time":"17:49:00","departure_time":"17:49:00","lat":49.180745,"lon":16.671647,"is_passed":false},{"stop_id":"U1105Z4","name":"Ericha Roučky","arrival_time":"17:51:00","departure_time":"17:51:00","lat":49.175789,"lon":16.668403,"is_passed":false},{"stop_id":"U1739Z2","name":"Vlastimila Pecha","arrival_time":"17:52:00","departure_time":"17:52:00","lat":49.179751,"lon":16.662407,"is_passed":false},{"stop_id":"U1665Z2","name":"Těžební","arrival_time":"17:53:00","departure_time":"17:53:00","lat":49.182639,"lon":16.656437,"is_passed":false},{"stop_id":"U1455Z2","name":"Olomoucká - u školy","arrival_time":"17:55:00","departure_time":"17:55:00","lat":49.186437,"lon":16.652477,"is_passed":false},{"stop_id":"U1598Z2","name":"Spáčilova","arrival_time":"17:57:00","departure_time":"17:57:00","lat":49.188617,"lon":16.641569,"is_passed":false},{"stop_id":"U1814Z4","name":"Životského","arrival_time":"17:59:00","departure_time":"17:59:00","lat":49.190077,"lon":16.634992,"is_passed":false},{"stop_id":"U1372Z2","name":"Masná","arrival_time":"18:01:00","departure_time":"18:01:00","lat":49.191283,"lon":16.6245,"is_passed":false},{"stop_id":"U1746Z2","name":"Vlhká","arrival_time":"18:02:00","departure_time":"18:02:00","lat":49.191852,"lon":16.619157,"is_passed":false},