{"546":[{"stop_id":"U16228Z12","name":"Holubice, žel.st.","arrival_time":"15:53:00","departure_time":"15:53:00","lat":49.179869,"lon":16.824654,"is_passed":false},{"stop_id":"U16212Z10","name":"Křenovice, hor. žel. st.","arrival_time":"15:57:00","departure_time":"15:58:00","lat":49.143553,"lon":16.824564,"is_passed":false},{"stop_id":"U26201Z1","name":"Zbýšov","arrival_time":"16:00:00","departure_time":"16:01:00","lat":49.132691,"lon":16.806859,"is_passed":false},{"stop_id":"U26102Z1","name":"Hostěrádky-Rešov","arrival_time":"16:03:00","departure_time":"16:04:00","lat":49.119822,"lon":16.782755,"is_passed":false},{"stop_id":"U26101Z1","name":"Újezd u Brna","arrival_time":"16:07:00","departure_time":"16:07:00","lat":49.107297,"lon":16.745564,"is_passed":false},{"stop_id":"U16149Z10","name":"Sokolnice, železniční stanice","arrival_time":"16:09:00","departure_time":"16:10:00","lat":49.108029,"lon":16.733459,"is_passed":false},{"stop_id":"U1183Z10","name":"Chrlice, nádraží","arrival_time":"16:15:00","departure_time":"16:16:00","lat":49.132031,"lon":16.657232,"is_passed":false},{"stop_id":"U1146Z99","name":"Hlavní nádraží","arrival_time":"16:26:00","departure_time":"16:29:00","lat":49.19035,"lon":16.612342,"is_passed":false},{"stop_id":"U1809Z10","name":"Židenice, nádraží","arrival_time":"16:33:00","departure_time":"16:34:00","lat":49.204282,"lon":16.636042,"is_passed":false},{"stop_id":"U12158Z10","name":"Bílovice nad Svitavou, žel. stanice","arrival_time":"16:39:00","departure_time":"16:40:00","lat":49.242715,"lon":16.673677,"is_passed":false},{"stop_id":"U22101Z1","name":"Babice nad Svitavou","arrival_time":"16:44:00","departure_time":"16:44:00","lat":49.276645,"lon":16.673012,"is_passed":false},{"stop_id":"U12230Z10","name":"Adamov, železniční stanice","arrival_time":"16:47:00","departure_time":"16:48:00","lat":49.295341,"lon":16.663538,"is_passed":false},{"stop_id":"U12231Z10","name":"Adamov, železniční zastávka","arrival_time":"16:50:00","departure_time":"16:50:00","lat":49.300671,"lon":16.650653,"is_passed":false},{"stop_id":"U12342Z30","name":"Blansko, aut. st.","arrival_time":"16:56:00","departure_time":"16:57:00","lat":49.352753,"lon":16.646848,"is_passed":false},{"stop_id":"U22302Z1","name":"Blansko město","arrival_time":"16:59:00","departure_time":"17:00:00","lat":49.360996,"lon":16.639464,"is_passed":false},{"stop_id":"U22301Z1","name":"Dolní Lhota","arrival_time":"17:02:00","departure_time":"17:03:00","lat":49.386917,"lon":16.633978,"is_passed":false},{"stop_id":"U12439Z50","name":"Rájec-Jestřebí, železniční stanice","arrival_time":"17:06:00","departure_time":"17:10:00","lat":49.408206,"lon":16.627711,"is_passed":false},{"stop_id":"U12511Z50","name":"Doubravice, žel.st.","arrival_time":"17:13:00","departure_time":"17:13:00","lat":49.438707,"lon":16.621809,"is_passed":false},{"stop_id":"U12676Z50","name":"Skalice nad Svitavou, žel.st.","arrival_time":"17:19:00","departure_time":"17:40:00","lat":49.480123,"lon":16.609726,"is_passed":false}],"5460":[{"stop_id":"U15116Z2","name":"Nebovidy, dolní konec","arrival_time":"22:06:00","departure_time":"22:06:00","lat":49.141953,"lon":16.54915,"is_passed":false},{"stop_id":"U15118Z2","name":"Nebovidy, u kostela","arrival_time":"22:07:00","departure_time":"22:07:00","lat":49.141783,"lon":16.554006,"is_passed":false},{"stop_id":"U15114Z2","name":"Moravany, Hlavní","arrival_time":"22:11:00","departure_time":"22:11:00","lat":49.147097,"lon":16.578552,"is_passed":false},{"stop_id":"U15113Z2","name":"Moravany, Bohunická cesta","arrival_time":"22:12:00","departure_time":"22:12:00","lat":49.151006,"lon":16.583777,"is_passed":false},{"stop_id":"U1549Z2","name":"Rozhraní","arrival_time":"22:13:00","departure_time":"22:13:00","lat":49.155698,"lon":16.592118,"is_passed":false},{"stop_id":"U1466Z55","name":"Ořechovská","arrival_time":"22:15:00","departure_time":"22:15:00","lat":49.156238,"lon":16.599375,"is_passed":false},{"stop_id":"U1141Z2","name":"Heršpická","arrival_time":"22:18:00","departure_time":"22:18:00","lat":49.170473,"lon":16.599896,"is_passed":false},{"stop_id":"U1703Z5","name":"Ústřední hřbitov","arrival_time":"22:22:00","departure_time":"22:22:00","lat":49.171604,"lon":16.597316,"is_passed":false}],"5461":[{"stop_id":"U1703Z6","name":"Ústřední hřbitov","arrival_time":"22:22:00","departure_time":"22:22:00","lat":49.170744,"lon":16.597612,"is_passed":false},{"stop_id":"U1466Z5","name":"Ořechovská","arrival_time":"22:25:00","departure_time":"22:25:00","lat":49.156238,"lon":16.599375,"is_passed":false},{"stop_id":"U1549Z1","name":"Rozhraní","arrival_time":"22:26:00","departure_time":"22:26:00","lat":49.155854,"lon":16.592288,"is_passed":false},{"stop_id":"U15113Z1","name":"Moravany, Bohunická cesta","arrival_time":"22:27:00","departure_time":"22:27:00","lat":49.15089,"lon":16.583503,"is_passed":false},{"stop_id":"U15114Z1","name":"Moravany, Hlavní","arrival_time":"22:28:00","departure_time":"22:28:00","lat":49.147228,"lon":16.578896,"is_passed":false},{"stop_id":"U15115Z1","name":"Moravany, Nebovidská","arrival_time":"22:29:00","departure_time":"22:29:00","lat":49.147983,"lon":16.569237,"is_passed":false},{"stop_id":"U15118Z1","name":"Nebovidy, u kostela","arrival_time":"22:31:00","departure_time":"22:31:00","lat":49.141636,"lon":16.553667,"is_passed":false},{"stop_id":"U15116Z1","name":"Nebovidy, dolní konec","arrival_time":"22:32:00","departure_time":"22:36:00","lat":49.142128,"lon":16.549075,"is_passed":false}],"5462":[{"stop_id":"U15116Z2","name":"Nebovidy, dolní konec","arrival_time":"22:36:00","departure_time":"22:36:00","lat":49.141953,"lon":16.54915,"is_passed":false},{"stop_id":"U15118Z2","name":"Nebovidy, u kostela","arrival_time":"22:37:00","departure_time":"22:37:00","lat":49.141783,"lon":16.554006,"is_passed":false},{"stop_id":"U15114Z2","name":"Moravany, Hlavní","arrival_time":"22:41:00","departure_time":"22:41:00","lat":49.147097,"lon":16.578552,"is_passed":false},{"stop_id":"U15113Z2","name":"Moravany, Bohunická cesta","arrival_time":"22:42:00","departure_time":"22:42:00","lat":49.151006,"lon":16.583777,"is_passed":false},{"stop_id":"U1549Z2","name":"Rozhraní","arrival_time":"22:43:00","departure_time":"22:43:00","lat":49.155698,"lon":16.592118,"is_passed":false},{"stop_id":"U1466Z55","name":"Ořechovská","arrival_time":"22:45:00","departure_time":"22:45:00","lat":49.156238,"lon":16.599375,"is_passed":false},{"stop_id":"U1141Z2","name":"Heršpická","arrival_time":"22:48:00","departure_time":"22:48:00","lat":49.170473,"lon":16.599896,"is_passed":false},{"stop_id":"U1703Z5","name":"Ústřední hřbitov","arrival_time":"22:52:00","departure_time":"23:04:00","lat":49.171604,"lon":16.597316,"is_passed":false}],"5463":[{"stop_id":"U1703Z6","name":"Ústřední hřbitov","arrival_time":"23:04:00","departure_time":"23:04:00","lat":49.170744,"lon":16.597612,"is_passed":false},{"stop_id":"U1466Z5","name":"Ořechovská","arrival_time":"23:07:00","departure_time":"23:07:00","lat":49.156238,"lon":16.599375,"is_passed":false},{"stop_id":"U1549Z1","name":"Rozhraní","arrival_time":"23:08:00","departure_time":"23:08:00","lat":49.155854,"lon":16.592288,"is_passed":false},{"stop_id":"U15113Z1","name":"Moravany, Bohunická cesta","arrival_time":"23:09:00","departure_time":"23:09:00","lat":49.15089,"lon":16.583503,"is_passed":false},{"stop_id":"U15114Z1","name":"Moravany, Hlavní","arrival_time":"23:10:00","departure_time":"23:10:00","lat":49.147228,"lon":16.578896,"is_passed":false},{"stop_id":"U15115Z1","name":"Moravany, Nebovidská","arrival_time":"23:11:00","departure_time":"23:11:00","lat":49.147983,"lon":16.569237,"is_passed":false},{"stop_id":"U15118Z1","name":"Nebovidy, u kostela","arrival_time":"23:13:00","departure_time":"23:13:00","lat":49.141636,"lon":16.553667,"is_passed":false},{"stop_id":"U15116Z1","name":"Nebovidy, dolní konec","arrival_time":"23:14:00","departure_time":"23:14:00","lat":49.142128,"lon":16.549075,"is_passed":false}],"5464":[{"stop_id":"U15116Z2","name":"Nebovidy, dolní konec","arrival_time":"5:19:00","departure_time":"5:19:00","lat":49.141953,"lon":16.54915,"is_passed":false},{"stop_id":"U15118Z2","name":"Nebovidy, u kostela","arrival_time":"5:20:00","departure_time":"5:20:00","lat":49.141783,"lon":16.554006,"is_passed":false},{"stop_id":"U15114Z2","name":"Moravany, Hlavní","arrival_time":"5:24:00","departure_time":"5:24:00","lat":49.147097,"lon":16.578552,"is_passed":false},{"stop_id":"U15113Z2","name":"Moravany, Bohunická cesta","arrival_time":"5:25:00","departure_time":"5:25:00","lat":49.151006,"lon":16.583777,"is_passed":false},{"stop_id":"U1549Z2","name":"Rozhraní","arrival_time":"5:26:00","departure_time":"5:26:00","lat":49.155698,"lon":16.592118,"is_passed":false},{"stop_id":"U1466Z55","name":"Ořechovská","arrival_time":"5:28:00","departure_time":"5:28:00","lat":49.156238,"lon":16.599375,"is_passed":false},{"stop_id":"U1141Z2","name":"Heršpická","arrival_time":"5:31:00","departure_time":"5:31:00","lat":49.170473,"lon":16.599896,"is_passed":false},{"stop_id":"U1703Z5","name":"Ústřední hřbitov","arrival_time":"5:35:00","departure_time":"5:52:00","lat":49.171604,"lon":16.597316,"is_passed":false}],"5465":[{"stop_id":"U1703Z6","name":"Ústřední hřbitov","arrival_time":"5:52:00","departure_time":"5:52:00","lat":49.170744,"lon":16.597612,"is_passed":false},{"stop_id":"U1466Z5","name":"Ořechovská","arrival_time":"5:54:00","departure_time":"5:54:00","lat":49.156238,"lon":16.599375,"is_passed":false},{"stop_id":"U1549Z1","name":"Rozhraní","arrival_time":"5:55:00","departure_time":"5:55:00","lat":49.155854,"lon":16.592288,"is_passed":false},{"stop_id":"U15113Z1","name":"Moravany, Bohunická cesta","arrival_time":"5:56:00","departure_time":"5:56:00","lat":49.15089,"lon":16.583503,"is_passed":false},{"stop_id":"U15114Z1","name":"Moravany, Hlavní","arrival_time":"5:57:00","departure_time":"5:57:00","lat":49.147228,"lon":16.578896,"is_passed":false},{"stop_id":"U15115Z1","name":"Moravany, Nebovidská","arrival_time":"5:58:00","departure_time":"5:58:00","lat":49.147983,"lon":16.569237,"is_passed":false},{"stop_id":"U15118Z1","name":"Nebovidy, u kostela","arrival_time":"6:00:00","departure_time":"6:00:00","lat":49.141636,"lon":16.553667,"is_passed":false},{"stop_id":"U15116Z1","name":"Nebovidy, dolní konec","arrival_time":"6:01:00","departure_time":"6:24:00","lat":49.142128,"lon":16.549075,"is_passed":false}],"5466":[{"stop_id":"U15116Z2","name":"Nebovidy, dolní konec","arrival_time":"6:24:00","departure_time":"6:24:00","lat":49.141953,"lon":16.54915,"is_passed":false},{"stop_id":"U15118Z2","name":"Nebovidy, u kostela","arrival_time":"6:25:00","departure_time":"6:25:00","lat":49.141783,"lon":16.554006,"is_passed":false},{"stop_id":"U15114Z2","name":"Moravany, Hlavní","arrival_time":"6:29:00","departure_time":"6:29:00","lat":49.147097,"lon":16.578552,"is_passed":false},{"stop_id":"U15113Z2","name":"Moravany, Bohunická cesta","arrival_time":"6:30:00","departure_time":"6:30:00","lat":49.151006,"lon":16.583777,"is_passed":false},{"stop_id":"U1549Z2","name":"Rozhraní","arrival_time":"6:31:00","departure_time":"6:31:00","lat":49.155698,"lon":16.592118,"is_passed":false},{"stop_id":"U1466Z55","name":"Ořechovská","arrival_time":"6:33:00","departure_time":"6:33:00","lat":49.156238,"lon":16.599375,"is_passed":false},{"stop_id":"U1141Z2","name":"Heršpická","arrival_time":"6:36:00","departure_time":"6:36:00","lat":49.170473,"lon":16.599896,"is_passed":false},{"stop_id":"U1703Z5","name":"Ústřední hřbitov","arrival_time":"6:40:00","departure_time":"6:47:00","lat":49.171604,"lon":16.597316,"is_passed":false}],"5467":[{"stop_id":"U1703Z6","name":"Ústřední hřbitov","arrival_time":"6:47:00","departure_time":"6:47:00","lat":49.170744,"lon":16.597612,"is_passed":false},{"stop_id":"U1466Z5","name":"Ořechovská","arrival_time":"6:49:00","departure_time":"6:49:00","lat":49.156238,"lon":16.599375,"is_passed":false},{"stop_id":"U1549Z1","name":"Rozhraní","arrival_time":"6:50:00","departure_time":"6:50:00","lat":49.155854,"lon":16.592288,"is_passed":false},{"stop_id":"U15113Z1","name":"Moravany, Bohunická cesta","arrival_time":"6:51:00","departure_time":"6:51:00","lat":49.15089,"lon":16.583503,"is_passed":false},{"stop_id":"U15114Z1","name":"Moravany, Hlavní","arrival_time":"6:52:00","departure_time":"6:52:00","lat":49.147228,"lon":16.578896,"is_passed":false},{"stop_id":"U15115Z1","name":"Moravany, Nebovidská","arrival_time":"6:53:00","departure_time":"6:53:00","lat":49.147983,"lon":16.569237,"is_passed":false},{"stop_id":"U15118Z1","name":"Nebovidy, u kostela","arrival_time":"6:55:00","departure_time":"6:55:00","lat":49.141636,"lon":16.553667,"is_passed":false},{"stop_id":"U15116Z1","name":"Nebovidy, dolní konec","arrival_time":"6:56:00","departure_time":"6:59:00","lat":49.142128,"lon":16.549075,"is_passed":false}],"5468":[{"stop_id":"U15116Z2","name":"Nebovidy, dolní konec","arrival_time":"6:59:00","departure_time":"6:59:00","lat":49.141953,"lon":16.54915,"is_passed":false},{"stop_id":"U15118Z2","name":"Nebovidy, u kostela","arrival_time":"6:59:00","departure_time":"6:59:00","lat":49.141783,"lon":16.554006,"is_passed":false},{"stop_id":"U15114Z2","name":"Moravany, Hlavní","arrival_time":"7:03:00","departure_time":"7:03:00","lat":49.147097,"lon":16.578552,"is_passed":false},{"stop_id":"U15113Z2","name":"Moravany, Bohunická cesta","arrival_time":"7:04:00","departure_time":"7:04:00","lat":49.151006,"lon":16.583777,"is_passed":false},{"stop_id":"U1549Z2","name":"Rozhraní","arrival_time":"7:05:00","departure_time":"7:05:00","lat":49.155698,"lon":16.592118,"is_passed":false},{"stop_id":"U1466Z55","name":"Ořechovská","arrival_time":"7:07:00","departure_time":"7:07:00","lat":49.156238,"lon":16.599375,"is_passed":false},{"stop_id":"U1141Z2","name":"Heršpická","arrival_time":"7:10:00","departure_time":"7:10:00","lat":49.170473,"lon":16.599896,"is_passed":false},{"stop_id":"U1703Z5","name":"Ústřední hřbitov","arrival_time":"7:14:00","departure_time":"7:57:00","lat":49.171604,"lon":16.597316,"is_passed":false}],"5469":[{"stop_id":"U1703Z6","name":"Ústřední hřbitov","arrival_time":"7:57:00","departure_time":"7:57:00","lat":49.170744,"lon":16.597612,"is_passed":false},{"stop_id":"U1466Z5","name":"Ořechovská","arrival_time":"8:00:00","departure_time":"8:00:00","lat":49.156238,"lon":16.599375,"is_passed":false},{"stop_id":"U1549Z1","name":"Rozhraní","arrival_time":"8:01:00","departure_time":"8:01:00","lat":49.155854,"lon":16.592288,"is_passed":false},{"stop_id":"U15113Z1","name":"Moravany, Bohunická cesta","arrival_time":"8:02:00","departure_time":"8:02:00","lat":49.15089,"lon":16.583503,"is_passed":false},{"stop_id":"U15114Z1","name":"Moravany, Hlavní","arrival_time":"8:03:00","departure_time":"8:03:00","lat":49.147228,"lon":16.578896,"is_passed":false},{"stop_id":"U15115Z1","name":"Moravany, Nebovidská","arrival_time":"8:04:00","departure_time":"8:04:00","lat":49.147983,"lon":16.569237,"is_passed":false},{"stop_id":"U15118Z1","name":"Nebovidy, u kostela","arrival_time":"8:06:00","departure_time":"8:06:00","lat":49.141636,"lon":16.553667,"is_passed":false},{"stop_id":"U15116Z1","name":"Nebovidy, dolní konec","arrival_time":"8:07:00","departure_time":"8:34:00","lat":49.142128,"lon":16.549075,"is_passed":false}],"54600":[{"stop_id":"U1146Z8","name":"Hlavní nádraží","arrival_time":"10:31:00","departure_time":"10:31:00","lat":49.191893,"lon":16.613334,"is_passed":false},{"stop_id":"U1746Z1","name":"Vlhká","arrival_time":"10:32:00","departure_time":"10:32:00","lat":49.191847,"lon":16.618976,"is_passed":false},{"stop_id":"U1372Z5","name":"Masná","arrival_time":"10:34:00","departure_time":"10:34:00","lat":49.191189,"lon":16.626548,"is_passed":false},{"stop_id":"U1677Z1","name":"Tržní","arrival_time":"10:36:00","departure_time":"10:36:00","lat":49.189973,"lon":16.632193,"is_passed":false},{"stop_id":"U1598Z1","name":"Spáčilova","arrival_time":"10:37:00","departure_time":"10:37:00","lat":49.188674,"lon":16.640942,"is_passed":false},{"stop_id":"U1455Z1","name":"Olomoucká - u školy","arrival_time":"10:39:00","departure_time":"10:39:00","lat":49.186169,"lon":16.652958,"is_passed":false},{"stop_id":"U1665Z1","name":"Těžební","arrival_time":"10:41:00","departure_time":"10:41:00","lat":49.181966,"lon":16.657236,"is_passed":false},{"stop_id":"U1739Z1","name":"Vlastimila Pecha","arrival_time":"10:42:00","departure_time":"10:42:00","lat":49.179379,"lon":16.662741,"is_passed":false},{"stop_id":"U1741Z2","name":"Vlárská","arrival_time":"10:46:00","departure_time":"10:46:00","lat":49.180702,"lon":16.672017,"is_passed":false},{"stop_id":"U1068Z3","name":"Černovičky","arrival_time":"10:48:00","departure_time":"10:48:00","lat":49.183143,"lon":16.669108,"is_passed":false},{"stop_id":"U1757Z2","name":"Vozovna Slatina","arrival_time":"10:49:00","departure_time":"10:49:00","lat":49.182866,"lon":16.673489,"is_passed":false},{"stop_id":"U1173Z2","name":"Hviezdoslavova","arrival_time":"10:50:00","departure_time":"10:50:00","lat":49.181664,"lon":16.677149,"is_passed":false},{"stop_id":"U1323Z2","name":"Langrova","arrival_time":"10:51:00","departure_time":"10:51:00","lat":49.17982,"lon":16.68105,"is_passed":false},{"stop_id":"U1382Z2","name":"Mikulčická","arrival_time":"10:52:00","departure_time":"10:52:00","lat":49.178227,"lon":16.684944,"is_passed":false},{"stop_id":"U1297Z2","name":"Kroměřížská","arrival_time":"10:53:00","departure_time":"10:53:00","lat":49.178988,"lon":16.689151,"is_passed":false},{"stop_id":"U1577Z1","name":"Slatina, sídliště","arrival_time":"10:55:00","departure_time":"11:20:00","lat":49.181827,"lon":16.690272,"is_passed":false}],"54601":[{"stop_id":"U1577Z2","name":"Slatina, sídliště","arrival_time":"11:20:00","departure_time":"11:20:00","lat":49.181605,"lon":16.690121,"is_passed":false},{"stop_id":"U1297Z1","name":"Kroměřížská","arrival_time":"11:21:00","departure_time":"11:21:00","lat":49.178307,"lon":16.688244,"is_passed":false},{"stop_id":"U1382Z1","name":"Mikulčická","arrival_time":"11:22:00","departure_time":"11:22:00","lat":49.178464,"lon":16.683602,"is_passed":false},{"stop_id":"U1323Z1","name":"Langrova","arrival_time":"11:23:00","departure_time":"11:23:00","lat":49.180031,"lon":16.680806,"is_passed":false},{"stop_id":"U1173Z1","name":"Hviezdoslavova","arrival_time":"11:24:00","departure_time":"11:24:00","lat":49.18219,"lon":16.676025,"is_passed":false},{"stop_id":"U1757Z1","name":"Vozovna Slatina","arrival_time":"11:25:00","departure_time":"11:25:00","lat":49.183032,"lon":16.672807,"is_passed":false},{"stop_id":"U1068Z1","name":"Černovičky","arrival_time":"11:27:00","departure_time":"11:27:00","lat":49.182244,"lon":16.66894,"is_passed":false},{"stop_id":"U1741Z1","name":"Vlárská","arrival_time":"11:28:00","departure_time":"11:28:00","lat":49.180745,"lon":16.671647,"is_passed":false},{"stop_id":"U1105Z4","name":"Ericha Roučky","arrival_time":"11:30:00","departure_time":"11:30:00","lat":49.175789,"lon":16.668403,"is_passed":false},{"stop_id":"U1739Z2","name":"Vlastimila Pecha","arrival_time":"11:31:00","departure_time":"11:31:00","lat":49.179751,"lon":16.662407,"is_passed":false},{"stop_id":"U1665Z2","name":"Těžební","arrival_time":"11:32:00","departure_time":"11:32:00","lat":49.182639,"lon":16.656437,"is_passed":false},{"stop_id":"U1455Z2","name":"Olomoucká - u školy","arrival_time":"11:34:00","departure_time":"11:34:00","lat":49.186437,"lon":16.652477,"is_passed":false},{"stop_id":"U1598Z2","name":"Spáčilova","arrival_time":"11:36:00","departure_time":"11:36:00","lat":49.188617,"lon":16.641569,"is_passed":false},{"stop_id":"U1814Z4","name":"Životského","arrival_time":"11:38:00","departure_time":"11:38:00","lat":49.190077,"lon":16.634992,"is_passed":false},{"stop_id":"U1372Z2","name":"Masná","arrival_time":"11:40:00","departure_time":"11:40:00","lat":49.191283,"lon":16.6245,"is_passed":false},{"stop_id":"U1746Z2","name":"Vlhká","arrival_time":"11:41:00","departure_time":"11:41:00","lat":49.191852,"lon":16.619157,"is_passed":false},{"stop_id":"U1146Z7","name":"Hlavní nádraží","arrival_time":"11:44:00","departure_time":"11:46:00","lat":49.19213,"lon":16.613467,"is_passed":false}],"54602":[{"stop_id":"U1146Z8","name":"Hlavní nádraží","arrival_time":"11:46:00","departure_time":"11:46:00","lat":49.191893,"lon":16.613334,"is_passed":false},{"stop_id":"U1746Z1","name":"Vlhká","arrival_time":"11:47:00","departure_time":"11:47:00","lat":49.191847,"lon":16.618976,"is_passed":false},{"stop_id":"U1372Z5","name":"Masná","arrival_time":"11:49:00","departure_time":"11:49:00","lat":49.191189,"lon":16.626548,"is_passed":false},{"stop_id":"U1677Z1","name":"Tržní","arrival_time":"11:51:00","departure_time":"11:51:00","lat":49.189973,"lon":16.632193,"is_passed":false},{"stop_id":"U1598Z1","name":"Spáčilova","arrival_time":"11:52:00","departure_time":"11:52:00","lat":49.188674,"lon":16.640942,"is_passed":false},{"stop_id":"U1455Z1","name":"Olomoucká - u školy","arrival_time":"11:54:00","departure_time":"11:54:00","lat":49.186169,"lon":16.652958,"is_passed":false},{"stop_id":"U1665Z1","name":"Těžební","arrival_time":"11:56:00","departure_time":"11:56:00","lat":49.181966,"lon":16.657236,"is_passed":false},{"stop_id":"U1739Z1","name":"Vlastimila Pecha","arrival_time":"11:57:00","departure_time":"11:57:00","lat":49.179379,"lon":16.662741,"is_passed":false},{"stop_id":"U1741Z2","name":"Vlárská","arrival_time":"12:01:00","departure_time":"12:01:00","lat":49.180702,"lon":16.672017,"is_passed":false},{"stop_id":"U1068Z3","name":"Černovičky","arrival_time":"12:03:00","departure_time":"12:03:00","lat":49.183143,"lon":16.669108,"is_passed":false},{"stop_id":"U1757Z2","name":"Vozovna Slatina","arrival_time":"12:04:00","departure_time":"12:04:00","lat":49.182866,"lon":16.673489,"is_passed":false},{"stop_id":"U1173Z2","name":"Hviezdoslavova","arrival_time":"12:05:00","departure_time":"12:05:00","lat":49.181664,"lon":16.677149,"is_passed":false},{"stop_id":"U1323Z2","name":"Langrova","arrival_time":"12:06:00","departure_time":"12:06:00","lat":49.17982,"lon":16.68105,"is_passed":false},{"stop_id":"U1382Z2","name":"Mikulčická","arrival_time":"12:07:00","departure_time":"12:07:00","lat":49.178227,"lon":16.684944,"is_passed":false},{"stop_id":"U1297Z2","name":"Kroměřížská","arrival_time":"12:08:00","departure_time":"12:08:00","lat":49.178988,"lon":16.689151,"is_passed":false},{"stop_id":"U1577Z1","name":"Slatina, sídliště","arrival_time":"12:10:00","departure_time":"12:35:00","lat":49.181827,"lon":16.690272,"is_passed":false}],"54603":[{"stop_id":"U1577Z2","name":"Slatina, sídliště","arrival_time":"12:35:00","departure_time":"12:35:00","lat":49.181605,"lon":16.690121,"is_passed":false},{"stop_id":"U1297Z1","name":"Kroměřížská","arrival_time":"12:36:00","departure_time":"12:36:00","lat":49.178307,"lon":16.688244,"is_passed":false},{"stop_id":"U1382Z1","name":"Mikulčická","arrival_time":"12:37:00","departure_time":"12:37:00","lat":49.178464,"lon":16.683602,"is_passed":false},{"stop_id":"U1323Z1","name":"Langrova","arrival_time":"12:38:00","departure_time":"12:38:00","lat":49.180031,"lon":16.680806,"is_passed":false},{"stop_id":"U1173Z1","name":"Hviezdoslavova","arrival_time":"12:39:00","departure_time":"12:39:00","lat":49.18219,"lon":16.676025,"is_passed":false},{"stop_id":"U1757Z1","name":"Vozovna Slatina","arrival_time":"12:40:00","departure_time":"12:40:00","lat":49.183032,"lon":16.672807,"is_passed":false},{"stop_id":"U1068Z1","name":"Černovičky","arrival_time":"12:42:00","departure_time":"12:42:00","lat":49.182244,"lon":16.66894,"is_passed":false},{"stop_id":"U1741Z1","name":"Vlárská","arrival_time":"12:43:00","departure_time":"12:43:00","lat":49.180745,"lon":16.671647,"is_passed":false},{"stop_id":"U1105Z4","name":"Ericha Roučky","arrival_time":"12:45:00","departure_time":"12:45:00","lat":49.175789,"lon":16.668403,"is_passed":false},{"stop_id":"U1739Z2","name":"Vlastimila Pecha","arrival_time":"12:46:00","departure_time":"12:46:00","lat":49.179751,"lon":16.662407,"is_passed":false},{"stop_id":"U1665Z2","name":"Těžební","arrival_time":"12:47:00","departure_time":"12:47:00","lat":49.182639,"lon":16.656437,"is_passed":false},{"stop_id":"U1455Z2","name":"Olomoucká - u školy","arrival_time":"12:49:00","departure_time":"12:49:00","lat":49.186437,"lon":16.652477,"is_passed":false},{"stop_id":"U1598Z2","name":"Spáčilova","arrival_time":"12:51:00","departure_time":"12:51:00","lat":49.188617,"lon":16.641569,"is_passed":false},{"stop_id":"U1814Z4","name":"Životského","arrival_time":"12:53:00","departure_time":"12:53:00","lat":49.190077,"lon":16.634992,"is_passed":false},{"stop_id":"U1372Z2","name":"Masná","arrival_time":"12:55:00","departure_time":"12:55:00","lat":49.191283,"lon":16.6245,"is_passed":false},{"stop_id":"U1746Z2","name":"Vlhká","arrival_time":"12:56:00","departure_time":"12:56:00","lat":49.191852,"lon":16.619157,"is_passed":false},{"stop_id":"U1146Z7","name":"Hlavní nádraží","arrival_time":"12:59:00","departure_time":"13:01:00","lat":49.19213,"lon":16.613467,"is_passed":false}],"54604":[{"stop_id":"U1146Z8","name":"Hlavní nádraží","arrival_time":"13:01:00","departure_time":"13:01:00","lat":49.191893,"lon":16.613334,"is_passed":false},{"stop_id":"U1746Z1","name":"Vlhká","arrival_time":"13:02:00","departure_time":"13:02:00","lat":49.191847,"lon":16.618976,"is_passed":false},{"stop_id":"U1372Z5","name":"Masná","arrival_time":"13:04:00","departure_time":"13:04:00","lat":49.191189,"lon":16.626548,"is_passed":false},{"stop_id":"U1677Z1","name":"Tržní","arrival_time":"13:06:00","departure_time":"13:06:00","lat":49.189973,"lon":16.632193,"is_passed":false},{"stop_id":"U1598Z1","name":"Spáčilova","arrival_time":"13:07:00","departure_time":"13:07:00","lat":49.188674,"lon":16.640942,"is_passed":false},{"stop_id":"U1455Z1","name":"Olomoucká - u školy","arrival_time":"13:09:00","departure_time":"13:09:00","lat":49.186169,"lon":16.652958,"is_passed":false},{"stop_id":"U1665Z1","name":"Těžební","arrival_time":"13:11:00","departure_time":"13:11:00","lat":49.181966,"lon":16.657236,"is_passed":false},{"stop_id":"U1739Z1","name":"Vlastimila Pecha","arrival_time":"13:12:00","departure_time":"13:12:00","lat":49.179379,"lon":16.662741,"is_passed":false},{"stop_id":"U1741Z2","name":"Vlárská","arrival_time":"13:16:00","departure_time":"13:16:00","lat":49.180702,"lon":16.672017,"is_passed":false},{"stop_id":"U1068Z3","name":"Černovičky","arrival_time":"13:18:00","departure_time":"13:18:00","lat":49.183143,"lon":16.669108,"is_passed":false},{"stop_id":"U1757Z2","name":"Vozovna Slatina","arrival_time":"13:19:00","departure_time":"13:19:00","lat":49.182866,"lon":16.673489,"is_passed":false},{"stop_id":"U1173Z2","name":"Hviezdoslavova","arrival_time":"13:20:00","departure_time":"13:20:00","lat":49.181664,"lon":16.677149,"is_passed":false},{"stop_id":"U1323Z2","name":"Langrova","arrival_time":"13:21:00","departure_time":"13:21:00","lat":49.17982,"lon":16.68105,"is_passed":false},{"stop_id":"U1382Z2","name":"Mikulčická","arrival_time":"13:22:00","departure_time":"13:22:00","lat":49.178227,"lon":16.684944,"is_passed":false},{"stop_id":"U1297Z2","name":"Kroměřížská","arrival_time":"13:23:00","departure_time":"13:23:00","lat":49.178988,"lon":16.689151,"is_passed":false},{"stop_id":"U1577Z1","name":"Slatina, sídliště","arrival_time":"13:25:00","departure_time":"13:35:00","lat":49.181827,"lon":16.690272,"is_passed":false}],"54605":[{"stop_id":"U1577Z2","name":"Slatina, sídliště","arrival_time":"13:35:00","departure_time":"13:35:00","lat":49.181605,"lon":16.690121,"is_passed":false},{"stop_id":"U1297Z1","name":"Kroměřížská","arrival_time":"13:36:00","departure_time":"13:36:00","lat":49.178307,"lon":16.688244,"is_passed":false},{"stop_id":"U1382Z1","name":"Mikulčická","arrival_time":"13:37:00","departure_time":"13:37:00","lat":49.178464,"lon":16.683602,"is_passed":false},{"stop_id":"U1323Z1","name":"Langrova","arrival_time":"13:38:00","departure_time":"13:38:00","lat":49.180031,"lon":16.680806,"is_passed":false},{"stop_id":"U1173Z1","name":"Hviezdoslavova","arrival_time":"13:39:00","departure_time":"13:39:00","lat":49.18219,"lon":16.676025,"is_passed":false},{"stop_id":"U1757Z1","name":"Vozovna Slatina","arrival_time":"13:40:00","departure_time":"13:40:00","lat":49.183032,"lon":16.672807,"is_passed":false},{"stop_id":"U1068Z1","name":"Černovičky","arrival_time":"13:42:00","departure_time":"13:42:00","lat":49.182244,"lon":16.66894,"is_passed":false},{"stop_id":"U1741Z1","name":"Vlárská","arrival_time":"13:43:00","departure_time":"13:43:00","lat":49.180745,"lon":16.671647,"is_passed":false},{"stop_id":"U1105Z4","name":"Ericha Roučky","arrival_time":"13:45:00","departure_time":"13:45:00","lat":49.175789,"lon":16.668403,"is_passed":false},{"stop_id":"U1739Z2","name":"Vlastimila Pecha","arrival_time":"13:46:00","departure_time":"13:46:00","lat":49.179751,"lon":16.662407,"is_passed":false},{"stop_id":"U1665Z2","name":"Těžební","arrival_time":"13:47:00","departure_time":"13:47:00","lat":49.182639,"lon":16.656437,"is_passed":false},{"stop_id":"U1455Z2","name":"Olomoucká - u školy","arrival_time":"13:49:00","departure_time":"13:49:00","lat":49.186437,"lon":16.652477,"is_passed":false},{"stop_id":"U1598Z2","name":"Spáčilova","arrival_time":"13:51:00","departure_time":"13:51:00","lat":49.188617,"lon":16.641569,"is_passed":false},{"stop_id":"U1814Z4","name":"Životského","arrival_time":"13:53:00","departure_time":"13:53:00","lat":49.190077,"lon":16.634992,"is_passed":false},{"stop_id":"U1372Z2","name":"Masná","arrival_time":"13:55:00","departure_time":"13:55:00","lat":49.191283,"lon":16.6245,"is_passed":false},{"stop_id":"U1746Z2","name":"Vlhká","arrival_time":"13:56:00","departure_time":"13:56:00","lat":49.191852,"lon":16.619157,"is_passed":false},{"stop_id":"U1146Z7","name":"Hlavní nádraží","arrival_time":"13:59:00","departure_time":"14:01:00","lat":49.19213,"lon":16.613467,"is_passed":false}],"54606":[{"stop_id":"U1146Z8","name":"Hlavní nádraží","arrival_time":"14:01:00","departure_time":"14:01:00","lat":49.191893,"lon":16.613334,"is_passed":false},{"stop_id":"U1746Z1","name":"Vlhká","arrival_time":"14:02:00","departure_time":"14:02:00","lat":49.191847,"lon":16.618976,"is_passed":false},{"stop_id":"U1372Z5","name":"Masná","arrival_time":"14:04:00","departure_time":"14:04:00","lat":49.191189,"lon":16.626548,"is_passed":false},{"stop_id":"U1677Z1","name":"Tržní","arrival_time":"14:06:00","departure_time":"14:06:00","lat":49.189973,"lon":16.632193,"is_passed":false},{"stop_id":"U1598Z1","name":"Spáčilova","arrival_time":"14:07:00","departure_time":"14:07:00","lat":49.188674,"lon":16.640942,"is_passed":false},{"stop_id":"U1455Z1","name":"Olomoucká - u školy","arrival_time":"14:09:00","departure_time":"14:09:00","lat":49.186169,"lon":16.652958,"is_passed":false},{"stop_id":"U1665Z1","name":"Těžební","arrival_time":"14:11:00","departure_time":"14:11:00","lat":49.181966,"lon":16.657236,"is_passed":false},{"stop_id":"U1739Z1","name":"Vlastimila Pecha","arrival_time":"14:12:00","departure_time":"14:12:00","lat":49.179379,"lon":16.662741,"is_passed":false},{"stop_id":"U1741Z2","name":"Vlárská","arrival_time":"14:16:00","departure_time":"14:16:00","lat":49.180702,"lon":16.672017,"is_passed":false},{"stop_id":"U1068Z3","name":"Černovičky","arrival_time":"14:18:00","departure_time":"14:18:00","lat":49.183143,"lon":16.669108,"is_passed":false},{"stop_id":"U1757Z2","name":"Vozovna Slatina","arrival_time":"14:19:00","departure_time":"14:19:00","lat":49.182866,"lon":16.673489,"is_passed":false},{"stop_id":"U1173Z2","name":"Hviezdoslavova","arrival_time":"14:20:00","departure_time":"14:20:00","lat":49.181664,"lon":16.677149,"is_passed":false},{"stop_id":"U1323Z2","name":"Langrova","arrival_time":"14:21:00","departure_time":"14:21:00","lat":49.17982,"lon":16.68105,"is_passed":false},{"stop_id":"U1382Z2","name":"Mikulčická","arrival_time":"14:22:00","departure_time":"14:22:00","lat":49.178227,"lon":16.684944,"is_passed":false},{"stop_id":"U1297Z2","name":"Kroměřížská","arrival_time":"14:23:00","departure_time":"14:23:00","lat":49.178988,"lon":16.689151,"is_passed":false},{"stop_id":"U1577Z1","name":"Slatina, sídliště","arrival_time":"14:25:00","departure_time":"14:41:00","lat":49.181827,"lon":16.690272,"is_passed":false}],"54607":[{"stop_id":"U1577Z2","name":"Slatina, sídliště","arrival_time":"14:41:00","departure_time":"14:41:00","lat":49.181605,"lon":16.690121,"is_passed":false},{"stop_id":"U1297Z1","name":"Kroměřížská","arrival_time":"14:42:00","departure_time":"14:42:00","lat":49.178307,"lon":16.688244,"is_passed":false},{"stop_id":"U1382Z1","name":"Mikulčická","arrival_time":"14:43:00","departure_time":"14:43:00","lat":49.178464,"lon":16.683602,"is_passed":false},{"stop_id":"U1323Z1","name":"Langrova","arrival_time":"14:44:00","departure_time":"14:44:00","lat":49.180031,"lon":16.680806,"is_passed":false},{"stop_id":"U1173Z1","name":"Hviezdoslavova","arrival_time":"14:45:00","departure_time":"14:45:00","lat":49.18219,"lon":16.676025,"is_passed":false},{"stop_id":"U1757Z1","name":"Vozovna Slatina","arrival_time":"14:46:00","departure_time":"14:46:00","lat":49.183032,"lon":16.672807,"is_passed":false},{"stop_id":"U1068Z1","name":"Černovičky","arrival_time":"14:48:00","departure_time":"14:48:00","lat":49.182244,"lon":16.66894,"is_passed":false},{"stop_id":"U1741Z1","name":"Vlárská","arrival_time":"14:49:00","departure_time":"14:49:00","lat":49.180745,"lon":16.671647,"is_passed":false},{"stop_id":"U1105Z4","name":"Ericha Roučky","arrival_time":"14:51:00","departure_time":"14:51:00","lat":49.175789,"lon":16.668403,"is_passed":false},{"stop_id":"U1739Z2","name":"Vlastimila Pecha","arrival_time":"14:52:00","departure_time":"14:52:00","lat":49.179751,"lon":16.662407,"is_passed":false},{"stop_id":"U1665Z2","name":"Těžební","arrival_time":"14:53:00","departure_time":"14:53:00","lat":49.182639,"lon":16.656437,"is_passed":false},{"stop_id":"U1455Z2","name":"Olomoucká - u školy","arrival_time":"14:55:00","departure_time":"14:55:00","lat":49.186437,"lon":16.652477,"is_passed":false},{"stop_id":"U1598Z2","name":"Spáčilova","arrival_time":"14:57:00","departure_time":"14:57:00","lat":49.188617,"lon":16.641569,"is_passed":false},{"stop_id":"U1814Z4","name":"Životského","arrival_time":"14:59:00","departure_time":"14:59:00","lat":49.190077,"lon":16.634992,"is_passed":false},{"stop_id":"U1372Z2","name":"Masná","arrival_time":"15:01:00","departure_time":"15:01:00","lat":49.191283,"lon":16.6245,"is_passed":false},{"stop_id":"U1746Z2","name":"Vlhká","arrival_time":"15:02:00","departure_time":"15:02:00","lat":49.191852,"lon":16.619157,"is_passed":false},{"stop_id":"U1146Z7","name":"Hlavní nádraží","arrival_time":"15:05:00","departure_time":"15:05:00","lat":49.19213,"lon":16.613467,"is_passed":false}],"54608":[{"stop_id":"U1146Z8","name":"Hlavní nádraží","arrival_time":"15:09:00","departure_time":"15:09:00","lat":49.191893,"lon":16.613334,"is_passed":false},{"stop_id":"U1746Z1","name":"Vlhká","arrival_time":"15:10:00","departure_time":"15:10:00","lat":49.191847,"lon":16.618976,"is_passed":false},{"stop_id":"U1372Z5","name":"Masná","arrival_time":"15:12:00","departure_time":"15:12:00","lat":49.191189,"lon":16.626548,"is_passed":false},{"stop_id":"U1677Z1","name":"Tržní","arrival_time":"15:14:00","departure_time":"15:14:00","lat":49.189973,"lon":16.632193,"is_passed":false},{"stop_id":"U1068Z3","name":"Černovičky","arrival_time":"15:19:00","departure_time":"15:19:00","lat":49.183143,"lon":16.669108,"is_passed":false},{"stop_id":"U1757Z2","name":"Vozovna Slatina","arrival_time":"15:20:00","departure_time":"15:20:00","lat":49.182866,"lon":16.673489,"is_passed":false},{"stop_id":"U1173Z2","name":"Hviezdoslavova","arrival_time":"15:21:00","departure_time":"15:21:00","lat":49.181664,"lon":16.677149,"is_passed":false},{"stop_id":"U1323Z2","name":"Langrova","arrival_time":"15:22:00","departure_time":"15:22:00","lat":49.17982,"lon":16.68105,"is_passed":false},{"stop_id":"U1382Z2","name":"Mikulčická","arrival_time":"15:23:00","departure_time":"15:23:00","lat":49.178227,"lon":16.684944,"is_passed":false},{"stop_id":"U1297Z2","name":"Kroměřížská","arrival_time":"15:24:00","departure_time":"15:24:00","lat":49.178988,"lon":16.689151,"is_passed":false},{"stop_id":"U1577Z1","name":"Slatina, sídliště","arrival_time":"15:26:00","departure_time":"15:26:00","lat":49.181827,"lon":16.690272,"is_passed":false}],"54609":[{"stop_id":"U1577Z2","name":"Slatina, sídliště","arrival_time":"15:56:00","departure_time":"15:56:00","lat":49.181605,"lon":16.690121,"is_passed":false},{"stop_id":"U1297Z1","name":"Kroměřížská","arrival_time":"15:57:00","departure_time":"15:57:00","lat":49.178307,"lon":16.688244,"is_passed":false},{"stop_id":"U1382Z1","name":"Mikulčická","arrival_time":"15:58:00","departure_time":"15:58:00","lat":49.178464,"lon":16.683602,"is_passed":false},{"stop_id":"U1323Z1","name":"Langrova","arrival_time":"15:59:00","departure_time":"15:59:00","lat":49.180031,"lon":16.680806,"is_passed":false},{"stop_id":"U1173Z1","name":"Hviezdoslavova","arrival_time":"16:00:00","departure_time":"16:00:00","lat":49.18219,"lon":16.676025,"is_passed":false},{"stop_id":"U1757Z1","name":"Vozovna Slatina","arrival_time":"16:01:00","departure_time":"16:01:00","lat":49.183032,"lon":16.672807,"is_passed":false},{"stop_id":"U1068Z1","name":"Černovičky","arrival_time":"16:03:00","departure_time":"16:03:00","lat":49.182244,"lon":16.66894,"is_passed":false},{"stop_id":"U1741Z1","name":"Vlárská","arrival_time":"16:04:00","departure_time":"16:04:00","lat":49.180745,"lon":16.671647,"is_passed":false},{"stop_id":"U1105Z4","name":"Ericha Roučky","arrival_time":"16:06:00","departure_time":"16:06:00","lat":49.175789,"lon":16.668403,"is_passed":false},{"stop_id":"U1739Z2","name":"Vlastimila Pecha","arrival_time":"16:07:00","departure_time":"16:07:00","lat":49.179751,"lon":16.662407,"is_passed":false},{"stop_id":"U1665Z2","name":"Těžební","arrival_time":"16:08:00","departure_time":"16:08:00","lat":49.182639,"lon":16.656437,"is_passed":false},{"stop_id":"U1455Z2","name":"Olomoucká - u školy","arrival_time":"16:10:00","departure_time":"16:10:00","lat":49.186437,"lon":16.652477,"is_passed":false},{"stop_id":"U1598Z2","name":"Spáčilova","arrival_time":"16:12:00","departure_time":"16:12:00","lat":49.188617,"lon":16.641569,"is_passed":false},{"stop_id":"U1814Z4","name":"Životského","arrival_time":"16:14:00","departure_time":"16:14:00","lat":49.190077,"lon":16.634992,"is_passed":false},{"stop_id":"U1372Z2","name":"Masná","arrival_time":"16:16:00","departure_time":"16:16:00","lat":49.191283,"lon":16.6245,"is_passed":false},{"stop_id":"U1746Z2","name":"Vlhká","arrival_time":"16:17:00","departure_time":"16:17:00","lat":49.191852,"lon":16.619157,"is_passed":false},{"stop_id":"U1146Z7","name":"Hlavní nádraží","arrival_time":"16:20:00","departure_time":"16:29:00","lat":49.19213,"lon":16.613467,"is_passed":false}],"54610":[{"stop_id":"U1146Z8","name":"Hlavní nádraží","arrival_time":"16:29:00","departure_time":"16:29:00","lat":49.191893,"lon":16.613334,"is_passed":false},{"stop_id":"U1746Z1","name":"Vlhká","arrival_time":"16:30:00","departure_time":"16:30:00","lat":49.191847,"lon":16.618976,"is_passed":false},{"stop_id":"U1372Z5","name":"Masná","arrival_time":"16:32:00","departure_time":"16:32:00","lat":49.191189,"lon":16.626548,"is_passed":false},{"stop_id":"U1677Z1","name":"Tržní","arrival_time":"16:34:00","departure_time":"16:34:00","lat":49.189973,"lon":16.632193,"is_passed":false},{"stop_id":"U1598Z1","name":"Spáčilova","arrival_time":"16:35:00","departure_time":"16:35:00","lat":49.188674,"lon":16.640942,"is_passed":false},{"stop_id":"U1455Z1","name":"Olomoucká - u školy","arrival_time":"16:37:00","departure_time":"16:37:00","lat":49.186169,"lon":16.652958,"is_passed":false},{"stop_id":"U1665Z1","name":"Těžební","arrival_time":"16:39:00","departure_time":"16:39:00","lat":49.181966,"lon":16.657236,"is_passed":false},{"stop_id":"U1739Z1","name":"Vlastimila Pecha","arrival_time":"16:40:00","departure_time":"16:40:00","lat":49.179379,"lon":16.662741,"is_passed":false},{"stop_id":"U1741Z2","name":"Vlárská","arrival_time":"16:44:00","departure_time":"16:44:00","lat":49.180702,"lon":16.672017,"is_passed":false},{"stop_id":"U1068Z3","name":"Černovičky","arrival_time":"16:46:00","departure_time":"16:46:00","lat":49.183143,"lon":16.669108,"is_passed":false},{"stop_id":"U1757Z2","name":"Vozovna Slatina","arrival_time":"16:47:00","departure_time":"16:47:00","lat":49.182866,"lon":16.673489,"is_passed":false},{"stop_id":"U1173Z2","name":"Hviezdoslavova","arrival_time":"16:48:00","departure_time":"16:48:00","lat":49.181664,"lon":16.677149,"is_passed":false},{"stop_id":"U1323Z2","name":"Langrova","arrival_time":"16:49:00","departure_time":"16:49:00","lat":49.17982,"lon":16.68105,"is_passed":false},{"stop_id":"U1382Z2","name":"Mikulčická","arrival_time":"16:50:00","departure_time":"16:50:00","lat":49.178227,"lon":16.684944,"is_passed":false},{"stop_id":"U1297Z2","name":"Kroměřížská","arrival_time":"16:51:00","departure_time":"16:51:00","lat":49.178988,"lon":16.689151,"is_passed":false},{"stop_id":"U1577Z1","name":"Slatina, sídliště","arrival_time":"16:53:00","departure_time":"17:11:00","lat":49.181827,"lon":16.690272,"is_passed":false}],"54611":[{"stop_id":"U1577Z2","name":"Slatina, sídliště","arrival_time":"17:11:00","departure_time":"17:11:00","lat":49.181605,"lon":16.690121,"is_passed":false},{"stop_id":"U1297Z1","name":"Kroměřížská","arrival_time":"17:12:00","departure_time":"17:12:00","lat":49.178307,"lon":16.688244,"is_passed":false},{"stop_id":"U1382Z1","name":"Mikulčická","arrival_time":"17:13:00","departure_time":"17:13:00","lat":49.178464,"lon":16.683602,"is_passed":false},{"stop_id":"U1323Z1","name":"Langrova","arrival_time":"17:14:00","departure_time":"17:14:00","lat":49.180031,"lon":16.680806,"is_passed":false},{"stop_id":"U1173Z1","name":"Hviezdoslavova","arrival_time":"17:15:00","departure_time":"17:15:00","lat":49.18219,"lon":16.676025,"is_passed":false},{"stop_id":"U1757Z1","name":"Vozovna Slatina","arrival_time":"17:16:00","departure_time":"17:16:00","lat":49.183032,"lon":16.672807,"is_passed":false},{"stop_id":"U1068Z1","name":"Černovičky","arrival_time":"17:18:00","departure_time":"17:18:00","lat":49.182244,"lon":16.66894,"is_passed":false},{"stop_id":"U1741Z1","name":"Vlárská","arrival_time":"17:19:00","departure_time":"17:19:00","lat":49.180745,"lon":16.671647,"is_passed":false},{"stop_id":"U1105Z4","name":"Ericha Roučky","arrival_time":"17:21:00","departure_time":"17:21:00","lat":49.175789,"lon":16.668403,"is_passed":false},{"stop_id":"U1739Z2","name":"Vlastimila Pecha","arrival_time":"17:22:00","departure_time":"17:22:00","lat":49.179751,"lon":16.662407,"is_passed":false},{"stop_id":"U1665Z2","name":"Těžební","arrival_time":"17:23:00","departure_time":"17:23:00","lat":49.182639,"lon":16.656437,"is_passed":false},{"stop_id":"U1455Z2","name":"Olomoucká - u školy","arrival_time":"17:25:00","departure_time":"17:25:00","lat":49.186437,"lon":16.652477,"is_passed":false},{"stop_id":"U1598Z2","name":"Spáčilova","arrival_time":"17:27:00","departure_time":"17:27:00","lat":49.188617,"lon":16.641569,"is_passed":false},{"stop_id":"U1814Z4","name":"Životského","arrival_time":"17:29:00","departure_time":"17:29:00","lat":49.190077,"lon":16.634992,"is_passed":false},{"stop_id":"U1372Z2","name":"Masná","arrival_time":"17:31:00","departure_time":"17:31:00","lat":49.191283,"lon":16.6245,"is_passed":false},{"stop_id":"U1746Z2","name":"Vlhká","arrival_time":"17:32:00","departure_time":"17:32:00","lat":49.191852,"lon":16.619157,"is_passed":false},{"stop_id":"U1146Z7","name":"Hlavní nádraží","arrival_time":"17:35:00","departure_time":"17:35:00","lat":49.19213,"lon":16.613467,"is_passed":false}],"54612":[{"stop_id":"U1146Z8","name":"Hlavní nádraží","arrival_time":"17:39:00","departure_time":"17:39:00","lat":49.191893,"lon":16.613334,"is_passed":false},{"stop_id":"U1746Z1","name":"Vlhká","arrival_time":"17:40:00","departure_time":"17:40:00","lat":49.191847,"lon":16.618976,"is_passed":false},{"stop_id":"U1372Z5","name":"Masná","arrival_time":"17:42:00","departure_time":"17:42:00","lat":49.191189,"lon":16.626548,"is_passed":false},{"stop_id":"U1677Z1","name":"Tržní","arrival_time":"17:44:00","departure_time":"17:44:00","lat":49.189973,"lon":16.632193,"is_passed":false},{"stop_id":"U1068Z3","name":"Černovičky","arrival_time":"17:49:00","departure_time":"17:49:00","lat":49.183143,"lon":16.669108,"is_passed":false},{"stop_id":"U1757Z2","name":"Vozovna Slatina","arrival_time":"17:50:00","departure_time":"17:50:00","lat":49.182866,"lon":16.673489,"is_passed":false},{"stop_id":"U1173Z2","name":"Hviezdoslavova","arrival_time":"17:51:00","departure_time":"17:51:00","lat":49.181664,"lon":16.677149,"is_passed":false},{"stop_id":"U1323Z2","name":"Langrova","arrival_time":"17:52:00","departure_time":"17:52:00","lat":49.17982,"lon":16.68105,"is_passed":false},{"stop_id":"U1382Z2","name":"Mikulčická","arrival_time":"17:53:00","departure_time":"17:53:00","lat":49.178227,"lon":16.684944,"is_passed":false},{"stop_id":"U1297Z2","name":"Kroměřížská","arrival_time":"17:54:00","departure_time":"17:54:00","lat":49.178988,"lon":16.689151,"is_passed":false},{"stop_id":"U1577Z1","name":"Slatina, sídliště","arrival_time":"17:56:00","departure_time":"17:56:00","lat":49.181827,"lon":16.690272,"is_passed":false}],"54613":[{"stop_id":"U1577Z2","name":"Slatina, sídliště","arrival_time":"18:17:00","departure_time":"18:17:00","lat":49.181605,"lon":16.690121,"is_passed":false},{"stop_id":"U1297Z1","name":"Kroměřížská","arrival_time":"18:17:00","departure_time":"18:17:00","lat":49.178307,"lon":16.688244,"is_passed":false},{"stop_id":"U1382Z1","name":"Mikulčická","arrival_time":"18:18:00","departure_time":"18:18:00","lat":49.178464,"lon":16.683602,"is_passed":false},{"stop_id":"U1323Z1","name":"Langrova","arrival_time":"18:19:00","departure_time":"18:19:00","lat":49.180031,"lon":16.680806,"is_passed":false},{"stop_id":"U1173Z1","name":"Hviezdoslavova","arrival_time":"18:20:00","departure_time":"18:20:00","lat":49.18219,"lon":16.676025,"is_passed":false},{"stop_id":"U1757Z1","name":"Vozovna Slatina","arrival_time":"18:21:00","departure_time":"18:21:00","lat":49.183032,"lon":16.672807,"is_passed":false},{"stop_id":"U1068Z1","name":"Černovičky","arrival_time":"18:22:00","departure_time":"18:22:00","lat":49.182244,"lon":16.66894,"is_passed":false},{"stop_id":"U1741Z1","name":"Vlárská","arrival_time":"18:23:00","departure_time":"18:23:00","lat":49.180745,"lon":16.671647,"is_passed":false},{"stop_id":"U1105Z4","name":"Ericha Roučky","arrival_time":"18:25:00","departure_time":"18:25:00","lat":49.175789,"lon":16.668403,"is_passed":false},{"stop_id":"U1739Z2","name":"Vlastimila Pecha","arrival_time":"18:26:00","departure_time":"18:26:00","lat":49.179751,"lon":16.662407,"is_passed":false},{"stop_id":"U1665Z2","name":"Těžební","arrival_time":"18:27:00","departure_time":"18:27:00","lat":49.182639,"lon":16.656437,"is_passed":false},{"stop_id":"U1455Z2","name":"Olomoucká - u školy","arrival_time":"18:28:00","departure_time":"18:28:00","lat":49.186437,"lon":16.652477,"is_passed":false},{"stop_id":"U1598Z2","name":"Spáčilova","arrival_time":"18:29:00","departure_time":"18:29:00","lat":49.188617,"lon":16.641569,"is_passed":false},{"stop_id":"U1814Z4","name":"Životského","arrival_time":"18:31:00","departure_time":"18:31:00","lat":49.190077,"lon":16.634992,"is_passed":false},{"stop_id":"U1372Z2","name":"Masná","arrival_time":"18:33:00","departure_time":"18:33:00","lat":49.191283,"lon":16.6245,"is_passed":false},{"stop_id":"U1746Z2","name":"Vlhká","arrival_time":"18:34:00","departure_time":"18:34:00","lat":49.191852,"lon":16.619157,"is_passed":false},{"stop_id":"U1146Z7","name":"Hlavní nádraží","arrival_time":"18:37:00","departure_time":"18:40:00","lat":49.19213,"lon":16.613467,"is_passed":false}],"54614":[{"stop_id":"U1146Z8","name":"Hlavní nádraží","arrival_time":"18:40:00","departure_time":"18:40:00","lat":49.191893,"lon":16.613334,"is_passed":false},{"stop_id":"U1746Z1","name":"Vlhká","arrival_time":"18:41:00","departure_time":"18:41:00","lat":49.191847,"lon":16.618976,"is_passed":false},{"stop_id":"U1372Z5","name":"Masná","arrival_time":"18:42:00","departure_time":"18:42:00","lat":49.191189,"lon":16.626548,"is_passed":false},{"stop_id":"U1677Z1","name":"Tržní","arrival_time":"18:44:00","departure_time":"18:44:00","lat":49.189973,"lon":16.632193,"is_passed":false},{"stop_id":"U1598Z1","name":"Spáčilova","arrival_time":"18:45:00","departure_time":"18:45:00","lat":49.188674,"lon":16.640942,"is_passed":false},{"stop_id":"U1455Z1","name":"Olomoucká - u školy","arrival_time":"18:46:00","departure_time":"18:46:00","lat":49.186169,"lon":16.652958,"is_passed":false},{"stop_id":"U1665Z1","name":"Těžební","arrival_time":"18:48:00","departure_time":"18:48:00","lat":49.181966,"lon":16.657236,"is_passed":false},{"stop_id":"U1739Z1","name":"Vlastimila Pecha","arrival_time":"18:49:00","departure_time":"18:49:00","lat":49.179379,"lon":16.662741,"is_passed":false},{"stop_id":"U1741Z2","name":"Vlárská","arrival_time":"18:52:00","departure_time":"18:52:00","lat":49.180702,"lon":16.672017,"is_passed":false},{"stop_id":"U1068Z3","name":"Černovičky","arrival_time":"18:54:00","departure_time":"18:54:00","lat":49.183143,"lon":16.669108,"is_passed":false},{"stop_id":"U1757Z2","name":"Vozovna Slatina","arrival_time":"18:55:00","departure_time":"18:55:00","lat":49.182866,"lon":16.673489,"is_passed":false},{"stop_id":"U1173Z2","name":"Hviezdoslavova","arrival_time":"18:56:00","departure_time":"18:56:00","lat":49.181664,"lon":16.677149,"is_passed":false},{"stop_id":"U1323Z2","name":"Langrova","arrival_time":"18:57:00","departure_time":"18:57:00","lat":49.17982,"lon":16.68105,"is_passed":false},{"stop_id":"U1382Z2","name":"Mikulčická","arrival_time":"18:58:00","departure_time":"18:58:00","lat":49.178227,"lon":16.684944,"is_passed":false},{"stop_id":"U1297Z2","name":"Kroměřížská","arrival_time":"18:59:00","departure_time":"18:59:00","lat":49.178988,"lon":16.689151,"is_passed":false},{"stop_id":"U1577Z1","name":"Slatina, sídliště","arrival_time":"19:01:00","departure_time":"19:37:00","lat":49.181827,"lon":16.690272,"is_passed":false}],"54615":[{"stop_id":"U1577Z2","name":"Slatina, sídliště","arrival_time":"19:37:00","departure_time":"19:37:00","lat":49.181605,"lon":16.690121,"is_passed":false},{"stop_id":"U1297Z1","name":"Kroměřížská","arrival_time":"19:37:00","departure_time":"19:37:00","lat":49.178307,"lon":16.688244,"is_passed":false},{"stop_id":"U1382Z1","name":"Mikulčická","arrival_time":"19:38:00","departure_time":"19:38:00","lat":49.178464,"lon":16.683602,"is_passed":false},{"stop_id":"U1323Z1","name":"Langrova","arrival_time":"19:39:00","departure_time":"19:39:00","lat":49.180031,"lon":16.680806,"is_passed":false},{"stop_id":"U1173Z1","name":"Hviezdoslavova","arrival_time":"19:40:00","departure_time":"19:40:00","lat":49.18219,"lon":16.676025,"is_passed":false},{"stop_id":"U1757Z1","name":"Vozovna Slatina","arrival_time":"19:41:00","departure_time":"19:41:00","lat":49.183032,"lon":16.672807,"is_passed":false},{"stop_id":"U1068Z1","name":"Černovičky","arrival_time":"19:42:00","departure_time":"19:42:00","lat":49.182244,"lon":16.66894,"is_passed":false},{"stop_id":"U1741Z1","name":"Vlárská","arrival_time":"19:43:00","departure_time":"19:43:00","lat":49.180745,"lon":16.671647,"is_passed":false},{"stop_id":"U1105Z4","name":"Ericha Roučky","arrival_time":"19:45:00","departure_time":"19:45:00","lat":49.175789,"lon":16.668403,"is_passed":false},{"stop_id":"U1739Z2","name":"Vlastimila Pecha","arrival_time":"19:46:00","departure_time":"19:46:00","lat":49.179751,"lon":16.662407,"is_passed":false},{"stop_id":"U1665Z2","name":"Těžební","arrival_time":"19:47:00","departure_time":"19:47:00","lat":49.182639,"lon":16.656437,"is_passed":false},{"stop_id":"U1455Z2","name":"Olomoucká - u školy","arrival_time":"19:48:00","departure_time":"19:48:00","lat":49.186437,"lon":16.652477,"is_passed":false},{"stop_id":"U1598Z2","name":"Spáčilova","arrival_time":"19:49:00","departure_time":"19:49:00","lat":49.188617,"lon":16.641569,"is_passed":false},{"stop_id":"U1814Z4","name":"Životského","arrival_time":"19:51:00","departure_time":"19:51:00","lat":49.190077,"lon":16.634992,"is_passed":false},{"stop_id":"U1372Z2","name":"Masná","arrival_time":"19:53:00","departure_time":"19:53:00","lat":49.191283,"lon":16.6245,"is_passed":false},{"stop_id":"U1746Z2","name":"Vlhká","arrival_time":"19:54:00","departure_time":"19:54:00","lat":49.191852,"lon":16.619157,"is_passed":false},{"stop_id":"U1146Z7","name":"Hlavní nádraží","arrival_time":"19:57:00","departure_time":"20:00:00","lat":49.19213,"lon":16.613467,"is_passed":false}],"54616":[{"stop_id":"U1146Z8","name":"Hlavní nádraží","arrival_time":"20:00:00","departure_time":"20:00:00","lat":49.191893,"lon":16.613334,"is_passed":false},{"stop_id":"U1746Z1","name":"Vlhká","arrival_time":"20:01:00","departure_time":"20:01:00","lat":49.191847,"lon":16.618976,"is_passed":false},{"stop_id":"U1372Z5","name":"Masná","arrival_time":"20:02:00","departure_time":"20:02:00","lat":49.191189,"lon":16.626548,"is_passed":false},{"stop_id":"U1677Z1","name":"Tržní","arrival_time":"20:04:00","departure_time":"20:04:00","lat":49.189973,"lon":16.632193,"is_passed":false},{"stop_id":"U1598Z1","name":"Spáčilova","arrival_time":"20:05:00","departure_time":"20:05:00","lat":49.188674,"lon":16.640942,"is_passed":false},{"stop_id":"U1455Z1","name":"Olomoucká - u školy","arrival_time":"20:06:00","departure_time":"20:06:00","lat":49.186169,"lon":16.652958,"is_passed":false},{"stop_id":"U1665Z1","name":"Těžební","arrival_time":"20:08:00","departure_time":"20:08:00","lat":49.181966,"lon":16.657236,"is_passed":false},{"stop_id":"U1739Z1","name":"Vlastimila Pecha","arrival_time":"20:09:00","departure_time":"20:09:00","lat":49.179379,"lon":16.662741,"is_passed":false},{"stop_id":"U1741Z2","name":"Vlárská","arrival_time":"20:12:00","departure_time":"20:12:00","lat":49.180702,"lon":16.672017,"is_passed":false},{"stop_id":"U1068Z3","name":"Černovičky","arrival_time":"20:14:00","departure_time":"20:14:00","lat":49.183143,"lon":16.669108,"is_passed":false},{"stop_id":"U1757Z2","name":"Vozovna Slatina","arrival_time":"20:15:00","departure_time":"20:15:00","lat":49.182866,"lon":16.673489,"is_passed":false},{"stop_id":"U1173Z2","name":"Hviezdoslavova","arrival_time":"20:16:00","departure_time":"20:16:00","lat":49.181664,"lon":16.677149,"is_passed":false},{"stop_id":"U1323Z2","name":"Langrova","arrival_time":"20:17:00","departure_time":"20:17:00","lat":49.17982,"lon":16.68105,"is_passed":false},{"stop_id":"U1382Z2","name":"Mikulčická","arrival_time":"20:18:00","departure_time":"20:18:00","lat":49.178227,"lon":16.684944,"is_passed":false},{"stop_id":"U1297Z2","name":"Kroměřížská","arrival_time":"20:19:00","departure_time":"20:19:00","lat":49.178988,"lon":16.689151,"is_passed":false},{"stop_id":"U1577Z1","name":"Slatina, sídliště","arrival_time":"20:21:00","departure_time":"20:37:00","lat":49.181827,"lon":16.690272,"is_passed":false}],"54617":[{"stop_id":"U1577Z2","name":"Slatina, sídliště","arrival_time":"20:37:00","departure_time":"20:37:00","lat":49.181605,"lon":16.690121,"is_passed":false},{"stop_id":"U1297Z1","name":"Kroměřížská","arrival_time":"20:37:00","departure_time":"20:37:00","lat":49.178307,"lon":16.688244,"is_passed":false},{"stop_id":"U1382Z1","name":"Mikulčická","arrival_time":"20:38:00","departure_time":"20:38:00","lat":49.178464,"lon":16.683602,"is_passed":false},{"stop_id":"U1323Z1","name":"Langrova","arrival_time":"20:39:00","departure_time":"20:39:00","lat":49.180031,"lon":16.680806,"is_passed":false},{"stop_id":"U1173Z1","name":"Hviezdoslavova","arrival_time":"20:40:00","departure_time":"20:40:00","lat":49.18219,"lon":16.676025,"is_passed":false},{"stop_id":"U1757Z1","name":"Vozovna Slatina","arrival_time":"20:41:00","departure_time":"20:41:00","lat":49.183032,"lon":16.672807,"is_passed":false},{"stop_id":"U1068Z1","name":"Černovičky","arrival_time":"20:42:00","departure_time":"20:42:00","lat":49.182244,"lon":16.66894,"is_passed":false},{"stop_id":"U1741Z1","name":"Vlárská","arrival_time":"20:43:00","departure_time":"20:43:00","lat":49.180745,"lon":16.671647,"is_passed":false},{"stop_id":"U1105Z4","name":"Ericha Roučky","arrival_time":"20:45:00","departure_time":"20:45:00","lat":49.175789,"lon":16.668403,"is_passed":false},{"stop_id":"U1739Z2","name":"Vlastimila Pecha","arrival_time":"20:46:00","departure_time":"20:46:00","lat":49.179751,"lon":16.662407,"is_passed":false},{"stop_id":"U1665Z2","name":"Těžební","arrival_time":"20:47:00","departure_time":"20:47:00","lat":49.182639,"lon":16.656437,"is_passed":false},{"stop_id":"U1455Z2","name":"Olomoucká - u školy","arrival_time":"20:48:00","departure_time":"20:48:00","lat":49.186437,"lon":16.652477,"is_passed":false},{"stop_id":"U1598Z2","name":"Spáčilova","arrival_time":"20:49:00","departure_time":"20:49:00","lat":49.188617,"lon":16.641569,"is_passed":false},{"stop_id":"U1814Z4","name":"Životského","arrival_time":"20:51:00","departure_time":"20:51:00","lat":49.190077,"lon":16.634992,"is_passed":false},{"stop_id":"U1372Z2","name":"Masná","arrival_time":"20:53:00","departure_time":"20:53:00","lat":49.191283,"lon":16.6245,"is_passed":false},{"stop_id":"U1746Z2","name":"Vlhká","arrival_time":"20:54:00","departure_time":"20:54:00","lat":49.191852,"lon":16.619157,"is_passed":false},{"stop_id":"U1146Z7","name":"Hlavní nádraží","arrival_time":"20:57:00","departure_time":"21:00:00","lat":49.19213,"lon":16.613467,"is_passed":false}],"54618":[{"stop_id":"U1146Z8","name":"Hlavní nádraží","arrival_time":"21:00:00","departure_time":"21:00:00","lat":49.191893,"lon":16.613334,"is_passed":false},{"stop_id":"U1746Z1","name":"Vlhká","arrival_time":"21:01:00","departure_time":"21:01:00","lat":49.191847,"lon":16.618976,"is_passed":false},{"stop_id":"U1372Z5","name":"Masná","arrival_time":"21:02:00","departure_time":"21:02:00","lat":49.191189,"lon":16.626548,"is_passed":false},{"stop_id":"U1677Z1","name":"Tržní","arrival_time":"21:04:00","departure_time":"21:04:00","lat":49.189973,"lon":16.632193,"is_passed":false},{"stop_id":"U1598Z1","name":"Spáčilova","arrival_time":"21:05:00","departure_time":"21:05:00","lat":49.188674,"lon":16.640942,"is_passed":false},{"stop_id":"U1455Z1","name":"Olomoucká - u školy","arrival_time":"21:06:00","departure_time":"21:06:00","lat":49.186169,"lon":16.652958,"is_passed":false},{"stop_id":"U1665Z1","name":"Těžební","arrival_time":"21:08:00","departure_time":"21:08:00","lat":49.181966,"lon":16.657236,"is_passed":false},{"stop_id":"U1739Z1","name":"Vlastimila Pecha","arrival_time":"21:09:00","departure_time":"21:09:00","lat":49.179379,"lon":16.662741,"is_passed":false},{"stop_id":"U1741Z2","name":"Vlárská","arrival_time":"21:12:00","departure_time":"21:12:00","lat":49.180702,"lon":16.672017,"is_passed":false},{"stop_id":"U1068Z3","name":"Černovičky","arrival_time":"21:14:00","departure_time":"21:14:00","lat":49.183143,"lon":16.669108,"is_passed":false},{"stop_id":"U1757Z2","name":"Vozovna Slatina","arrival_time":"21:15:00","departure_time":"21:15:00","lat":49.182866,"lon":16.673489,"is_passed":false},{"stop_id":"U1173Z2","name":"Hviezdoslavova","arrival_time":"21:16:00","departure_time":"21:16:00","lat":49.181664,"lon":16.677149,"is_passed":false},{"stop_id":"U1323Z2","name":"Langrova","arrival_time":"21:17:00","departure_time":"21:17:00","lat":49.17982,"lon":16.68105,"is_passed":false},{"stop_id":"U1382Z2","name":"Mikulčická","arrival_time":"21:18:00","departure_time":"21:18:00","lat":49.178227,"lon":16.684944,"is_passed":false},{"stop_id":"U1297Z2","name":"Kroměřížská","arrival_time":"21:19:00","departure_time":"21:19:00","lat":49.178988,"lon":16.689151,"is_passed":false},{"stop_id":"U1577Z1","name":"Slatina, sídliště","arrival_time":"21:21:00","departure_time":"21:32:00","lat":49.181827,"lon":16.690272,"is_passed":false}],"54619":[{"stop_id":"U1577Z2","name":"Slatina, sídliště","arrival_time":"21:32:00","departure_time":"21:32:00","lat":49.181605,"lon":16.690121,"is_passed":false},{"stop_id":"U1297Z1","name":"Kroměřížská","arrival_time":"21:32:00","departure_time":"21:32:00","lat":49.178307,"lon":16.688244,"is_passed":false},{"stop_id":"U1382Z1","name":"Mikulčická","arrival_time":"21:33:00","departure_time":"21:33:00","lat":49.178464,"lon":16.683602,"is_passed":false},{"stop_id":"U1323Z1","name":"Langrova","arrival_time":"21:34:00","departure_time":"21:34:00","lat":49.180031,"lon":16.680806,"is_passed":false},{"stop_id":"U1173Z1","name":"Hviezdoslavova","arrival_time":"21:35:00","departure_time":"21:35:00","lat":49.18219,"lon":16.676025,"is_passed":false},{"stop_id":"U1757Z1","name":"Vozovna Slatina","arrival_time":"21:36:00","departure_time":"21:36:00","lat":49.183032,"lon":16.672807,"is_passed":false},{"stop_id":"U1068Z1","name":"Černovičky","arrival_time":"21:37:00","departure_time":"21:37:00","lat":49.182244,"lon":16.66894,"is_passed":false},{"stop_id":"U1741Z1","name":"Vlárská","arrival_time":"21:38:00","departure_time":"21:38:00","lat":49.180745,"lon":16.671647,"is_passed":false},{"stop_id":"U1105Z4","name":"Ericha Roučky","arrival_time":"21:40:00","departure_time":"21:40:00","lat":49.175789,"lon":16.668403,"is_passed":false},{"stop_id":"U1739Z2","name":"Vlastimila Pecha","arrival_time":"21:41:00","departure_time":"21:41:00","lat":49.179751,"lon":16.662407,"is_passed":false},{"stop_id":"U1665Z2","name":"Těžební","arrival_time":"21:42:00","departure_time":"21:42:00","lat":49.182639,"lon":16.656437,"is_passed":false},{"stop_id":"U1455Z2","name":"Olomoucká - u školy","arrival_time":"21:43:00","departure_time":"21:43:00","lat":49.186437,"lon":16.652477,"is_passed":false},{"stop_id":"U1598Z2","name":"Spáčilova","arrival_time":"21:44:00","departure_time":"21:44:00","lat":49.188617,"lon":16.641569,"is_passed":false},{"stop_id":"U1814Z4","name":"Životského","arrival_time":"21:46:00","departure_time":"21:46:00","lat":49.190077,"lon":16.634992,"is_passed":false},{"stop_id":"U1372Z2","name":"Masná","arrival_time":"21:48:00","departure_time":"21:48:00","lat":49.191283,"lon":16.6245,"is_passed":false},{"stop_id":"U1746Z2","name":"Vlhká","arrival_time":"21:49:00","departure_time":"21:49:00","lat":49.191852,"lon":16.619157,"is_passed":false},{"stop_id":"U1146Z7","name":"Hlavní nádraží","arrival_time":"21:52:00","departure_time":"21:53:00","lat":49.19213,"lon":16.613467,"is_passed":false}],"54620":[{"stop_id":"U1037Z2","name":"Bosonohy","arrival_time":"22:31:00","departure_time":"22:31:00","lat":49.176372,"lon":16.525514,"is_passed":false},{"stop_id":"U1161Z2","name":"Hoštická","arrival_time":"22:32:00","departure_time":"22:32:00","lat":49.173917,"lon":16.527822,"is_passed":false},{"stop_id":"U1516Z1","name":"Pražská","arrival_time":"22:33:00","departure_time":"22:33:00","lat":49.173478,"lon":16.531543,"is_passed":false},{"stop_id":"U1568Z2","name":"Skalní","arrival_time":"22:34:00","departure_time":"22:34:00","lat":49.174201,"lon":16.537903,"is_passed":false},{"stop_id":"U1202Z2","name":"Jemelkova","arrival_time":"22:35:00","departure_time":"22:35:00","lat":49.173163,"lon":16.54872,"is_passed":false},{"stop_id":"U1616Z4","name":"Starý Lískovec, smyčka","arrival_time":"22:36:00","departure_time":"22:36:00","lat":49.170615,"lon":16.55427,"is_passed":false},{"stop_id":"U1097Z6","name":"Dunajská","arrival_time":"22:37:00","departure_time":"22:37:00","lat":49.168824,"lon":16.55589,"is_passed":false},{"stop_id":"U1687Z2","name":"U hřiště","arrival_time":"22:38:00","departure_time":"22:38:00","lat":49.165806,"lon":16.558562,"is_passed":false},{"stop_id":"U1666Z2","name":"Točná","arrival_time":"22:39:00","departure_time":"22:39:00","lat":49.164745,"lon":16.561481,"is_passed":false},{"stop_id":"U1061Z2","name":"Čermákova","arrival_time":"22:40:00","departure_time":"22:40:00","lat":49.164349,"lon":16.564689,"is_passed":false},{"stop_id":"U1627Z2","name":"Svah","arrival_time":"22:40:00","departure_time":"22:40:00","lat":49.164924,"lon":16.567717,"is_passed":false},{"stop_id":"U1168Z2","name":"Humenná","arrival_time":"22:42:00","departure_time":"22:42:00","lat":49.167953,"lon":16.573664,"is_passed":false},{"stop_id":"U1763Z1","name":"Vyhlídalova","arrival_time":"22:43:00","departure_time":"22:43:00","lat":49.165385,"lon":16.577302,"is_passed":false},{"stop_id":"U1122Z4","name":"Gruzínská","arrival_time":"22:44:00","departure_time":"22:44:00","lat":49.166074,"lon":16.585383,"is_passed":false},{"stop_id":"U1774Z2","name":"Za hřbitovem","arrival_time":"22:44:00","departure_time":"22:44:00","lat":49.164318,"lon":16.591448,"is_passed":false},{"stop_id":"U1673Z2","name":"Traťová","arrival_time":"22:45:00","departure_time":"22:45:00","lat":49.163623,"lon":16.595954,"is_passed":false},{"stop_id":"U1466Z55","name":"Ořechovská","arrival_time":"22:47:00","departure_time":"22:47:00","lat":49.156238,"lon":16.599375,"is_passed":false},{"stop_id":"U1141Z2","name":"Heršpická","arrival_time":"22:50:00","departure_time":"22:50:00","lat":49.170473,"lon":16.599896,"is_passed":false},{"stop_id":"U1622Z1","name":"Strážní","arrival_time":"22:52:00","departure_time":"22:52:00","lat":49.178207,"lon":16.603976,"is_passed":false},{"stop_id":"U1301Z4","name":"Křídlovická","arrival_time":"22:54:00","departure_time":"22:54:00","lat":49.185748,"lon":16.603967,"is_passed":false},{"stop_id":"U1596Z4","name":"Soukenická","arrival_time":"22:55:00","departure_time":"22:55:00","lat":49.188557,"lon":16.607222,"is_passed":false},{"stop_id":"U1146Z4","name":"Hlavní nádraží","arrival_time":"22:57:00","departure_time":"23:00:00","lat":49.19125,"lon":16.612674,"is_passed":false},{"stop_id":"U1746Z1","name":"Vlhká","arrival_time":"23:01:00","departure_time":"23:01:00","lat":49.191847,"lon":16.618976,"is_passed":false},{"stop_id":"U1372Z1","name":"Masná","arrival_time":"23:02:00","departure_time":"23:02:00","lat":49.191244,"lon":16.625642,"is_passed":false},{"stop_id":"U1677Z1","name":"Tržní","arrival_time":"23:04:00","departure_time":"23:04:00","lat":49.189973,"lon":16.632193,"is_passed":false},{"stop_id":"U1598Z1","name":"Spáčilova","arrival_time":"23:05:00","departure_time":"23:05:00","lat":49.188674,"lon":16.640942,"is_passed":false},{"stop_id":"U1455Z1","name":"Olomoucká - u školy","arrival_time":"23:06:00","departure_time":"23:06:00","lat":49.186169,"lon":16.652958,"is_passed":false},{"stop_id":"U1665Z1","name":"Těžební","arrival_time":"23:07:00","departure_time":"23:07:00","lat":49.181966,"lon":16.657236,"is_passed":false},{"stop_id":"U1739Z1","name":"Vlastimila Pecha","arrival_time":"23:08:00","departure_time":"23:08:00","lat":49.179379,"lon":16.662741,"is_passed":false},{"stop_id":"U1741Z2","name":"Vlárská","arrival_time":"23:10:00","departure_time":"23:10:00","lat":49.180702,"lon":16.672017,"is_passed":false},{"stop_id":"U1068Z3","name":"Černovičky","arrival_time":"23:11:00","departure_time":"23:11:00","lat":49.183143,"lon":16.669108,"is_passed":false},{"stop_id":"U1757Z2","name":"Vozovna Slatina","arrival_time":"23:11:00","departure_time":"23:11:00","lat":49.182866,"lon":16.673489,"is_passed":false},{"stop_id":"U1173Z2","name":"Hviezdoslavova","arrival_time":"23:12:00","departure_time":"23:12:00","lat":49.181664,"lon":16.677149,"is_passed":false},{"stop_id":"U1323Z2","name":"Langrova","arrival_time":"23:13:00","departure_time":"23:13:00","lat":49.17982,"lon":16.68105,"is_passed":false},{"stop_id":"U1382Z2","name":"Mikulčická","arrival_time":"23:13:00","departure_time":"23:13:00","lat":49.178227,"lon":16.684944,"is_passed":false},{"stop_id":"U1297Z2","name":"Kroměřížská","arrival_time":"23:14:00","departure_time":"23:14:00","lat":49.178988,"lon":16.689151,"is_passed":false},{"stop_id":"U1577Z3","name":"Slatina, sídliště","arrival_time":"23:15:00","departure_time":"23:15:00","lat":49.181461,"lon":16.690304,"is_passed":false},{"stop_id":"U1576Z1","name":"Slatina, rozcestí","arrival_time":"23:16:00","departure_time":"23:16:00","lat":49.181647,"lon":16.691923,"is_passed":false},{"stop_id":"U1292Z3","name":"Krejčího","arrival_time":"23:17:00","departure_time":"23:17:00","lat":49.177861,"lon":16.691431,"is_passed":false},{"stop_id":"U16165Z1","name":"Šlapanice, sídliště","arrival_time":"23:19:00","departure_time":"23:19:00","lat":49.16703,"lon":16.718338,"is_passed":false},{"stop_id":"U16155Z1","name":"Šlapanice, Čechova","arrival_time":"23:20:00","departure_time":"23:20:00","lat":49.165752,"lon":16.722536,"is_passed":false},{"stop_id":"U16159Z1","name":"Šlapanice, Kalvodova","arrival_time":"23:21:00","departure_time":"23:26:00","lat":49.166442,"lon":16.726521,"is_passed":false}],"54621":[{"stop_id":"U1577Z2","name":"Slatina, sídliště","arrival_time":"5:17:00","departure_time":"5:17:00","lat":49.181605,"lon":16.690121,"is_passed":false},{"stop_id":"U1297Z1","name":"Kroměřížská","arrival_time":"5:17:00","departure_time":"5:17:00","lat":49.178307,"lon":16.688244,"is_passed":false},{"stop_id":"U1382Z1","name":"Mikulčická","arrival_time":"5:18:00","departure_time":"5:18:00","lat":49.178464,"lon":16.683602,"is_passed":false},{"stop_id":"U1323Z1","name":"Langrova","arrival_time":"5:19:00","departure_time":"5:19:00","lat":49.180031,"lon":16.680806,"is_passed":false},{"stop_id":"U1173Z1","name":"Hviezdoslavova","arrival_time":"5:20:00","departure_time":"5:20:00","lat":49.18219,"lon":16.676025,"is_passed":false},{"stop_id":"U1757Z1","name":"Vozovna Slatina","arrival_time":"5:21:00","departure_time":"5:21:00","lat":49.183032,"lon":16.672807,"is_passed":false},{"stop_id":"U1068Z1","name":"Černovičky","arrival_time":"5:22:00","departure_time":"5:22:00","lat":49.182244,"lon":16.66894,"is_passed":false},{"stop_id":"U1741Z1","name":"Vlárská","arrival_time":"5:23:00","departure_time":"5:23:00","lat":49.180745,"lon":16.671647,"is_passed":false},{"stop_id":"U1105Z4","name":"Ericha Roučky","arrival_time":"5:25:00","departure_time":"5:25:00","lat":49.175789,"lon":16.668403,"is_passed":false},{"stop_id":"U1739Z2","name":"Vlastimila Pecha","arrival_time":"5:26:00","departure_time":"5:26:00","lat":49.179751,"lon":16.662407,"is_passed":false},{"stop_id":"U1665Z2","name":"Těžební","arrival_time":"5:27:00","departure_time":"5:27:00","lat":49.182639,"lon":16.656437,"is_passed":false},{"stop_id":"U1455Z2","name":"Olomoucká - u školy","arrival_time":"5:28:00","departure_time":"5:28:00","lat":49.186437,"lon":16.652477,"is_passed":false},{"stop_id":"U1598Z2","name":"Spáčilova","arrival_time":"5:29:00","departure_time":"5:29:00","lat":49.188617,"lon":16.641569,"is_passed":false},{"stop_id":"U1814Z4","name":"Životského","arrival_time":"5:31:00","departure_time":"5:31:00","lat":49.190077,"lon":16.634992,"is_passed":false},{"stop_id":"U1372Z2","name":"Masná","arrival_time":"5:33:00","departure_time":"5:33:00","lat":49.191283,"lon":16.6245,"is_passed":false},{"stop_id":"U1746Z2","name":"Vlhká","arrival_time":"5:34:00","departure_time":"5:34:00","lat":49.191852,"lon":16.619157,"is_passed":false},{"stop_id":"U1146Z7","name":"Hlavní nádraží","arrival_time":"5:37:00","departure_time":"5:40:00","lat":49.19213,"lon":16.613467,"is_passed":false}],"54622":[{"stop_id":"U1146Z8","name":"Hlavní nádraží","arrival_time":"5:40:00","departure_time":"5:40:00","lat":49.191893,"lon":16.613334,"is_passed":false},{"stop_id":"U1746Z1","name":"Vlhká","arrival_time":"5:41:00","departure_time":"5:41:00","lat":49.191847,"lon":16.618976,"is_passed":false},{"stop_id":"U1372Z5","name":"Masná","arrival_time":"5:42:00","departure_time":"5:42:00","lat":49.191189,"lon":16.626548,"is_passed":false},{"stop_id":"U1677Z1","name":"Tržní","arrival_time":"5:44:00","departure_time":"5:44:00","lat":49.189973,"lon":16.632193,"is_passed":false},{"stop_id":"U1598Z1","name":"Spáčilova","arrival_time":"5:45:00","departure_time":"5:45:00","lat":49.188674,"lon":16.640942,"is_passed":false},{"stop_id":"U1455Z1","name":"Olomoucká - u školy","arrival_time":"5:46:00","departure_time":"5:46:00","lat":49.186169,"lon":16.652958,"is_passed":false},{"stop_id":"U1665Z1","name":"Těžební","arrival_time":"5:48:00","departure_time":"5:48:00","lat":49.181966,"lon":16.657236,"is_passed":false},{"stop_id":"U1739Z1","name":"Vlastimila Pecha","arrival_time":"5:49:00","departure_time":"5:49:00","lat":49.179379,"lon":16.662741,"is_passed":false},{"stop_id":"U1741Z2","name":"Vlárská","arrival_time":"5:52:00","departure_time":"5:52:00","lat":49.180702,"lon":16.672017,"is_passed":false},{"stop_id":"U1068Z3","name":"Černovičky","arrival_time":"5:54:00","departure_time":"5:54:00","lat":49.183143,"lon":16.669108,"is_passed":false},{"stop_id":"U1757Z2","name":"Vozovna Slatina","arrival_time":"5:55:00","departure_time":"5:55:00","lat":49.182866,"lon":16.673489,"is_passed":false},{"stop_id":"U1173Z2","name":"Hviezdoslavova","arrival_time":"5:56:00","departure_time":"5:56:00","lat":49.181664,"lon":16.677149,"is_passed":false},{"stop_id":"U1323Z2","name":"Langrova","arrival_time":"5:57:00","departure_time":"5:57:00","lat":49.17982,"lon":16.68105,"is_passed":false},{"stop_id":"U1382Z2","name":"Mikulčická","arrival_time":"5:58:00","departure_time":"5:58:00","lat":49.178227,"lon":16.684944,"is_passed":false},{"stop_id":"U1297Z2","name":"Kroměřížská","arrival_time":"5:59:00","departure_time":"5:59:00","lat":49.178988,"lon":16.689151,"is_passed":false},{"stop_id":"U1577Z1","name":"Slatina, sídliště","arrival_time":"6:01:00","departure_time":"6:18:00","lat":49.181827,"lon":16.690272,"is_passed":false}],"54623":[{"stop_id":"U1577Z2","name":"Slatina, sídliště","arrival_time":"6:18:00","departure_time":"6:18:00","lat":49.181605,"lon":16.690121,"is_passed":false},{"stop_id":"U1297Z1","name":"Kroměřížská","arrival_time":"6:19:00","departure_time":"6:19:00","lat":49.178307,"lon":16.688244,"is_passed":false},{"stop_id":"U1382Z1","name":"Mikulčická","arrival_time":"6:20:00","departure_time":"6:20:00","lat":49.178464,"lon":16.683602,"is_passed":false},{"stop_id":"U1323Z1","name":"Langrova","arrival_time":"6:21:00","departure_time":"6:21:00","lat":49.180031,"lon":16.680806,"is_passed":false},{"stop_id":"U1173Z1","name":"Hviezdoslavova","arrival_time":"6:22:00","departure_time":"6:22:00","lat":49.18219,"lon":16.676025,"is_passed":false},{"stop_id":"U1757Z1","name":"Vozovna Slatina","arrival_time":"6:23:00","departure_time":"6:23:00","lat":49.183032,"lon":16.672807,"is_passed":false},{"stop_id":"U1068Z1","name":"Černovičky","arrival_time":"6:25:00","departure_time":"6:25:00","lat":49.182244,"lon":16.66894,"is_passed":false},{"stop_id":"U1741Z1","name":"Vlárská","arrival_time":"6:26:00","departure_time":"6:26:00","lat":49.180745,"lon":16.671647,"is_passed":false},{"stop_id":"U1105Z4","name":"Ericha Roučky","arrival_time":"6:28:00","departure_time":"6:28:00","lat":49.175789,"lon":16.668403,"is_passed":false},{"stop_id":"U1739Z2","name":"Vlastimila Pecha","arrival_time":"6:29:00","departure_time":"6:29:00","lat":49.179751,"lon":16.662407,"is_passed":false},{"stop_id":"U1665Z2","name":"Těžební","arrival_time":"6:30:00","departure_time":"6:30:00","lat":49.182639,"lon":16.656437,"is_passed":false},{"stop_id":"U1455Z2","name":"Olomoucká - u školy","arrival_time":"6:32:00","departure_time":"6:32:00","lat":49.186437,"lon":16.652477,"is_passed":false},{"stop_id":"U1598Z2","name":"Spáčilova","arrival_time":"6:34:00","departure_time":"6:34:00","lat":49.188617,"lon":16.641569,"is_passed":false},{"stop_id":"U1814Z4","name":"Životského","arrival_time":"6:36:00","departure_time":"6:36:00","lat":49.190077,"lon":16.634992,"is_passed":false},{"stop_id":"U1372Z2","name":"Masná","arrival_time":"6:38:00","departure_time":"6:38:00","lat":49.191283,"lon":16.6245,"is_passed":false},{"stop_id":"U1746Z2","name":"Vlhká","arrival_time":"6:39:00","departure_time":"6:39:00","lat":49.191852,"lon":16.619157,"is_passed":false},{"stop_id":"U1146Z7","name":"Hlavní nádraží","arrival_time":"6:42:00","departure_time":"6:45:00","lat":49.19213,"lon":16.613467,"is_passed":false}],"54624":[{"stop_id":"U1146Z8","name":"Hlavní nádraží","arrival_time":"6:45:00","departure_time":"6:45:00","lat":49.191893,"lon":16.613334,"is_passed":false},{"stop_id":"U1746Z1","name":"Vlhká","arrival_time":"6:46:00","departure_time":"6:46:00","lat":49.191847,"lon":16.618976,"is_passed":false},{"stop_id":"U1372Z5","name":"Masná","arrival_time":"6:48:00","departure_time":"6:48:00","lat":49.191189,"lon":16.626548,"is_passed":false},{"stop_id":"U1677Z1","name":"Tržní","arrival_time":"6:50:00","departure_time":"6:50:00","lat":49.189973,"lon":16.632193,"is_passed":false},{"stop_id":"U1598Z1","name":"Spáčilova","arrival_time":"6:51:00","departure_time":"6:51:00","lat":49.188674,"lon":16.640942,"is_passed":false},{"stop_id":"U1455Z1","name":"Olomoucká - u školy","arrival_time":"6:53:00","departure_time":"6:53:00","lat":49.186169,"lon":16.652958,"is_passed":false},{"stop_id":"U1665Z1","name":"Těžební","arrival_time":"6:55:00","departure_time":"6:55:00","lat":49.181966,"lon":16.657236,"is_passed":false},{"stop_id":"U1739Z1","name":"Vlastimila Pecha","arrival_time":"6:56:00","departure_time":"6:56:00","lat":49.179379,"lon":16.662741,"is_passed":false},{"stop_id":"U1741Z2","name":"Vlárská","arrival_time":"7:00:00","departure_time":"7:00:00","lat":49.180702,"lon":16.672017,"is_passed":false},{"stop_id":"U1068Z3","name":"Černovičky","arrival_time":"7:02:00","departure_time":"7:02:00","lat":49.183143,"lon":16.669108,"is_passed":false},{"stop_id":"U1757Z2","name":"Vozovna Slatina","arrival_time":"7:03:00","departure_time":"7:03:00","lat":49.182866,"lon":16.673489,"is_passed":false},{"stop_id":"U1173Z2","name":"Hviezdoslavova","arrival_time":"7:04:00","departure_time":"7:04:00","lat":49.181664,"lon":16.677149,"is_passed":false},{"stop_id":"U1323Z2","name":"Langrova","arrival_time":"7:05:00","departure_time":"7:05:00","lat":49.17982,"lon":16.68105,"is_passed":false},{"stop_id":"U1382Z2","name":"Mikulčická","arrival_time":"7:06:00","departure_time":"7:06:00","lat":49.178227,"lon":16.684944,"is_passed":false},{"stop_id":"U1297Z2","name":"Kroměřížská","arrival_time":"7:07:00","departure_time":"7:07:00","lat":49.178988,"lon":16.689151,"is_passed":false},{"stop_id":"U1577Z1","name":"Slatina, sídliště","arrival_time":"7:09:00","departure_time":"7:27:00","lat":49.181827,"lon":16.690272,"is_passed":false}],"54625":[{"stop_id":"U1577Z2","name":"Slatina, sídliště","arrival_time":"7:27:00","departure_time":"7:27:00","lat":49.181605,"lon":16.690121,"is_passed":false},{"stop_id":"U1297Z1","name":"Kroměřížská","arrival_time":"7:28:00","departure_time":"7:28:00","lat":49.178307,"lon":16.688244,"is_passed":false},{"stop_id":"U1382Z1","name":"Mikulčická","arrival_time":"7:29:00","departure_time":"7:29:00","lat":49.178464,"lon":16.683602,"is_passed":false},{"stop_id":"U1323Z1","name":"Langrova","arrival_time":"7:30:00","departure_time":"7:30:00","lat":49.180031,"lon":16.680806,"is_passed":false},{"stop_id":"U1173Z1","name":"Hviezdoslavova","arrival_time":"7:31:00","departure_time":"7:31:00","lat":49.18219,"lon":16.676025,"is_passed":false},{"stop_id":"U1757Z1","name":"Vozovna Slatina","arrival_time":"7:32:00","departure_time":"7:32:00","lat":49.183032,"lon":16.672807,"is_passed":false},{"stop_id":"U1068Z1","name":"Černovičky","arrival_time":"7:34:00","departure_time":"7:34:00","lat":49.182244,"lon":16.66894,"is_passed":false},{"stop_id":"U1741Z1","name":"Vlárská","arrival_time":"7:35:00","departure_time":"7:35:00","lat":49.180745,"lon":16.671647,"is_passed":false},{"stop_id":"U1105Z4","name":"Ericha Roučky","arrival_time":"7:37:00","departure_time":"7:37:00","lat":49.175789,"lon":16.668403,"is_passed":false},{"stop_id":"U1739Z2","name":"Vlastimila Pecha","arrival_time":"7:38:00","departure_time":"7:38:00","lat":49.179751,"lon":16.662407,"is_passed":false},{"stop_id":"U1665Z2","name":"Těžební","arrival_time":"7:39:00","departure_time":"7:39:00","lat":49.182639,"lon":16.656437,"is_passed":false},{"stop_id":"U1455Z2","name":"Olomoucká - u školy","arrival_time":"7:41:00","departure_time":"7:41:00","lat":49.186437,"lon":16.652477,"is_passed":false},{"stop_id":"U1598Z2","name":"Spáčilova","arrival_time":"7:43:00","departure_time":"7:43:00","lat":49.188617,"lon":16.641569,"is_passed":false},{"stop_id":"U1814Z4","name":"Životského","arrival_time":"7:45:00","departure_time":"7:45:00","lat":49.190077,"lon":16.634992,"is_passed":false},{"stop_id":"U1372Z2","name":"Masná","arrival_time":"7:47:00","departure_time":"7:47:00","lat":49.191283,"lon":16.6245,"is_passed":false},{"stop_id":"U1746Z2","name":"Vlhká","arrival_time":"7:48:00","departure_time":"7:48:00","lat":49.191852,"lon":16.619157,"is_passed":false},{"stop_id":"U1146Z7","name":"Hlavní nádraží","arrival_time":"7:51:00","departure_time":"7:55:00","lat":49.19213,"lon":16.613467,"is_passed":false}],"54626":[{"stop_id":"U1146Z8","name":"Hlavní nádraží","arrival_time":"7:55:00","departure_time":"7:55:00","lat":49.191893,"lon":16.613334,"is_passed":false},{"stop_id":"U1746Z1","name":"Vlhká","arrival_time":"7:56:00","departure_time":"7:56:00","lat":49.191847,"lon":16.618976,"is_passed":false},{"stop_id":"U1372Z5","name":"Masná","arrival_time":"7:58:00","departure_time":"7:58:00","lat":49.191189,"lon":16.626548,"is_passed":false},{"stop_id":"U1677Z1","name":"Tržní","arrival_time":"8:00:00","departure_time":"8:00:00","lat":49.189973,"lon":16.632193,"is_passed":false},{"stop_id":"U1598Z1","name":"Spáčilova","arrival_time":"8:01:00","departure_time":"8:01:00","lat":49.188674,"lon":16.640942,"is_passed":false},{"stop_id":"U1455Z1","name":"Olomoucká - u školy","arrival_time":"8:03:00","departure_time":"8:03:00","lat":49.186169,"lon":16.652958,"is_passed":false},{"stop_id":"U1665Z1","name":"Těžební","arrival_time":"8:05:00","departure_time":"8:05:00","lat":49.181966,"lon":16.657236,"is_passed":false},{"stop_id":"U1739Z1","name":"Vlastimila Pecha","arrival_time":"8:06:00","departure_time":"8:06:00","lat":49.179379,"lon":16.662741,"is_passed":false},{"stop_id":"U1741Z2","name":"Vlárská","arrival_time":"8:10:00","departure_time":"8:10:00","lat":49.180702,"lon":16.672017,"is_passed":false},{"stop_id":"U1068Z3","name":"Černovičky","arrival_time":"8:12:00","departure_time":"8:12:00","lat":49.183143,"lon":16.669108,"is_passed":false},{"stop_id":"U1757Z2","name":"Vozovna Slatina","arrival_time":"8:13:00","departure_time":"8:13:00","lat":49.182866,"lon":16.673489,"is_passed":false},{"stop_id":"U1173Z2","name":"Hviezdoslavova","arrival_time":"8:14:00","departure_time":"8:14:00","lat":49.181664,"lon":16.677149,"is_passed":false},{"stop_id":"U1323Z2","name":"Langrova","arrival_time":"8:15:00","departure_time":"8:15:00","lat":49.17982,"lon":16.68105,"is_passed":false},{"stop_id":"U1382Z2","name":"Mikulčická","arrival_time":"8:16:00","departure_time":"8:16:00","lat":49.178227,"lon":16.684944,"is_passed":false},{"stop_id":"U1297Z2","name":"Kroměřížská","arrival_time":"8:17:00","departure_time":"8:17:00","lat":49.178988,"lon":16.689151,"is_passed":false},{"stop_id":"U1577Z1","name":"Slatina, sídliště","arrival_time":"8:19:00","departure_time":"8:23:00","lat":49.181827,"lon":16.690272,"is_passed":false}],"54627":[{"stop_id":"U1716Z4","name":"Úzká","arrival_time":"5:18:00","departure_time":"5:18:00","lat":49.189107,"lon":16.613266,"is_passed":false},{"stop_id":"U1463Z2","name":"Opuštěná","arrival_time":"5:20:00","departure_time":"5:20:00","lat":49.185245,"lon":16.613024,"is_passed":false},{"stop_id":"U1011Z4","name":"Autobusové nádraží","arrival_time":"5:21:00","departure_time":"5:21:00","lat":49.186887,"lon":16.618479,"is_passed":false},{"stop_id":"U1144Z1","name":"Hladíkova","arrival_time":"5:22:00","departure_time":"5:22:00","lat":49.187682,"lon":16.625353,"is_passed":false},{"stop_id":"U1677Z1","name":"Tržní","arrival_time":"5:24:00","departure_time":"5:24:00","lat":49.189973,"lon":16.632193,"is_passed":false},{"stop_id":"U1598Z1","name":"Spáčilova","arrival_time":"5:25:00","departure_time":"5:25:00","lat":49.188674,"lon":16.640942,"is_passed":false},{"stop_id":"U1455Z1","name":"Olomoucká - u školy","arrival_time":"5:26:00","departure_time":"5:26:00","lat":49.186169,"lon":16.652958,"is_passed":false},{"stop_id":"U1665Z1","name":"Těžební","arrival_time":"5:28:00","departure_time":"5:28:00","lat":49.181966,"lon":16.657236,"is_passed":false},{"stop_id":"U1739Z1","name":"Vlastimila Pecha","arrival_time":"5:29:00","departure_time":"5:29:00","lat":49.179379,"lon":16.662741,"is_passed":false},{"stop_id":"U1105Z1","name":"Ericha Roučky","arrival_time":"5:31:00","departure_time":"5:31:00","lat":49.174784,"lon":16.66987,"is_passed":false},{"stop_id":"U1064Z1","name":"Černovická terasa I","arrival_time":"5:32:00","departure_time":"5:32:00","lat":49.171172,"lon":16.673495,"is_passed":false},{"stop_id":"U1065Z1","name":"Černovická terasa II","arrival_time":"5:33:00","departure_time":"5:33:00","lat":49.167108,"lon":16.67608,"is_passed":false},{"stop_id":"U1581Z3","name":"Areál Slatina","arrival_time":"5:35:00","departure_time":"5:37:00","lat":49.168533,"lon":16.678786,"is_passed":false}],"54628":[{"stop_id":"U1577Z2","name":"Slatina, sídliště","arrival_time":"5:47:00","departure_time":"5:47:00","lat":49.181605,"lon":16.690121,"is_passed":false},{"stop_id":"U1297Z1","name":"Kroměřížská","arrival_time":"5:47:00","departure_time":"5:47:00","lat":49.178307,"lon":16.688244,"is_passed":false},{"stop_id":"U1382Z1","name":"Mikulčická","arrival_time":"5:48:00","departure_time":"5:48:00","lat":49.178464,"lon":16.683602,"is_passed":false},{"stop_id":"U1323Z1","name":"Langrova","arrival_time":"5:49:00","departure_time":"5:49:00","lat":49.180031,"lon":16.680806,"is_passed":false},{"stop_id":"U1173Z1","name":"Hviezdoslavova","arrival_time":"5:50:00","departure_time":"5:50:00","lat":49.18219,"lon":16.676025,"is_passed":false},{"stop_id":"U1757Z1","name":"Vozovna Slatina","arrival_time":"5:51:00","departure_time":"5:51:00","lat":49.183032,"lon":16.672807,"is_passed":false},{"stop_id":"U1068Z1","name":"Černovičky","arrival_time":"5:52:00","departure_time":"5:52:00","lat":49.182244,"lon":16.66894,"is_passed":false},{"stop_id":"U1741Z1","name":"Vlárská","arrival_time":"5:53:00","departure_time":"5:53:00","lat":49.180745,"lon":16.671647,"is_passed":false},{"stop_id":"U1105Z4","name":"Ericha Roučky","arrival_time":"5:55:00","departure_time":"5:55:00","lat":49.175789,"lon":16.668403,"is_passed":false},{"stop_id":"U1739Z2","name":"Vlastimila Pecha","arrival_time":"5:56:00","departure_time":"5:56:00","lat":49.179751,"lon":16.662407,"is_passed":false},{"stop_id":"U1665Z2","name":"Těžební","arrival_time":"5:57:00","departure_time":"5:57:00","lat":49.182639,"lon":16.656437,"is_passed":false},{"stop_id":"U1455Z2","name":"Olomoucká - u školy","arrival_time":"5:58:00","departure_time":"5:58:00","lat":49.186437,"lon":16.652477,"is_passed":false},{"stop_id":"U1598Z2","name":"Spáčilova","arrival_time":"5:59:00","departure_time":"5:59:00","lat":49.188617,"lon":16.641569,"is_passed":false},{"stop_id":"U1814Z4","name":"Životského","arrival_time":"6:01:00","departure_time":"6:01:00","lat":49.190077,"lon":16.634992,"is_passed":false},{"stop_id":"U1372Z2","name":"Masná","arrival_time":"6:03:00","departure_time":"6:03:00","lat":49.191283,"lon":16.6245,"is_passed":false},{"stop_id":"U1746Z2","name":"Vlhká","arrival_time":"6:04:00","departure_time":"6:04:00","lat":49.191852,"lon":16.619157,"is_passed":false},{"stop_id":"U1146Z7","name":"Hlavní nádraží","arrival_time":"6:07:00","departure_time":"6:15:00","lat":49.19213,"lon":16.613467,"is_passed":false}],"54629":[{"stop_id":"U1146Z8","name":"Hlavní nádraží","arrival_time":"6:15:00","departure_time":"6:15:00","lat":49.191893,"lon":16.613334,"is_passed":false},{"stop_id":"U1746Z1","name":"Vlhká","arrival_time":"6:16:00","departure_time":"6:16:00","lat":49.191847,"lon":16.618976,"is_passed":false},{"stop_id":"U1372Z5","name":"Masná","arrival_time":"6:17:00","departure_time":"6:17:00","lat":49.191189,"lon":16.626548,"is_passed":false},{"stop_id":"U1677Z1","name":"Tržní","arrival_time":"6:19:00","departure_time":"6:19:00","lat":49.189973,"lon":16.632193,"is_passed":false},{"stop_id":"U1598Z1","name":"Spáčilova","arrival_time":"6:20:00","departure_time":"6:20:00","lat":49.188674,"lon":16.640942,"is_passed":false},{"stop_id":"U1455Z1","name":"Olomoucká - u školy","arrival_time":"6:21:00","departure_time":"6:21:00","lat":49.186169,"lon":16.652958,"is_passed":false},{"stop_id":"U1665Z1","name":"Těžební","arrival_time":"6:23:00","departure_time":"6:23:00","lat":49.181966,"lon":16.657236,"is_passed":false},{"stop_id":"U1739Z1","name":"Vlastimila Pecha","arrival_time":"6:24:00","departure_time":"6:24:00","lat":49.179379,"lon":16.662741,"is_passed":false},{"stop_id":"U1741Z2","name":"Vlárská","arrival_time":"6:27:00","departure_time":"6:27:00","lat":49.180702,"lon":16.672017,"is_passed":false},{"stop_id":"U1068Z3","name":"Černovičky","arrival_time":"6:29:00","departure_time":"6:29:00","lat":49.183143,"lon":16.669108,"is_passed":false},{"stop_id":"U1757Z2","name":"Vozovna Slatina","arrival_time":"6:30:00","departure_time":"6:30:00","lat":49.182866,"lon":16.673489,"is_passed":false},{"stop_id":"U1173Z2","name":"Hviezdoslavova","arrival_time":"6:31:00","departure_time":"6:31:00","lat":49.181664,"lon":16.677149,"is_passed":false},{"stop_id":"U1323Z2","name":"Langrova","arrival_time":"6:32:00","departure_time":"6:32:00","lat":49.17982,"lon":16.68105,"is_passed":false},{"stop_id":"U1382Z2","name":"Mikulčická","arrival_time":"6:33:00","departure_time":"6:33:00","lat":49.178227,"lon":16.684944,"is_passed":false},{"stop_id":"U1297Z2","name":"Kroměřížská","arrival_time":"6:34:00","departure_time":"6:34:00","lat":49.178988,"lon":16.689151,"is_passed":false},{"stop_id":"U1577Z1","name":"Slatina, sídliště","arrival_time":"6:36:00","departure_time":"6:48:00","lat":49.181827,"lon":16.690272,"is_passed":false}],"54630":[{"stop_id":"U1577Z2","name":"Slatina, sídliště","arrival_time":"6:48:00","departure_time":"6:48:00","lat":49.181605,"lon":16.690121,"is_passed":false},{"stop_id":"U1297Z1","name":"Kroměřížská","arrival_time":"6:49:00","departure_time":"6:49:00","lat":49.178307,"lon":16.688244,"is_passed":false},{"stop_id":"U1382Z1","name":"Mikulčická","arrival_time":"6:50:00","departure_time":"6:50:00","lat":49.178464,"lon":16.683602,"is_passed":false},{"stop_id":"U1323Z1","name":"Langrova","arrival_time":"6:51:00","departure_time":"6:51:00","lat":49.180031,"lon":16.680806,"is_passed":false},{"stop_id":"U1173Z1","name":"Hviezdoslavova","arrival_time":"6:52:00","departure_time":"6:52:00","lat":49.18219,"lon":16.676025,"is_passed":false},{"stop_id":"U1757Z1","name":"Vozovna Slatina","arrival_time":"6:53:00","departure_time":"6:53:00","lat":49.183032,"lon":16.672807,"is_passed":false},{"stop_id":"U1068Z1","name":"Černovičky","arrival_time":"6:55:00","departure_time":"6:55:00","lat":49.182244,"lon":16.66894,"is_passed":false},{"stop_id":"U1741Z1","name":"Vlárská","arrival_time":"6:56:00","departure_time":"6:56:00","lat":49.180745,"lon":16.671647,"is_passed":false},{"stop_id":"U1105Z4","name":"Ericha Roučky","arrival_time":"6:58:00","departure_time":"6:58:00","lat":49.175789,"lon":16.668403,"is_passed":false},{"stop_id":"U1739Z2","name":"Vlastimila Pecha","arrival_time":"6:59:00","departure_time":"6:59:00","lat":49.179751,"lon":16.662407,"is_passed":false},{"stop_id":"U1665Z2","name":"Těžební","arrival_time":"7:00:00","departure_time":"7:00:00","lat":49.182639,"lon":16.656437,"is_passed":false},{"stop_id":"U1455Z2","name":"Olomoucká - u školy","arrival_time":"7:02:00","departure_time":"7:02:00","lat":49.186437,"lon":16.652477,"is_passed":false},{"stop_id":"U1598Z2","name":"Spáčilova","arrival_time":"7:04:00","departure_time":"7:04:00","lat":49.188617,"lon":16.641569,"is_passed":false},{"stop_id":"U1814Z4","name":"Životského","arrival_time":"7:06:00","departure_time":"7:06:00","lat":49.190077,"lon":16.634992,"is_passed":false},{"stop_id":"U1372Z2","name":"Masná","arrival_time":"7:08:00","departure_time":"7:08:00","lat":49.191283,"lon":16.6245,"is_passed":false},{"stop_id":"U1746Z2","name":"Vlhká","arrival_time":"7:09:00","departure_time":"7:09:00","lat":49.191852,"lon":16.619157,"is_passed":false},{"stop_id":"U1146Z7","name":"Hlavní nádraží","arrival_time":"7:12:00","departure_time":"7:15:00","lat":49.19213,"lon":16.613467,"is_passed":false}],"54631":[{"stop_id":"U1146Z8","name":"Hlavní nádraží","arrival_time":"7:15:00","departure_time":"7:15:00","lat":49.191893,"lon":16.613334,"is_passed":false},{"stop_id":"U1746Z1","name":"Vlhká","arrival_time":"7:16:00","departure_time":"7:16:00","lat":49.191847,"lon":16.618976,"is_passed":false},{"stop_id":"U1372Z5","name":"Masná","arrival_time":"7:18:00","departure_time":"7:18:00","lat":49.191189,"lon":16.626548,"is_passed":false},{"stop_id":"U1677Z1","name":"Tržní","arrival_time":"7:20:00","departure_time":"7:20:00","lat":49.189973,"lon":16.632193,"is_passed":false},{"stop_id":"U1598Z1","name":"Spáčilova","arrival_time":"7:21:00","departure_time":"7:21:00","lat":49.188674,"lon":16.640942,"is_passed":false},{"stop_id":"U1455Z1","name":"Olomoucká - u školy","arrival_time":"7:23:00","departure_time":"7:23:00","lat":49.186169,"lon":16.652958,"is_passed":false},{"stop_id":"U1665Z1","name":"Těžební","arrival_time":"7:25:00","departure_time":"7:25:00","lat":49.181966,"lon":16.657236,"is_passed":false},{"stop_id":"U1739Z1","name":"Vlastimila Pecha","arrival_time":"7:26:00","departure_time":"7:26:00","lat":49.179379,"lon":16.662741,"is_passed":false},{"stop_id":"U1741Z2","name":"Vlárská","arrival_time":"7:30:00","departure_time":"7:30:00","lat":49.180702,"lon":16.672017,"is_passed":false},{"stop_id":"U1068Z3","name":"Černovičky","arrival_time":"7:32:00","departure_time":"7:32:00","lat":49.183143,"lon":16.669108,"is_passed":false},{"stop_id":"U1757Z2","name":"Vozovna Slatina","arrival_time":"7:33:00","departure_time":"7:33:00","lat":49.182866,"lon":16.673489,"is_passed":false},{"stop_id":"U1173Z2","name":"Hviezdoslavova","arrival_time":"7:34:00","departure_time":"7:34:00","lat":49.181664,"lon":16.677149,"is_passed":false},{"stop_id":"U1323Z2","name":"Langrova","arrival_time":"7:35:00","departure_time":"7:35:00","lat":49.17982,"lon":16.68105,"is_passed":false},{"stop_id":"U1382Z2","name":"Mikulčická","arrival_time":"7:36:00","departure_time":"7:36:00","lat":49.178227,"lon":16.684944,"is_passed":false},{"stop_id":"U1297Z2","name":"Kroměřížská","arrival_time":"7:37:00","departure_time":"7:37:00","lat":49.178988,"lon":16.689151,"is_passed":false},{"stop_id":"U1577Z1","name":"Slatina, sídliště","arrival_time":"7:39:00","departure_time":"8:10:00","lat":49.181827,"lon":16.690272,"is_passed":false}],"54632":[{"stop_id":"U1577Z2","name":"Slatina, sídliště","arrival_time":"8:10:00","departure_time":"8:10:00","lat":49.181605,"lon":16.690121,"is_passed":false},{"stop_id":"U1297Z1","name":"Kroměřížská","arrival_time":"8:11:00","departure_time":"8:11:00","lat":49.178307,"lon":16.688244,"is_passed":false},{"stop_id":"U1382Z1","name":"Mikulčická","arrival_time":"8:12:00","departure_time":"8:12:00","lat":49.178464,"lon":16.683602,"is_passed":false},{"stop_id":"U1323Z1","name":"Langrova","arrival_time":"8:13:00","departure_time":"8:13:00","lat":49.180031,"lon":16.680806,"is_passed":false},{"stop_id":"U1173Z1","name":"Hviezdoslavova","arrival_time":"8:14:00","departure_time":"8:14:00","lat":49.18219,"lon":16.676025,"is_passed":false},{"stop_id":"U1757Z1","name":"Vozovna Slatina","arrival_time":"8:15:00","departure_time":"8:15:00","lat":49.183032,"lon":16.672807,"is_passed":false},{"stop_id":"U1068Z1","name":"Černovičky","arrival_time":"8:17:00","departure_time":"8:17:00","lat":49.182244,"lon":16.66894,"is_passed":false},{"stop_id":"U1741Z1","name":"Vlárská","arrival_time":"8:18:00","departure_time":"8:18:00","lat":49.180745,"lon":16.671647,"is_passed":false},{"stop_id":"U1105Z4","name":"Ericha Roučky","arrival_time":"8:20:00","departure_time":"8:20:00","lat":49.175789,"lon":16.668403,"is_passed":false},{"stop_id":"U1739Z2","name":"Vlastimila Pecha","arrival_time":"8:21:00","departure_time":"8:21:00","lat":49.179751,"lon":16.662407,"is_passed":false},{"stop_id":"U1665Z2","name":"Těžební","arrival_time":"8:22:00","departure_time":"8:22:00","lat":49.182639,"lon":16.656437,"is_passed":false},{"stop_id":"U1455Z2","name":"Olomoucká - u školy","arrival_time":"8:24:00","departure_time":"8:24:00","lat":49.186437,"lon":16.652477,"is_passed":false},{"stop_id":"U1598Z2","name":"Spáčilova","arrival_time":"8:26:00","departure_time":"8:26:00","lat":49.188617,"lon":16.641569,"is_passed":false},{"stop_id":"U1814Z4","name":"Životského","arrival_time":"8:28:00","departure_time":"8:28:00","lat":49.190077,"lon":16.634992,"is_passed":false},{"stop_id":"U1372Z2","name":"Masná","arrival_time":"8:30:00","departure_time":"8:30:00","lat":49.191283,"lon":16.6245,"is_passed":false},{"stop_id":"U1746Z2","name":"Vlhká","arrival_time":"8:31:00","departure_time":"8:31:00","lat":49.191852,"lon":16.619157,"is_passed":false},{"stop_id":"U1146Z7","name":"Hlavní nádraží","arrival_time":"8:34:00","departure_time":"8:36:00","lat":49.19213,"lon":16.613467,"is_passed":false}],"54633":[{"stop_id":"U1766Z2","name":"Vychodilova","arrival_time":"5:17:00","departure_time":"5:17:00","lat":49.220204,"lon":16.571445,"is_passed":false},{"stop_id":"U1528Z6","name":"Přívrat","arrival_time":"5:19:00","departure_time":"5:19:00","lat":49.218109,"lon":16.574404,"is_passed":false},{"stop_id":"U1352Z2","name":"Makovského náměstí","arrival_time":"5:19:00","departure_time":"5:19:00","lat":49.217881,"lon":16.576657,"is_passed":false},{"stop_id":"U1426Z2","name":"Náměstí Svornosti","arrival_time":"5:21:00","departure_time":"5:21:00","lat":49.215179,"lon":16.58299,"is_passed":false},{"stop_id":"U1206Z2","name":"Jindřichova","arrival_time":"5:22:00","departure_time":"5:22:00","lat":49.213132,"lon":16.583163,"is_passed":false},{"stop_id":"U1601Z2","name":"Spojovací","arrival_time":"5:23:00","departure_time":"5:23:00","lat":49.211772,"lon":16.58703,"is_passed":false},{"stop_id":"U1242Z2","name":"Klusáčkova","arrival_time":"5:25:00","departure_time":"5:25:00","lat":49.211903,"lon":16.592875,"is_passed":false},{"stop_id":"U1785Z2","name":"Zemská knihovna","arrival_time":"5:26:00","departure_time":"5:26:00","lat":49.208799,"lon":16.594624,"is_passed":false},{"stop_id":"U1626Z2","name":"Sušilova","arrival_time":"5:28:00","departure_time":"5:28:00","lat":49.204397,"lon":16.598621,"is_passed":false},{"stop_id":"U1587Z2","name":"Smetanova","arrival_time":"5:29:00","departure_time":"5:29:00","lat":49.201271,"lon":16.602293,"is_passed":false},{"stop_id":"U1073Z7","name":"Česká","arrival_time":"5:31:00","departure_time":"5:33:00","lat":49.198331,"lon":16.605663,"is_passed":false}],"54634":[{"stop_id":"U1073Z6","name":"Česká","arrival_time":"5:33:00","departure_time":"5:33:00","lat":49.198291,"lon":16.605232,"is_passed":false},{"stop_id":"U1587Z1","name":"Smetanova","arrival_time":"5:35:00","departure_time":"5:35:00","lat":49.201909,"lon":16.601644,"is_passed":false},{"stop_id":"U1626Z1","name":"Sušilova","arrival_time":"5:36:00","departure_time":"5:36:00","lat":49.204346,"lon":16.598828,"is_passed":false},{"stop_id":"U1785Z1","name":"Zemská knihovna","arrival_time":"5:37:00","departure_time":"5:37:00","lat":49.208934,"lon":16.594822,"is_passed":false},{"stop_id":"U1242Z1","name":"Klusáčkova","arrival_time":"5:38:00","departure_time":"5:38:00","lat":49.212365,"lon":16.592666,"is_passed":false},{"stop_id":"U1601Z1","name":"Spojovací","arrival_time":"5:41:00","departure_time":"5:41:00","lat":49.212099,"lon":16.586305,"is_passed":false},{"stop_id":"U1206Z1","name":"Jindřichova","arrival_time":"5:42:00","departure_time":"5:42:00","lat":49.21326,"lon":16.582924,"is_passed":false},{"stop_id":"U1426Z1","name":"Náměstí Svornosti","arrival_time":"5:43:00","departure_time":"5:43:00","lat":49.215585,"lon":16.582,"is_passed":false},{"stop_id":"U1352Z1","name":"Makovského náměstí","arrival_time":"5:44:00","departure_time":"5:44:00","lat":49.217922,"lon":16.576761,"is_passed":false},{"stop_id":"U1528Z5","name":"Přívrat","arrival_time":"5:45:00","departure_time":"5:45:00","lat":49.218247,"lon":16.574102,"is_passed":false},