{"548":[{"stop_id":"U12736Z51","name":"Letovice, železniční stanice","arrival_time":"13:57:00","departure_time":"13:57:00","lat":49.555973,"lon":16.570906,"is_passed":false},{"stop_id":"U22702Z2","name":"Letovice zastávka","arrival_time":"13:59:00","departure_time":"14:00:00","lat":49.536152,"lon":16.576186,"is_passed":false},{"stop_id":"U22701Z2","name":"Zboněk","arrival_time":"14:02:00","departure_time":"14:02:00","lat":49.520482,"lon":16.584439,"is_passed":false},{"stop_id":"U22602Z2","name":"Svitávka","arrival_time":"14:05:00","departure_time":"14:05:00","lat":49.499434,"lon":16.599208,"is_passed":false},{"stop_id":"U12676Z51","name":"Skalice nad Svitavou, žel.st.","arrival_time":"14:08:00","departure_time":"14:13:00","lat":49.480123,"lon":16.609726,"is_passed":false},{"stop_id":"U12511Z51","name":"Doubravice, žel.st.","arrival_time":"14:18:00","departure_time":"14:18:00","lat":49.438707,"lon":16.621809,"is_passed":false},{"stop_id":"U12439Z51","name":"Rájec-Jestřebí, železniční stanice","arrival_time":"14:21:00","departure_time":"14:22:00","lat":49.408206,"lon":16.627711,"is_passed":false},{"stop_id":"U22301Z2","name":"Dolní Lhota","arrival_time":"14:24:00","departure_time":"14:25:00","lat":49.386917,"lon":16.633978,"is_passed":false},{"stop_id":"U22302Z2","name":"Blansko město","arrival_time":"14:27:00","departure_time":"14:28:00","lat":49.360996,"lon":16.639464,"is_passed":false},{"stop_id":"U12342Z29","name":"Blansko, aut. st.","arrival_time":"14:30:00","departure_time":"14:31:00","lat":49.352753,"lon":16.646848,"is_passed":false},{"stop_id":"U12231Z11","name":"Adamov, železniční zastávka","arrival_time":"14:36:00","departure_time":"14:37:00","lat":49.300671,"lon":16.650653,"is_passed":false},{"stop_id":"U12230Z11","name":"Adamov, železniční stanice","arrival_time":"14:38:00","departure_time":"14:39:00","lat":49.295341,"lon":16.663538,"is_passed":false},{"stop_id":"U22101Z2","name":"Babice nad Svitavou","arrival_time":"14:42:00","departure_time":"14:42:00","lat":49.276645,"lon":16.673012,"is_passed":false},{"stop_id":"U12158Z11","name":"Bílovice nad Svitavou, žel. stanice","arrival_time":"14:46:00","departure_time":"14:47:00","lat":49.242715,"lon":16.673677,"is_passed":false},{"stop_id":"U1809Z11","name":"Židenice, nádraží","arrival_time":"14:52:00","departure_time":"14:52:00","lat":49.204282,"lon":16.636042,"is_passed":false},{"stop_id":"U1146Z98","name":"Hlavní nádraží","arrival_time":"14:59:00","departure_time":"15:06:00","lat":49.19035,"lon":16.612342,"is_passed":false},{"stop_id":"U1183Z11","name":"Chrlice, nádraží","arrival_time":"15:14:00","departure_time":"15:17:00","lat":49.132031,"lon":16.657232,"is_passed":false},{"stop_id":"U16149Z11","name":"Sokolnice, železniční stanice","arrival_time":"15:23:00","departure_time":"15:24:00","lat":49.108029,"lon":16.733459,"is_passed":false},{"stop_id":"U26101Z2","name":"Újezd u Brna","arrival_time":"15:25:00","departure_time":"15:26:00","lat":49.107297,"lon":16.745564,"is_passed":false},{"stop_id":"U26102Z2","name":"Hostěrádky-Rešov","arrival_time":"15:29:00","departure_time":"15:29:00","lat":49.119822,"lon":16.782755,"is_passed":false},{"stop_id":"U26201Z2","name":"Zbýšov","arrival_time":"15:32:00","departure_time":"15:32:00","lat":49.132691,"lon":16.806859,"is_passed":false},{"stop_id":"U16212Z11","name":"Křenovice, hor. žel. st.","arrival_time":"15:35:00","departure_time":"15:36:00","lat":49.143553,"lon":16.824564,"is_passed":false},{"stop_id":"U16228Z11","name":"Holubice, žel.st.","arrival_time":"15:40:00","departure_time":"15:53:00","lat":49.179869,"lon":16.824654,"is_passed":false}],"5480":[{"stop_id":"U1703Z6","name":"Ústřední hřbitov","arrival_time":"19:32:00","departure_time":"19:32:00","lat":49.170744,"lon":16.597612,"is_passed":false},{"stop_id":"U1466Z5","name":"Ořechovská","arrival_time":"19:35:00","departure_time":"19:35:00","lat":49.156238,"lon":16.599375,"is_passed":false},{"stop_id":"U1549Z1","name":"Rozhraní","arrival_time":"19:36:00","departure_time":"19:36:00","lat":49.155854,"lon":16.592288,"is_passed":false},{"stop_id":"U15113Z1","name":"Moravany, Bohunická cesta","arrival_time":"19:37:00","departure_time":"19:37:00","lat":49.15089,"lon":16.583503,"is_passed":false},{"stop_id":"U15114Z1","name":"Moravany, Hlavní","arrival_time":"19:38:00","departure_time":"19:38:00","lat":49.147228,"lon":16.578896,"is_passed":false},{"stop_id":"U15115Z1","name":"Moravany, Nebovidská","arrival_time":"19:39:00","departure_time":"19:39:00","lat":49.147983,"lon":16.569237,"is_passed":false},{"stop_id":"U15118Z1","name":"Nebovidy, u kostela","arrival_time":"19:41:00","departure_time":"19:41:00","lat":49.141636,"lon":16.553667,"is_passed":false},{"stop_id":"U15116Z1","name":"Nebovidy, dolní konec","arrival_time":"19:42:00","departure_time":"19:42:00","lat":49.142128,"lon":16.549075,"is_passed":false}],"5481":[{"stop_id":"U1429Z6","name":"Nemocnice Bohunice","arrival_time":"6:55:00","departure_time":"6:55:00","lat":49.175872,"lon":16.566969,"is_passed":false},{"stop_id":"U1632Z1","name":"Svážná","arrival_time":"6:57:00","departure_time":"6:57:00","lat":49.173544,"lon":16.553381,"is_passed":false},{"stop_id":"U1202Z1","name":"Jemelkova","arrival_time":"6:57:00","departure_time":"6:57:00","lat":49.173333,"lon":16.548692,"is_passed":false},{"stop_id":"U1568Z1","name":"Skalní","arrival_time":"6:59:00","departure_time":"6:59:00","lat":49.174278,"lon":16.534362,"is_passed":false},{"stop_id":"U1161Z3","name":"Hoštická","arrival_time":"7:00:00","departure_time":"7:00:00","lat":49.173743,"lon":16.529523,"is_passed":false},{"stop_id":"U1672Z1","name":"Tranzitní plynovod","arrival_time":"7:01:00","departure_time":"7:01:00","lat":49.174213,"lon":16.522313,"is_passed":false},{"stop_id":"U14107Z1","name":"Troubsko, Kovopodnik","arrival_time":"7:02:00","departure_time":"7:02:00","lat":49.175866,"lon":16.511544,"is_passed":false},{"stop_id":"U14160Z3","name":"Troubsko, Veselka","arrival_time":"7:03:00","departure_time":"7:03:00","lat":49.175899,"lon":16.503995,"is_passed":false}],"5482":[{"stop_id":"U14160Z3","name":"Troubsko, Veselka","arrival_time":"7:05:00","departure_time":"7:05:00","lat":49.175899,"lon":16.503995,"is_passed":false},{"stop_id":"U14109Z2","name":"Troubsko, obecní úřad","arrival_time":"7:07:00","departure_time":"7:07:00","lat":49.171349,"lon":16.506327,"is_passed":false},{"stop_id":"U14106Z2","name":"Troubsko, kaplička","arrival_time":"7:08:00","departure_time":"7:08:00","lat":49.168923,"lon":16.511588,"is_passed":false},{"stop_id":"U14126Z2","name":"Troubsko, Nová","arrival_time":"7:09:00","departure_time":"7:09:00","lat":49.166465,"lon":16.519273,"is_passed":false},{"stop_id":"U14110Z2","name":"Troubsko, U dráhy","arrival_time":"7:10:00","departure_time":"7:10:00","lat":49.163317,"lon":16.526862,"is_passed":false},{"stop_id":"U14105Z2","name":"Ostopovice, smyčka","arrival_time":"7:13:00","departure_time":"7:13:00","lat":49.164301,"lon":16.540971,"is_passed":false},{"stop_id":"U14104Z2","name":"Ostopovice, rozcestí","arrival_time":"7:13:00","departure_time":"7:13:00","lat":49.163133,"lon":16.542749,"is_passed":false},{"stop_id":"U14103Z2","name":"Ostopovice, U Kaple","arrival_time":"7:14:00","departure_time":"7:14:00","lat":49.161088,"lon":16.545566,"is_passed":false},{"stop_id":"U14101Z2","name":"Ostopovice, Branky","arrival_time":"7:15:00","departure_time":"7:15:00","lat":49.159942,"lon":16.548414,"is_passed":false},{"stop_id":"U1488Z2","name":"Pod dálnicí","arrival_time":"7:16:00","departure_time":"7:16:00","lat":49.163539,"lon":16.55541,"is_passed":false},{"stop_id":"U1666Z2","name":"Točná","arrival_time":"7:17:00","departure_time":"7:17:00","lat":49.164745,"lon":16.561481,"is_passed":false},{"stop_id":"U1061Z2","name":"Čermákova","arrival_time":"7:18:00","departure_time":"7:18:00","lat":49.164349,"lon":16.564689,"is_passed":false},{"stop_id":"U1627Z2","name":"Svah","arrival_time":"7:18:00","departure_time":"7:18:00","lat":49.164924,"lon":16.567717,"is_passed":false},{"stop_id":"U1273Z1","name":"Kosmonautů","arrival_time":"7:19:00","departure_time":"7:19:00","lat":49.167006,"lon":16.568017,"is_passed":false},{"stop_id":"U1472Z7","name":"Osová","arrival_time":"7:20:00","departure_time":"7:20:00","lat":49.168951,"lon":16.566714,"is_passed":false},{"stop_id":"U7050Z1","name":"ZŠ Vedlejší","arrival_time":"7:20:00","departure_time":"7:20:00","lat":49.171054,"lon":16.569191,"is_passed":false},{"stop_id":"U1748Z2","name":"Vltavská","arrival_time":"7:21:00","departure_time":"7:21:00","lat":49.172487,"lon":16.564821,"is_passed":false},{"stop_id":"U1322Z1","name":"Labská","arrival_time":"7:24:00","departure_time":"7:52:00","lat":49.17151,"lon":16.559604,"is_passed":false}],"5483":[{"stop_id":"U1322Z3","name":"Labská","arrival_time":"7:52:00","departure_time":"7:52:00","lat":49.171353,"lon":16.559418,"is_passed":false},{"stop_id":"U1748Z1","name":"Vltavská","arrival_time":"7:53:00","departure_time":"7:53:00","lat":49.172655,"lon":16.563983,"is_passed":false},{"stop_id":"U1492Z4","name":"Pod nemocnicí","arrival_time":"7:54:00","departure_time":"7:54:00","lat":49.171965,"lon":16.56858,"is_passed":false},{"stop_id":"U1472Z8","name":"Osová","arrival_time":"7:57:00","departure_time":"7:57:00","lat":49.168617,"lon":16.566306,"is_passed":false},{"stop_id":"U1273Z2","name":"Kosmonautů","arrival_time":"7:57:00","departure_time":"7:57:00","lat":49.167124,"lon":16.56745,"is_passed":false},{"stop_id":"U1627Z1","name":"Svah","arrival_time":"7:58:00","departure_time":"7:58:00","lat":49.165199,"lon":16.567969,"is_passed":false},{"stop_id":"U1061Z1","name":"Čermákova","arrival_time":"7:58:00","departure_time":"7:58:00","lat":49.164336,"lon":16.565516,"is_passed":false},{"stop_id":"U1666Z1","name":"Točná","arrival_time":"7:59:00","departure_time":"7:59:00","lat":49.16476,"lon":16.561692,"is_passed":false},{"stop_id":"U1488Z1","name":"Pod dálnicí","arrival_time":"8:00:00","departure_time":"8:00:00","lat":49.163512,"lon":16.555152,"is_passed":false},{"stop_id":"U14101Z1","name":"Ostopovice, Branky","arrival_time":"8:01:00","departure_time":"8:01:00","lat":49.159937,"lon":16.548801,"is_passed":false},{"stop_id":"U14103Z1","name":"Ostopovice, U Kaple","arrival_time":"8:02:00","departure_time":"8:02:00","lat":49.161083,"lon":16.545743,"is_passed":false},{"stop_id":"U14104Z1","name":"Ostopovice, rozcestí","arrival_time":"8:02:00","departure_time":"8:02:00","lat":49.163046,"lon":16.542924,"is_passed":false},{"stop_id":"U14105Z3","name":"Ostopovice, smyčka","arrival_time":"8:03:00","departure_time":"8:03:00","lat":49.164457,"lon":16.540725,"is_passed":false},{"stop_id":"U14102Z1","name":"Ostopovice, Lipová","arrival_time":"8:04:00","departure_time":"8:04:00","lat":49.163052,"lon":16.536032,"is_passed":false},{"stop_id":"U14110Z1","name":"Troubsko, U dráhy","arrival_time":"8:05:00","departure_time":"8:05:00","lat":49.163195,"lon":16.527182,"is_passed":false},{"stop_id":"U14126Z1","name":"Troubsko, Nová","arrival_time":"8:07:00","departure_time":"8:07:00","lat":49.166982,"lon":16.518167,"is_passed":false},{"stop_id":"U14106Z1","name":"Troubsko, kaplička","arrival_time":"8:08:00","departure_time":"8:08:00","lat":49.169013,"lon":16.511465,"is_passed":false},{"stop_id":"U14109Z1","name":"Troubsko, obecní úřad","arrival_time":"8:09:00","departure_time":"8:24:00","lat":49.171013,"lon":16.506845,"is_passed":false}],"5484":[{"stop_id":"U14109Z2","name":"Troubsko, obecní úřad","arrival_time":"8:24:00","departure_time":"8:24:00","lat":49.171349,"lon":16.506327,"is_passed":false},{"stop_id":"U14106Z2","name":"Troubsko, kaplička","arrival_time":"8:25:00","departure_time":"8:25:00","lat":49.168923,"lon":16.511588,"is_passed":false},{"stop_id":"U14126Z2","name":"Troubsko, Nová","arrival_time":"8:26:00","departure_time":"8:26:00","lat":49.166465,"lon":16.519273,"is_passed":false},{"stop_id":"U14110Z2","name":"Troubsko, U dráhy","arrival_time":"8:27:00","departure_time":"8:27:00","lat":49.163317,"lon":16.526862,"is_passed":false},{"stop_id":"U14105Z2","name":"Ostopovice, smyčka","arrival_time":"8:30:00","departure_time":"8:30:00","lat":49.164301,"lon":16.540971,"is_passed":false},{"stop_id":"U14104Z2","name":"Ostopovice, rozcestí","arrival_time":"8:30:00","departure_time":"8:30:00","lat":49.163133,"lon":16.542749,"is_passed":false},{"stop_id":"U14103Z2","name":"Ostopovice, U Kaple","arrival_time":"8:31:00","departure_time":"8:31:00","lat":49.161088,"lon":16.545566,"is_passed":false},{"stop_id":"U14101Z2","name":"Ostopovice, Branky","arrival_time":"8:32:00","departure_time":"8:32:00","lat":49.159942,"lon":16.548414,"is_passed":false},{"stop_id":"U1488Z2","name":"Pod dálnicí","arrival_time":"8:33:00","departure_time":"8:33:00","lat":49.163539,"lon":16.55541,"is_passed":false},{"stop_id":"U1666Z2","name":"Točná","arrival_time":"8:34:00","departure_time":"8:34:00","lat":49.164745,"lon":16.561481,"is_passed":false},{"stop_id":"U1061Z2","name":"Čermákova","arrival_time":"8:35:00","departure_time":"8:35:00","lat":49.164349,"lon":16.564689,"is_passed":false},{"stop_id":"U1627Z2","name":"Svah","arrival_time":"8:35:00","departure_time":"8:35:00","lat":49.164924,"lon":16.567717,"is_passed":false},{"stop_id":"U1273Z1","name":"Kosmonautů","arrival_time":"8:36:00","departure_time":"8:36:00","lat":49.167006,"lon":16.568017,"is_passed":false},{"stop_id":"U1472Z7","name":"Osová","arrival_time":"8:37:00","departure_time":"8:37:00","lat":49.168951,"lon":16.566714,"is_passed":false},{"stop_id":"U7050Z1","name":"ZŠ Vedlejší","arrival_time":"8:37:00","departure_time":"8:37:00","lat":49.171054,"lon":16.569191,"is_passed":false},{"stop_id":"U1748Z2","name":"Vltavská","arrival_time":"8:38:00","departure_time":"8:38:00","lat":49.172487,"lon":16.564821,"is_passed":false},{"stop_id":"U1322Z1","name":"Labská","arrival_time":"8:41:00","departure_time":"9:52:00","lat":49.17151,"lon":16.559604,"is_passed":false}],"5485":[{"stop_id":"U1322Z3","name":"Labská","arrival_time":"9:52:00","departure_time":"9:52:00","lat":49.171353,"lon":16.559418,"is_passed":false},{"stop_id":"U1748Z1","name":"Vltavská","arrival_time":"9:53:00","departure_time":"9:53:00","lat":49.172655,"lon":16.563983,"is_passed":false},{"stop_id":"U1492Z4","name":"Pod nemocnicí","arrival_time":"9:54:00","departure_time":"9:54:00","lat":49.171965,"lon":16.56858,"is_passed":false},{"stop_id":"U1472Z8","name":"Osová","arrival_time":"9:57:00","departure_time":"9:57:00","lat":49.168617,"lon":16.566306,"is_passed":false},{"stop_id":"U1273Z2","name":"Kosmonautů","arrival_time":"9:57:00","departure_time":"9:57:00","lat":49.167124,"lon":16.56745,"is_passed":false},{"stop_id":"U1627Z1","name":"Svah","arrival_time":"9:58:00","departure_time":"9:58:00","lat":49.165199,"lon":16.567969,"is_passed":false},{"stop_id":"U1061Z1","name":"Čermákova","arrival_time":"9:58:00","departure_time":"9:58:00","lat":49.164336,"lon":16.565516,"is_passed":false},{"stop_id":"U1666Z1","name":"Točná","arrival_time":"9:59:00","departure_time":"9:59:00","lat":49.16476,"lon":16.561692,"is_passed":false},{"stop_id":"U1488Z1","name":"Pod dálnicí","arrival_time":"10:00:00","departure_time":"10:00:00","lat":49.163512,"lon":16.555152,"is_passed":false},{"stop_id":"U14101Z1","name":"Ostopovice, Branky","arrival_time":"10:01:00","departure_time":"10:01:00","lat":49.159937,"lon":16.548801,"is_passed":false},{"stop_id":"U14103Z1","name":"Ostopovice, U Kaple","arrival_time":"10:02:00","departure_time":"10:02:00","lat":49.161083,"lon":16.545743,"is_passed":false},{"stop_id":"U14104Z1","name":"Ostopovice, rozcestí","arrival_time":"10:02:00","departure_time":"10:02:00","lat":49.163046,"lon":16.542924,"is_passed":false},{"stop_id":"U14105Z3","name":"Ostopovice, smyčka","arrival_time":"10:03:00","departure_time":"10:03:00","lat":49.164457,"lon":16.540725,"is_passed":false},{"stop_id":"U14102Z1","name":"Ostopovice, Lipová","arrival_time":"10:04:00","departure_time":"10:04:00","lat":49.163052,"lon":16.536032,"is_passed":false},{"stop_id":"U14110Z1","name":"Troubsko, U dráhy","arrival_time":"10:05:00","departure_time":"10:05:00","lat":49.163195,"lon":16.527182,"is_passed":false},{"stop_id":"U14126Z1","name":"Troubsko, Nová","arrival_time":"10:07:00","departure_time":"10:07:00","lat":49.166982,"lon":16.518167,"is_passed":false},{"stop_id":"U14106Z1","name":"Troubsko, kaplička","arrival_time":"10:08:00","departure_time":"10:08:00","lat":49.169013,"lon":16.511465,"is_passed":false},{"stop_id":"U14109Z1","name":"Troubsko, obecní úřad","arrival_time":"10:09:00","departure_time":"10:09:00","lat":49.171013,"lon":16.506845,"is_passed":false},{"stop_id":"U14108Z1","name":"Troubsko, Lísek","arrival_time":"10:12:00","departure_time":"10:12:00","lat":49.171815,"lon":16.480037,"is_passed":false},{"stop_id":"U14114Z1","name":"Omice, sokolovna","arrival_time":"10:15:00","departure_time":"10:15:00","lat":49.172023,"lon":16.455087,"is_passed":false},{"stop_id":"U14113Z1","name":"Omice, samoobsluha","arrival_time":"10:18:00","departure_time":"10:41:00","lat":49.16998,"lon":16.451412,"is_passed":false}],"5486":[{"stop_id":"U14113Z2","name":"Omice, samoobsluha","arrival_time":"10:41:00","departure_time":"10:41:00","lat":49.16998,"lon":16.451412,"is_passed":false},{"stop_id":"U14114Z2","name":"Omice, sokolovna","arrival_time":"10:42:00","departure_time":"10:42:00","lat":49.17196,"lon":16.454815,"is_passed":false},{"stop_id":"U14108Z2","name":"Troubsko, Lísek","arrival_time":"10:45:00","departure_time":"10:45:00","lat":49.171815,"lon":16.480037,"is_passed":false},{"stop_id":"U14109Z3","name":"Troubsko, obecní úřad","arrival_time":"10:49:00","departure_time":"10:49:00","lat":49.170364,"lon":16.505743,"is_passed":false},{"stop_id":"U14106Z2","name":"Troubsko, kaplička","arrival_time":"10:50:00","departure_time":"10:50:00","lat":49.168923,"lon":16.511588,"is_passed":false},{"stop_id":"U14126Z2","name":"Troubsko, Nová","arrival_time":"10:51:00","departure_time":"10:51:00","lat":49.166465,"lon":16.519273,"is_passed":false},{"stop_id":"U14110Z2","name":"Troubsko, U dráhy","arrival_time":"10:52:00","departure_time":"10:52:00","lat":49.163317,"lon":16.526862,"is_passed":false},{"stop_id":"U14105Z2","name":"Ostopovice, smyčka","arrival_time":"10:55:00","departure_time":"10:55:00","lat":49.164301,"lon":16.540971,"is_passed":false},{"stop_id":"U14104Z2","name":"Ostopovice, rozcestí","arrival_time":"10:55:00","departure_time":"10:55:00","lat":49.163133,"lon":16.542749,"is_passed":false},{"stop_id":"U14103Z2","name":"Ostopovice, U Kaple","arrival_time":"10:56:00","departure_time":"10:56:00","lat":49.161088,"lon":16.545566,"is_passed":false},{"stop_id":"U14101Z2","name":"Ostopovice, Branky","arrival_time":"10:57:00","departure_time":"10:57:00","lat":49.159942,"lon":16.548414,"is_passed":false},{"stop_id":"U1488Z2","name":"Pod dálnicí","arrival_time":"10:58:00","departure_time":"10:58:00","lat":49.163539,"lon":16.55541,"is_passed":false},{"stop_id":"U1666Z2","name":"Točná","arrival_time":"10:59:00","departure_time":"10:59:00","lat":49.164745,"lon":16.561481,"is_passed":false},{"stop_id":"U1061Z2","name":"Čermákova","arrival_time":"11:00:00","departure_time":"11:00:00","lat":49.164349,"lon":16.564689,"is_passed":false},{"stop_id":"U1627Z2","name":"Svah","arrival_time":"11:00:00","departure_time":"11:00:00","lat":49.164924,"lon":16.567717,"is_passed":false},{"stop_id":"U1273Z1","name":"Kosmonautů","arrival_time":"11:01:00","departure_time":"11:01:00","lat":49.167006,"lon":16.568017,"is_passed":false},{"stop_id":"U1472Z7","name":"Osová","arrival_time":"11:02:00","departure_time":"11:02:00","lat":49.168951,"lon":16.566714,"is_passed":false},{"stop_id":"U7050Z1","name":"ZŠ Vedlejší","arrival_time":"11:02:00","departure_time":"11:02:00","lat":49.171054,"lon":16.569191,"is_passed":false},{"stop_id":"U1748Z2","name":"Vltavská","arrival_time":"11:03:00","departure_time":"11:03:00","lat":49.172487,"lon":16.564821,"is_passed":false},{"stop_id":"U1322Z1","name":"Labská","arrival_time":"11:06:00","departure_time":"11:08:00","lat":49.17151,"lon":16.559604,"is_passed":false}],"5487":[{"stop_id":"U1429Z5","name":"Nemocnice Bohunice","arrival_time":"14:03:00","departure_time":"14:03:00","lat":49.175206,"lon":16.56694,"is_passed":false},{"stop_id":"U1492Z2","name":"Pod nemocnicí","arrival_time":"14:05:00","departure_time":"14:05:00","lat":49.172338,"lon":16.569417,"is_passed":false},{"stop_id":"U1472Z8","name":"Osová","arrival_time":"14:07:00","departure_time":"14:07:00","lat":49.168617,"lon":16.566306,"is_passed":false},{"stop_id":"U1273Z2","name":"Kosmonautů","arrival_time":"14:07:00","departure_time":"14:07:00","lat":49.167124,"lon":16.56745,"is_passed":false},{"stop_id":"U1627Z1","name":"Svah","arrival_time":"14:08:00","departure_time":"14:08:00","lat":49.165199,"lon":16.567969,"is_passed":false},{"stop_id":"U1061Z1","name":"Čermákova","arrival_time":"14:08:00","departure_time":"14:08:00","lat":49.164336,"lon":16.565516,"is_passed":false},{"stop_id":"U1666Z1","name":"Točná","arrival_time":"14:09:00","departure_time":"14:09:00","lat":49.16476,"lon":16.561692,"is_passed":false},{"stop_id":"U1488Z1","name":"Pod dálnicí","arrival_time":"14:10:00","departure_time":"14:10:00","lat":49.163512,"lon":16.555152,"is_passed":false},{"stop_id":"U14101Z1","name":"Ostopovice, Branky","arrival_time":"14:11:00","departure_time":"14:11:00","lat":49.159937,"lon":16.548801,"is_passed":false},{"stop_id":"U14103Z1","name":"Ostopovice, U Kaple","arrival_time":"14:12:00","departure_time":"14:12:00","lat":49.161083,"lon":16.545743,"is_passed":false},{"stop_id":"U14104Z1","name":"Ostopovice, rozcestí","arrival_time":"14:12:00","departure_time":"14:12:00","lat":49.163046,"lon":16.542924,"is_passed":false},{"stop_id":"U14105Z2","name":"Ostopovice, smyčka","arrival_time":"14:13:00","departure_time":"14:13:00","lat":49.164301,"lon":16.540971,"is_passed":false},{"stop_id":"U15114Z2","name":"Moravany, Hlavní","arrival_time":"14:19:00","departure_time":"14:19:00","lat":49.147097,"lon":16.578552,"is_passed":false},{"stop_id":"U15113Z2","name":"Moravany, Bohunická cesta","arrival_time":"14:20:00","departure_time":"14:20:00","lat":49.151006,"lon":16.583777,"is_passed":false},{"stop_id":"U1549Z2","name":"Rozhraní","arrival_time":"14:21:00","departure_time":"14:21:00","lat":49.155698,"lon":16.592118,"is_passed":false},{"stop_id":"U1466Z55","name":"Ořechovská","arrival_time":"14:23:00","departure_time":"14:23:00","lat":49.156238,"lon":16.599375,"is_passed":false},{"stop_id":"U1141Z2","name":"Heršpická","arrival_time":"14:26:00","departure_time":"14:26:00","lat":49.170473,"lon":16.599896,"is_passed":false},{"stop_id":"U1703Z5","name":"Ústřední hřbitov","arrival_time":"14:30:00","departure_time":"14:30:00","lat":49.171604,"lon":16.597316,"is_passed":false}],"5488":[{"stop_id":"U1703Z6","name":"Ústřední hřbitov","arrival_time":"14:52:00","departure_time":"14:52:00","lat":49.170744,"lon":16.597612,"is_passed":false},{"stop_id":"U1466Z5","name":"Ořechovská","arrival_time":"14:55:00","departure_time":"14:55:00","lat":49.156238,"lon":16.599375,"is_passed":false},{"stop_id":"U1549Z1","name":"Rozhraní","arrival_time":"14:56:00","departure_time":"14:56:00","lat":49.155854,"lon":16.592288,"is_passed":false},{"stop_id":"U15113Z1","name":"Moravany, Bohunická cesta","arrival_time":"14:57:00","departure_time":"14:57:00","lat":49.15089,"lon":16.583503,"is_passed":false},{"stop_id":"U15114Z1","name":"Moravany, Hlavní","arrival_time":"14:58:00","departure_time":"14:58:00","lat":49.147228,"lon":16.578896,"is_passed":false},{"stop_id":"U15115Z1","name":"Moravany, Nebovidská","arrival_time":"14:59:00","departure_time":"14:59:00","lat":49.147983,"lon":16.569237,"is_passed":false},{"stop_id":"U15118Z1","name":"Nebovidy, u kostela","arrival_time":"15:01:00","departure_time":"15:01:00","lat":49.141636,"lon":16.553667,"is_passed":false},{"stop_id":"U15116Z1","name":"Nebovidy, dolní konec","arrival_time":"15:02:00","departure_time":"15:04:00","lat":49.142128,"lon":16.549075,"is_passed":false}],"5489":[{"stop_id":"U15116Z2","name":"Nebovidy, dolní konec","arrival_time":"15:04:00","departure_time":"15:04:00","lat":49.141953,"lon":16.54915,"is_passed":false},{"stop_id":"U15118Z2","name":"Nebovidy, u kostela","arrival_time":"15:05:00","departure_time":"15:05:00","lat":49.141783,"lon":16.554006,"is_passed":false},{"stop_id":"U15114Z2","name":"Moravany, Hlavní","arrival_time":"15:09:00","departure_time":"15:09:00","lat":49.147097,"lon":16.578552,"is_passed":false},{"stop_id":"U15113Z2","name":"Moravany, Bohunická cesta","arrival_time":"15:10:00","departure_time":"15:10:00","lat":49.151006,"lon":16.583777,"is_passed":false},{"stop_id":"U1549Z2","name":"Rozhraní","arrival_time":"15:11:00","departure_time":"15:11:00","lat":49.155698,"lon":16.592118,"is_passed":false},{"stop_id":"U1466Z55","name":"Ořechovská","arrival_time":"15:13:00","departure_time":"15:13:00","lat":49.156238,"lon":16.599375,"is_passed":false},{"stop_id":"U1141Z2","name":"Heršpická","arrival_time":"15:16:00","departure_time":"15:16:00","lat":49.170473,"lon":16.599896,"is_passed":false},{"stop_id":"U1703Z5","name":"Ústřední hřbitov","arrival_time":"15:20:00","departure_time":"15:20:00","lat":49.171604,"lon":16.597316,"is_passed":false}],"54800":[{"stop_id":"U1301Z1","name":"Křídlovická","arrival_time":"17:18:00","departure_time":"17:18:00","lat":49.184769,"lon":16.602715,"is_passed":false},{"stop_id":"U1596Z1","name":"Soukenická","arrival_time":"17:19:00","departure_time":"17:19:00","lat":49.188555,"lon":16.60696,"is_passed":false},{"stop_id":"U1436Z3","name":"Nové sady","arrival_time":"17:20:00","departure_time":"17:20:00","lat":49.190027,"lon":16.6091,"is_passed":false},{"stop_id":"U1146Z28","name":"Hlavní nádraží","arrival_time":"17:22:00","departure_time":"17:24:00","lat":49.190798,"lon":16.611276,"is_passed":false}],"54801":[{"stop_id":"U1146Z28","name":"Hlavní nádraží","arrival_time":"17:24:00","departure_time":"17:24:00","lat":49.190798,"lon":16.611276,"is_passed":false},{"stop_id":"U1436Z3","name":"Nové sady","arrival_time":"17:25:00","departure_time":"17:25:00","lat":49.190027,"lon":16.6091,"is_passed":false},{"stop_id":"U1596Z1","name":"Soukenická","arrival_time":"17:26:00","departure_time":"17:26:00","lat":49.188555,"lon":16.60696,"is_passed":false},{"stop_id":"U1301Z1","name":"Křídlovická","arrival_time":"17:27:00","departure_time":"17:28:00","lat":49.184769,"lon":16.602715,"is_passed":false}],"54802":[{"stop_id":"U1301Z1","name":"Křídlovická","arrival_time":"17:28:00","departure_time":"17:28:00","lat":49.184769,"lon":16.602715,"is_passed":false},{"stop_id":"U1596Z1","name":"Soukenická","arrival_time":"17:29:00","departure_time":"17:29:00","lat":49.188555,"lon":16.60696,"is_passed":false},{"stop_id":"U1436Z3","name":"Nové sady","arrival_time":"17:30:00","departure_time":"17:30:00","lat":49.190027,"lon":16.6091,"is_passed":false},{"stop_id":"U1146Z28","name":"Hlavní nádraží","arrival_time":"17:32:00","departure_time":"17:34:00","lat":49.190798,"lon":16.611276,"is_passed":false}],"54803":[{"stop_id":"U1146Z28","name":"Hlavní nádraží","arrival_time":"17:34:00","departure_time":"17:34:00","lat":49.190798,"lon":16.611276,"is_passed":false},{"stop_id":"U1436Z3","name":"Nové sady","arrival_time":"17:35:00","departure_time":"17:35:00","lat":49.190027,"lon":16.6091,"is_passed":false},{"stop_id":"U1596Z1","name":"Soukenická","arrival_time":"17:36:00","departure_time":"17:36:00","lat":49.188555,"lon":16.60696,"is_passed":false},{"stop_id":"U1301Z1","name":"Křídlovická","arrival_time":"17:37:00","departure_time":"17:38:00","lat":49.184769,"lon":16.602715,"is_passed":false}],"54804":[{"stop_id":"U1301Z1","name":"Křídlovická","arrival_time":"17:38:00","departure_time":"17:38:00","lat":49.184769,"lon":16.602715,"is_passed":false},{"stop_id":"U1596Z1","name":"Soukenická","arrival_time":"17:39:00","departure_time":"17:39:00","lat":49.188555,"lon":16.60696,"is_passed":false},{"stop_id":"U1436Z3","name":"Nové sady","arrival_time":"17:40:00","departure_time":"17:40:00","lat":49.190027,"lon":16.6091,"is_passed":false},{"stop_id":"U1146Z28","name":"Hlavní nádraží","arrival_time":"17:42:00","departure_time":"17:44:00","lat":49.190798,"lon":16.611276,"is_passed":false}],"54805":[{"stop_id":"U1146Z28","name":"Hlavní nádraží","arrival_time":"17:44:00","departure_time":"17:44:00","lat":49.190798,"lon":16.611276,"is_passed":false},{"stop_id":"U1436Z3","name":"Nové sady","arrival_time":"17:45:00","departure_time":"17:45:00","lat":49.190027,"lon":16.6091,"is_passed":false},{"stop_id":"U1596Z1","name":"Soukenická","arrival_time":"17:46:00","departure_time":"17:46:00","lat":49.188555,"lon":16.60696,"is_passed":false},{"stop_id":"U1301Z1","name":"Křídlovická","arrival_time":"17:47:00","departure_time":"17:48:00","lat":49.184769,"lon":16.602715,"is_passed":false}],"54806":[{"stop_id":"U1301Z1","name":"Křídlovická","arrival_time":"17:48:00","departure_time":"17:48:00","lat":49.184769,"lon":16.602715,"is_passed":false},{"stop_id":"U1596Z1","name":"Soukenická","arrival_time":"17:49:00","departure_time":"17:49:00","lat":49.188555,"lon":16.60696,"is_passed":false},{"stop_id":"U1436Z3","name":"Nové sady","arrival_time":"17:50:00","departure_time":"17:50:00","lat":49.190027,"lon":16.6091,"is_passed":false},{"stop_id":"U1146Z28","name":"Hlavní nádraží","arrival_time":"17:52:00","departure_time":"17:54:00","lat":49.190798,"lon":16.611276,"is_passed":false}],"54807":[{"stop_id":"U1146Z28","name":"Hlavní nádraží","arrival_time":"17:54:00","departure_time":"17:54:00","lat":49.190798,"lon":16.611276,"is_passed":false},{"stop_id":"U1436Z3","name":"Nové sady","arrival_time":"17:55:00","departure_time":"17:55:00","lat":49.190027,"lon":16.6091,"is_passed":false},{"stop_id":"U1596Z1","name":"Soukenická","arrival_time":"17:56:00","departure_time":"17:56:00","lat":49.188555,"lon":16.60696,"is_passed":false},{"stop_id":"U1301Z1","name":"Křídlovická","arrival_time":"17:57:00","departure_time":"17:58:00","lat":49.184769,"lon":16.602715,"is_passed":false}],"54808":[{"stop_id":"U1301Z1","name":"Křídlovická","arrival_time":"17:58:00","departure_time":"17:58:00","lat":49.184769,"lon":16.602715,"is_passed":false},{"stop_id":"U1596Z1","name":"Soukenická","arrival_time":"17:59:00","departure_time":"17:59:00","lat":49.188555,"lon":16.60696,"is_passed":false},{"stop_id":"U1436Z3","name":"Nové sady","arrival_time":"18:00:00","departure_time":"18:00:00","lat":49.190027,"lon":16.6091,"is_passed":false},{"stop_id":"U1146Z28","name":"Hlavní nádraží","arrival_time":"18:02:00","departure_time":"18:04:00","lat":49.190798,"lon":16.611276,"is_passed":false}],"54809":[{"stop_id":"U1146Z28","name":"Hlavní nádraží","arrival_time":"18:04:00","departure_time":"18:04:00","lat":49.190798,"lon":16.611276,"is_passed":false},{"stop_id":"U1436Z3","name":"Nové sady","arrival_time":"18:05:00","departure_time":"18:05:00","lat":49.190027,"lon":16.6091,"is_passed":false},{"stop_id":"U1596Z1","name":"Soukenická","arrival_time":"18:06:00","departure_time":"18:06:00","lat":49.188555,"lon":16.60696,"is_passed":false},{"stop_id":"U1301Z1","name":"Křídlovická","arrival_time":"18:07:00","departure_time":"18:08:00","lat":49.184769,"lon":16.602715,"is_passed":false}],"54810":[{"stop_id":"U1301Z1","name":"Křídlovická","arrival_time":"18:08:00","departure_time":"18:08:00","lat":49.184769,"lon":16.602715,"is_passed":false},{"stop_id":"U1596Z1","name":"Soukenická","arrival_time":"18:09:00","departure_time":"18:09:00","lat":49.188555,"lon":16.60696,"is_passed":false},{"stop_id":"U1436Z3","name":"Nové sady","arrival_time":"18:10:00","departure_time":"18:10:00","lat":49.190027,"lon":16.6091,"is_passed":false},{"stop_id":"U1146Z28","name":"Hlavní nádraží","arrival_time":"18:12:00","departure_time":"18:14:00","lat":49.190798,"lon":16.611276,"is_passed":false}],"54811":[{"stop_id":"U1146Z28","name":"Hlavní nádraží","arrival_time":"18:14:00","departure_time":"18:14:00","lat":49.190798,"lon":16.611276,"is_passed":false},{"stop_id":"U1436Z3","name":"Nové sady","arrival_time":"18:15:00","departure_time":"18:15:00","lat":49.190027,"lon":16.6091,"is_passed":false},{"stop_id":"U1596Z1","name":"Soukenická","arrival_time":"18:16:00","departure_time":"18:16:00","lat":49.188555,"lon":16.60696,"is_passed":false},{"stop_id":"U1301Z1","name":"Křídlovická","arrival_time":"18:17:00","departure_time":"18:18:00","lat":49.184769,"lon":16.602715,"is_passed":false}],"54812":[{"stop_id":"U1301Z1","name":"Křídlovická","arrival_time":"18:18:00","departure_time":"18:18:00","lat":49.184769,"lon":16.602715,"is_passed":false},{"stop_id":"U1596Z1","name":"Soukenická","arrival_time":"18:19:00","departure_time":"18:19:00","lat":49.188555,"lon":16.60696,"is_passed":false},{"stop_id":"U1436Z3","name":"Nové sady","arrival_time":"18:20:00","departure_time":"18:20:00","lat":49.190027,"lon":16.6091,"is_passed":false},{"stop_id":"U1146Z28","name":"Hlavní nádraží","arrival_time":"18:22:00","departure_time":"18:24:00","lat":49.190798,"lon":16.611276,"is_passed":false}],"54813":[{"stop_id":"U1146Z28","name":"Hlavní nádraží","arrival_time":"18:24:00","departure_time":"18:24:00","lat":49.190798,"lon":16.611276,"is_passed":false},{"stop_id":"U1436Z3","name":"Nové sady","arrival_time":"18:25:00","departure_time":"18:25:00","lat":49.190027,"lon":16.6091,"is_passed":false},{"stop_id":"U1596Z1","name":"Soukenická","arrival_time":"18:26:00","departure_time":"18:26:00","lat":49.188555,"lon":16.60696,"is_passed":false},{"stop_id":"U1301Z1","name":"Křídlovická","arrival_time":"18:27:00","departure_time":"18:28:00","lat":49.184769,"lon":16.602715,"is_passed":false}],"54814":[{"stop_id":"U1301Z1","name":"Křídlovická","arrival_time":"18:28:00","departure_time":"18:28:00","lat":49.184769,"lon":16.602715,"is_passed":false},{"stop_id":"U1596Z1","name":"Soukenická","arrival_time":"18:29:00","departure_time":"18:29:00","lat":49.188555,"lon":16.60696,"is_passed":false},{"stop_id":"U1436Z3","name":"Nové sady","arrival_time":"18:30:00","departure_time":"18:30:00","lat":49.190027,"lon":16.6091,"is_passed":false},{"stop_id":"U1146Z28","name":"Hlavní nádraží","arrival_time":"18:32:00","departure_time":"18:34:00","lat":49.190798,"lon":16.611276,"is_passed":false}],"54815":[{"stop_id":"U1146Z28","name":"Hlavní nádraží","arrival_time":"18:34:00","departure_time":"18:34:00","lat":49.190798,"lon":16.611276,"is_passed":false},{"stop_id":"U1436Z3","name":"Nové sady","arrival_time":"18:35:00","departure_time":"18:35:00","lat":49.190027,"lon":16.6091,"is_passed":false},{"stop_id":"U1596Z1","name":"Soukenická","arrival_time":"18:36:00","departure_time":"18:36:00","lat":49.188555,"lon":16.60696,"is_passed":false},{"stop_id":"U1301Z1","name":"Křídlovická","arrival_time":"18:37:00","departure_time":"18:38:00","lat":49.184769,"lon":16.602715,"is_passed":false}],"54816":[{"stop_id":"U1301Z1","name":"Křídlovická","arrival_time":"18:38:00","departure_time":"18:38:00","lat":49.184769,"lon":16.602715,"is_passed":false},{"stop_id":"U1596Z1","name":"Soukenická","arrival_time":"18:39:00","departure_time":"18:39:00","lat":49.188555,"lon":16.60696,"is_passed":false},{"stop_id":"U1436Z3","name":"Nové sady","arrival_time":"18:40:00","departure_time":"18:40:00","lat":49.190027,"lon":16.6091,"is_passed":false},{"stop_id":"U1146Z28","name":"Hlavní nádraží","arrival_time":"18:42:00","departure_time":"18:44:00","lat":49.190798,"lon":16.611276,"is_passed":false}],"54817":[{"stop_id":"U1146Z28","name":"Hlavní nádraží","arrival_time":"18:44:00","departure_time":"18:44:00","lat":49.190798,"lon":16.611276,"is_passed":false},{"stop_id":"U1436Z3","name":"Nové sady","arrival_time":"18:45:00","departure_time":"18:45:00","lat":49.190027,"lon":16.6091,"is_passed":false},{"stop_id":"U1596Z1","name":"Soukenická","arrival_time":"18:46:00","departure_time":"18:46:00","lat":49.188555,"lon":16.60696,"is_passed":false},{"stop_id":"U1301Z1","name":"Křídlovická","arrival_time":"18:47:00","departure_time":"18:48:00","lat":49.184769,"lon":16.602715,"is_passed":false}],"54818":[{"stop_id":"U1301Z1","name":"Křídlovická","arrival_time":"18:48:00","departure_time":"18:48:00","lat":49.184769,"lon":16.602715,"is_passed":false},{"stop_id":"U1596Z1","name":"Soukenická","arrival_time":"18:49:00","departure_time":"18:49:00","lat":49.188555,"lon":16.60696,"is_passed":false},{"stop_id":"U1436Z3","name":"Nové sady","arrival_time":"18:50:00","departure_time":"18:50:00","lat":49.190027,"lon":16.6091,"is_passed":false},{"stop_id":"U1146Z28","name":"Hlavní nádraží","arrival_time":"18:52:00","departure_time":"18:54:00","lat":49.190798,"lon":16.611276,"is_passed":false}],"54819":[{"stop_id":"U1146Z28","name":"Hlavní nádraží","arrival_time":"18:54:00","departure_time":"18:54:00","lat":49.190798,"lon":16.611276,"is_passed":false},{"stop_id":"U1436Z3","name":"Nové sady","arrival_time":"18:55:00","departure_time":"18:55:00","lat":49.190027,"lon":16.6091,"is_passed":false},{"stop_id":"U1596Z1","name":"Soukenická","arrival_time":"18:56:00","departure_time":"18:56:00","lat":49.188555,"lon":16.60696,"is_passed":false},{"stop_id":"U1301Z1","name":"Křídlovická","arrival_time":"18:57:00","departure_time":"18:58:00","lat":49.184769,"lon":16.602715,"is_passed":false}],"54820":[{"stop_id":"U1301Z1","name":"Křídlovická","arrival_time":"18:58:00","departure_time":"18:58:00","lat":49.184769,"lon":16.602715,"is_passed":false},{"stop_id":"U1596Z1","name":"Soukenická","arrival_time":"18:59:00","departure_time":"18:59:00","lat":49.188555,"lon":16.60696,"is_passed":false},{"stop_id":"U1436Z3","name":"Nové sady","arrival_time":"19:00:00","departure_time":"19:00:00","lat":49.190027,"lon":16.6091,"is_passed":false},{"stop_id":"U1146Z28","name":"Hlavní nádraží","arrival_time":"19:02:00","departure_time":"19:04:00","lat":49.190798,"lon":16.611276,"is_passed":false}],"54821":[{"stop_id":"U1146Z28","name":"Hlavní nádraží","arrival_time":"19:04:00","departure_time":"19:04:00","lat":49.190798,"lon":16.611276,"is_passed":false},{"stop_id":"U1436Z3","name":"Nové sady","arrival_time":"19:05:00","departure_time":"19:05:00","lat":49.190027,"lon":16.6091,"is_passed":false},{"stop_id":"U1596Z1","name":"Soukenická","arrival_time":"19:06:00","departure_time":"19:06:00","lat":49.188555,"lon":16.60696,"is_passed":false},{"stop_id":"U1301Z1","name":"Křídlovická","arrival_time":"19:07:00","departure_time":"19:08:00","lat":49.184769,"lon":16.602715,"is_passed":false}],"54822":[{"stop_id":"U1301Z1","name":"Křídlovická","arrival_time":"19:08:00","departure_time":"19:08:00","lat":49.184769,"lon":16.602715,"is_passed":false},{"stop_id":"U1596Z1","name":"Soukenická","arrival_time":"19:09:00","departure_time":"19:09:00","lat":49.188555,"lon":16.60696,"is_passed":false},{"stop_id":"U1436Z3","name":"Nové sady","arrival_time":"19:10:00","departure_time":"19:10:00","lat":49.190027,"lon":16.6091,"is_passed":false},{"stop_id":"U1146Z28","name":"Hlavní nádraží","arrival_time":"19:12:00","departure_time":"19:14:00","lat":49.190798,"lon":16.611276,"is_passed":false}],"54823":[{"stop_id":"U1146Z28","name":"Hlavní nádraží","arrival_time":"19:14:00","departure_time":"19:14:00","lat":49.190798,"lon":16.611276,"is_passed":false},{"stop_id":"U1436Z3","name":"Nové sady","arrival_time":"19:15:00","departure_time":"19:15:00","lat":49.190027,"lon":16.6091,"is_passed":false},{"stop_id":"U1596Z1","name":"Soukenická","arrival_time":"19:16:00","departure_time":"19:16:00","lat":49.188555,"lon":16.60696,"is_passed":false},{"stop_id":"U1301Z1","name":"Křídlovická","arrival_time":"19:17:00","departure_time":"19:18:00","lat":49.184769,"lon":16.602715,"is_passed":false}],"54824":[{"stop_id":"U1301Z1","name":"Křídlovická","arrival_time":"19:18:00","departure_time":"19:18:00","lat":49.184769,"lon":16.602715,"is_passed":false},{"stop_id":"U1596Z1","name":"Soukenická","arrival_time":"19:19:00","departure_time":"19:19:00","lat":49.188555,"lon":16.60696,"is_passed":false},{"stop_id":"U1436Z3","name":"Nové sady","arrival_time":"19:20:00","departure_time":"19:20:00","lat":49.190027,"lon":16.6091,"is_passed":false},{"stop_id":"U1146Z28","name":"Hlavní nádraží","arrival_time":"19:22:00","departure_time":"19:24:00","lat":49.190798,"lon":16.611276,"is_passed":false}],"54825":[{"stop_id":"U1146Z28","name":"Hlavní nádraží","arrival_time":"19:24:00","departure_time":"19:24:00","lat":49.190798,"lon":16.611276,"is_passed":false},{"stop_id":"U1436Z3","name":"Nové sady","arrival_time":"19:25:00","departure_time":"19:25:00","lat":49.190027,"lon":16.6091,"is_passed":false},{"stop_id":"U1596Z1","name":"Soukenická","arrival_time":"19:26:00","departure_time":"19:26:00","lat":49.188555,"lon":16.60696,"is_passed":false},{"stop_id":"U1301Z1","name":"Křídlovická","arrival_time":"19:27:00","departure_time":"19:28:00","lat":49.184769,"lon":16.602715,"is_passed":false}],"54826":[{"stop_id":"U1301Z1","name":"Křídlovická","arrival_time":"19:28:00","departure_time":"19:28:00","lat":49.184769,"lon":16.602715,"is_passed":false},{"stop_id":"U1596Z1","name":"Soukenická","arrival_time":"19:29:00","departure_time":"19:29:00","lat":49.188555,"lon":16.60696,"is_passed":false},{"stop_id":"U1436Z3","name":"Nové sady","arrival_time":"19:30:00","departure_time":"19:30:00","lat":49.190027,"lon":16.6091,"is_passed":false},{"stop_id":"U1146Z28","name":"Hlavní nádraží","arrival_time":"19:32:00","departure_time":"19:34:00","lat":49.190798,"lon":16.611276,"is_passed":false}],"54827":[{"stop_id":"U1146Z28","name":"Hlavní nádraží","arrival_time":"19:34:00","departure_time":"19:34:00","lat":49.190798,"lon":16.611276,"is_passed":false},{"stop_id":"U1436Z3","name":"Nové sady","arrival_time":"19:35:00","departure_time":"19:35:00","lat":49.190027,"lon":16.6091,"is_passed":false},{"stop_id":"U1596Z1","name":"Soukenická","arrival_time":"19:36:00","departure_time":"19:36:00","lat":49.188555,"lon":16.60696,"is_passed":false},{"stop_id":"U1301Z1","name":"Křídlovická","arrival_time":"19:37:00","departure_time":"19:38:00","lat":49.184769,"lon":16.602715,"is_passed":false}],"54828":[{"stop_id":"U1301Z1","name":"Křídlovická","arrival_time":"19:38:00","departure_time":"19:38:00","lat":49.184769,"lon":16.602715,"is_passed":false},{"stop_id":"U1596Z1","name":"Soukenická","arrival_time":"19:39:00","departure_time":"19:39:00","lat":49.188555,"lon":16.60696,"is_passed":false},{"stop_id":"U1436Z3","name":"Nové sady","arrival_time":"19:40:00","departure_time":"19:40:00","lat":49.190027,"lon":16.6091,"is_passed":false},{"stop_id":"U1146Z28","name":"Hlavní nádraží","arrival_time":"19:42:00","departure_time":"19:44:00","lat":49.190798,"lon":16.611276,"is_passed":false}],"54829":[{"stop_id":"U1146Z28","name":"Hlavní nádraží","arrival_time":"19:44:00","departure_time":"19:44:00","lat":49.190798,"lon":16.611276,"is_passed":false},{"stop_id":"U1436Z3","name":"Nové sady","arrival_time":"19:45:00","departure_time":"19:45:00","lat":49.190027,"lon":16.6091,"is_passed":false},{"stop_id":"U1596Z1","name":"Soukenická","arrival_time":"19:46:00","departure_time":"19:46:00","lat":49.188555,"lon":16.60696,"is_passed":false},{"stop_id":"U1301Z1","name":"Křídlovická","arrival_time":"19:47:00","departure_time":"19:48:00","lat":49.184769,"lon":16.602715,"is_passed":false}],"54830":[{"stop_id":"U1301Z1","name":"Křídlovická","arrival_time":"19:48:00","departure_time":"19:48:00","lat":49.184769,"lon":16.602715,"is_passed":false},{"stop_id":"U1596Z1","name":"Soukenická","arrival_time":"19:49:00","departure_time":"19:49:00","lat":49.188555,"lon":16.60696,"is_passed":false},{"stop_id":"U1436Z3","name":"Nové sady","arrival_time":"19:50:00","departure_time":"19:50:00","lat":49.190027,"lon":16.6091,"is_passed":false},{"stop_id":"U1146Z28","name":"Hlavní nádraží","arrival_time":"19:52:00","departure_time":"19:54:00","lat":49.190798,"lon":16.611276,"is_passed":false}],"54831":[{"stop_id":"U1146Z28","name":"Hlavní nádraží","arrival_time":"19:54:00","departure_time":"19:54:00","lat":49.190798,"lon":16.611276,"is_passed":false},{"stop_id":"U1436Z3","name":"Nové sady","arrival_time":"19:55:00","departure_time":"19:55:00","lat":49.190027,"lon":16.6091,"is_passed":false},{"stop_id":"U1596Z1","name":"Soukenická","arrival_time":"19:56:00","departure_time":"19:56:00","lat":49.188555,"lon":16.60696,"is_passed":false},{"stop_id":"U1301Z1","name":"Křídlovická","arrival_time":"19:57:00","departure_time":"19:58:00","lat":49.184769,"lon":16.602715,"is_passed":false}],"54832":[{"stop_id":"U1301Z1","name":"Křídlovická","arrival_time":"19:58:00","departure_time":"19:58:00","lat":49.184769,"lon":16.602715,"is_passed":false},{"stop_id":"U1596Z1","name":"Soukenická","arrival_time":"19:59:00","departure_time":"19:59:00","lat":49.188555,"lon":16.60696,"is_passed":false},{"stop_id":"U1436Z3","name":"Nové sady","arrival_time":"20:00:00","departure_time":"20:00:00","lat":49.190027,"lon":16.6091,"is_passed":false},{"stop_id":"U1146Z28","name":"Hlavní nádraží","arrival_time":"20:02:00","departure_time":"20:04:00","lat":49.190798,"lon":16.611276,"is_passed":false}],"54833":[{"stop_id":"U1146Z28","name":"Hlavní nádraží","arrival_time":"20:04:00","departure_time":"20:04:00","lat":49.190798,"lon":16.611276,"is_passed":false},{"stop_id":"U1436Z3","name":"Nové sady","arrival_time":"20:05:00","departure_time":"20:05:00","lat":49.190027,"lon":16.6091,"is_passed":false},{"stop_id":"U1596Z1","name":"Soukenická","arrival_time":"20:06:00","departure_time":"20:06:00","lat":49.188555,"lon":16.60696,"is_passed":false},{"stop_id":"U1301Z1","name":"Křídlovická","arrival_time":"20:07:00","departure_time":"20:08:00","lat":49.184769,"lon":16.602715,"is_passed":false}],"54834":[{"stop_id":"U1301Z1","name":"Křídlovická","arrival_time":"20:08:00","departure_time":"20:08:00","lat":49.184769,"lon":16.602715,"is_passed":false},{"stop_id":"U1596Z1","name":"Soukenická","arrival_time":"20:09:00","departure_time":"20:09:00","lat":49.188555,"lon":16.60696,"is_passed":false},{"stop_id":"U1436Z3","name":"Nové sady","arrival_time":"20:10:00","departure_time":"20:10:00","lat":49.190027,"lon":16.6091,"is_passed":false},{"stop_id":"U1146Z28","name":"Hlavní nádraží","arrival_time":"20:12:00","departure_time":"20:14:00","lat":49.190798,"lon":16.611276,"is_passed":false}],"54835":[{"stop_id":"U1146Z28","name":"Hlavní nádraží","arrival_time":"20:14:00","departure_time":"20:14:00","lat":49.190798,"lon":16.611276,"is_passed":false},{"stop_id":"U1436Z3","name":"Nové sady","arrival_time":"20:15:00","departure_time":"20:15:00","lat":49.190027,"lon":16.6091,"is_passed":false},{"stop_id":"U1596Z1","name":"Soukenická","arrival_time":"20:16:00","departure_time":"20:16:00","lat":49.188555,"lon":16.60696,"is_passed":false},{"stop_id":"U1301Z1","name":"Křídlovická","arrival_time":"20:17:00","departure_time":"20:18:00","lat":49.184769,"lon":16.602715,"is_passed":false}],"54836":[{"stop_id":"U1301Z1","name":"Křídlovická","arrival_time":"20:18:00","departure_time":"20:18:00","lat":49.184769,"lon":16.602715,"is_passed":false},{"stop_id":"U1596Z1","name":"Soukenická","arrival_time":"20:19:00","departure_time":"20:19:00","lat":49.188555,"lon":16.60696,"is_passed":false},{"stop_id":"U1436Z3","name":"Nové sady","arrival_time":"20:20:00","departure_time":"20:20:00","lat":49.190027,"lon":16.6091,"is_passed":false},{"stop_id":"U1146Z28","name":"Hlavní nádraží","arrival_time":"20:22:00","departure_time":"20:24:00","lat":49.190798,"lon":16.611276,"is_passed":false}],"54837":[{"stop_id":"U1146Z28","name":"Hlavní nádraží","arrival_time":"20:24:00","departure_time":"20:24:00","lat":49.190798,"lon":16.611276,"is_passed":false},{"stop_id":"U1436Z3","name":"Nové sady","arrival_time":"20:25:00","departure_time":"20:25:00","lat":49.190027,"lon":16.6091,"is_passed":false},{"stop_id":"U1596Z1","name":"Soukenická","arrival_time":"20:26:00","departure_time":"20:26:00","lat":49.188555,"lon":16.60696,"is_passed":false},{"stop_id":"U1301Z1","name":"Křídlovická","arrival_time":"20:27:00","departure_time":"20:28:00","lat":49.184769,"lon":16.602715,"is_passed":false}],"54838":[{"stop_id":"U1301Z1","name":"Křídlovická","arrival_time":"20:28:00","departure_time":"20:28:00","lat":49.184769,"lon":16.602715,"is_passed":false},{"stop_id":"U1596Z1","name":"Soukenická","arrival_time":"20:29:00","departure_time":"20:29:00","lat":49.188555,"lon":16.60696,"is_passed":false},{"stop_id":"U1436Z3","name":"Nové sady","arrival_time":"20:30:00","departure_time":"20:30:00","lat":49.190027,"lon":16.6091,"is_passed":false},{"stop_id":"U1146Z28","name":"Hlavní nádraží","arrival_time":"20:32:00","departure_time":"20:34:00","lat":49.190798,"lon":16.611276,"is_passed":false}],"54839":[{"stop_id":"U1146Z28","name":"Hlavní nádraží","arrival_time":"20:34:00","departure_time":"20:34:00","lat":49.190798,"lon":16.611276,"is_passed":false},{"stop_id":"U1436Z3","name":"Nové sady","arrival_time":"20:35:00","departure_time":"20:35:00","lat":49.190027,"lon":16.6091,"is_passed":false},{"stop_id":"U1596Z1","name":"Soukenická","arrival_time":"20:36:00","departure_time":"20:36:00","lat":49.188555,"lon":16.60696,"is_passed":false},{"stop_id":"U1301Z1","name":"Křídlovická","arrival_time":"20:37:00","departure_time":"20:38:00","lat":49.184769,"lon":16.602715,"is_passed":false}],"54840":[{"stop_id":"U1301Z1","name":"Křídlovická","arrival_time":"20:38:00","departure_time":"20:38:00","lat":49.184769,"lon":16.602715,"is_passed":false},{"stop_id":"U1596Z1","name":"Soukenická","arrival_time":"20:39:00","departure_time":"20:39:00","lat":49.188555,"lon":16.60696,"is_passed":false},{"stop_id":"U1436Z3","name":"Nové sady","arrival_time":"20:40:00","departure_time":"20:40:00","lat":49.190027,"lon":16.6091,"is_passed":false},{"stop_id":"U1146Z28","name":"Hlavní nádraží","arrival_time":"20:42:00","departure_time":"20:46:00","lat":49.190798,"lon":16.611276,"is_passed":false}],"54841":[{"stop_id":"U1146Z28","name":"Hlavní nádraží","arrival_time":"20:46:00","departure_time":"20:46:00","lat":49.190798,"lon":16.611276,"is_passed":false},{"stop_id":"U1436Z3","name":"Nové sady","arrival_time":"20:47:00","departure_time":"20:47:00","lat":49.190027,"lon":16.6091,"is_passed":false},{"stop_id":"U1596Z1","name":"Soukenická","arrival_time":"20:48:00","departure_time":"20:48:00","lat":49.188555,"lon":16.60696,"is_passed":false},{"stop_id":"U1301Z1","name":"Křídlovická","arrival_time":"20:49:00","departure_time":"20:53:00","lat":49.184769,"lon":16.602715,"is_passed":false}],"54842":[{"stop_id":"U1301Z1","name":"Křídlovická","arrival_time":"20:53:00","departure_time":"20:53:00","lat":49.184769,"lon":16.602715,"is_passed":false},{"stop_id":"U1596Z1","name":"Soukenická","arrival_time":"20:54:00","departure_time":"20:54:00","lat":49.188555,"lon":16.60696,"is_passed":false},{"stop_id":"U1436Z3","name":"Nové sady","arrival_time":"20:55:00","departure_time":"20:55:00","lat":49.190027,"lon":16.6091,"is_passed":false},{"stop_id":"U1146Z28","name":"Hlavní nádraží","arrival_time":"20:57:00","departure_time":"21:01:00","lat":49.190798,"lon":16.611276,"is_passed":false}],"54843":[{"stop_id":"U1146Z28","name":"Hlavní nádraží","arrival_time":"21:01:00","departure_time":"21:01:00","lat":49.190798,"lon":16.611276,"is_passed":false},{"stop_id":"U1436Z3","name":"Nové sady","arrival_time":"21:02:00","departure_time":"21:02:00","lat":49.190027,"lon":16.6091,"is_passed":false},{"stop_id":"U1596Z1","name":"Soukenická","arrival_time":"21:03:00","departure_time":"21:03:00","lat":49.188555,"lon":16.60696,"is_passed":false},{"stop_id":"U1301Z1","name":"Křídlovická","arrival_time":"21:04:00","departure_time":"21:08:00","lat":49.184769,"lon":16.602715,"is_passed":false}],"54844":[{"stop_id":"U1301Z1","name":"Křídlovická","arrival_time":"21:08:00","departure_time":"21:08:00","lat":49.184769,"lon":16.602715,"is_passed":false},{"stop_id":"U1596Z1","name":"Soukenická","arrival_time":"21:09:00","departure_time":"21:09:00","lat":49.188555,"lon":16.60696,"is_passed":false},{"stop_id":"U1436Z3","name":"Nové sady","arrival_time":"21:10:00","departure_time":"21:10:00","lat":49.190027,"lon":16.6091,"is_passed":false},{"stop_id":"U1146Z28","name":"Hlavní nádraží","arrival_time":"21:12:00","departure_time":"21:16:00","lat":49.190798,"lon":16.611276,"is_passed":false}],"54845":[{"stop_id":"U1146Z28","name":"Hlavní nádraží","arrival_time":"21:16:00","departure_time":"21:16:00","lat":49.190798,"lon":16.611276,"is_passed":false},{"stop_id":"U1436Z3","name":"Nové sady","arrival_time":"21:17:00","departure_time":"21:17:00","lat":49.190027,"lon":16.6091,"is_passed":false},{"stop_id":"U1596Z1","name":"Soukenická","arrival_time":"21:18:00","departure_time":"21:18:00","lat":49.188555,"lon":16.60696,"is_passed":false},{"stop_id":"U1301Z1","name":"Křídlovická","arrival_time":"21:19:00","departure_time":"21:23:00","lat":49.184769,"lon":16.602715,"is_passed":false}],"54846":[{"stop_id":"U1301Z1","name":"Křídlovická","arrival_time":"21:23:00","departure_time":"21:23:00","lat":49.184769,"lon":16.602715,"is_passed":false},{"stop_id":"U1596Z1","name":"Soukenická","arrival_time":"21:24:00","departure_time":"21:24:00","lat":49.188555,"lon":16.60696,"is_passed":false},{"stop_id":"U1436Z3","name":"Nové sady","arrival_time":"21:25:00","departure_time":"21:25:00","lat":49.190027,"lon":16.6091,"is_passed":false},{"stop_id":"U1146Z28","name":"Hlavní nádraží","arrival_time":"21:27:00","departure_time":"21:31:00","lat":49.190798,"lon":16.611276,"is_passed":false}],"54847":[{"stop_id":"U1146Z28","name":"Hlavní nádraží","arrival_time":"21:31:00","departure_time":"21:31:00","lat":49.190798,"lon":16.611276,"is_passed":false},{"stop_id":"U1436Z3","name":"Nové sady","arrival_time":"21:32:00","departure_time":"21:32:00","lat":49.190027,"lon":16.6091,"is_passed":false},{"stop_id":"U1596Z1","name":"Soukenická","arrival_time":"21:33:00","departure_time":"21:33:00","lat":49.188555,"lon":16.60696,"is_passed":false},{"stop_id":"U1301Z1","name":"Křídlovická","arrival_time":"21:34:00","departure_time":"21:38:00","lat":49.184769,"lon":16.602715,"is_passed":false}],"54848":[{"stop_id":"U1301Z1","name":"Křídlovická","arrival_time":"21:38:00","departure_time":"21:38:00","lat":49.184769,"lon":16.602715,"is_passed":false},{"stop_id":"U1596Z1","name":"Soukenická","arrival_time":"21:39:00","departure_time":"21:39:00","lat":49.188555,"lon":16.60696,"is_passed":false},{"stop_id":"U1436Z3","name":"Nové sady","arrival_time":"21:40:00","departure_time":"21:40:00","lat":49.190027,"lon":16.6091,"is_passed":false},{"stop_id":"U1146Z28","name":"Hlavní nádraží","arrival_time":"21:42:00","departure_time":"21:46:00","lat":49.190798,"lon":16.611276,"is_passed":false}],"54849":[{"stop_id":"U1146Z28","name":"Hlavní nádraží","arrival_time":"21:46:00","departure_time":"21:46:00","lat":49.190798,"lon":16.611276,"is_passed":false},{"stop_id":"U1436Z3","name":"Nové sady","arrival_time":"21:47:00","departure_time":"21:47:00","lat":49.190027,"lon":16.6091,"is_passed":false},{"stop_id":"U1596Z1","name":"Soukenická","arrival_time":"21:48:00","departure_time":"21:48:00","lat":49.188555,"lon":16.60696,"is_passed":false},{"stop_id":"U1301Z1","name":"Křídlovická","arrival_time":"21:49:00","departure_time":"21:53:00","lat":49.184769,"lon":16.602715,"is_passed":false}],"54850":[{"stop_id":"U1301Z1","name":"Křídlovická","arrival_time":"21:53:00","departure_time":"21:53:00","lat":49.184769,"lon":16.602715,"is_passed":false},{"stop_id":"U1596Z1","name":"Soukenická","arrival_time":"21:54:00","departure_time":"21:54:00","lat":49.188555,"lon":16.60696,"is_passed":false},{"stop_id":"U1436Z3","name":"Nové sady","arrival_time":"21:55:00","departure_time":"21:55:00","lat":49.190027,"lon":16.6091,"is_passed":false},{"stop_id":"U1146Z28","name":"Hlavní nádraží","arrival_time":"21:57:00","departure_time":"22:01:00","lat":49.190798,"lon":16.611276,"is_passed":false}],"54851":[{"stop_id":"U1146Z28","name":"Hlavní nádraží","arrival_time":"22:01:00","departure_time":"22:01:00","lat":49.190798,"lon":16.611276,"is_passed":false},{"stop_id":"U1436Z3","name":"Nové sady","arrival_time":"22:02:00","departure_time":"22:02:00","lat":49.190027,"lon":16.6091,"is_passed":false},{"stop_id":"U1596Z1","name":"Soukenická","arrival_time":"22:03:00","departure_time":"22:03:00","lat":49.188555,"lon":16.60696,"is_passed":false},{"stop_id":"U1301Z1","name":"Křídlovická","arrival_time":"22:04:00","departure_time":"22:08:00","lat":49.184769,"lon":16.602715,"is_passed":false}],"54852":[{"stop_id":"U1301Z1","name":"Křídlovická","arrival_time":"22:08:00","departure_time":"22:08:00","lat":49.184769,"lon":16.602715,"is_passed":false},{"stop_id":"U1596Z1","name":"Soukenická","arrival_time":"22:09:00","departure_time":"22:09:00","lat":49.188555,"lon":16.60696,"is_passed":false},{"stop_id":"U1436Z3","name":"Nové sady","arrival_time":"22:10:00","departure_time":"22:10:00","lat":49.190027,"lon":16.6091,"is_passed":false},{"stop_id":"U1146Z28","name":"Hlavní nádraží","arrival_time":"22:12:00","departure_time":"22:16:00","lat":49.190798,"lon":16.611276,"is_passed":false}],"54853":[{"stop_id":"U1146Z28","name":"Hlavní nádraží","arrival_time":"22:16:00","departure_time":"22:16:00","lat":49.190798,"lon":16.611276,"is_passed":false},{"stop_id":"U1436Z3","name":"Nové sady","arrival_time":"22:17:00","departure_time":"22:17:00","lat":49.190027,"lon":16.6091,"is_passed":false},{"stop_id":"U1596Z1","name":"Soukenická","arrival_time":"22:18:00","departure_time":"22:18:00","lat":49.188555,"lon":16.60696,"is_passed":false},{"stop_id":"U1301Z1","name":"Křídlovická","arrival_time":"22:19:00","departure_time":"22:23:00","lat":49.184769,"lon":16.602715,"is_passed":false}],"54854":[{"stop_id":"U1301Z1","name":"Křídlovická","arrival_time":"22:23:00","departure_time":"22:23:00","lat":49.184769,"lon":16.602715,"is_passed":false},{"stop_id":"U1596Z1","name":"Soukenická","arrival_time":"22:24:00","departure_time":"22:24:00","lat":49.188555,"lon":16.60696,"is_passed":false},{"stop_id":"U1436Z3","name":"Nové sady","arrival_time":"22:25:00","departure_time":"22:25:00","lat":49.190027,"lon":16.6091,"is_passed":false},{"stop_id":"U1146Z28","name":"Hlavní nádraží","arrival_time":"22:27:00","departure_time":"22:31:00","lat":49.190798,"lon":16.611276,"is_passed":false}],"54855":[{"stop_id":"U1146Z28","name":"Hlavní nádraží","arrival_time":"22:31:00","departure_time":"22:31:00","lat":49.190798,"lon":16.611276,"is_passed":false},{"stop_id":"U1436Z3","name":"Nové sady","arrival_time":"22:32:00","departure_time":"22:32:00","lat":49.190027,"lon":16.6091,"is_passed":false},{"stop_id":"U1596Z1","name":"Soukenická","arrival_time":"22:33:00","departure_time":"22:33:00","lat":49.188555,"lon":16.60696,"is_passed":false},{"stop_id":"U1301Z1","name":"Křídlovická","arrival_time":"22:34:00","departure_time":"22:38:00","lat":49.184769,"lon":16.602715,"is_passed":false}],"54856":[{"stop_id":"U1301Z1","name":"Křídlovická","arrival_time":"22:38:00","departure_time":"22:38:00","lat":49.184769,"lon":16.602715,"is_passed":false},{"stop_id":"U1596Z1","name":"Soukenická","arrival_time":"22:39:00","departure_time":"22:39:00","lat":49.188555,"lon":16.60696,"is_passed":false},{"stop_id":"U1436Z3","name":"Nové sady","arrival_time":"22:40:00","departure_time":"22:40:00","lat":49.190027,"lon":16.6091,"is_passed":false},{"stop_id":"U1146Z28","name":"Hlavní nádraží","arrival_time":"22:42:00","departure_time":"22:46:00","lat":49.190798,"lon":16.611276,"is_passed":false}],"54857":[{"stop_id":"U1146Z28","name":"Hlavní nádraží","arrival_time":"22:46:00","departure_time":"22:46:00","lat":49.190798,"lon":16.611276,"is_passed":false},{"stop_id":"U1436Z3","name":"Nové sady","arrival_time":"22:47:00","departure_time":"22:47:00","lat":49.190027,"lon":16.6091,"is_passed":false},{"stop_id":"U1596Z1","name":"Soukenická","arrival_time":"22:48:00","departure_time":"22:48:00","lat":49.188555,"lon":16.60696,"is_passed":false},{"stop_id":"U1301Z1","name":"Křídlovická","arrival_time":"22:49:00","departure_time":"22:53:00","lat":49.184769,"lon":16.602715,"is_passed":false}],"54858":[{"stop_id":"U1208Z2","name":"Jírova","arrival_time":"4:43:00","departure_time":"4:43:00","lat":49.209141,"lon":16.686376,"is_passed":false},{"stop_id":"U1277Z2","name":"Kotlanova","arrival_time":"4:44:00","departure_time":"4:44:00","lat":49.209763,"lon":16.681048,"is_passed":false},{"stop_id":"U1368Z2","name":"Masarova","arrival_time":"4:45:00","departure_time":"4:45:00","lat":49.206997,"lon":16.677557,"is_passed":false},{"stop_id":"U1438Z2","name":"Novolíšeňská","arrival_time":"4:47:00","departure_time":"4:47:00","lat":49.201911,"lon":16.669965,"is_passed":false},{"stop_id":"U1347Z2","name":"Líšeňská","arrival_time":"4:48:00","departure_time":"4:48:00","lat":49.197285,"lon":16.665584,"is_passed":false},{"stop_id":"U1026Z2","name":"Bílá hora","arrival_time":"4:48:00","departure_time":"4:48:00","lat":49.194271,"lon":16.667395,"is_passed":false},{"stop_id":"U1018Z2","name":"Bělohorská","arrival_time":"4:49:00","departure_time":"4:49:00","lat":49.190098,"lon":16.663444,"is_passed":false},{"stop_id":"U1291Z2","name":"Krásného","arrival_time":"4:51:00","departure_time":"4:51:00","lat":49.19067,"lon":16.649391,"is_passed":false},{"stop_id":"U1810Z2","name":"Židovský hřbitov","arrival_time":"4:52:00","departure_time":"4:52:00","lat":49.191517,"lon":16.641078,"is_passed":false},{"stop_id":"U1116Z2","name":"Geislerova","arrival_time":"4:53:00","departure_time":"4:53:00","lat":49.192754,"lon":16.634757,"is_passed":false},{"stop_id":"U1814Z2","name":"Životského","arrival_time":"4:55:00","departure_time":"4:55:00","lat":49.190687,"lon":16.633889,"is_passed":false},{"stop_id":"U1372Z2","name":"Masná","arrival_time":"4:57:00","departure_time":"4:57:00","lat":49.191283,"lon":16.6245,"is_passed":false},{"stop_id":"U1746Z2","name":"Vlhká","arrival_time":"4:58:00","departure_time":"4:58:00","lat":49.191852,"lon":16.619157,"is_passed":false},{"stop_id":"U1146Z3","name":"Hlavní nádraží","arrival_time":"5:01:00","departure_time":"5:01:00","lat":49.191063,"lon":16.611972,"is_passed":false},{"stop_id":"U1436Z1","name":"Nové sady","arrival_time":"5:02:00","departure_time":"5:02:00","lat":49.190116,"lon":16.609025,"is_passed":false},{"stop_id":"U1176Z1","name":"Hybešova","arrival_time":"5:04:00","departure_time":"5:04:00","lat":49.189322,"lon":16.602863,"is_passed":false},{"stop_id":"U1721Z1","name":"Václavská","arrival_time":"5:05:00","departure_time":"5:05:00","lat":49.188681,"lon":16.597217,"is_passed":false},{"stop_id":"U1512Z1","name":"Poříčí","arrival_time":"5:07:00","departure_time":"5:07:00","lat":49.187182,"lon":16.594633,"is_passed":false},{"stop_id":"U1430Z1","name":"Nemocnice Milosrdných bratří","arrival_time":"5:08:00","departure_time":"5:08:00","lat":49.183515,"lon":16.594981,"is_passed":false},{"stop_id":"U1053Z1","name":"Celní","arrival_time":"5:10:00","departure_time":"5:10:00","lat":49.179109,"lon":16.595328,"is_passed":false},{"stop_id":"U1293Z1","name":"Krematorium","arrival_time":"5:12:00","departure_time":"5:12:00","lat":49.172308,"lon":16.586427,"is_passed":false},{"stop_id":"U1021Z1","name":"Běloruská","arrival_time":"5:13:00","departure_time":"5:13:00","lat":49.170755,"lon":16.580895,"is_passed":false},{"stop_id":"U1653Z3","name":"Švermova","arrival_time":"5:14:00","departure_time":"5:14:00","lat":49.169262,"lon":16.573246,"is_passed":false},{"stop_id":"U1472Z1","name":"Osová","arrival_time":"5:15:00","departure_time":"5:15:00","lat":49.169023,"lon":16.56653,"is_passed":false},{"stop_id":"U1779Z1","name":"Západní brána","arrival_time":"5:16:00","departure_time":"5:16:00","lat":49.173486,"lon":16.567125,"is_passed":false},{"stop_id":"U1429Z1","name":"Nemocnice Bohunice","arrival_time":"5:18:00","departure_time":"5:25:00","lat":49.175849,"lon":16.567334,"is_passed":false}],"54859":[{"stop_id":"U1429Z2","name":"Nemocnice Bohunice","arrival_time":"5:25:00","departure_time":"5:25:00","lat":49.175849,"lon":16.567334,"is_passed":false},{"stop_id":"U1779Z2","name":"Západní brána","arrival_time":"5:25:00","departure_time":"5:25:00","lat":49.173114,"lon":16.566938,"is_passed":false},{"stop_id":"U1472Z2","name":"Osová","arrival_time":"5:27:00","departure_time":"5:27:00","lat":49.169005,"lon":16.567514,"is_passed":false},{"stop_id":"U1653Z4","name":"Švermova","arrival_time":"5:28:00","departure_time":"5:28:00","lat":49.169191,"lon":16.573122,"is_passed":false},{"stop_id":"U1021Z2","name":"Běloruská","arrival_time":"5:29:00","departure_time":"5:29:00","lat":49.170662,"lon":16.580727,"is_passed":false},{"stop_id":"U1293Z2","name":"Krematorium","arrival_time":"5:30:00","departure_time":"5:30:00","lat":49.172257,"lon":16.586414,"is_passed":false},{"stop_id":"U1053Z2","name":"Celní","arrival_time":"5:33:00","departure_time":"5:33:00","lat":49.179607,"lon":16.595242,"is_passed":false},{"stop_id":"U1430Z2","name":"Nemocnice Milosrdných bratří","arrival_time":"5:34:00","departure_time":"5:34:00","lat":49.183867,"lon":16.595061,"is_passed":false},{"stop_id":"U1512Z2","name":"Poříčí","arrival_time":"5:36:00","departure_time":"5:36:00","lat":49.187409,"lon":16.594512,"is_passed":false},{"stop_id":"U1721Z2","name":"Václavská","arrival_time":"5:38:00","departure_time":"5:38:00","lat":49.188715,"lon":16.596878,"is_passed":false},{"stop_id":"U1176Z2","name":"Hybešova","arrival_time":"5:39:00","departure_time":"5:39:00","lat":49.189209,"lon":16.603364,"is_passed":false},{"stop_id":"U1436Z2","name":"Nové sady","arrival_time":"5:42:00","departure_time":"5:42:00","lat":49.190222,"lon":16.609403,"is_passed":false},{"stop_id":"U1146Z4","name":"Hlavní nádraží","arrival_time":"5:44:00","departure_time":"5:44:00","lat":49.19125,"lon":16.612674,"is_passed":false},{"stop_id":"U1746Z1","name":"Vlhká","arrival_time":"5:45:00","departure_time":"5:45:00","lat":49.191847,"lon":16.618976,"is_passed":false},{"stop_id":"U1372Z1","name":"Masná","arrival_time":"5:47:00","departure_time":"5:47:00","lat":49.191244,"lon":16.625642,"is_passed":false},{"stop_id":"U1814Z1","name":"Životského","arrival_time":"5:49:00","departure_time":"5:49:00","lat":49.191036,"lon":16.633968,"is_passed":false},{"stop_id":"U1116Z1","name":"Geislerova","arrival_time":"5:50:00","departure_time":"5:50:00","lat":49.19278,"lon":16.635345,"is_passed":false},{"stop_id":"U1810Z1","name":"Židovský hřbitov","arrival_time":"5:51:00","departure_time":"5:51:00","lat":49.191354,"lon":16.641711,"is_passed":false},{"stop_id":"U1291Z1","name":"Krásného","arrival_time":"5:52:00","departure_time":"5:52:00","lat":49.190434,"lon":16.650066,"is_passed":false},{"stop_id":"U1018Z1","name":"Bělohorská","arrival_time":"5:54:00","departure_time":"5:54:00","lat":49.190201,"lon":16.6637,"is_passed":false},{"stop_id":"U1026Z1","name":"Bílá hora","arrival_time":"5:55:00","departure_time":"5:55:00","lat":49.194847,"lon":16.667411,"is_passed":false},{"stop_id":"U1347Z1","name":"Líšeňská","arrival_time":"5:55:00","departure_time":"5:55:00","lat":49.197876,"lon":16.664849,"is_passed":false},{"stop_id":"U1438Z1","name":"Novolíšeňská","arrival_time":"5:57:00","departure_time":"5:57:00","lat":49.202014,"lon":16.670642,"is_passed":false},{"stop_id":"U1368Z1","name":"Masarova","arrival_time":"5:59:00","departure_time":"5:59:00","lat":49.206997,"lon":16.677557,"is_passed":false},{"stop_id":"U1277Z1","name":"Kotlanova","arrival_time":"6:00:00","departure_time":"6:00:00","lat":49.209949,"lon":16.681681,"is_passed":false},{"stop_id":"U1208Z1","name":"Jírova","arrival_time":"6:01:00","departure_time":"6:01:00","lat":49.208552,"lon":16.686687,"is_passed":false},{"stop_id":"U1384Z1","name":"Mifkova","arrival_time":"6:02:00","departure_time":"6:15:00","lat":49.207315,"lon":16.692496,"is_passed":false}],"54860":[{"stop_id":"U1384Z2","name":"Mifkova","arrival_time":"6:15:00","departure_time":"6:15:00","lat":49.207315,"lon":16.692496,"is_passed":false},{"stop_id":"U1208Z2","name":"Jírova","arrival_time":"6:16:00","departure_time":"6:16:00","lat":49.209141,"lon":16.686376,"is_passed":false},{"stop_id":"U1277Z2","name":"Kotlanova","arrival_time":"6:17:00","departure_time":"6:17:00","lat":49.209763,"lon":16.681048,"is_passed":false},{"stop_id":"U1368Z2","name":"Masarova","arrival_time":"6:18:00","departure_time":"6:18:00","lat":49.206997,"lon":16.677557,"is_passed":false},{"stop_id":"U1438Z2","name":"Novolíšeňská","arrival_time":"6:20:00","departure_time":"6:20:00","lat":49.201911,"lon":16.669965,"is_passed":false},{"stop_id":"U1347Z2","name":"Líšeňská","arrival_time":"6:21:00","departure_time":"6:21:00","lat":49.197285,"lon":16.665584,"is_passed":false},{"stop_id":"U1026Z2","name":"Bílá hora","arrival_time":"6:21:00","departure_time":"6:21:00","lat":49.194271,"lon":16.667395,"is_passed":false},{"stop_id":"U1018Z2","name":"Bělohorská","arrival_time":"6:22:00","departure_time":"6:22:00","lat":49.190098,"lon":16.663444,"is_passed":false},{"stop_id":"U1291Z2","name":"Krásného","arrival_time":"6:24:00","departure_time":"6:24:00","lat":49.19067,"lon":16.649391,"is_passed":false},{"stop_id":"U1810Z2","name":"Židovský hřbitov","arrival_time":"6:25:00","departure_time":"6:25:00","lat":49.191517,"lon":16.641078,"is_passed":false},{"stop_id":"U1116Z2","name":"Geislerova","arrival_time":"6:26:00","departure_time":"6:26:00","lat":49.192754,"lon":16.634757,"is_passed":false},{"stop_id":"U1814Z2","name":"Životského","arrival_time":"6:28:00","departure_time":"6:28:00","lat":49.190687,"lon":16.633889,"is_passed":false},{"stop_id":"U1372Z2","name":"Masná","arrival_time":"6:30:00","departure_time":"6:30:00","lat":49.191283,"lon":16.6245,"is_passed":false},{"stop_id":"U1746Z2","name":"Vlhká","arrival_time":"6:31:00","departure_time":"6:31:00","lat":49.191852,"lon":16.619157,"is_passed":false},{"stop_id":"U1146Z3","name":"Hlavní nádraží","arrival_time":"6:34:00","departure_time":"6:34:00","lat":49.191063,"lon":16.611972,"is_passed":false},{"stop_id":"U1436Z1","name":"Nové sady","arrival_time":"6:35:00","departure_time":"6:35:00","lat":49.190116,"lon":16.609025,"is_passed":false},{"stop_id":"U1176Z1","name":"Hybešova","arrival_time":"6:37:00","departure_time":"6:37:00","lat":49.189322,"lon":16.602863,"is_passed":false},{"stop_id":"U1721Z1","name":"Václavská","arrival_time":"6:38:00","departure_time":"6:38:00","lat":49.188681,"lon":16.597217,"is_passed":false},{"stop_id":"U1512Z1","name":"Poříčí","arrival_time":"6:40:00","departure_time":"6:40:00","lat":49.187182,"lon":16.594633,"is_passed":false},{"stop_id":"U1430Z1","name":"Nemocnice Milosrdných bratří","arrival_time":"6:41:00","departure_time":"6:41:00","lat":49.183515,"lon":16.594981,"is_passed":false},{"stop_id":"U1053Z1","name":"Celní","arrival_time":"6:43:00","departure_time":"6:43:00","lat":49.179109,"lon":16.595328,"is_passed":false},{"stop_id":"U1293Z1","name":"Krematorium","arrival_time":"6:46:00","departure_time":"6:46:00","lat":49.172308,"lon":16.586427,"is_passed":false},{"stop_id":"U1021Z1","name":"Běloruská","arrival_time":"6:47:00","departure_time":"6:47:00","lat":49.170755,"lon":16.580895,"is_passed":false},{"stop_id":"U1653Z3","name":"Švermova","arrival_time":"6:48:00","departure_time":"6:48:00","lat":49.169262,"lon":16.573246,"is_passed":false},{"stop_id":"U1472Z1","name":"Osová","arrival_time":"6:49:00","departure_time":"6:49:00","lat":49.169023,"lon":16.56653,"is_passed":false},{"stop_id":"U1779Z1","name":"Západní brána","arrival_time":"6:51:00","departure_time":"6:51:00","lat":49.173486,"lon":16.567125,"is_passed":false},{"stop_id":"U1429Z1","name":"Nemocnice Bohunice","arrival_time":"6:53:00","departure_time":"7:02:00","lat":49.175849,"lon":16.567334,"is_passed":false}],"54861":[{"stop_id":"U1429Z2","name":"Nemocnice Bohunice","arrival_time":"7:02:00","departure_time":"7:02:00","lat":49.175849,"lon":16.567334,"is_passed":false},{"stop_id":"U1779Z2","name":"Západní brána","arrival_time":"7:02:00","departure_time":"7:02:00","lat":49.173114,"lon":16.566938,"is_passed":false},{"stop_id":"U1472Z2","name":"Osová","arrival_time":"7:04:00","departure_time":"7:04:00","lat":49.169005,"lon":16.567514,"is_passed":false},{"stop_id":"U1653Z4","name":"Švermova","arrival_time":"7:05:00","departure_time":"7:05:00","lat":49.169191,"lon":16.573122,"is_passed":false},{"stop_id":"U1021Z2","name":"Běloruská","arrival_time":"7:06:00","departure_time":"7:07:00","lat":49.170662,"lon":16.580727,"is_passed":false},{"stop_id":"U1293Z2","name":"Krematorium","arrival_time":"7:08:00","departure_time":"7:08:00","lat":49.172257,"lon":16.586414,"is_passed":false},{"stop_id":"U1053Z2","name":"Celní","arrival_time":"7:11:00","departure_time":"7:11:00","lat":49.179607,"lon":16.595242,"is_passed":false},{"stop_id":"U1430Z2","name":"Nemocnice Milosrdných bratří","arrival_time":"7:12:00","departure_time":"7:12:00","lat":49.183867,"lon":16.595061,"is_passed":false},{"stop_id":"U1512Z2","name":"Poříčí","arrival_time":"7:14:00","departure_time":"7:14:00","lat":49.187409,"lon":16.594512,"is_passed":false},{"stop_id":"U1721Z2","name":"Václavská","arrival_time":"7:16:00","departure_time":"7:16:00","lat":49.188715,"lon":16.596878,"is_passed":false},{"stop_id":"U1176Z2","name":"Hybešova","arrival_time":"7:17:00","departure_time":"7:17:00","lat":49.189209,"lon":16.603364,"is_passed":false},{"stop_id":"U1436Z2","name":"Nové sady","arrival_time":"7:20:00","departure_time":"7:20:00","lat":49.190222,"lon":16.609403,"is_passed":false},{"stop_id":"U1146Z4","name":"Hlavní nádraží","arrival_time":"7:22:00","departure_time":"7:22:00","lat":49.19125,"lon":16.612674,"is_passed":false},{"stop_id":"U1746Z1","name":"Vlhká","arrival_time":"7:23:00","departure_time":"7:23:00","lat":49.191847,"lon":16.618976,"is_passed":false},{"stop_id":"U1372Z1","name":"Masná","arrival_time":"7:25:00","departure_time":"7:25:00","lat":49.191244,"lon":16.625642,"is_passed":false},{"stop_id":"U1814Z1","name":"Životského","arrival_time":"7:27:00","departure_time":"7:27:00","lat":49.191036,"lon":16.633968,"is_passed":false},{"stop_id":"U1116Z1","name":"Geislerova","arrival_time":"7:28:00","departure_time":"7:28:00","lat":49.19278,"lon":16.635345,"is_passed":false},{"stop_id":"U1810Z1","name":"Židovský hřbitov","arrival_time":"7:29:00","departure_time":"7:29:00","lat":49.191354,"lon":16.641711,"is_passed":false},{"stop_id":"U1291Z1","name":"Krásného","arrival_time":"7:30:00","departure_time":"7:30:00","lat":49.190434,"lon":16.650066,"is_passed":false},{"stop_id":"U1018Z1","name":"Bělohorská","arrival_time":"7:32:00","departure_time":"7:32:00","lat":49.190201,"lon":16.6637,"is_passed":false},{"stop_id":"U1026Z1","name":"Bílá hora","arrival_time":"7:33:00","departure_time":"7:33:00","lat":49.194847,"lon":16.667411,"is_passed":false},{"stop_id":"U1347Z1","name":"Líšeňská","arrival_time":"7:33:00","departure_time":"7:33:00","lat":49.197876,"lon":16.664849,"is_passed":false},{"stop_id":"U1438Z1","name":"Novolíšeňská","arrival_time":"7:35:00","departure_time":"7:35:00","lat":49.202014,"lon":16.670642,"is_passed":false},{"stop_id":"U1368Z1","name":"Masarova","arrival_time":"7:37:00","departure_time":"7:37:00","lat":49.206997,"lon":16.677557,"is_passed":false},{"stop_id":"U1277Z1","name":"Kotlanova","arrival_time":"7:38:00","departure_time":"7:38:00","lat":49.209949,"lon":16.681681,"is_passed":false},{"stop_id":"U1208Z1","name":"Jírova","arrival_time":"7:40:00","departure_time":"7:40:00","lat":49.208552,"lon":16.686687,"is_passed":false},{"stop_id":"U1384Z1","name":"Mifkova","arrival_time":"7:41:00","departure_time":"7:49:00","lat":49.207315,"lon":16.692496,"is_passed":false}],"54862":[{"stop_id":"U1384Z2","name":"Mifkova","arrival_time":"7:49:00","departure_time":"7:49:00","lat":49.207315,"lon":16.692496,"is_passed":false},{"stop_id":"U1208Z2","name":"Jírova","arrival_time":"7:50:00","departure_time":"7:50:00","lat":49.209141,"lon":16.686376,"is_passed":false},{"stop_id":"U1277Z2","name":"Kotlanova","arrival_time":"7:51:00","departure_time":"7:51:00","lat":49.209763,"lon":16.681048,"is_passed":false},{"stop_id":"U1368Z2","name":"Masarova","arrival_time":"7:52:00","departure_time":"7:52:00","lat":49.206997,"lon":16.677557,"is_passed":false},{"stop_id":"U1438Z2","name":"Novolíšeňská","arrival_time":"7:54:00","departure_time":"7:54:00","lat":49.201911,"lon":16.669965,"is_passed":false},{"stop_id":"U1347Z2","name":"Líšeňská","arrival_time":"7:55:00","departure_time":"7:55:00","lat":49.197285,"lon":16.665584,"is_passed":false},{"stop_id":"U1026Z2","name":"Bílá hora","arrival_time":"7:55:00","departure_time":"7:55:00","lat":49.194271,"lon":16.667395,"is_passed":false},{"stop_id":"U1018Z2","name":"Bělohorská","arrival_time":"7:56:00","departure_time":"7:56:00","lat":49.190098,"lon":16.663444,"is_passed":false},{"stop_id":"U1291Z2","name":"Krásného","arrival_time":"7:58:00","departure_time":"7:58:00","lat":49.19067,"lon":16.649391,"is_passed":false},{"stop_id":"U1810Z2","name":"Židovský hřbitov","arrival_time":"7:59:00","departure_time":"7:59:00","lat":49.191517,"lon":16.641078,"is_passed":false},{"stop_id":"U1116Z2","name":"Geislerova","arrival_time":"8:00:00","departure_time":"8:00:00","lat":49.192754,"lon":16.634757,"is_passed":false},{"stop_id":"U1814Z2","name":"Životského","arrival_time":"8:02:00","departure_time":"8:02:00","lat":49.190687,"lon":16.633889,"is_passed":false},{"stop_id":"U1372Z2","name":"Masná","arrival_time":"8:04:00","departure_time":"8:04:00","lat":49.191283,"lon":16.6245,"is_passed":false},{"stop_id":"U1746Z2","name":"Vlhká","arrival_time":"8:05:00","departure_time":"8:05:00","lat":49.191852,"lon":16.619157,"is_passed":false},{"stop_id":"U1146Z3","name":"Hlavní nádraží","arrival_time":"8:08:00","departure_time":"8:08:00","lat":49.191063,"lon":16.611972,"is_passed":false},{"stop_id":"U1436Z1","name":"Nové sady","arrival_time":"8:09:00","departure_time":"8:09:00","lat":49.190116,"lon":16.609025,"is_passed":false},{"stop_id":"U1176Z1","name":"Hybešova","arrival_time":"8:11:00","departure_time":"8:11:00","lat":49.189322,"lon":16.602863,"is_passed":false},{"stop_id":"U1721Z1","name":"Václavská","arrival_time":"8:12:00","departure_time":"8:12:00","lat":49.188681,"lon":16.597217,"is_passed":false},{"stop_id":"U1512Z1","name":"Poříčí","arrival_time":"8:14:00","departure_time":"8:14:00","lat":49.187182,"lon":16.594633,"is_passed":false},{"stop_id":"U1430Z1","name":"Nemocnice Milosrdných bratří","arrival_time":"8:15:00","departure_time":"8:15:00","lat":49.183515,"lon":16.594981,"is_passed":false},{"stop_id":"U1053Z1","name":"Celní","arrival_time":"8:17:00","departure_time":"8:17:00","lat":49.179109,"lon":16.595328,"is_passed":false},{"stop_id":"U1293Z1","name":"Krematorium","arrival_time":"8:20:00","departure_time":"8:20:00","lat":49.172308,"lon":16.586427,"is_passed":false},{"stop_id":"U1021Z1","name":"Běloruská","arrival_time":"8:21:00","departure_time":"8:21:00","lat":49.170755,"lon":16.580895,"is_passed":false},{"stop_id":"U1653Z3","name":"Švermova","arrival_time":"8:22:00","departure_time":"8:22:00","lat":49.169262,"lon":16.573246,"is_passed":false},{"stop_id":"U1472Z1","name":"Osová","arrival_time":"8:23:00","departure_time":"8:23:00","lat":49.169023,"lon":16.56653,"is_passed":false},{"stop_id":"U1779Z1","name":"Západní brána","arrival_time":"8:25:00","departure_time":"8:25:00","lat":49.173486,"lon":16.567125,"is_passed":false},{"stop_id":"U1429Z1","name":"Nemocnice Bohunice","arrival_time":"8:27:00","departure_time":"8:35:00","lat":49.175849,"lon":16.567334,"is_passed":false}],"54863":[{"stop_id":"U1429Z2","name":"Nemocnice Bohunice","arrival_time":"8:35:00","departure_time":"8:35:00","lat":49.175849,"lon":16.567334,"is_passed":false},{"stop_id":"U1779Z2","name":"Západní brána","arrival_time":"8:35:00","departure_time":"8:35:00","lat":49.173114,"lon":16.566938,"is_passed":false},{"stop_id":"U1472Z2","name":"Osová","arrival_time":"8:37:00","departure_time":"8:37:00","lat":49.169005,"lon":16.567514,"is_passed":false},{"stop_id":"U1653Z4","name":"Švermova","arrival_time":"8:38:00","departure_time":"8:38:00","lat":49.169191,"lon":16.573122,"is_passed":false},{"stop_id":"U1021Z2","name":"Běloruská","arrival_time":"8:39:00","departure_time":"8:40:00","lat":49.170662,"lon":16.580727,"is_passed":false},{"stop_id":"U1293Z2","name":"Krematorium","arrival_time":"8:41:00","departure_time":"8:41:00","lat":49.172257,"lon":16.586414,"is_passed":false},{"stop_id":"U1053Z2","name":"Celní","arrival_time":"8:44:00","departure_time":"8:44:00","lat":49.179607,"lon":16.595242,"is_passed":false},{"stop_id":"U1430Z2","name":"Nemocnice Milosrdných bratří","arrival_time":"8:45:00","departure_time":"8:45:00","lat":49.183867,"lon":16.595061,"is_passed":false},{"stop_id":"U1512Z2","name":"Poříčí","arrival_time":"8:47:00","departure_time":"8:47:00","lat":49.187409,"lon":16.594512,"is_passed":false},{"stop_id":"U1721Z2","name":"Václavská","arrival_time":"8:49:00","departure_time":"8:49:00","lat":49.188715,"lon":16.596878,"is_passed":false},{"stop_id":"U1176Z2","name":"Hybešova","arrival_time":"8:50:00","departure_time":"8:50:00","lat":49.189209,"lon":16.603364,"is_passed":false},{"stop_id":"U1436Z2","name":"Nové sady","arrival_time":"8:53:00","departure_time":"8:53:00","lat":49.190222,"lon":16.609403,"is_passed":false},{"stop_id":"U1146Z4","name":"Hlavní nádraží","arrival_time":"8:55:00","departure_time":"8:55:00","lat":49.19125,"lon":16.612674,"is_passed":false},{"stop_id":"U1746Z1","name":"Vlhká","arrival_time":"8:56:00","departure_time":"8:56:00","lat":49.191847,"lon":16.618976,"is_passed":false},{"stop_id":"U1372Z1","name":"Masná","arrival_time":"8:58:00","departure_time":"8:58:00","lat":49.191244,"lon":16.625642,"is_passed":false},{"stop_id":"U1814Z1","name":"Životského","arrival_time":"9:00:00","departure_time":"9:00:00","lat":49.191036,"lon":16.633968,"is_passed":false},{"stop_id":"U1116Z1","name":"Geislerova","arrival_time":"9:01:00","departure_time":"9:01:00","lat":49.19278,"lon":16.635345,"is_passed":false},{"stop_id":"U1810Z1","name":"Židovský hřbitov","arrival_time":"9:02:00","departure_time":"9:02:00","lat":49.191354,"lon":16.641711,"is_passed":false},{"stop_id":"U1291Z1","name":"Krásného","arrival_time":"9:03:00","departure_time":"9:03:00","lat":49.190434,"lon":16.650066,"is_passed":false},{"stop_id":"U1018Z1","name":"Bělohorská","arrival_time":"9:05:00","departure_time":"9:05:00","lat":49.190201,"lon":16.6637,"is_passed":false},{"stop_id":"U1026Z1","name":"Bílá hora","arrival_time":"9:06:00","departure_time":"9:06:00","lat":49.194847,"lon":16.667411,"is_passed":false},{"stop_id":"U1347Z1","name":"Líšeňská","arrival_time":"9:06:00","departure_time":"9:06:00","lat":49.197876,"lon":16.664849,"is_passed":false},{"stop_id":"U1438Z1","name":"Novolíšeňská","arrival_time":"9:08:00","departure_time":"9:08:00","lat":49.202014,"lon":16.670642,"is_passed":false},{"stop_id":"U1368Z1","name":"Masarova","arrival_time":"9:10:00","departure_time":"9:10:00","lat":49.206997,"lon":16.677557,"is_passed":false},{"stop_id":"U1277Z1","name":"Kotlanova","arrival_time":"9:11:00","departure_time":"9:11:00","lat":49.209949,"lon":16.681681,"is_passed":false},{"stop_id":"U1208Z1","name":"Jírova","arrival_time":"9:13:00","departure_time":"9:13:00","lat":49.208552,"lon":16.686687,"is_passed":false},{"stop_id":"U1384Z1","name":"Mifkova","arrival_time":"9:14:00","departure_time":"9:22:00","lat":49.207315,"lon":16.692496,"is_passed":false}],"54864":[{"stop_id":"U1384Z2","name":"Mifkova","arrival_time":"9:22:00","departure_time":"9:22:00","lat":49.207315,"lon":16.692496,"is_passed":false},{"stop_id":"U1208Z2","name":"Jírova","arrival_time":"9:23:00","departure_time":"9:23:00","lat":49.209141,"lon":16.686376,"is_passed":false},{"stop_id":"U1277Z2","name":"Kotlanova","arrival_time":"9:24:00","departure_time":"9:24:00","lat":49.209763,"lon":16.681048,"is_passed":false},{"stop_id":"U1368Z2","name":"Masarova","arrival_time":"9:25:00","departure_time":"9:25:00","lat":49.206997,"lon":16.677557,"is_passed":false},{"stop_id":"U1438Z2","name":"Novolíšeňská","arrival_time":"9:27:00","departure_time":"9:27:00","lat":49.201911,"lon":16.669965,"is_passed":false},{"stop_id":"U1347Z2","name":"Líšeňská","arrival_time":"9:28:00","departure_time":"9:28:00","lat":49.197285,"lon":16.665584,"is_passed":false},{"stop_id":"U1026Z2","name":"Bílá hora","arrival_time":"9:28:00","departure_time":"9:28:00","lat":49.194271,"lon":16.667395,"is_passed":false},{"stop_id":"U1018Z2","name":"Bělohorská","arrival_time":"9:29:00","departure_time":"9:29:00","lat":49.190098,"lon":16.663444,"is_passed":false},{"stop_id":"U1291Z2","name":"Krásného","arrival_time":"9:31:00","departure_time":"9:31:00","lat":49.19067,"lon":16.649391,"is_passed":false},{"stop_id":"U1810Z2","name":"Židovský hřbitov","arrival_time":"9:32:00","departure_time":"9:32:00","lat":49.191517,"lon":16.641078,"is_passed":false},{"stop_id":"U1116Z2","name":"Geislerova","arrival_time":"9:33:00","departure_time":"9:33:00","lat":49.192754,"lon":16.634757,"is_passed":false},{"stop_id":"U1814Z2","name":"Životského","arrival_time":"9:35:00","departure_time":"9:35:00","lat":49.190687,"lon":16.633889,"is_passed":false},{"stop_id":"U1372Z2","name":"Masná","arrival_time":"9:37:00","departure_time":"9:37:00","lat":49.191283,"lon":16.6245,"is_passed":false},{"stop_id":"U1746Z2","name":"Vlhká","arrival_time":"9:38:00","departure_time":"9:38:00","lat":49.191852,"lon":16.619157,"is_passed":false},{"stop_id":"U1146Z3","name":"Hlavní nádraží","arrival_time":"9:41:00","departure_time":"9:41:00","lat":49.191063,"lon":16.611972,"is_passed":false},{"stop_id":"U1436Z1","name":"Nové sady","arrival_time":"9:42:00","departure_time":"9:42:00","lat":49.190116,"lon":16.609025,"is_passed":false},{"stop_id":"U1176Z1","name":"Hybešova","arrival_time":"9:44:00","departure_time":"9:44:00","lat":49.189322,"lon":16.602863,"is_passed":false},{"stop_id":"U1721Z1","name":"Václavská","arrival_time":"9:45:00","departure_time":"9:45:00","lat":49.188681,"lon":16.597217,"is_passed":false},{"stop_id":"U1512Z1","name":"Poříčí","arrival_time":"9:47:00","departure_time":"9:47:00","lat":49.187182,"lon":16.594633,"is_passed":false},{"stop_id":"U1430Z1","name":"Nemocnice Milosrdných bratří","arrival_time":"9:48:00","departure_time":"9:48:00","lat":49.183515,"lon":16.594981,"is_passed":false},{"stop_id":"U1053Z1","name":"Celní","arrival_time":"9:50:00","departure_time":"9:50:00","lat":49.179109,"lon":16.595328,"is_passed":false},{"stop_id":"U1293Z1","name":"Krematorium","arrival_time":"9:53:00","departure_time":"9:53:00","lat":49.172308,"lon":16.586427,"is_passed":false},{"stop_id":"U1021Z1","name":"Běloruská","arrival_time":"9:54:00","departure_time":"9:54:00","lat":49.170755,"lon":16.580895,"is_passed":false},{"stop_id":"U1653Z3","name":"Švermova","arrival_time":"9:55:00","departure_time":"9:55:00","lat":49.169262,"lon":16.573246,"is_passed":false},{"stop_id":"U1472Z1","name":"Osová","arrival_time":"9:56:00","departure_time":"9:56:00","lat":49.169023,"lon":16.56653,"is_passed":false},{"stop_id":"U1779Z1","name":"Západní brána","arrival_time":"9:58:00","departure_time":"9:58:00","lat":49.173486,"lon":16.567125,"is_passed":false},{"stop_id":"U1429Z1","name":"Nemocnice Bohunice","arrival_time":"10:00:00","departure_time":"10:09:00","lat":49.175849,"lon":16.567334,"is_passed":false}],"54865":[{"stop_id":"U1429Z2","name":"Nemocnice Bohunice","arrival_time":"10:09:00","departure_time":"10:09:00","lat":49.175849,"lon":16.567334,"is_passed":false},{"stop_id":"U1779Z2","name":"Západní brána","arrival_time":"10:09:00","departure_time":"10:09:00","lat":49.173114,"lon":16.566938,"is_passed":false},{"stop_id":"U1472Z2","name":"Osová","arrival_time":"10:11:00","departure_time":"10:11:00","lat":49.169005,"lon":16.567514,"is_passed":false},{"stop_id":"U1653Z4","name":"Švermova","arrival_time":"10:12:00","departure_time":"10:12:00","lat":49.169191,"lon":16.573122,"is_passed":false},{"stop_id":"U1021Z2","name":"Běloruská","arrival_time":"10:13:00","departure_time":"10:13:00","lat":49.170662,"lon":16.580727,"is_passed":false},{"stop_id":"U1293Z2","name":"Krematorium","arrival_time":"10:14:00","departure_time":"10:14:00","lat":49.172257,"lon":16.586414,"is_passed":false},{"stop_id":"U1053Z2","name":"Celní","arrival_time":"10:17:00","departure_time":"10:17:00","lat":49.179607,"lon":16.595242,"is_passed":false},{"stop_id":"U1430Z2","name":"Nemocnice Milosrdných bratří","arrival_time":"10:18:00","departure_time":"10:18:00","lat":49.183867,"lon":16.595061,"is_passed":false},{"stop_id":"U1512Z2","name":"Poříčí","arrival_time":"10:20:00","departure_time":"10:20:00","lat":49.187409,"lon":16.594512,"is_passed":false},{"stop_id":"U1721Z2","name":"Václavská","arrival_time":"10:22:00","departure_time":"10:22:00","lat":49.188715,"lon":16.596878,"is_passed":false},{"stop_id":"U1176Z2","name":"Hybešova","arrival_time":"10:23:00","departure_time":"10:23:00","lat":49.189209,"lon":16.603364,"is_passed":false},{"stop_id":"U1436Z2","name":"Nové sady","arrival_time":"10:26:00","departure_time":"10:26:00","lat":49.190222,"lon":16.609403,"is_passed":false},{"stop_id":"U1146Z4","name":"Hlavní nádraží","arrival_time":"10:28:00","departure_time":"10:28:00","lat":49.19125,"lon":16.612674,"is_passed":false},{"stop_id":"U1746Z1","name":"Vlhká","arrival_time":"10:29:00","departure_time":"10:29:00","lat":49.191847,"lon":16.618976,"is_passed":false},{"stop_id":"U1372Z1","name":"Masná","arrival_time":"10:31:00","departure_time":"10:31:00","lat":49.191244,"lon":16.625642,"is_passed":false},{"stop_id":"U1814Z1","name":"Životského","arrival_time":"10:33:00","departure_time":"10:33:00","lat":49.191036,"lon":16.633968,"is_passed":false},{"stop_id":"U1116Z1","name":"Geislerova","arrival_time":"10:34:00","departure_time":"10:34:00","lat":49.19278,"lon":16.635345,"is_passed":false},{"stop_id":"U1810Z1","name":"Židovský hřbitov","arrival_time":"10:35:00","departure_time":"10:35:00","lat":49.191354,"lon":16.641711,"is_passed":false},{"stop_id":"U1291Z1","name":"Krásného","arrival_time":"10:36:00","departure_time":"10:36:00","lat":49.190434,"lon":16.650066,"is_passed":false},{"stop_id":"U1018Z1","name":"Bělohorská","arrival_time":"10:38:00","departure_time":"10:38:00","lat":49.190201,"lon":16.6637,"is_passed":false},{"stop_id":"U1026Z1","name":"Bílá hora","arrival_time":"10:39:00","departure_time":"10:39:00","lat":49.194847,"lon":16.667411,"is_passed":false},{"stop_id":"U1347Z1","name":"Líšeňská","arrival_time":"10:39:00","departure_time":"10:39:00","lat":49.197876,"lon":16.664849,"is_passed":false},{"stop_id":"U1438Z1","name":"Novolíšeňská","arrival_time":"10:41:00","departure_time":"10:41:00","lat":49.202014,"lon":16.670642,"is_passed":false},{"stop_id":"U1368Z1","name":"Masarova","arrival_time":"10:43:00","departure_time":"10:43:00","lat":49.206997,"lon":16.677557,"is_passed":false},{"stop_id":"U1277Z1","name":"Kotlanova","arrival_time":"10:44:00","departure_time":"10:44:00","lat":49.209949,"lon":16.681681,"is_passed":false},{"stop_id":"U1208Z1","name":"Jírova","arrival_time":"10:46:00","departure_time":"10:46:00","lat":49.208552,"lon":16.686687,"is_passed":false},{"stop_id":"U1384Z1","name":"Mifkova","arrival_time":"10:47:00","departure_time":"10:55:00","lat":49.207315,"lon":16.692496,"is_passed":false}],"54866":[{"stop_id":"U1384Z2","name":"Mifkova","arrival_time":"10:55:00","departure_time":"10:55:00","lat":49.207315,"lon":16.692496,"is_passed":false},{"stop_id":"U1208Z2","name":"Jírova","arrival_time":"10:56:00","departure_time":"10:56:00","lat":49.209141,"lon":16.686376,"is_passed":false},{"stop_id":"U1277Z2","name":"Kotlanova","arrival_time":"10:57:00","departure_time":"10:57:00","lat":49.209763,"lon":16.681048,"is_passed":false},{"stop_id":"U1368Z2","name":"Masarova","arrival_time":"10:58:00","departure_time":"10:58:00","lat":49.206997,"lon":16.677557,"is_passed":false},{"stop_id":"U1438Z2","name":"Novolíšeňská","arrival_time":"11:00:00","departure_time":"11:00:00","lat":49.201911,"lon":16.669965,"is_passed":false},{"stop_id":"U1347Z2","name":"Líšeňská","arrival_time":"11:01:00","departure_time":"11:01:00","lat":49.197285,"lon":16.665584,"is_passed":false},{"stop_id":"U1026Z2","name":"Bílá hora","arrival_time":"11:01:00","departure_time":"11:01:00","lat":49.194271,"lon":16.667395,"is_passed":false},{"stop_id":"U1018Z2","name":"Bělohorská","arrival_time":"11:02:00","departure_time":"11:02:00","lat":49.190098,"lon":16.663444,"is_passed":false},{"stop_id":"U1291Z2","name":"Krásného","arrival_time":"11:04:00","departure_time":"11:04:00","lat":49.19067,"lon":16.649391,"is_passed":false},{"stop_id":"U1810Z2","name":"Židovský hřbitov","arrival_time":"11:05:00","departure_time":"11:05:00","lat":49.191517,"lon":16.641078,"is_passed":false},{"stop_id":"U1116Z2","name":"Geislerova","arrival_time":"11:06:00","departure_time":"11:06:00","lat":49.192754,"lon":16.634757,"is_passed":false},{"stop_id":"U1814Z2","name":"Životského","arrival_time":"11:08:00","departure_time":"11:08:00","lat":49.190687,"lon":16.633889,"is_passed":false},{"stop_id":"U1372Z2","name":"Masná","arrival_time":"11:10:00","departure_time":"11:10:00","lat":49.191283,"lon":16.6245,"is_passed":false},{"stop_id":"U1746Z2","name":"Vlhká","arrival_time":"11:11:00","departure_time":"11:11:00","lat":49.191852,"lon":16.619157,"is_passed":false},{"stop_id":"U1146Z3","name":"Hlavní nádraží","arrival_time":"11:14:00","departure_time":"11:14:00","lat":49.191063,"lon":16.611972,"is_passed":false},{"stop_id":"U1436Z1","name":"Nové sady","arrival_time":"11:15:00","departure_time":"11:15:00","lat":49.190116,"lon":16.609025,"is_passed":false},{"stop_id":"U1176Z1","name":"Hybešova","arrival_time":"11:17:00","departure_time":"11:17:00","lat":49.189322,"lon":16.602863,"is_passed":false},{"stop_id":"U1721Z1","name":"Václavská","arrival_time":"11:18:00","departure_time":"11:18:00","lat":49.188681,"lon":16.597217,"is_passed":false},{"stop_id":"U1512Z1","name":"Poříčí","arrival_time":"11:20:00","departure_time":"11:20:00","lat":49.187182,"lon":16.594633,"is_passed":false},{"stop_id":"U1430Z1","name":"Nemocnice Milosrdných bratří","arrival_time":"11:21:00","departure_time":"11:21:00","lat":49.183515,"lon":16.594981,"is_passed":false},{"stop_id":"U1053Z1","name":"Celní","arrival_time":"11:23:00","departure_time":"11:23:00","lat":49.179109,"lon":16.595328,"is_passed":false},{"stop_id":"U1293Z1","name":"Krematorium","arrival_time":"11:26:00","departure_time":"11:26:00","lat":49.172308,"lon":16.586427,"is_passed":false},{"stop_id":"U1021Z1","name":"Běloruská","arrival_time":"11:27:00","departure_time":"11:27:00","lat":49.170755,"lon":16.580895,"is_passed":false},{"stop_id":"U1653Z3","name":"Švermova","arrival_time":"11:28:00","departure_time":"11:28:00","lat":49.169262,"lon":16.573246,"is_passed":false},{"stop_id":"U1472Z1","name":"Osová","arrival_time":"11:29:00","departure_time":"11:29:00","lat":49.169023,"lon":16.56653,"is_passed":false},{"stop_id":"U1779Z1","name":"Západní brána","arrival_time":"11:31:00","departure_time":"11:31:00","lat":49.173486,"lon":16.567125,"is_passed":false},{"stop_id":"U1429Z1","name":"Nemocnice Bohunice","arrival_time":"11:33:00","departure_time":"11:42:00","lat":49.175849,"lon":16.567334,"is_passed":false}],"54867":[{"stop_id":"U1429Z2","name":"Nemocnice Bohunice","arrival_time":"11:42:00","departure_time":"11:42:00","lat":49.175849,"lon":16.567334,"is_passed":false},{"stop_id":"U1779Z2","name":"Západní brána","arrival_time":"11:42:00","departure_time":"11:42:00","lat":49.173114,"lon":16.566938,"is_passed":false},{"stop_id":"U1472Z2","name":"Osová","arrival_time":"11:44:00","departure_time":"11:44:00","lat":49.169005,"lon":16.567514,"is_passed":false},{"stop_id":"U1653Z4","name":"Švermova","arrival_time":"11:45:00","departure_time":"11:45:00","lat":49.169191,"lon":16.573122,"is_passed":false},{"stop_id":"U1021Z2","name":"Běloruská","arrival_time":"11:46:00","departure_time":"11:47:00","lat":49.170662,"lon":16.580727,"is_passed":false},{"stop_id":"U1293Z2","name":"Krematorium","arrival_time":"11:48:00","departure_time":"11:48:00","lat":49.172257,"lon":16.586414,"is_passed":false},{"stop_id":"U1053Z2","name":"Celní","arrival_time":"11:51:00","departure_time":"11:51:00","lat":49.179607,"lon":16.595242,"is_passed":false},{"stop_id":"U1430Z2","name":"Nemocnice Milosrdných bratří","arrival_time":"11:52:00","departure_time":"11:52:00","lat":49.183867,"lon":16.595061,"is_passed":false},{"stop_id":"U1512Z2","name":"Poříčí","arrival_time":"11:54:00","departure_time":"11:54:00","lat":49.187409,"lon":16.594512,"is_passed":false},{"stop_id":"U1721Z2","name":"Václavská","arrival_time":"11:56:00","departure_time":"11:56:00","lat":49.188715,"lon":16.596878,"is_passed":false},{"stop_id":"U1176Z2","name":"Hybešova","arrival_time":"11:57:00","departure_time":"11:57:00","lat":49.189209,"lon":16.603364,"is_passed":false},{"stop_id":"U1436Z2","name":"Nové sady","arrival_time":"12:00:00","departure_time":"12:00:00","lat":49.190222,"lon":16.609403,"is_passed":false},{"stop_id":"U1146Z4","name":"Hlavní nádraží","arrival_time":"12:02:00","departure_time":"12:02:00","lat":49.19125,"lon":16.612674,"is_passed":false},{"stop_id":"U1746Z1","name":"Vlhká","arrival_time":"12:03:00","departure_time":"12:03:00","lat":49.191847,"lon":16.618976,"is_passed":false},{"stop_id":"U1372Z1","name":"Masná","arrival_time":"12:05:00","departure_time":"12:05:00","lat":49.191244,"lon":16.625642,"is_passed":false},{"stop_id":"U1814Z1","name":"Životského","arrival_time":"12:07:00","departure_time":"12:07:00","lat":49.191036,"lon":16.633968,"is_passed":false},{"stop_id":"U1116Z1","name":"Geislerova","arrival_time":"12:08:00","departure_time":"12:08:00","lat":49.19278,"lon":16.635345,"is_passed":false},{"stop_id":"U1810Z1","name":"Židovský hřbitov","arrival_time":"12:09:00","departure_time":"12:09:00","lat":49.191354,"lon":16.641711,"is_passed":false},{"stop_id":"U1291Z1","name":"Krásného","arrival_time":"12:10:00","departure_time":"12:10:00","lat":49.190434,"lon":16.650066,"is_passed":false},{"stop_id":"U1018Z1","name":"Bělohorská","arrival_time":"12:12:00","departure_time":"12:12:00","lat":49.190201,"lon":16.6637,"is_passed":false},{"stop_id":"U1026Z1","name":"Bílá hora","arrival_time":"12:13:00","departure_time":"12:13:00","lat":49.194847,"lon":16.667411,"is_passed":false},{"stop_id":"U1347Z1","name":"Líšeňská","arrival_time":"12:13:00","departure_time":"12:13:00","lat":49.197876,"lon":16.664849,"is_passed":false},{"stop_id":"U1438Z1","name":"Novolíšeňská","arrival_time":"12:15:00","departure_time":"12:15:00","lat":49.202014,"lon":16.670642,"is_passed":false},{"stop_id":"U1368Z1","name":"Masarova","arrival_time":"12:17:00","departure_time":"12:17:00","lat":49.206997,"lon":16.677557,"is_passed":false},{"stop_id":"U1277Z1","name":"Kotlanova","arrival_time":"12:18:00","departure_time":"12:18:00","lat":49.209949,"lon":16.681681,"is_passed":false},{"stop_id":"U1208Z1","name":"Jírova","arrival_time":"12:20:00","departure_time":"12:20:00","lat":49.208552,"lon":16.686687,"is_passed":false},{"stop_id":"U1384Z1","name":"Mifkova","arrival_time":"12:21:00","departure_time":"12:29:00","lat":49.207315,"lon":16.692496,"is_passed":false}],"54868":[{"stop_id":"U1384Z2","name":"Mifkova","arrival_time":"12:29:00","departure_time":"12:29:00","lat":49.207315,"lon":16.692496,"is_passed":false},{"stop_id":"U1208Z2","name":"Jírova","arrival_time":"12:30:00","departure_time":"12:30:00","lat":49.209141,"lon":16.686376,"is_passed":false},{"stop_id":"U1277Z2","name":"Kotlanova","arrival_time":"12:31:00","departure_time":"12:31:00","lat":49.209763,"lon":16.681048,"is_passed":false},{"stop_id":"U1368Z2","name":"Masarova","arrival_time":"12:32:00","departure_time":"12:32:00","lat":49.206997,"lon":16.677557,"is_passed":false},{"stop_id":"U1438Z2","name":"Novolíšeňská","arrival_time":"12:34:00","departure_time":"12:34:00","lat":49.201911,"lon":16.669965,"is_passed":false},{"stop_id":"U1347Z2","name":"Líšeňská","arrival_time":"12:35:00","departure_time":"12:35:00","lat":49.197285,"lon":16.665584,"is_passed":false},{"stop_id":"U1026Z2","name":"Bílá hora","arrival_time":"12:35:00","departure_time":"12:35:00","lat":49.194271,"lon":16.667395,"is_passed":false},{"stop_id":"U1018Z2","name":"Bělohorská","arrival_time":"12:36:00","departure_time":"12:36:00","lat":49.190098,"lon":16.663444,"is_passed":false},{"stop_id":"U1291Z2","name":"Krásného","arrival_time":"12:38:00","departure_time":"12:38:00","lat":49.19067,"lon":16.649391,"is_passed":false},