{"548":[{"stop_id":"U16149Z10","name":"Sokolnice, železniční stanice","arrival_time":"19:40:00","departure_time":"19:40:00","lat":49.108029,"lon":16.733459,"is_passed":false},{"stop_id":"U1183Z10","name":"Chrlice, nádraží","arrival_time":"19:45:00","departure_time":"19:46:00","lat":49.132031,"lon":16.657232,"is_passed":false},{"stop_id":"U1146Z99","name":"Hlavní nádraží","arrival_time":"19:55:00","departure_time":"20:00:00","lat":49.19035,"lon":16.612342,"is_passed":false},{"stop_id":"U1809Z10","name":"Židenice, nádraží","arrival_time":"20:04:00","departure_time":"20:05:00","lat":49.204282,"lon":16.636042,"is_passed":false},{"stop_id":"U12158Z10","name":"Bílovice nad Svitavou, žel. stanice","arrival_time":"20:10:00","departure_time":"20:11:00","lat":49.242715,"lon":16.673677,"is_passed":false},{"stop_id":"U22101Z1","name":"Babice nad Svitavou","arrival_time":"20:15:00","departure_time":"20:15:00","lat":49.276645,"lon":16.673012,"is_passed":false},{"stop_id":"U12230Z10","name":"Adamov, železniční stanice","arrival_time":"20:18:00","departure_time":"20:19:00","lat":49.295341,"lon":16.663538,"is_passed":false},{"stop_id":"U12231Z10","name":"Adamov, železniční zastávka","arrival_time":"20:20:00","departure_time":"20:21:00","lat":49.300671,"lon":16.650653,"is_passed":false},{"stop_id":"U12342Z30","name":"Blansko, aut. st.","arrival_time":"20:26:00","departure_time":"20:28:00","lat":49.352753,"lon":16.646848,"is_passed":false},{"stop_id":"U22302Z1","name":"Blansko město","arrival_time":"20:30:00","departure_time":"20:31:00","lat":49.360996,"lon":16.639464,"is_passed":false},{"stop_id":"U22301Z1","name":"Dolní Lhota","arrival_time":"20:33:00","departure_time":"20:34:00","lat":49.386917,"lon":16.633978,"is_passed":false},{"stop_id":"U12439Z50","name":"Rájec-Jestřebí, železniční stanice","arrival_time":"20:36:00","departure_time":"20:37:00","lat":49.408206,"lon":16.627711,"is_passed":false},{"stop_id":"U12511Z50","name":"Doubravice, žel.st.","arrival_time":"20:40:00","departure_time":"20:40:00","lat":49.438707,"lon":16.621809,"is_passed":false},{"stop_id":"U12676Z50","name":"Skalice nad Svitavou, žel.st.","arrival_time":"20:45:00","departure_time":"20:51:00","lat":49.480123,"lon":16.609726,"is_passed":false},{"stop_id":"U22602Z1","name":"Svitávka","arrival_time":"20:53:00","departure_time":"20:54:00","lat":49.499434,"lon":16.599208,"is_passed":false},{"stop_id":"U22701Z1","name":"Zboněk","arrival_time":"20:56:00","departure_time":"20:56:00","lat":49.521608,"lon":16.583438,"is_passed":false},{"stop_id":"U22702Z1","name":"Letovice zastávka","arrival_time":"20:59:00","departure_time":"20:59:00","lat":49.535496,"lon":16.576998,"is_passed":false},{"stop_id":"U12736Z50","name":"Letovice, železniční stanice","arrival_time":"21:02:00","departure_time":"21:02:00","lat":49.555973,"lon":16.570906,"is_passed":false}],"5480":[{"stop_id":"U15317Z8","name":"Pohořelice, náměstí","arrival_time":"18:00:00","departure_time":"18:00:00","lat":48.980751,"lon":16.522478,"is_passed":false},{"stop_id":"U15315Z2","name":"Pohořelice, Brněnská","arrival_time":"18:01:00","departure_time":"18:01:00","lat":48.984956,"lon":16.530513,"is_passed":false},{"stop_id":"U15379Z2","name":"Pohořelice, průmyslová zóna východ","arrival_time":"18:03:00","departure_time":"18:03:00","lat":48.990539,"lon":16.540751,"is_passed":false},{"stop_id":"U15321Z1","name":"Pohořelice, Smolín","arrival_time":"18:07:00","departure_time":"18:07:00","lat":49.007295,"lon":16.54034,"is_passed":false},{"stop_id":"U15234Z1","name":"Medlov, Kafilerie","arrival_time":"18:09:00","departure_time":"18:09:00","lat":49.017847,"lon":16.534967,"is_passed":false},{"stop_id":"U15205Z1","name":"Medlov","arrival_time":"18:12:00","departure_time":"18:12:00","lat":49.034707,"lon":16.523155,"is_passed":false},{"stop_id":"U15255Z1","name":"Medlov, seniorcentrum","arrival_time":"18:13:00","departure_time":"18:13:00","lat":49.035709,"lon":16.528745,"is_passed":false},{"stop_id":"U15204Z4","name":"Ledce, rozcestí","arrival_time":"18:18:00","departure_time":"18:18:00","lat":49.04988,"lon":16.565693,"is_passed":false},{"stop_id":"U15203Z4","name":"Ledce, obecní úřad","arrival_time":"18:19:00","departure_time":"18:19:00","lat":49.052175,"lon":16.555735,"is_passed":false},{"stop_id":"U15208Z4","name":"Sobotovice","arrival_time":"18:21:00","departure_time":"18:21:00","lat":49.059145,"lon":16.558115,"is_passed":false},{"stop_id":"U15209Z2","name":"Sobotovice, transformátor","arrival_time":"18:23:00","departure_time":"18:23:00","lat":49.061625,"lon":16.552708,"is_passed":false},{"stop_id":"U15212Z2","name":"Syrovice, Sobotovická","arrival_time":"18:26:00","departure_time":"18:26:00","lat":49.077625,"lon":16.545298,"is_passed":false},{"stop_id":"U15210Z2","name":"Syrovice","arrival_time":"18:27:00","departure_time":"18:27:00","lat":49.08029,"lon":16.548905,"is_passed":false},{"stop_id":"U15182Z2","name":"Rajhrad, GEIS","arrival_time":"18:29:00","departure_time":"18:29:00","lat":49.085595,"lon":16.583357,"is_passed":false},{"stop_id":"U15166Z2","name":"Rajhrad, stará pošta","arrival_time":"18:30:00","departure_time":"18:30:00","lat":49.087794,"lon":16.591688,"is_passed":false},{"stop_id":"U15181Z7","name":"Rajhrad, železniční stanice","arrival_time":"18:35:00","departure_time":"18:35:00","lat":49.084495,"lon":16.605152,"is_passed":false},{"stop_id":"U15168Z2","name":"Rajhrad, městský úřad","arrival_time":"18:36:00","departure_time":"18:36:00","lat":49.089963,"lon":16.60397,"is_passed":false},{"stop_id":"U15122Z4","name":"Modřice, Brněnská","arrival_time":"18:42:00","departure_time":"18:42:00","lat":49.130132,"lon":16.604936,"is_passed":false},{"stop_id":"U1393Z4","name":"Moravanská","arrival_time":"18:44:00","departure_time":"18:44:00","lat":49.142614,"lon":16.603006,"is_passed":false},{"stop_id":"U1396Z4","name":"Moravanské lány","arrival_time":"18:45:00","departure_time":"18:45:00","lat":49.149305,"lon":16.601813,"is_passed":false},{"stop_id":"U1466Z4","name":"Ořechovská","arrival_time":"18:47:00","departure_time":"18:47:00","lat":49.156124,"lon":16.600676,"is_passed":false},{"stop_id":"U1703Z5","name":"Ústřední hřbitov","arrival_time":"18:52:00","departure_time":"18:52:00","lat":49.171604,"lon":16.597316,"is_passed":false}],"5481":[{"stop_id":"U1703Z6","name":"Ústřední hřbitov","arrival_time":"19:02:00","departure_time":"19:02:00","lat":49.170744,"lon":16.597612,"is_passed":false},{"stop_id":"U1466Z5","name":"Ořechovská","arrival_time":"19:05:00","departure_time":"19:05:00","lat":49.156238,"lon":16.599375,"is_passed":false},{"stop_id":"U1549Z1","name":"Rozhraní","arrival_time":"19:06:00","departure_time":"19:06:00","lat":49.155854,"lon":16.592288,"is_passed":false},{"stop_id":"U15113Z1","name":"Moravany, Bohunická cesta","arrival_time":"19:07:00","departure_time":"19:07:00","lat":49.15089,"lon":16.583503,"is_passed":false},{"stop_id":"U15114Z1","name":"Moravany, Hlavní","arrival_time":"19:08:00","departure_time":"19:08:00","lat":49.147228,"lon":16.578896,"is_passed":false},{"stop_id":"U15115Z1","name":"Moravany, Nebovidská","arrival_time":"19:09:00","departure_time":"19:09:00","lat":49.147983,"lon":16.569237,"is_passed":false},{"stop_id":"U15118Z1","name":"Nebovidy, u kostela","arrival_time":"19:11:00","departure_time":"19:11:00","lat":49.141636,"lon":16.553667,"is_passed":false},{"stop_id":"U15116Z1","name":"Nebovidy, dolní konec","arrival_time":"19:12:00","departure_time":"19:14:00","lat":49.142128,"lon":16.549075,"is_passed":false}],"5482":[{"stop_id":"U15116Z2","name":"Nebovidy, dolní konec","arrival_time":"19:14:00","departure_time":"19:14:00","lat":49.141953,"lon":16.54915,"is_passed":false},{"stop_id":"U15118Z2","name":"Nebovidy, u kostela","arrival_time":"19:15:00","departure_time":"19:15:00","lat":49.141783,"lon":16.554006,"is_passed":false},{"stop_id":"U15114Z2","name":"Moravany, Hlavní","arrival_time":"19:19:00","departure_time":"19:19:00","lat":49.147097,"lon":16.578552,"is_passed":false},{"stop_id":"U15113Z2","name":"Moravany, Bohunická cesta","arrival_time":"19:20:00","departure_time":"19:20:00","lat":49.151006,"lon":16.583777,"is_passed":false},{"stop_id":"U1549Z2","name":"Rozhraní","arrival_time":"19:21:00","departure_time":"19:21:00","lat":49.155698,"lon":16.592118,"is_passed":false},{"stop_id":"U1466Z55","name":"Ořechovská","arrival_time":"19:23:00","departure_time":"19:23:00","lat":49.156238,"lon":16.599375,"is_passed":false},{"stop_id":"U1141Z2","name":"Heršpická","arrival_time":"19:26:00","departure_time":"19:26:00","lat":49.170473,"lon":16.599896,"is_passed":false},{"stop_id":"U1703Z5","name":"Ústřední hřbitov","arrival_time":"19:30:00","departure_time":"19:32:00","lat":49.171604,"lon":16.597316,"is_passed":false}],"5483":[{"stop_id":"U1703Z6","name":"Ústřední hřbitov","arrival_time":"19:32:00","departure_time":"19:32:00","lat":49.170744,"lon":16.597612,"is_passed":false},{"stop_id":"U1466Z5","name":"Ořechovská","arrival_time":"19:35:00","departure_time":"19:35:00","lat":49.156238,"lon":16.599375,"is_passed":false},{"stop_id":"U1549Z1","name":"Rozhraní","arrival_time":"19:36:00","departure_time":"19:36:00","lat":49.155854,"lon":16.592288,"is_passed":false},{"stop_id":"U15113Z1","name":"Moravany, Bohunická cesta","arrival_time":"19:37:00","departure_time":"19:37:00","lat":49.15089,"lon":16.583503,"is_passed":false},{"stop_id":"U15114Z1","name":"Moravany, Hlavní","arrival_time":"19:38:00","departure_time":"19:38:00","lat":49.147228,"lon":16.578896,"is_passed":false},{"stop_id":"U15115Z1","name":"Moravany, Nebovidská","arrival_time":"19:39:00","departure_time":"19:39:00","lat":49.147983,"lon":16.569237,"is_passed":false},{"stop_id":"U15118Z1","name":"Nebovidy, u kostela","arrival_time":"19:41:00","departure_time":"19:41:00","lat":49.141636,"lon":16.553667,"is_passed":false},{"stop_id":"U15116Z1","name":"Nebovidy, dolní konec","arrival_time":"19:42:00","departure_time":"19:42:00","lat":49.142128,"lon":16.549075,"is_passed":false}],"5484":[{"stop_id":"U1429Z6","name":"Nemocnice Bohunice","arrival_time":"6:55:00","departure_time":"6:55:00","lat":49.175872,"lon":16.566969,"is_passed":false},{"stop_id":"U1632Z1","name":"Svážná","arrival_time":"6:57:00","departure_time":"6:57:00","lat":49.173544,"lon":16.553381,"is_passed":false},{"stop_id":"U1202Z1","name":"Jemelkova","arrival_time":"6:57:00","departure_time":"6:57:00","lat":49.173333,"lon":16.548692,"is_passed":false},{"stop_id":"U1568Z1","name":"Skalní","arrival_time":"6:59:00","departure_time":"6:59:00","lat":49.174278,"lon":16.534362,"is_passed":false},{"stop_id":"U1161Z3","name":"Hoštická","arrival_time":"7:00:00","departure_time":"7:00:00","lat":49.173743,"lon":16.529523,"is_passed":false},{"stop_id":"U1672Z1","name":"Tranzitní plynovod","arrival_time":"7:01:00","departure_time":"7:01:00","lat":49.174213,"lon":16.522313,"is_passed":false},{"stop_id":"U14107Z1","name":"Troubsko, Kovopodnik","arrival_time":"7:02:00","departure_time":"7:02:00","lat":49.175866,"lon":16.511544,"is_passed":false},{"stop_id":"U14160Z3","name":"Troubsko, Veselka","arrival_time":"7:03:00","departure_time":"7:03:00","lat":49.175899,"lon":16.503995,"is_passed":false}],"5485":[{"stop_id":"U14160Z3","name":"Troubsko, Veselka","arrival_time":"7:05:00","departure_time":"7:05:00","lat":49.175899,"lon":16.503995,"is_passed":false},{"stop_id":"U14109Z2","name":"Troubsko, obecní úřad","arrival_time":"7:07:00","departure_time":"7:07:00","lat":49.171349,"lon":16.506327,"is_passed":false},{"stop_id":"U14106Z2","name":"Troubsko, kaplička","arrival_time":"7:08:00","departure_time":"7:08:00","lat":49.168923,"lon":16.511588,"is_passed":false},{"stop_id":"U14126Z2","name":"Troubsko, Nová","arrival_time":"7:09:00","departure_time":"7:09:00","lat":49.166465,"lon":16.519273,"is_passed":false},{"stop_id":"U14110Z2","name":"Troubsko, U dráhy","arrival_time":"7:10:00","departure_time":"7:10:00","lat":49.163317,"lon":16.526862,"is_passed":false},{"stop_id":"U14105Z2","name":"Ostopovice, smyčka","arrival_time":"7:13:00","departure_time":"7:13:00","lat":49.164301,"lon":16.540971,"is_passed":false},{"stop_id":"U14104Z2","name":"Ostopovice, rozcestí","arrival_time":"7:13:00","departure_time":"7:13:00","lat":49.163133,"lon":16.542749,"is_passed":false},{"stop_id":"U14103Z2","name":"Ostopovice, U Kaple","arrival_time":"7:14:00","departure_time":"7:14:00","lat":49.161088,"lon":16.545566,"is_passed":false},{"stop_id":"U14101Z2","name":"Ostopovice, Branky","arrival_time":"7:15:00","departure_time":"7:15:00","lat":49.159942,"lon":16.548414,"is_passed":false},{"stop_id":"U1488Z2","name":"Pod dálnicí","arrival_time":"7:16:00","departure_time":"7:16:00","lat":49.163539,"lon":16.55541,"is_passed":false},{"stop_id":"U1666Z2","name":"Točná","arrival_time":"7:17:00","departure_time":"7:17:00","lat":49.164745,"lon":16.561481,"is_passed":false},{"stop_id":"U1061Z2","name":"Čermákova","arrival_time":"7:18:00","departure_time":"7:18:00","lat":49.164349,"lon":16.564689,"is_passed":false},{"stop_id":"U1627Z2","name":"Svah","arrival_time":"7:18:00","departure_time":"7:18:00","lat":49.164924,"lon":16.567717,"is_passed":false},{"stop_id":"U1273Z1","name":"Kosmonautů","arrival_time":"7:19:00","departure_time":"7:19:00","lat":49.167006,"lon":16.568017,"is_passed":false},{"stop_id":"U1472Z7","name":"Osová","arrival_time":"7:20:00","departure_time":"7:20:00","lat":49.168951,"lon":16.566714,"is_passed":false},{"stop_id":"U7050Z1","name":"ZŠ Vedlejší","arrival_time":"7:20:00","departure_time":"7:20:00","lat":49.171054,"lon":16.569191,"is_passed":false},{"stop_id":"U1748Z2","name":"Vltavská","arrival_time":"7:21:00","departure_time":"7:21:00","lat":49.172487,"lon":16.564821,"is_passed":false},{"stop_id":"U1322Z1","name":"Labská","arrival_time":"7:24:00","departure_time":"7:52:00","lat":49.17151,"lon":16.559604,"is_passed":false}],"5486":[{"stop_id":"U1322Z3","name":"Labská","arrival_time":"7:52:00","departure_time":"7:52:00","lat":49.171353,"lon":16.559418,"is_passed":false},{"stop_id":"U1748Z1","name":"Vltavská","arrival_time":"7:53:00","departure_time":"7:53:00","lat":49.172655,"lon":16.563983,"is_passed":false},{"stop_id":"U1492Z4","name":"Pod nemocnicí","arrival_time":"7:54:00","departure_time":"7:54:00","lat":49.171965,"lon":16.56858,"is_passed":false},{"stop_id":"U1472Z8","name":"Osová","arrival_time":"7:57:00","departure_time":"7:57:00","lat":49.168617,"lon":16.566306,"is_passed":false},{"stop_id":"U1273Z2","name":"Kosmonautů","arrival_time":"7:57:00","departure_time":"7:57:00","lat":49.167124,"lon":16.56745,"is_passed":false},{"stop_id":"U1627Z1","name":"Svah","arrival_time":"7:58:00","departure_time":"7:58:00","lat":49.165199,"lon":16.567969,"is_passed":false},{"stop_id":"U1061Z1","name":"Čermákova","arrival_time":"7:58:00","departure_time":"7:58:00","lat":49.164336,"lon":16.565516,"is_passed":false},{"stop_id":"U1666Z1","name":"Točná","arrival_time":"7:59:00","departure_time":"7:59:00","lat":49.16476,"lon":16.561692,"is_passed":false},{"stop_id":"U1488Z1","name":"Pod dálnicí","arrival_time":"8:00:00","departure_time":"8:00:00","lat":49.163512,"lon":16.555152,"is_passed":false},{"stop_id":"U14101Z1","name":"Ostopovice, Branky","arrival_time":"8:01:00","departure_time":"8:01:00","lat":49.159937,"lon":16.548801,"is_passed":false},{"stop_id":"U14103Z1","name":"Ostopovice, U Kaple","arrival_time":"8:02:00","departure_time":"8:02:00","lat":49.161083,"lon":16.545743,"is_passed":false},{"stop_id":"U14104Z1","name":"Ostopovice, rozcestí","arrival_time":"8:02:00","departure_time":"8:02:00","lat":49.163046,"lon":16.542924,"is_passed":false},{"stop_id":"U14105Z3","name":"Ostopovice, smyčka","arrival_time":"8:03:00","departure_time":"8:03:00","lat":49.164457,"lon":16.540725,"is_passed":false},{"stop_id":"U14102Z1","name":"Ostopovice, Lipová","arrival_time":"8:04:00","departure_time":"8:04:00","lat":49.163052,"lon":16.536032,"is_passed":false},{"stop_id":"U14110Z1","name":"Troubsko, U dráhy","arrival_time":"8:05:00","departure_time":"8:05:00","lat":49.163195,"lon":16.527182,"is_passed":false},{"stop_id":"U14126Z1","name":"Troubsko, Nová","arrival_time":"8:07:00","departure_time":"8:07:00","lat":49.166982,"lon":16.518167,"is_passed":false},{"stop_id":"U14106Z1","name":"Troubsko, kaplička","arrival_time":"8:08:00","departure_time":"8:08:00","lat":49.169013,"lon":16.511465,"is_passed":false},{"stop_id":"U14109Z1","name":"Troubsko, obecní úřad","arrival_time":"8:09:00","departure_time":"8:24:00","lat":49.171013,"lon":16.506845,"is_passed":false}],"5487":[{"stop_id":"U14109Z2","name":"Troubsko, obecní úřad","arrival_time":"8:24:00","departure_time":"8:24:00","lat":49.171349,"lon":16.506327,"is_passed":false},{"stop_id":"U14106Z2","name":"Troubsko, kaplička","arrival_time":"8:25:00","departure_time":"8:25:00","lat":49.168923,"lon":16.511588,"is_passed":false},{"stop_id":"U14126Z2","name":"Troubsko, Nová","arrival_time":"8:26:00","departure_time":"8:26:00","lat":49.166465,"lon":16.519273,"is_passed":false},{"stop_id":"U14110Z2","name":"Troubsko, U dráhy","arrival_time":"8:27:00","departure_time":"8:27:00","lat":49.163317,"lon":16.526862,"is_passed":false},{"stop_id":"U14105Z2","name":"Ostopovice, smyčka","arrival_time":"8:30:00","departure_time":"8:30:00","lat":49.164301,"lon":16.540971,"is_passed":false},{"stop_id":"U14104Z2","name":"Ostopovice, rozcestí","arrival_time":"8:30:00","departure_time":"8:30:00","lat":49.163133,"lon":16.542749,"is_passed":false},{"stop_id":"U14103Z2","name":"Ostopovice, U Kaple","arrival_time":"8:31:00","departure_time":"8:31:00","lat":49.161088,"lon":16.545566,"is_passed":false},{"stop_id":"U14101Z2","name":"Ostopovice, Branky","arrival_time":"8:32:00","departure_time":"8:32:00","lat":49.159942,"lon":16.548414,"is_passed":false},{"stop_id":"U1488Z2","name":"Pod dálnicí","arrival_time":"8:33:00","departure_time":"8:33:00","lat":49.163539,"lon":16.55541,"is_passed":false},{"stop_id":"U1666Z2","name":"Točná","arrival_time":"8:34:00","departure_time":"8:34:00","lat":49.164745,"lon":16.561481,"is_passed":false},{"stop_id":"U1061Z2","name":"Čermákova","arrival_time":"8:35:00","departure_time":"8:35:00","lat":49.164349,"lon":16.564689,"is_passed":false},{"stop_id":"U1627Z2","name":"Svah","arrival_time":"8:35:00","departure_time":"8:35:00","lat":49.164924,"lon":16.567717,"is_passed":false},{"stop_id":"U1273Z1","name":"Kosmonautů","arrival_time":"8:36:00","departure_time":"8:36:00","lat":49.167006,"lon":16.568017,"is_passed":false},{"stop_id":"U1472Z7","name":"Osová","arrival_time":"8:37:00","departure_time":"8:37:00","lat":49.168951,"lon":16.566714,"is_passed":false},{"stop_id":"U7050Z1","name":"ZŠ Vedlejší","arrival_time":"8:37:00","departure_time":"8:37:00","lat":49.171054,"lon":16.569191,"is_passed":false},{"stop_id":"U1748Z2","name":"Vltavská","arrival_time":"8:38:00","departure_time":"8:38:00","lat":49.172487,"lon":16.564821,"is_passed":false},{"stop_id":"U1322Z1","name":"Labská","arrival_time":"8:41:00","departure_time":"9:52:00","lat":49.17151,"lon":16.559604,"is_passed":false}],"5488":[{"stop_id":"U1322Z3","name":"Labská","arrival_time":"9:52:00","departure_time":"9:52:00","lat":49.171353,"lon":16.559418,"is_passed":false},{"stop_id":"U1748Z1","name":"Vltavská","arrival_time":"9:53:00","departure_time":"9:53:00","lat":49.172655,"lon":16.563983,"is_passed":false},{"stop_id":"U1492Z4","name":"Pod nemocnicí","arrival_time":"9:54:00","departure_time":"9:54:00","lat":49.171965,"lon":16.56858,"is_passed":false},{"stop_id":"U1472Z8","name":"Osová","arrival_time":"9:57:00","departure_time":"9:57:00","lat":49.168617,"lon":16.566306,"is_passed":false},{"stop_id":"U1273Z2","name":"Kosmonautů","arrival_time":"9:57:00","departure_time":"9:57:00","lat":49.167124,"lon":16.56745,"is_passed":false},{"stop_id":"U1627Z1","name":"Svah","arrival_time":"9:58:00","departure_time":"9:58:00","lat":49.165199,"lon":16.567969,"is_passed":false},{"stop_id":"U1061Z1","name":"Čermákova","arrival_time":"9:58:00","departure_time":"9:58:00","lat":49.164336,"lon":16.565516,"is_passed":false},{"stop_id":"U1666Z1","name":"Točná","arrival_time":"9:59:00","departure_time":"9:59:00","lat":49.16476,"lon":16.561692,"is_passed":false},{"stop_id":"U1488Z1","name":"Pod dálnicí","arrival_time":"10:00:00","departure_time":"10:00:00","lat":49.163512,"lon":16.555152,"is_passed":false},{"stop_id":"U14101Z1","name":"Ostopovice, Branky","arrival_time":"10:01:00","departure_time":"10:01:00","lat":49.159937,"lon":16.548801,"is_passed":false},{"stop_id":"U14103Z1","name":"Ostopovice, U Kaple","arrival_time":"10:02:00","departure_time":"10:02:00","lat":49.161083,"lon":16.545743,"is_passed":false},{"stop_id":"U14104Z1","name":"Ostopovice, rozcestí","arrival_time":"10:02:00","departure_time":"10:02:00","lat":49.163046,"lon":16.542924,"is_passed":false},{"stop_id":"U14105Z3","name":"Ostopovice, smyčka","arrival_time":"10:03:00","departure_time":"10:03:00","lat":49.164457,"lon":16.540725,"is_passed":false},{"stop_id":"U14102Z1","name":"Ostopovice, Lipová","arrival_time":"10:04:00","departure_time":"10:04:00","lat":49.163052,"lon":16.536032,"is_passed":false},{"stop_id":"U14110Z1","name":"Troubsko, U dráhy","arrival_time":"10:05:00","departure_time":"10:05:00","lat":49.163195,"lon":16.527182,"is_passed":false},{"stop_id":"U14126Z1","name":"Troubsko, Nová","arrival_time":"10:07:00","departure_time":"10:07:00","lat":49.166982,"lon":16.518167,"is_passed":false},{"stop_id":"U14106Z1","name":"Troubsko, kaplička","arrival_time":"10:08:00","departure_time":"10:08:00","lat":49.169013,"lon":16.511465,"is_passed":false},{"stop_id":"U14109Z1","name":"Troubsko, obecní úřad","arrival_time":"10:09:00","departure_time":"10:09:00","lat":49.171013,"lon":16.506845,"is_passed":false},{"stop_id":"U14108Z1","name":"Troubsko, Lísek","arrival_time":"10:12:00","departure_time":"10:12:00","lat":49.171815,"lon":16.480037,"is_passed":false},{"stop_id":"U14114Z1","name":"Omice, sokolovna","arrival_time":"10:15:00","departure_time":"10:15:00","lat":49.172023,"lon":16.455087,"is_passed":false},{"stop_id":"U14113Z1","name":"Omice, samoobsluha","arrival_time":"10:18:00","departure_time":"10:41:00","lat":49.16998,"lon":16.451412,"is_passed":false}],"5489":[{"stop_id":"U14113Z2","name":"Omice, samoobsluha","arrival_time":"10:41:00","departure_time":"10:41:00","lat":49.16998,"lon":16.451412,"is_passed":false},{"stop_id":"U14114Z2","name":"Omice, sokolovna","arrival_time":"10:42:00","departure_time":"10:42:00","lat":49.17196,"lon":16.454815,"is_passed":false},{"stop_id":"U14108Z2","name":"Troubsko, Lísek","arrival_time":"10:45:00","departure_time":"10:45:00","lat":49.171815,"lon":16.480037,"is_passed":false},{"stop_id":"U14109Z3","name":"Troubsko, obecní úřad","arrival_time":"10:49:00","departure_time":"10:49:00","lat":49.170364,"lon":16.505743,"is_passed":false},{"stop_id":"U14106Z2","name":"Troubsko, kaplička","arrival_time":"10:50:00","departure_time":"10:50:00","lat":49.168923,"lon":16.511588,"is_passed":false},{"stop_id":"U14126Z2","name":"Troubsko, Nová","arrival_time":"10:51:00","departure_time":"10:51:00","lat":49.166465,"lon":16.519273,"is_passed":false},{"stop_id":"U14110Z2","name":"Troubsko, U dráhy","arrival_time":"10:52:00","departure_time":"10:52:00","lat":49.163317,"lon":16.526862,"is_passed":false},{"stop_id":"U14105Z2","name":"Ostopovice, smyčka","arrival_time":"10:55:00","departure_time":"10:55:00","lat":49.164301,"lon":16.540971,"is_passed":false},{"stop_id":"U14104Z2","name":"Ostopovice, rozcestí","arrival_time":"10:55:00","departure_time":"10:55:00","lat":49.163133,"lon":16.542749,"is_passed":false},{"stop_id":"U14103Z2","name":"Ostopovice, U Kaple","arrival_time":"10:56:00","departure_time":"10:56:00","lat":49.161088,"lon":16.545566,"is_passed":false},{"stop_id":"U14101Z2","name":"Ostopovice, Branky","arrival_time":"10:57:00","departure_time":"10:57:00","lat":49.159942,"lon":16.548414,"is_passed":false},{"stop_id":"U1488Z2","name":"Pod dálnicí","arrival_time":"10:58:00","departure_time":"10:58:00","lat":49.163539,"lon":16.55541,"is_passed":false},{"stop_id":"U1666Z2","name":"Točná","arrival_time":"10:59:00","departure_time":"10:59:00","lat":49.164745,"lon":16.561481,"is_passed":false},{"stop_id":"U1061Z2","name":"Čermákova","arrival_time":"11:00:00","departure_time":"11:00:00","lat":49.164349,"lon":16.564689,"is_passed":false},{"stop_id":"U1627Z2","name":"Svah","arrival_time":"11:00:00","departure_time":"11:00:00","lat":49.164924,"lon":16.567717,"is_passed":false},{"stop_id":"U1273Z1","name":"Kosmonautů","arrival_time":"11:01:00","departure_time":"11:01:00","lat":49.167006,"lon":16.568017,"is_passed":false},{"stop_id":"U1472Z7","name":"Osová","arrival_time":"11:02:00","departure_time":"11:02:00","lat":49.168951,"lon":16.566714,"is_passed":false},{"stop_id":"U7050Z1","name":"ZŠ Vedlejší","arrival_time":"11:02:00","departure_time":"11:02:00","lat":49.171054,"lon":16.569191,"is_passed":false},{"stop_id":"U1748Z2","name":"Vltavská","arrival_time":"11:03:00","departure_time":"11:03:00","lat":49.172487,"lon":16.564821,"is_passed":false},{"stop_id":"U1322Z1","name":"Labská","arrival_time":"11:06:00","departure_time":"11:08:00","lat":49.17151,"lon":16.559604,"is_passed":false}],"54800":[{"stop_id":"U1073Z6","name":"Česká","arrival_time":"17:36:00","departure_time":"17:36:00","lat":49.198291,"lon":16.605232,"is_passed":false},{"stop_id":"U1587Z1","name":"Smetanova","arrival_time":"17:38:00","departure_time":"17:38:00","lat":49.201909,"lon":16.601644,"is_passed":false},{"stop_id":"U1626Z1","name":"Sušilova","arrival_time":"17:39:00","departure_time":"17:39:00","lat":49.204346,"lon":16.598828,"is_passed":false},{"stop_id":"U1785Z1","name":"Zemská knihovna","arrival_time":"17:41:00","departure_time":"17:41:00","lat":49.208934,"lon":16.594822,"is_passed":false},{"stop_id":"U1242Z1","name":"Klusáčkova","arrival_time":"17:42:00","departure_time":"17:42:00","lat":49.212365,"lon":16.592666,"is_passed":false},{"stop_id":"U1601Z1","name":"Spojovací","arrival_time":"17:45:00","departure_time":"17:45:00","lat":49.212099,"lon":16.586305,"is_passed":false},{"stop_id":"U1206Z1","name":"Jindřichova","arrival_time":"17:46:00","departure_time":"17:46:00","lat":49.21326,"lon":16.582924,"is_passed":false},{"stop_id":"U1426Z1","name":"Náměstí Svornosti","arrival_time":"17:47:00","departure_time":"17:47:00","lat":49.215585,"lon":16.582,"is_passed":false},{"stop_id":"U1352Z1","name":"Makovského náměstí","arrival_time":"17:48:00","departure_time":"17:48:00","lat":49.217922,"lon":16.576761,"is_passed":false},{"stop_id":"U1528Z5","name":"Přívrat","arrival_time":"17:49:00","departure_time":"17:49:00","lat":49.218247,"lon":16.574102,"is_passed":false},{"stop_id":"U1758Z1","name":"Vrázova","arrival_time":"17:51:00","departure_time":"17:51:00","lat":49.216968,"lon":16.568321,"is_passed":false},{"stop_id":"U1651Z1","name":"Štursova","arrival_time":"17:52:00","departure_time":"17:52:00","lat":49.216462,"lon":16.563614,"is_passed":false},{"stop_id":"U1502Z1","name":"Podveská","arrival_time":"17:53:00","departure_time":"17:53:00","lat":49.217623,"lon":16.559017,"is_passed":false},{"stop_id":"U1633Z3","name":"Svratecká","arrival_time":"17:54:00","departure_time":"17:54:00","lat":49.219008,"lon":16.554451,"is_passed":false},{"stop_id":"U1296Z1","name":"Kristenova","arrival_time":"17:55:00","departure_time":"17:55:00","lat":49.220962,"lon":16.554325,"is_passed":false},{"stop_id":"U1178Z1","name":"Chaloupky","arrival_time":"17:56:00","departure_time":"17:56:00","lat":49.22272,"lon":16.55648,"is_passed":false},{"stop_id":"U1453Z1","name":"Olbrachtovo náměstí","arrival_time":"17:57:00","departure_time":"17:57:00","lat":49.225106,"lon":16.558598,"is_passed":false},{"stop_id":"U1561Z1","name":"Řezáčova","arrival_time":"17:58:00","departure_time":"17:58:00","lat":49.226354,"lon":16.555458,"is_passed":false},{"stop_id":"U1258Z1","name":"Komín, sídliště","arrival_time":"18:00:00","departure_time":"18:03:00","lat":49.22699,"lon":16.553346,"is_passed":false}],"54801":[{"stop_id":"U1258Z2","name":"Komín, sídliště","arrival_time":"14:55:00","departure_time":"14:55:00","lat":49.226847,"lon":16.5535,"is_passed":false},{"stop_id":"U1561Z2","name":"Řezáčova","arrival_time":"14:55:00","departure_time":"14:55:00","lat":49.225979,"lon":16.555563,"is_passed":false},{"stop_id":"U1453Z2","name":"Olbrachtovo náměstí","arrival_time":"14:56:00","departure_time":"14:56:00","lat":49.224292,"lon":16.558568,"is_passed":false},{"stop_id":"U1178Z2","name":"Chaloupky","arrival_time":"14:57:00","departure_time":"14:57:00","lat":49.223106,"lon":16.557048,"is_passed":false},{"stop_id":"U1296Z2","name":"Kristenova","arrival_time":"14:58:00","departure_time":"14:58:00","lat":49.221078,"lon":16.554278,"is_passed":false},{"stop_id":"U1633Z4","name":"Svratecká","arrival_time":"14:59:00","departure_time":"14:59:00","lat":49.218696,"lon":16.554399,"is_passed":false},{"stop_id":"U1502Z2","name":"Podveská","arrival_time":"15:01:00","departure_time":"15:01:00","lat":49.217607,"lon":16.558178,"is_passed":false},{"stop_id":"U1651Z2","name":"Štursova","arrival_time":"15:02:00","departure_time":"15:02:00","lat":49.215854,"lon":16.564522,"is_passed":false},{"stop_id":"U1758Z2","name":"Vrázova","arrival_time":"15:03:00","departure_time":"15:03:00","lat":49.216977,"lon":16.568646,"is_passed":false},{"stop_id":"U1528Z6","name":"Přívrat","arrival_time":"15:05:00","departure_time":"15:05:00","lat":49.218109,"lon":16.574404,"is_passed":false},{"stop_id":"U1352Z2","name":"Makovského náměstí","arrival_time":"15:05:00","departure_time":"15:05:00","lat":49.217881,"lon":16.576657,"is_passed":false},{"stop_id":"U1426Z2","name":"Náměstí Svornosti","arrival_time":"15:07:00","departure_time":"15:07:00","lat":49.215179,"lon":16.58299,"is_passed":false},{"stop_id":"U1206Z2","name":"Jindřichova","arrival_time":"15:08:00","departure_time":"15:08:00","lat":49.213132,"lon":16.583163,"is_passed":false},{"stop_id":"U1601Z2","name":"Spojovací","arrival_time":"15:09:00","departure_time":"15:09:00","lat":49.211772,"lon":16.58703,"is_passed":false},{"stop_id":"U1242Z2","name":"Klusáčkova","arrival_time":"15:11:00","departure_time":"15:11:00","lat":49.211903,"lon":16.592875,"is_passed":false},{"stop_id":"U1785Z2","name":"Zemská knihovna","arrival_time":"15:12:00","departure_time":"15:12:00","lat":49.208799,"lon":16.594624,"is_passed":false},{"stop_id":"U1626Z2","name":"Sušilova","arrival_time":"15:14:00","departure_time":"15:14:00","lat":49.204397,"lon":16.598621,"is_passed":false},{"stop_id":"U1587Z2","name":"Smetanova","arrival_time":"15:15:00","departure_time":"15:15:00","lat":49.201271,"lon":16.602293,"is_passed":false},{"stop_id":"U1073Z7","name":"Česká","arrival_time":"15:18:00","departure_time":"15:21:00","lat":49.198331,"lon":16.605663,"is_passed":false}],"54802":[{"stop_id":"U1073Z6","name":"Česká","arrival_time":"15:21:00","departure_time":"15:21:00","lat":49.198291,"lon":16.605232,"is_passed":false},{"stop_id":"U1587Z1","name":"Smetanova","arrival_time":"15:23:00","departure_time":"15:23:00","lat":49.201909,"lon":16.601644,"is_passed":false},{"stop_id":"U1626Z1","name":"Sušilova","arrival_time":"15:24:00","departure_time":"15:24:00","lat":49.204346,"lon":16.598828,"is_passed":false},{"stop_id":"U1785Z1","name":"Zemská knihovna","arrival_time":"15:26:00","departure_time":"15:26:00","lat":49.208934,"lon":16.594822,"is_passed":false},{"stop_id":"U1242Z1","name":"Klusáčkova","arrival_time":"15:27:00","departure_time":"15:27:00","lat":49.212365,"lon":16.592666,"is_passed":false},{"stop_id":"U1601Z1","name":"Spojovací","arrival_time":"15:30:00","departure_time":"15:30:00","lat":49.212099,"lon":16.586305,"is_passed":false},{"stop_id":"U1206Z1","name":"Jindřichova","arrival_time":"15:31:00","departure_time":"15:31:00","lat":49.21326,"lon":16.582924,"is_passed":false},{"stop_id":"U1426Z1","name":"Náměstí Svornosti","arrival_time":"15:32:00","departure_time":"15:32:00","lat":49.215585,"lon":16.582,"is_passed":false},{"stop_id":"U1352Z1","name":"Makovského náměstí","arrival_time":"15:33:00","departure_time":"15:33:00","lat":49.217922,"lon":16.576761,"is_passed":false},{"stop_id":"U1528Z5","name":"Přívrat","arrival_time":"15:34:00","departure_time":"15:34:00","lat":49.218247,"lon":16.574102,"is_passed":false},{"stop_id":"U1758Z1","name":"Vrázova","arrival_time":"15:36:00","departure_time":"15:36:00","lat":49.216968,"lon":16.568321,"is_passed":false},{"stop_id":"U1651Z1","name":"Štursova","arrival_time":"15:37:00","departure_time":"15:37:00","lat":49.216462,"lon":16.563614,"is_passed":false},{"stop_id":"U1502Z1","name":"Podveská","arrival_time":"15:38:00","departure_time":"15:38:00","lat":49.217623,"lon":16.559017,"is_passed":false},{"stop_id":"U1633Z3","name":"Svratecká","arrival_time":"15:39:00","departure_time":"15:39:00","lat":49.219008,"lon":16.554451,"is_passed":false},{"stop_id":"U1296Z1","name":"Kristenova","arrival_time":"15:40:00","departure_time":"15:40:00","lat":49.220962,"lon":16.554325,"is_passed":false},{"stop_id":"U1178Z1","name":"Chaloupky","arrival_time":"15:41:00","departure_time":"15:41:00","lat":49.22272,"lon":16.55648,"is_passed":false},{"stop_id":"U1453Z1","name":"Olbrachtovo náměstí","arrival_time":"15:42:00","departure_time":"15:42:00","lat":49.225106,"lon":16.558598,"is_passed":false},{"stop_id":"U1561Z1","name":"Řezáčova","arrival_time":"15:43:00","departure_time":"15:43:00","lat":49.226354,"lon":16.555458,"is_passed":false},{"stop_id":"U1258Z1","name":"Komín, sídliště","arrival_time":"15:45:00","departure_time":"16:10:00","lat":49.22699,"lon":16.553346,"is_passed":false}],"54803":[{"stop_id":"U1258Z2","name":"Komín, sídliště","arrival_time":"16:10:00","departure_time":"16:10:00","lat":49.226847,"lon":16.5535,"is_passed":false},{"stop_id":"U1561Z2","name":"Řezáčova","arrival_time":"16:10:00","departure_time":"16:10:00","lat":49.225979,"lon":16.555563,"is_passed":false},{"stop_id":"U1453Z2","name":"Olbrachtovo náměstí","arrival_time":"16:11:00","departure_time":"16:11:00","lat":49.224292,"lon":16.558568,"is_passed":false},{"stop_id":"U1178Z2","name":"Chaloupky","arrival_time":"16:12:00","departure_time":"16:12:00","lat":49.223106,"lon":16.557048,"is_passed":false},{"stop_id":"U1296Z2","name":"Kristenova","arrival_time":"16:13:00","departure_time":"16:13:00","lat":49.221078,"lon":16.554278,"is_passed":false},{"stop_id":"U1633Z4","name":"Svratecká","arrival_time":"16:14:00","departure_time":"16:14:00","lat":49.218696,"lon":16.554399,"is_passed":false},{"stop_id":"U1502Z2","name":"Podveská","arrival_time":"16:16:00","departure_time":"16:16:00","lat":49.217607,"lon":16.558178,"is_passed":false},{"stop_id":"U1651Z2","name":"Štursova","arrival_time":"16:17:00","departure_time":"16:17:00","lat":49.215854,"lon":16.564522,"is_passed":false},{"stop_id":"U1758Z2","name":"Vrázova","arrival_time":"16:18:00","departure_time":"16:18:00","lat":49.216977,"lon":16.568646,"is_passed":false},{"stop_id":"U1528Z6","name":"Přívrat","arrival_time":"16:20:00","departure_time":"16:20:00","lat":49.218109,"lon":16.574404,"is_passed":false},{"stop_id":"U1352Z2","name":"Makovského náměstí","arrival_time":"16:20:00","departure_time":"16:20:00","lat":49.217881,"lon":16.576657,"is_passed":false},{"stop_id":"U1426Z2","name":"Náměstí Svornosti","arrival_time":"16:22:00","departure_time":"16:22:00","lat":49.215179,"lon":16.58299,"is_passed":false},{"stop_id":"U1206Z2","name":"Jindřichova","arrival_time":"16:23:00","departure_time":"16:23:00","lat":49.213132,"lon":16.583163,"is_passed":false},{"stop_id":"U1601Z2","name":"Spojovací","arrival_time":"16:24:00","departure_time":"16:24:00","lat":49.211772,"lon":16.58703,"is_passed":false},{"stop_id":"U1242Z2","name":"Klusáčkova","arrival_time":"16:26:00","departure_time":"16:26:00","lat":49.211903,"lon":16.592875,"is_passed":false},{"stop_id":"U1785Z2","name":"Zemská knihovna","arrival_time":"16:27:00","departure_time":"16:27:00","lat":49.208799,"lon":16.594624,"is_passed":false},{"stop_id":"U1626Z2","name":"Sušilova","arrival_time":"16:29:00","departure_time":"16:29:00","lat":49.204397,"lon":16.598621,"is_passed":false},{"stop_id":"U1587Z2","name":"Smetanova","arrival_time":"16:30:00","departure_time":"16:30:00","lat":49.201271,"lon":16.602293,"is_passed":false},{"stop_id":"U1073Z7","name":"Česká","arrival_time":"16:33:00","departure_time":"16:36:00","lat":49.198331,"lon":16.605663,"is_passed":false}],"54804":[{"stop_id":"U1073Z6","name":"Česká","arrival_time":"16:36:00","departure_time":"16:36:00","lat":49.198291,"lon":16.605232,"is_passed":false},{"stop_id":"U1587Z1","name":"Smetanova","arrival_time":"16:38:00","departure_time":"16:38:00","lat":49.201909,"lon":16.601644,"is_passed":false},{"stop_id":"U1626Z1","name":"Sušilova","arrival_time":"16:39:00","departure_time":"16:39:00","lat":49.204346,"lon":16.598828,"is_passed":false},{"stop_id":"U1785Z1","name":"Zemská knihovna","arrival_time":"16:41:00","departure_time":"16:41:00","lat":49.208934,"lon":16.594822,"is_passed":false},{"stop_id":"U1242Z1","name":"Klusáčkova","arrival_time":"16:42:00","departure_time":"16:42:00","lat":49.212365,"lon":16.592666,"is_passed":false},{"stop_id":"U1601Z1","name":"Spojovací","arrival_time":"16:45:00","departure_time":"16:45:00","lat":49.212099,"lon":16.586305,"is_passed":false},{"stop_id":"U1206Z1","name":"Jindřichova","arrival_time":"16:46:00","departure_time":"16:46:00","lat":49.21326,"lon":16.582924,"is_passed":false},{"stop_id":"U1426Z1","name":"Náměstí Svornosti","arrival_time":"16:47:00","departure_time":"16:47:00","lat":49.215585,"lon":16.582,"is_passed":false},{"stop_id":"U1352Z1","name":"Makovského náměstí","arrival_time":"16:48:00","departure_time":"16:48:00","lat":49.217922,"lon":16.576761,"is_passed":false},{"stop_id":"U1528Z5","name":"Přívrat","arrival_time":"16:49:00","departure_time":"16:49:00","lat":49.218247,"lon":16.574102,"is_passed":false},{"stop_id":"U1758Z1","name":"Vrázova","arrival_time":"16:51:00","departure_time":"16:51:00","lat":49.216968,"lon":16.568321,"is_passed":false},{"stop_id":"U1651Z1","name":"Štursova","arrival_time":"16:52:00","departure_time":"16:52:00","lat":49.216462,"lon":16.563614,"is_passed":false},{"stop_id":"U1502Z1","name":"Podveská","arrival_time":"16:53:00","departure_time":"16:53:00","lat":49.217623,"lon":16.559017,"is_passed":false},{"stop_id":"U1633Z3","name":"Svratecká","arrival_time":"16:54:00","departure_time":"16:54:00","lat":49.219008,"lon":16.554451,"is_passed":false},{"stop_id":"U1296Z1","name":"Kristenova","arrival_time":"16:55:00","departure_time":"16:55:00","lat":49.220962,"lon":16.554325,"is_passed":false},{"stop_id":"U1178Z1","name":"Chaloupky","arrival_time":"16:56:00","departure_time":"16:56:00","lat":49.22272,"lon":16.55648,"is_passed":false},{"stop_id":"U1453Z1","name":"Olbrachtovo náměstí","arrival_time":"16:57:00","departure_time":"16:57:00","lat":49.225106,"lon":16.558598,"is_passed":false},{"stop_id":"U1561Z1","name":"Řezáčova","arrival_time":"16:58:00","departure_time":"16:58:00","lat":49.226354,"lon":16.555458,"is_passed":false},{"stop_id":"U1258Z1","name":"Komín, sídliště","arrival_time":"17:00:00","departure_time":"17:25:00","lat":49.22699,"lon":16.553346,"is_passed":false}],"54805":[{"stop_id":"U1258Z2","name":"Komín, sídliště","arrival_time":"17:25:00","departure_time":"17:25:00","lat":49.226847,"lon":16.5535,"is_passed":false},{"stop_id":"U1561Z2","name":"Řezáčova","arrival_time":"17:25:00","departure_time":"17:25:00","lat":49.225979,"lon":16.555563,"is_passed":false},{"stop_id":"U1453Z2","name":"Olbrachtovo náměstí","arrival_time":"17:26:00","departure_time":"17:26:00","lat":49.224292,"lon":16.558568,"is_passed":false},{"stop_id":"U1178Z2","name":"Chaloupky","arrival_time":"17:27:00","departure_time":"17:27:00","lat":49.223106,"lon":16.557048,"is_passed":false},{"stop_id":"U1296Z2","name":"Kristenova","arrival_time":"17:28:00","departure_time":"17:28:00","lat":49.221078,"lon":16.554278,"is_passed":false},{"stop_id":"U1633Z4","name":"Svratecká","arrival_time":"17:29:00","departure_time":"17:29:00","lat":49.218696,"lon":16.554399,"is_passed":false},{"stop_id":"U1502Z2","name":"Podveská","arrival_time":"17:31:00","departure_time":"17:31:00","lat":49.217607,"lon":16.558178,"is_passed":false},{"stop_id":"U1651Z2","name":"Štursova","arrival_time":"17:32:00","departure_time":"17:32:00","lat":49.215854,"lon":16.564522,"is_passed":false},{"stop_id":"U1758Z2","name":"Vrázova","arrival_time":"17:33:00","departure_time":"17:33:00","lat":49.216977,"lon":16.568646,"is_passed":false},{"stop_id":"U1528Z6","name":"Přívrat","arrival_time":"17:35:00","departure_time":"17:35:00","lat":49.218109,"lon":16.574404,"is_passed":false},{"stop_id":"U1352Z2","name":"Makovského náměstí","arrival_time":"17:35:00","departure_time":"17:35:00","lat":49.217881,"lon":16.576657,"is_passed":false},{"stop_id":"U1426Z2","name":"Náměstí Svornosti","arrival_time":"17:37:00","departure_time":"17:37:00","lat":49.215179,"lon":16.58299,"is_passed":false},{"stop_id":"U1206Z2","name":"Jindřichova","arrival_time":"17:38:00","departure_time":"17:38:00","lat":49.213132,"lon":16.583163,"is_passed":false},{"stop_id":"U1601Z2","name":"Spojovací","arrival_time":"17:39:00","departure_time":"17:39:00","lat":49.211772,"lon":16.58703,"is_passed":false},{"stop_id":"U1242Z2","name":"Klusáčkova","arrival_time":"17:41:00","departure_time":"17:41:00","lat":49.211903,"lon":16.592875,"is_passed":false},{"stop_id":"U1785Z2","name":"Zemská knihovna","arrival_time":"17:42:00","departure_time":"17:42:00","lat":49.208799,"lon":16.594624,"is_passed":false},{"stop_id":"U1626Z2","name":"Sušilova","arrival_time":"17:44:00","departure_time":"17:44:00","lat":49.204397,"lon":16.598621,"is_passed":false},{"stop_id":"U1587Z2","name":"Smetanova","arrival_time":"17:45:00","departure_time":"17:45:00","lat":49.201271,"lon":16.602293,"is_passed":false},{"stop_id":"U1073Z7","name":"Česká","arrival_time":"17:48:00","departure_time":"17:51:00","lat":49.198331,"lon":16.605663,"is_passed":false}],"54806":[{"stop_id":"U1073Z6","name":"Česká","arrival_time":"17:51:00","departure_time":"17:51:00","lat":49.198291,"lon":16.605232,"is_passed":false},{"stop_id":"U1587Z1","name":"Smetanova","arrival_time":"17:53:00","departure_time":"17:53:00","lat":49.201909,"lon":16.601644,"is_passed":false},{"stop_id":"U1626Z1","name":"Sušilova","arrival_time":"17:54:00","departure_time":"17:54:00","lat":49.204346,"lon":16.598828,"is_passed":false},{"stop_id":"U1785Z1","name":"Zemská knihovna","arrival_time":"17:56:00","departure_time":"17:56:00","lat":49.208934,"lon":16.594822,"is_passed":false},{"stop_id":"U1242Z1","name":"Klusáčkova","arrival_time":"17:57:00","departure_time":"17:57:00","lat":49.212365,"lon":16.592666,"is_passed":false},{"stop_id":"U1601Z1","name":"Spojovací","arrival_time":"18:00:00","departure_time":"18:00:00","lat":49.212099,"lon":16.586305,"is_passed":false},{"stop_id":"U1206Z1","name":"Jindřichova","arrival_time":"18:01:00","departure_time":"18:01:00","lat":49.21326,"lon":16.582924,"is_passed":false},{"stop_id":"U1426Z1","name":"Náměstí Svornosti","arrival_time":"18:02:00","departure_time":"18:02:00","lat":49.215585,"lon":16.582,"is_passed":false},{"stop_id":"U1352Z1","name":"Makovského náměstí","arrival_time":"18:03:00","departure_time":"18:03:00","lat":49.217922,"lon":16.576761,"is_passed":false},{"stop_id":"U1528Z5","name":"Přívrat","arrival_time":"18:04:00","departure_time":"18:04:00","lat":49.218247,"lon":16.574102,"is_passed":false},{"stop_id":"U1758Z1","name":"Vrázova","arrival_time":"18:06:00","departure_time":"18:06:00","lat":49.216968,"lon":16.568321,"is_passed":false},{"stop_id":"U1651Z1","name":"Štursova","arrival_time":"18:07:00","departure_time":"18:07:00","lat":49.216462,"lon":16.563614,"is_passed":false},{"stop_id":"U1502Z1","name":"Podveská","arrival_time":"18:08:00","departure_time":"18:08:00","lat":49.217623,"lon":16.559017,"is_passed":false},{"stop_id":"U1633Z3","name":"Svratecká","arrival_time":"18:09:00","departure_time":"18:09:00","lat":49.219008,"lon":16.554451,"is_passed":false},{"stop_id":"U1296Z1","name":"Kristenova","arrival_time":"18:10:00","departure_time":"18:10:00","lat":49.220962,"lon":16.554325,"is_passed":false},{"stop_id":"U1178Z1","name":"Chaloupky","arrival_time":"18:11:00","departure_time":"18:11:00","lat":49.22272,"lon":16.55648,"is_passed":false},{"stop_id":"U1453Z1","name":"Olbrachtovo náměstí","arrival_time":"18:12:00","departure_time":"18:12:00","lat":49.225106,"lon":16.558598,"is_passed":false},{"stop_id":"U1561Z1","name":"Řezáčova","arrival_time":"18:13:00","departure_time":"18:13:00","lat":49.226354,"lon":16.555458,"is_passed":false},{"stop_id":"U1258Z1","name":"Komín, sídliště","arrival_time":"18:15:00","departure_time":"18:17:00","lat":49.22699,"lon":16.553346,"is_passed":false}],"54807":[{"stop_id":"U1143Z2","name":"Hlavní","arrival_time":"5:00:00","departure_time":"5:00:00","lat":49.21715,"lon":16.560506,"is_passed":false},{"stop_id":"U1502Z1","name":"Podveská","arrival_time":"5:01:00","departure_time":"5:01:00","lat":49.217623,"lon":16.559017,"is_passed":false},{"stop_id":"U1633Z3","name":"Svratecká","arrival_time":"5:02:00","departure_time":"5:02:00","lat":49.219008,"lon":16.554451,"is_passed":false},{"stop_id":"U1296Z1","name":"Kristenova","arrival_time":"5:03:00","departure_time":"5:03:00","lat":49.220962,"lon":16.554325,"is_passed":false},{"stop_id":"U1178Z1","name":"Chaloupky","arrival_time":"5:04:00","departure_time":"5:04:00","lat":49.22272,"lon":16.55648,"is_passed":false},{"stop_id":"U1453Z1","name":"Olbrachtovo náměstí","arrival_time":"5:05:00","departure_time":"5:05:00","lat":49.225106,"lon":16.558598,"is_passed":false},{"stop_id":"U1561Z1","name":"Řezáčova","arrival_time":"5:06:00","departure_time":"5:06:00","lat":49.226354,"lon":16.555458,"is_passed":false},{"stop_id":"U1258Z1","name":"Komín, sídliště","arrival_time":"5:07:00","departure_time":"5:22:00","lat":49.22699,"lon":16.553346,"is_passed":false}],"54808":[{"stop_id":"U1258Z2","name":"Komín, sídliště","arrival_time":"5:22:00","departure_time":"5:22:00","lat":49.226847,"lon":16.5535,"is_passed":false},{"stop_id":"U1561Z2","name":"Řezáčova","arrival_time":"5:22:00","departure_time":"5:22:00","lat":49.225979,"lon":16.555563,"is_passed":false},{"stop_id":"U1453Z2","name":"Olbrachtovo náměstí","arrival_time":"5:23:00","departure_time":"5:23:00","lat":49.224292,"lon":16.558568,"is_passed":false},{"stop_id":"U1178Z2","name":"Chaloupky","arrival_time":"5:24:00","departure_time":"5:24:00","lat":49.223106,"lon":16.557048,"is_passed":false},{"stop_id":"U1296Z2","name":"Kristenova","arrival_time":"5:25:00","departure_time":"5:25:00","lat":49.221078,"lon":16.554278,"is_passed":false},{"stop_id":"U1633Z4","name":"Svratecká","arrival_time":"5:26:00","departure_time":"5:26:00","lat":49.218696,"lon":16.554399,"is_passed":false},{"stop_id":"U1502Z2","name":"Podveská","arrival_time":"5:27:00","departure_time":"5:27:00","lat":49.217607,"lon":16.558178,"is_passed":false},{"stop_id":"U1651Z2","name":"Štursova","arrival_time":"5:28:00","departure_time":"5:28:00","lat":49.215854,"lon":16.564522,"is_passed":false},{"stop_id":"U1758Z2","name":"Vrázova","arrival_time":"5:29:00","departure_time":"5:29:00","lat":49.216977,"lon":16.568646,"is_passed":false},{"stop_id":"U1528Z6","name":"Přívrat","arrival_time":"5:31:00","departure_time":"5:31:00","lat":49.218109,"lon":16.574404,"is_passed":false},{"stop_id":"U1352Z2","name":"Makovského náměstí","arrival_time":"5:31:00","departure_time":"5:31:00","lat":49.217881,"lon":16.576657,"is_passed":false},{"stop_id":"U1426Z2","name":"Náměstí Svornosti","arrival_time":"5:33:00","departure_time":"5:33:00","lat":49.215179,"lon":16.58299,"is_passed":false},{"stop_id":"U1206Z2","name":"Jindřichova","arrival_time":"5:34:00","departure_time":"5:34:00","lat":49.213132,"lon":16.583163,"is_passed":false},{"stop_id":"U1601Z2","name":"Spojovací","arrival_time":"5:35:00","departure_time":"5:35:00","lat":49.211772,"lon":16.58703,"is_passed":false},{"stop_id":"U1242Z2","name":"Klusáčkova","arrival_time":"5:37:00","departure_time":"5:37:00","lat":49.211903,"lon":16.592875,"is_passed":false},{"stop_id":"U1785Z2","name":"Zemská knihovna","arrival_time":"5:38:00","departure_time":"5:38:00","lat":49.208799,"lon":16.594624,"is_passed":false},{"stop_id":"U1626Z2","name":"Sušilova","arrival_time":"5:40:00","departure_time":"5:40:00","lat":49.204397,"lon":16.598621,"is_passed":false},{"stop_id":"U1587Z2","name":"Smetanova","arrival_time":"5:41:00","departure_time":"5:41:00","lat":49.201271,"lon":16.602293,"is_passed":false},{"stop_id":"U1073Z7","name":"Česká","arrival_time":"5:43:00","departure_time":"5:45:00","lat":49.198331,"lon":16.605663,"is_passed":false}],"54809":[{"stop_id":"U1073Z6","name":"Česká","arrival_time":"5:45:00","departure_time":"5:45:00","lat":49.198291,"lon":16.605232,"is_passed":false},{"stop_id":"U1587Z1","name":"Smetanova","arrival_time":"5:47:00","departure_time":"5:47:00","lat":49.201909,"lon":16.601644,"is_passed":false},{"stop_id":"U1626Z1","name":"Sušilova","arrival_time":"5:48:00","departure_time":"5:48:00","lat":49.204346,"lon":16.598828,"is_passed":false},{"stop_id":"U1785Z1","name":"Zemská knihovna","arrival_time":"5:49:00","departure_time":"5:49:00","lat":49.208934,"lon":16.594822,"is_passed":false},{"stop_id":"U1242Z1","name":"Klusáčkova","arrival_time":"5:50:00","departure_time":"5:50:00","lat":49.212365,"lon":16.592666,"is_passed":false},{"stop_id":"U1601Z1","name":"Spojovací","arrival_time":"5:53:00","departure_time":"5:53:00","lat":49.212099,"lon":16.586305,"is_passed":false},{"stop_id":"U1206Z1","name":"Jindřichova","arrival_time":"5:54:00","departure_time":"5:54:00","lat":49.21326,"lon":16.582924,"is_passed":false},{"stop_id":"U1426Z1","name":"Náměstí Svornosti","arrival_time":"5:55:00","departure_time":"5:55:00","lat":49.215585,"lon":16.582,"is_passed":false},{"stop_id":"U1352Z1","name":"Makovského náměstí","arrival_time":"5:56:00","departure_time":"5:56:00","lat":49.217922,"lon":16.576761,"is_passed":false},{"stop_id":"U1528Z5","name":"Přívrat","arrival_time":"5:57:00","departure_time":"5:57:00","lat":49.218247,"lon":16.574102,"is_passed":false},{"stop_id":"U1758Z1","name":"Vrázova","arrival_time":"5:59:00","departure_time":"5:59:00","lat":49.216968,"lon":16.568321,"is_passed":false},{"stop_id":"U1651Z1","name":"Štursova","arrival_time":"6:00:00","departure_time":"6:00:00","lat":49.216462,"lon":16.563614,"is_passed":false},{"stop_id":"U1502Z1","name":"Podveská","arrival_time":"6:01:00","departure_time":"6:01:00","lat":49.217623,"lon":16.559017,"is_passed":false},{"stop_id":"U1633Z3","name":"Svratecká","arrival_time":"6:02:00","departure_time":"6:02:00","lat":49.219008,"lon":16.554451,"is_passed":false},{"stop_id":"U1296Z1","name":"Kristenova","arrival_time":"6:03:00","departure_time":"6:03:00","lat":49.220962,"lon":16.554325,"is_passed":false},{"stop_id":"U1178Z1","name":"Chaloupky","arrival_time":"6:04:00","departure_time":"6:04:00","lat":49.22272,"lon":16.55648,"is_passed":false},{"stop_id":"U1453Z1","name":"Olbrachtovo náměstí","arrival_time":"6:05:00","departure_time":"6:05:00","lat":49.225106,"lon":16.558598,"is_passed":false},{"stop_id":"U1561Z1","name":"Řezáčova","arrival_time":"6:06:00","departure_time":"6:06:00","lat":49.226354,"lon":16.555458,"is_passed":false},{"stop_id":"U1258Z1","name":"Komín, sídliště","arrival_time":"6:07:00","departure_time":"6:25:00","lat":49.22699,"lon":16.553346,"is_passed":false}],"54810":[{"stop_id":"U1258Z2","name":"Komín, sídliště","arrival_time":"6:25:00","departure_time":"6:25:00","lat":49.226847,"lon":16.5535,"is_passed":false},{"stop_id":"U1561Z2","name":"Řezáčova","arrival_time":"6:25:00","departure_time":"6:25:00","lat":49.225979,"lon":16.555563,"is_passed":false},{"stop_id":"U1453Z2","name":"Olbrachtovo náměstí","arrival_time":"6:26:00","departure_time":"6:26:00","lat":49.224292,"lon":16.558568,"is_passed":false},{"stop_id":"U1178Z2","name":"Chaloupky","arrival_time":"6:27:00","departure_time":"6:27:00","lat":49.223106,"lon":16.557048,"is_passed":false},{"stop_id":"U1296Z2","name":"Kristenova","arrival_time":"6:28:00","departure_time":"6:28:00","lat":49.221078,"lon":16.554278,"is_passed":false},{"stop_id":"U1633Z4","name":"Svratecká","arrival_time":"6:29:00","departure_time":"6:29:00","lat":49.218696,"lon":16.554399,"is_passed":false},{"stop_id":"U1502Z2","name":"Podveská","arrival_time":"6:31:00","departure_time":"6:31:00","lat":49.217607,"lon":16.558178,"is_passed":false},{"stop_id":"U1651Z2","name":"Štursova","arrival_time":"6:32:00","departure_time":"6:32:00","lat":49.215854,"lon":16.564522,"is_passed":false},{"stop_id":"U1758Z2","name":"Vrázova","arrival_time":"6:33:00","departure_time":"6:33:00","lat":49.216977,"lon":16.568646,"is_passed":false},{"stop_id":"U1528Z6","name":"Přívrat","arrival_time":"6:35:00","departure_time":"6:35:00","lat":49.218109,"lon":16.574404,"is_passed":false},{"stop_id":"U1352Z2","name":"Makovského náměstí","arrival_time":"6:35:00","departure_time":"6:35:00","lat":49.217881,"lon":16.576657,"is_passed":false},{"stop_id":"U1426Z2","name":"Náměstí Svornosti","arrival_time":"6:37:00","departure_time":"6:37:00","lat":49.215179,"lon":16.58299,"is_passed":false},{"stop_id":"U1206Z2","name":"Jindřichova","arrival_time":"6:38:00","departure_time":"6:38:00","lat":49.213132,"lon":16.583163,"is_passed":false},{"stop_id":"U1601Z2","name":"Spojovací","arrival_time":"6:39:00","departure_time":"6:39:00","lat":49.211772,"lon":16.58703,"is_passed":false},{"stop_id":"U1242Z2","name":"Klusáčkova","arrival_time":"6:41:00","departure_time":"6:41:00","lat":49.211903,"lon":16.592875,"is_passed":false},{"stop_id":"U1785Z2","name":"Zemská knihovna","arrival_time":"6:42:00","departure_time":"6:42:00","lat":49.208799,"lon":16.594624,"is_passed":false},{"stop_id":"U1626Z2","name":"Sušilova","arrival_time":"6:44:00","departure_time":"6:44:00","lat":49.204397,"lon":16.598621,"is_passed":false},{"stop_id":"U1587Z2","name":"Smetanova","arrival_time":"6:45:00","departure_time":"6:45:00","lat":49.201271,"lon":16.602293,"is_passed":false},{"stop_id":"U1073Z7","name":"Česká","arrival_time":"6:48:00","departure_time":"6:51:00","lat":49.198331,"lon":16.605663,"is_passed":false}],"54811":[{"stop_id":"U1073Z6","name":"Česká","arrival_time":"6:51:00","departure_time":"6:51:00","lat":49.198291,"lon":16.605232,"is_passed":false},{"stop_id":"U1587Z1","name":"Smetanova","arrival_time":"6:53:00","departure_time":"6:53:00","lat":49.201909,"lon":16.601644,"is_passed":false},{"stop_id":"U1626Z1","name":"Sušilova","arrival_time":"6:54:00","departure_time":"6:54:00","lat":49.204346,"lon":16.598828,"is_passed":false},{"stop_id":"U1785Z1","name":"Zemská knihovna","arrival_time":"6:56:00","departure_time":"6:56:00","lat":49.208934,"lon":16.594822,"is_passed":false},{"stop_id":"U1242Z1","name":"Klusáčkova","arrival_time":"6:57:00","departure_time":"6:57:00","lat":49.212365,"lon":16.592666,"is_passed":false},{"stop_id":"U1601Z1","name":"Spojovací","arrival_time":"7:00:00","departure_time":"7:00:00","lat":49.212099,"lon":16.586305,"is_passed":false},{"stop_id":"U1206Z1","name":"Jindřichova","arrival_time":"7:01:00","departure_time":"7:01:00","lat":49.21326,"lon":16.582924,"is_passed":false},{"stop_id":"U1426Z1","name":"Náměstí Svornosti","arrival_time":"7:02:00","departure_time":"7:02:00","lat":49.215585,"lon":16.582,"is_passed":false},{"stop_id":"U1352Z1","name":"Makovského náměstí","arrival_time":"7:03:00","departure_time":"7:03:00","lat":49.217922,"lon":16.576761,"is_passed":false},{"stop_id":"U1528Z5","name":"Přívrat","arrival_time":"7:04:00","departure_time":"7:04:00","lat":49.218247,"lon":16.574102,"is_passed":false},{"stop_id":"U1758Z1","name":"Vrázova","arrival_time":"7:06:00","departure_time":"7:06:00","lat":49.216968,"lon":16.568321,"is_passed":false},{"stop_id":"U1651Z1","name":"Štursova","arrival_time":"7:07:00","departure_time":"7:07:00","lat":49.216462,"lon":16.563614,"is_passed":false},{"stop_id":"U1502Z1","name":"Podveská","arrival_time":"7:08:00","departure_time":"7:08:00","lat":49.217623,"lon":16.559017,"is_passed":false},{"stop_id":"U1633Z3","name":"Svratecká","arrival_time":"7:09:00","departure_time":"7:09:00","lat":49.219008,"lon":16.554451,"is_passed":false},{"stop_id":"U1296Z1","name":"Kristenova","arrival_time":"7:10:00","departure_time":"7:10:00","lat":49.220962,"lon":16.554325,"is_passed":false},{"stop_id":"U1178Z1","name":"Chaloupky","arrival_time":"7:11:00","departure_time":"7:11:00","lat":49.22272,"lon":16.55648,"is_passed":false},{"stop_id":"U1453Z1","name":"Olbrachtovo náměstí","arrival_time":"7:12:00","departure_time":"7:12:00","lat":49.225106,"lon":16.558598,"is_passed":false},{"stop_id":"U1561Z1","name":"Řezáčova","arrival_time":"7:13:00","departure_time":"7:13:00","lat":49.226354,"lon":16.555458,"is_passed":false},{"stop_id":"U1258Z1","name":"Komín, sídliště","arrival_time":"7:15:00","departure_time":"7:25:00","lat":49.22699,"lon":16.553346,"is_passed":false}],"54812":[{"stop_id":"U1258Z2","name":"Komín, sídliště","arrival_time":"7:25:00","departure_time":"7:25:00","lat":49.226847,"lon":16.5535,"is_passed":false},{"stop_id":"U1561Z2","name":"Řezáčova","arrival_time":"7:25:00","departure_time":"7:25:00","lat":49.225979,"lon":16.555563,"is_passed":false},{"stop_id":"U1453Z2","name":"Olbrachtovo náměstí","arrival_time":"7:26:00","departure_time":"7:26:00","lat":49.224292,"lon":16.558568,"is_passed":false},{"stop_id":"U1178Z2","name":"Chaloupky","arrival_time":"7:27:00","departure_time":"7:27:00","lat":49.223106,"lon":16.557048,"is_passed":false},{"stop_id":"U1296Z2","name":"Kristenova","arrival_time":"7:28:00","departure_time":"7:28:00","lat":49.221078,"lon":16.554278,"is_passed":false},{"stop_id":"U1633Z4","name":"Svratecká","arrival_time":"7:29:00","departure_time":"7:29:00","lat":49.218696,"lon":16.554399,"is_passed":false},{"stop_id":"U1502Z2","name":"Podveská","arrival_time":"7:31:00","departure_time":"7:31:00","lat":49.217607,"lon":16.558178,"is_passed":false},{"stop_id":"U1651Z2","name":"Štursova","arrival_time":"7:32:00","departure_time":"7:32:00","lat":49.215854,"lon":16.564522,"is_passed":false},{"stop_id":"U1758Z2","name":"Vrázova","arrival_time":"7:33:00","departure_time":"7:33:00","lat":49.216977,"lon":16.568646,"is_passed":false},{"stop_id":"U1528Z6","name":"Přívrat","arrival_time":"7:35:00","departure_time":"7:35:00","lat":49.218109,"lon":16.574404,"is_passed":false},{"stop_id":"U1352Z2","name":"Makovského náměstí","arrival_time":"7:35:00","departure_time":"7:35:00","lat":49.217881,"lon":16.576657,"is_passed":false},{"stop_id":"U1426Z2","name":"Náměstí Svornosti","arrival_time":"7:37:00","departure_time":"7:37:00","lat":49.215179,"lon":16.58299,"is_passed":false},{"stop_id":"U1206Z2","name":"Jindřichova","arrival_time":"7:38:00","departure_time":"7:38:00","lat":49.213132,"lon":16.583163,"is_passed":false},{"stop_id":"U1601Z2","name":"Spojovací","arrival_time":"7:39:00","departure_time":"7:39:00","lat":49.211772,"lon":16.58703,"is_passed":false},{"stop_id":"U1242Z2","name":"Klusáčkova","arrival_time":"7:41:00","departure_time":"7:41:00","lat":49.211903,"lon":16.592875,"is_passed":false},{"stop_id":"U1785Z2","name":"Zemská knihovna","arrival_time":"7:42:00","departure_time":"7:42:00","lat":49.208799,"lon":16.594624,"is_passed":false},{"stop_id":"U1626Z2","name":"Sušilova","arrival_time":"7:44:00","departure_time":"7:44:00","lat":49.204397,"lon":16.598621,"is_passed":false},{"stop_id":"U1587Z2","name":"Smetanova","arrival_time":"7:45:00","departure_time":"7:45:00","lat":49.201271,"lon":16.602293,"is_passed":false},{"stop_id":"U1073Z7","name":"Česká","arrival_time":"7:48:00","departure_time":"7:51:00","lat":49.198331,"lon":16.605663,"is_passed":false}],"54813":[{"stop_id":"U1073Z6","name":"Česká","arrival_time":"7:51:00","departure_time":"7:51:00","lat":49.198291,"lon":16.605232,"is_passed":false},{"stop_id":"U1587Z1","name":"Smetanova","arrival_time":"7:53:00","departure_time":"7:53:00","lat":49.201909,"lon":16.601644,"is_passed":false},{"stop_id":"U1626Z1","name":"Sušilova","arrival_time":"7:54:00","departure_time":"7:54:00","lat":49.204346,"lon":16.598828,"is_passed":false},{"stop_id":"U1785Z1","name":"Zemská knihovna","arrival_time":"7:56:00","departure_time":"7:56:00","lat":49.208934,"lon":16.594822,"is_passed":false},{"stop_id":"U1242Z1","name":"Klusáčkova","arrival_time":"7:57:00","departure_time":"7:57:00","lat":49.212365,"lon":16.592666,"is_passed":false},{"stop_id":"U1601Z1","name":"Spojovací","arrival_time":"8:00:00","departure_time":"8:00:00","lat":49.212099,"lon":16.586305,"is_passed":false},{"stop_id":"U1206Z1","name":"Jindřichova","arrival_time":"8:01:00","departure_time":"8:01:00","lat":49.21326,"lon":16.582924,"is_passed":false},{"stop_id":"U1426Z1","name":"Náměstí Svornosti","arrival_time":"8:02:00","departure_time":"8:02:00","lat":49.215585,"lon":16.582,"is_passed":false},{"stop_id":"U1352Z1","name":"Makovského náměstí","arrival_time":"8:03:00","departure_time":"8:03:00","lat":49.217922,"lon":16.576761,"is_passed":false},{"stop_id":"U1528Z5","name":"Přívrat","arrival_time":"8:04:00","departure_time":"8:04:00","lat":49.218247,"lon":16.574102,"is_passed":false},{"stop_id":"U1758Z1","name":"Vrázova","arrival_time":"8:06:00","departure_time":"8:06:00","lat":49.216968,"lon":16.568321,"is_passed":false},{"stop_id":"U1651Z1","name":"Štursova","arrival_time":"8:07:00","departure_time":"8:07:00","lat":49.216462,"lon":16.563614,"is_passed":false},{"stop_id":"U1502Z1","name":"Podveská","arrival_time":"8:08:00","departure_time":"8:08:00","lat":49.217623,"lon":16.559017,"is_passed":false},{"stop_id":"U1633Z3","name":"Svratecká","arrival_time":"8:09:00","departure_time":"8:09:00","lat":49.219008,"lon":16.554451,"is_passed":false},{"stop_id":"U1296Z1","name":"Kristenova","arrival_time":"8:10:00","departure_time":"8:10:00","lat":49.220962,"lon":16.554325,"is_passed":false},{"stop_id":"U1178Z1","name":"Chaloupky","arrival_time":"8:11:00","departure_time":"8:11:00","lat":49.22272,"lon":16.55648,"is_passed":false},{"stop_id":"U1453Z1","name":"Olbrachtovo náměstí","arrival_time":"8:12:00","departure_time":"8:12:00","lat":49.225106,"lon":16.558598,"is_passed":false},{"stop_id":"U1561Z1","name":"Řezáčova","arrival_time":"8:13:00","departure_time":"8:13:00","lat":49.226354,"lon":16.555458,"is_passed":false},{"stop_id":"U1258Z1","name":"Komín, sídliště","arrival_time":"8:15:00","departure_time":"8:25:00","lat":49.22699,"lon":16.553346,"is_passed":false}],"54814":[{"stop_id":"U1258Z2","name":"Komín, sídliště","arrival_time":"8:25:00","departure_time":"8:25:00","lat":49.226847,"lon":16.5535,"is_passed":false},{"stop_id":"U1561Z2","name":"Řezáčova","arrival_time":"8:25:00","departure_time":"8:25:00","lat":49.225979,"lon":16.555563,"is_passed":false},{"stop_id":"U1453Z2","name":"Olbrachtovo náměstí","arrival_time":"8:26:00","departure_time":"8:26:00","lat":49.224292,"lon":16.558568,"is_passed":false},{"stop_id":"U1178Z2","name":"Chaloupky","arrival_time":"8:27:00","departure_time":"8:27:00","lat":49.223106,"lon":16.557048,"is_passed":false},{"stop_id":"U1296Z2","name":"Kristenova","arrival_time":"8:28:00","departure_time":"8:28:00","lat":49.221078,"lon":16.554278,"is_passed":false},{"stop_id":"U1633Z4","name":"Svratecká","arrival_time":"8:29:00","departure_time":"8:29:00","lat":49.218696,"lon":16.554399,"is_passed":false},{"stop_id":"U1502Z2","name":"Podveská","arrival_time":"8:31:00","departure_time":"8:31:00","lat":49.217607,"lon":16.558178,"is_passed":false},{"stop_id":"U1651Z2","name":"Štursova","arrival_time":"8:32:00","departure_time":"8:32:00","lat":49.215854,"lon":16.564522,"is_passed":false},{"stop_id":"U1758Z2","name":"Vrázova","arrival_time":"8:33:00","departure_time":"8:33:00","lat":49.216977,"lon":16.568646,"is_passed":false},{"stop_id":"U1528Z6","name":"Přívrat","arrival_time":"8:35:00","departure_time":"8:35:00","lat":49.218109,"lon":16.574404,"is_passed":false},{"stop_id":"U1352Z2","name":"Makovského náměstí","arrival_time":"8:35:00","departure_time":"8:35:00","lat":49.217881,"lon":16.576657,"is_passed":false},{"stop_id":"U1426Z2","name":"Náměstí Svornosti","arrival_time":"8:37:00","departure_time":"8:37:00","lat":49.215179,"lon":16.58299,"is_passed":false},{"stop_id":"U1206Z2","name":"Jindřichova","arrival_time":"8:38:00","departure_time":"8:38:00","lat":49.213132,"lon":16.583163,"is_passed":false},{"stop_id":"U1601Z2","name":"Spojovací","arrival_time":"8:39:00","departure_time":"8:39:00","lat":49.211772,"lon":16.58703,"is_passed":false},{"stop_id":"U1242Z2","name":"Klusáčkova","arrival_time":"8:41:00","departure_time":"8:41:00","lat":49.211903,"lon":16.592875,"is_passed":false},{"stop_id":"U1785Z2","name":"Zemská knihovna","arrival_time":"8:42:00","departure_time":"8:42:00","lat":49.208799,"lon":16.594624,"is_passed":false},{"stop_id":"U1626Z2","name":"Sušilova","arrival_time":"8:44:00","departure_time":"8:44:00","lat":49.204397,"lon":16.598621,"is_passed":false},{"stop_id":"U1587Z2","name":"Smetanova","arrival_time":"8:45:00","departure_time":"8:45:00","lat":49.201271,"lon":16.602293,"is_passed":false},{"stop_id":"U1073Z7","name":"Česká","arrival_time":"8:48:00","departure_time":"8:51:00","lat":49.198331,"lon":16.605663,"is_passed":false}],"54815":[{"stop_id":"U1073Z6","name":"Česká","arrival_time":"8:51:00","departure_time":"8:51:00","lat":49.198291,"lon":16.605232,"is_passed":false},{"stop_id":"U1587Z1","name":"Smetanova","arrival_time":"8:53:00","departure_time":"8:53:00","lat":49.201909,"lon":16.601644,"is_passed":false},{"stop_id":"U1626Z1","name":"Sušilova","arrival_time":"8:54:00","departure_time":"8:54:00","lat":49.204346,"lon":16.598828,"is_passed":false},{"stop_id":"U1785Z1","name":"Zemská knihovna","arrival_time":"8:56:00","departure_time":"8:56:00","lat":49.208934,"lon":16.594822,"is_passed":false},{"stop_id":"U1242Z1","name":"Klusáčkova","arrival_time":"8:57:00","departure_time":"8:57:00","lat":49.212365,"lon":16.592666,"is_passed":false},{"stop_id":"U1601Z1","name":"Spojovací","arrival_time":"9:00:00","departure_time":"9:00:00","lat":49.212099,"lon":16.586305,"is_passed":false},{"stop_id":"U1206Z1","name":"Jindřichova","arrival_time":"9:01:00","departure_time":"9:01:00","lat":49.21326,"lon":16.582924,"is_passed":false},{"stop_id":"U1426Z1","name":"Náměstí Svornosti","arrival_time":"9:02:00","departure_time":"9:02:00","lat":49.215585,"lon":16.582,"is_passed":false},{"stop_id":"U1352Z1","name":"Makovského náměstí","arrival_time":"9:03:00","departure_time":"9:03:00","lat":49.217922,"lon":16.576761,"is_passed":false},{"stop_id":"U1528Z5","name":"Přívrat","arrival_time":"9:04:00","departure_time":"9:04:00","lat":49.218247,"lon":16.574102,"is_passed":false},{"stop_id":"U1758Z1","name":"Vrázova","arrival_time":"9:06:00","departure_time":"9:06:00","lat":49.216968,"lon":16.568321,"is_passed":false},{"stop_id":"U1651Z1","name":"Štursova","arrival_time":"9:07:00","departure_time":"9:07:00","lat":49.216462,"lon":16.563614,"is_passed":false},{"stop_id":"U1502Z1","name":"Podveská","arrival_time":"9:08:00","departure_time":"9:08:00","lat":49.217623,"lon":16.559017,"is_passed":false},{"stop_id":"U1633Z3","name":"Svratecká","arrival_time":"9:09:00","departure_time":"9:09:00","lat":49.219008,"lon":16.554451,"is_passed":false},{"stop_id":"U1296Z1","name":"Kristenova","arrival_time":"9:10:00","departure_time":"9:10:00","lat":49.220962,"lon":16.554325,"is_passed":false},{"stop_id":"U1178Z1","name":"Chaloupky","arrival_time":"9:11:00","departure_time":"9:11:00","lat":49.22272,"lon":16.55648,"is_passed":false},{"stop_id":"U1453Z1","name":"Olbrachtovo náměstí","arrival_time":"9:12:00","departure_time":"9:12:00","lat":49.225106,"lon":16.558598,"is_passed":false},{"stop_id":"U1561Z1","name":"Řezáčova","arrival_time":"9:13:00","departure_time":"9:13:00","lat":49.226354,"lon":16.555458,"is_passed":false},{"stop_id":"U1258Z1","name":"Komín, sídliště","arrival_time":"9:15:00","departure_time":"9:44:00","lat":49.22699,"lon":16.553346,"is_passed":false}],"54816":[{"stop_id":"U1258Z2","name":"Komín, sídliště","arrival_time":"9:44:00","departure_time":"9:44:00","lat":49.226847,"lon":16.5535,"is_passed":false},{"stop_id":"U1561Z2","name":"Řezáčova","arrival_time":"9:44:00","departure_time":"9:44:00","lat":49.225979,"lon":16.555563,"is_passed":false},{"stop_id":"U1453Z2","name":"Olbrachtovo náměstí","arrival_time":"9:45:00","departure_time":"9:45:00","lat":49.224292,"lon":16.558568,"is_passed":false},{"stop_id":"U1178Z2","name":"Chaloupky","arrival_time":"9:46:00","departure_time":"9:46:00","lat":49.223106,"lon":16.557048,"is_passed":false},{"stop_id":"U1296Z2","name":"Kristenova","arrival_time":"9:47:00","departure_time":"9:47:00","lat":49.221078,"lon":16.554278,"is_passed":false},{"stop_id":"U1633Z4","name":"Svratecká","arrival_time":"9:48:00","departure_time":"9:48:00","lat":49.218696,"lon":16.554399,"is_passed":false},{"stop_id":"U1502Z2","name":"Podveská","arrival_time":"9:50:00","departure_time":"9:50:00","lat":49.217607,"lon":16.558178,"is_passed":false},{"stop_id":"U1651Z2","name":"Štursova","arrival_time":"9:51:00","departure_time":"9:51:00","lat":49.215854,"lon":16.564522,"is_passed":false},{"stop_id":"U1758Z2","name":"Vrázova","arrival_time":"9:52:00","departure_time":"9:52:00","lat":49.216977,"lon":16.568646,"is_passed":false},{"stop_id":"U1528Z6","name":"Přívrat","arrival_time":"9:54:00","departure_time":"9:54:00","lat":49.218109,"lon":16.574404,"is_passed":false},{"stop_id":"U1352Z2","name":"Makovského náměstí","arrival_time":"9:54:00","departure_time":"9:54:00","lat":49.217881,"lon":16.576657,"is_passed":false},{"stop_id":"U1426Z2","name":"Náměstí Svornosti","arrival_time":"9:56:00","departure_time":"9:56:00","lat":49.215179,"lon":16.58299,"is_passed":false},{"stop_id":"U1206Z2","name":"Jindřichova","arrival_time":"9:57:00","departure_time":"9:57:00","lat":49.213132,"lon":16.583163,"is_passed":false},{"stop_id":"U1601Z2","name":"Spojovací","arrival_time":"9:58:00","departure_time":"9:58:00","lat":49.211772,"lon":16.58703,"is_passed":false},{"stop_id":"U1242Z2","name":"Klusáčkova","arrival_time":"10:00:00","departure_time":"10:00:00","lat":49.211903,"lon":16.592875,"is_passed":false},{"stop_id":"U1785Z2","name":"Zemská knihovna","arrival_time":"10:01:00","departure_time":"10:01:00","lat":49.208799,"lon":16.594624,"is_passed":false},{"stop_id":"U1626Z2","name":"Sušilova","arrival_time":"10:03:00","departure_time":"10:03:00","lat":49.204397,"lon":16.598621,"is_passed":false},{"stop_id":"U1587Z2","name":"Smetanova","arrival_time":"10:04:00","departure_time":"10:04:00","lat":49.201271,"lon":16.602293,"is_passed":false},{"stop_id":"U1073Z7","name":"Česká","arrival_time":"10:07:00","departure_time":"10:10:00","lat":49.198331,"lon":16.605663,"is_passed":false}],"54817":[{"stop_id":"U1073Z6","name":"Česká","arrival_time":"10:10:00","departure_time":"10:10:00","lat":49.198291,"lon":16.605232,"is_passed":false},{"stop_id":"U1587Z1","name":"Smetanova","arrival_time":"10:12:00","departure_time":"10:12:00","lat":49.201909,"lon":16.601644,"is_passed":false},{"stop_id":"U1626Z1","name":"Sušilova","arrival_time":"10:13:00","departure_time":"10:13:00","lat":49.204346,"lon":16.598828,"is_passed":false},{"stop_id":"U1785Z1","name":"Zemská knihovna","arrival_time":"10:15:00","departure_time":"10:15:00","lat":49.208934,"lon":16.594822,"is_passed":false},{"stop_id":"U1242Z1","name":"Klusáčkova","arrival_time":"10:16:00","departure_time":"10:16:00","lat":49.212365,"lon":16.592666,"is_passed":false},{"stop_id":"U1601Z1","name":"Spojovací","arrival_time":"10:19:00","departure_time":"10:19:00","lat":49.212099,"lon":16.586305,"is_passed":false},{"stop_id":"U1206Z1","name":"Jindřichova","arrival_time":"10:20:00","departure_time":"10:20:00","lat":49.21326,"lon":16.582924,"is_passed":false},{"stop_id":"U1426Z1","name":"Náměstí Svornosti","arrival_time":"10:21:00","departure_time":"10:21:00","lat":49.215585,"lon":16.582,"is_passed":false},{"stop_id":"U1352Z1","name":"Makovského náměstí","arrival_time":"10:22:00","departure_time":"10:22:00","lat":49.217922,"lon":16.576761,"is_passed":false},{"stop_id":"U1528Z5","name":"Přívrat","arrival_time":"10:23:00","departure_time":"10:23:00","lat":49.218247,"lon":16.574102,"is_passed":false},{"stop_id":"U1758Z1","name":"Vrázova","arrival_time":"10:25:00","departure_time":"10:25:00","lat":49.216968,"lon":16.568321,"is_passed":false},{"stop_id":"U1651Z1","name":"Štursova","arrival_time":"10:26:00","departure_time":"10:26:00","lat":49.216462,"lon":16.563614,"is_passed":false},{"stop_id":"U1502Z1","name":"Podveská","arrival_time":"10:27:00","departure_time":"10:27:00","lat":49.217623,"lon":16.559017,"is_passed":false},{"stop_id":"U1633Z3","name":"Svratecká","arrival_time":"10:28:00","departure_time":"10:28:00","lat":49.219008,"lon":16.554451,"is_passed":false},{"stop_id":"U1296Z1","name":"Kristenova","arrival_time":"10:29:00","departure_time":"10:29:00","lat":49.220962,"lon":16.554325,"is_passed":false},{"stop_id":"U1178Z1","name":"Chaloupky","arrival_time":"10:30:00","departure_time":"10:30:00","lat":49.22272,"lon":16.55648,"is_passed":false},{"stop_id":"U1453Z1","name":"Olbrachtovo náměstí","arrival_time":"10:31:00","departure_time":"10:31:00","lat":49.225106,"lon":16.558598,"is_passed":false},{"stop_id":"U1561Z1","name":"Řezáčova","arrival_time":"10:32:00","departure_time":"10:32:00","lat":49.226354,"lon":16.555458,"is_passed":false},{"stop_id":"U1258Z1","name":"Komín, sídliště","arrival_time":"10:34:00","departure_time":"11:04:00","lat":49.22699,"lon":16.553346,"is_passed":false}],"54818":[{"stop_id":"U1258Z2","name":"Komín, sídliště","arrival_time":"11:04:00","departure_time":"11:04:00","lat":49.226847,"lon":16.5535,"is_passed":false},{"stop_id":"U1561Z2","name":"Řezáčova","arrival_time":"11:04:00","departure_time":"11:04:00","lat":49.225979,"lon":16.555563,"is_passed":false},{"stop_id":"U1453Z2","name":"Olbrachtovo náměstí","arrival_time":"11:05:00","departure_time":"11:05:00","lat":49.224292,"lon":16.558568,"is_passed":false},{"stop_id":"U1178Z2","name":"Chaloupky","arrival_time":"11:06:00","departure_time":"11:06:00","lat":49.223106,"lon":16.557048,"is_passed":false},{"stop_id":"U1296Z2","name":"Kristenova","arrival_time":"11:07:00","departure_time":"11:07:00","lat":49.221078,"lon":16.554278,"is_passed":false},{"stop_id":"U1633Z4","name":"Svratecká","arrival_time":"11:08:00","departure_time":"11:08:00","lat":49.218696,"lon":16.554399,"is_passed":false},{"stop_id":"U1502Z2","name":"Podveská","arrival_time":"11:10:00","departure_time":"11:10:00","lat":49.217607,"lon":16.558178,"is_passed":false},{"stop_id":"U1651Z2","name":"Štursova","arrival_time":"11:11:00","departure_time":"11:11:00","lat":49.215854,"lon":16.564522,"is_passed":false},{"stop_id":"U1758Z2","name":"Vrázova","arrival_time":"11:12:00","departure_time":"11:12:00","lat":49.216977,"lon":16.568646,"is_passed":false},{"stop_id":"U1528Z6","name":"Přívrat","arrival_time":"11:14:00","departure_time":"11:14:00","lat":49.218109,"lon":16.574404,"is_passed":false},{"stop_id":"U1352Z2","name":"Makovského náměstí","arrival_time":"11:14:00","departure_time":"11:14:00","lat":49.217881,"lon":16.576657,"is_passed":false},{"stop_id":"U1426Z2","name":"Náměstí Svornosti","arrival_time":"11:16:00","departure_time":"11:16:00","lat":49.215179,"lon":16.58299,"is_passed":false},{"stop_id":"U1206Z2","name":"Jindřichova","arrival_time":"11:17:00","departure_time":"11:17:00","lat":49.213132,"lon":16.583163,"is_passed":false},{"stop_id":"U1601Z2","name":"Spojovací","arrival_time":"11:18:00","departure_time":"11:18:00","lat":49.211772,"lon":16.58703,"is_passed":false},{"stop_id":"U1242Z2","name":"Klusáčkova","arrival_time":"11:20:00","departure_time":"11:20:00","lat":49.211903,"lon":16.592875,"is_passed":false},{"stop_id":"U1785Z2","name":"Zemská knihovna","arrival_time":"11:21:00","departure_time":"11:21:00","lat":49.208799,"lon":16.594624,"is_passed":false},{"stop_id":"U1626Z2","name":"Sušilova","arrival_time":"11:23:00","departure_time":"11:23:00","lat":49.204397,"lon":16.598621,"is_passed":false},{"stop_id":"U1587Z2","name":"Smetanova","arrival_time":"11:24:00","departure_time":"11:24:00","lat":49.201271,"lon":16.602293,"is_passed":false},{"stop_id":"U1073Z7","name":"Česká","arrival_time":"11:27:00","departure_time":"11:30:00","lat":49.198331,"lon":16.605663,"is_passed":false}],"54819":[{"stop_id":"U1073Z6","name":"Česká","arrival_time":"11:30:00","departure_time":"11:30:00","lat":49.198291,"lon":16.605232,"is_passed":false},{"stop_id":"U1587Z1","name":"Smetanova","arrival_time":"11:32:00","departure_time":"11:32:00","lat":49.201909,"lon":16.601644,"is_passed":false},{"stop_id":"U1626Z1","name":"Sušilova","arrival_time":"11:33:00","departure_time":"11:33:00","lat":49.204346,"lon":16.598828,"is_passed":false},{"stop_id":"U1785Z1","name":"Zemská knihovna","arrival_time":"11:35:00","departure_time":"11:35:00","lat":49.208934,"lon":16.594822,"is_passed":false},{"stop_id":"U1242Z1","name":"Klusáčkova","arrival_time":"11:36:00","departure_time":"11:36:00","lat":49.212365,"lon":16.592666,"is_passed":false},{"stop_id":"U1601Z1","name":"Spojovací","arrival_time":"11:39:00","departure_time":"11:39:00","lat":49.212099,"lon":16.586305,"is_passed":false},{"stop_id":"U1206Z1","name":"Jindřichova","arrival_time":"11:40:00","departure_time":"11:40:00","lat":49.21326,"lon":16.582924,"is_passed":false},{"stop_id":"U1426Z1","name":"Náměstí Svornosti","arrival_time":"11:41:00","departure_time":"11:41:00","lat":49.215585,"lon":16.582,"is_passed":false},{"stop_id":"U1352Z1","name":"Makovského náměstí","arrival_time":"11:42:00","departure_time":"11:42:00","lat":49.217922,"lon":16.576761,"is_passed":false},{"stop_id":"U1528Z5","name":"Přívrat","arrival_time":"11:43:00","departure_time":"11:43:00","lat":49.218247,"lon":16.574102,"is_passed":false},{"stop_id":"U1758Z1","name":"Vrázova","arrival_time":"11:45:00","departure_time":"11:45:00","lat":49.216968,"lon":16.568321,"is_passed":false},{"stop_id":"U1651Z1","name":"Štursova","arrival_time":"11:46:00","departure_time":"11:46:00","lat":49.216462,"lon":16.563614,"is_passed":false},{"stop_id":"U1502Z1","name":"Podveská","arrival_time":"11:47:00","departure_time":"11:47:00","lat":49.217623,"lon":16.559017,"is_passed":false},{"stop_id":"U1633Z3","name":"Svratecká","arrival_time":"11:48:00","departure_time":"11:48:00","lat":49.219008,"lon":16.554451,"is_passed":false},{"stop_id":"U1296Z1","name":"Kristenova","arrival_time":"11:49:00","departure_time":"11:49:00","lat":49.220962,"lon":16.554325,"is_passed":false},{"stop_id":"U1178Z1","name":"Chaloupky","arrival_time":"11:50:00","departure_time":"11:50:00","lat":49.22272,"lon":16.55648,"is_passed":false},{"stop_id":"U1453Z1","name":"Olbrachtovo náměstí","arrival_time":"11:51:00","departure_time":"11:51:00","lat":49.225106,"lon":16.558598,"is_passed":false},{"stop_id":"U1561Z1","name":"Řezáčova","arrival_time":"11:52:00","departure_time":"11:52:00","lat":49.226354,"lon":16.555458,"is_passed":false},{"stop_id":"U1258Z1","name":"Komín, sídliště","arrival_time":"11:54:00","departure_time":"12:24:00","lat":49.22699,"lon":16.553346,"is_passed":false}],"54820":[{"stop_id":"U1258Z2","name":"Komín, sídliště","arrival_time":"12:24:00","departure_time":"12:24:00","lat":49.226847,"lon":16.5535,"is_passed":false},{"stop_id":"U1561Z2","name":"Řezáčova","arrival_time":"12:24:00","departure_time":"12:24:00","lat":49.225979,"lon":16.555563,"is_passed":false},{"stop_id":"U1453Z2","name":"Olbrachtovo náměstí","arrival_time":"12:25:00","departure_time":"12:25:00","lat":49.224292,"lon":16.558568,"is_passed":false},{"stop_id":"U1178Z2","name":"Chaloupky","arrival_time":"12:26:00","departure_time":"12:26:00","lat":49.223106,"lon":16.557048,"is_passed":false},{"stop_id":"U1296Z2","name":"Kristenova","arrival_time":"12:27:00","departure_time":"12:27:00","lat":49.221078,"lon":16.554278,"is_passed":false},{"stop_id":"U1633Z4","name":"Svratecká","arrival_time":"12:28:00","departure_time":"12:28:00","lat":49.218696,"lon":16.554399,"is_passed":false},{"stop_id":"U1502Z2","name":"Podveská","arrival_time":"12:30:00","departure_time":"12:30:00","lat":49.217607,"lon":16.558178,"is_passed":false},{"stop_id":"U1651Z2","name":"Štursova","arrival_time":"12:31:00","departure_time":"12:31:00","lat":49.215854,"lon":16.564522,"is_passed":false},{"stop_id":"U1758Z2","name":"Vrázova","arrival_time":"12:32:00","departure_time":"12:32:00","lat":49.216977,"lon":16.568646,"is_passed":false},{"stop_id":"U1528Z6","name":"Přívrat","arrival_time":"12:34:00","departure_time":"12:34:00","lat":49.218109,"lon":16.574404,"is_passed":false},{"stop_id":"U1352Z2","name":"Makovského náměstí","arrival_time":"12:34:00","departure_time":"12:34:00","lat":49.217881,"lon":16.576657,"is_passed":false},{"stop_id":"U1426Z2","name":"Náměstí Svornosti","arrival_time":"12:36:00","departure_time":"12:36:00","lat":49.215179,"lon":16.58299,"is_passed":false},{"stop_id":"U1206Z2","name":"Jindřichova","arrival_time":"12:37:00","departure_time":"12:37:00","lat":49.213132,"lon":16.583163,"is_passed":false},{"stop_id":"U1601Z2","name":"Spojovací","arrival_time":"12:38:00","departure_time":"12:38:00","lat":49.211772,"lon":16.58703,"is_passed":false},{"stop_id":"U1242Z2","name":"Klusáčkova","arrival_time":"12:40:00","departure_time":"12:40:00","lat":49.211903,"lon":16.592875,"is_passed":false},{"stop_id":"U1785Z2","name":"Zemská knihovna","arrival_time":"12:41:00","departure_time":"12:41:00","lat":49.208799,"lon":16.594624,"is_passed":false},{"stop_id":"U1626Z2","name":"Sušilova","arrival_time":"12:43:00","departure_time":"12:43:00","lat":49.204397,"lon":16.598621,"is_passed":false},{"stop_id":"U1587Z2","name":"Smetanova","arrival_time":"12:44:00","departure_time":"12:44:00","lat":49.201271,"lon":16.602293,"is_passed":false},{"stop_id":"U1073Z7","name":"Česká","arrival_time":"12:47:00","departure_time":"12:50:00","lat":49.198331,"lon":16.605663,"is_passed":false}],"54821":[{"stop_id":"U1073Z6","name":"Česká","arrival_time":"12:50:00","departure_time":"12:50:00","lat":49.198291,"lon":16.605232,"is_passed":false},{"stop_id":"U1587Z1","name":"Smetanova","arrival_time":"12:52:00","departure_time":"12:52:00","lat":49.201909,"lon":16.601644,"is_passed":false},{"stop_id":"U1626Z1","name":"Sušilova","arrival_time":"12:53:00","departure_time":"12:53:00","lat":49.204346,"lon":16.598828,"is_passed":false},{"stop_id":"U1785Z1","name":"Zemská knihovna","arrival_time":"12:55:00","departure_time":"12:55:00","lat":49.208934,"lon":16.594822,"is_passed":false},{"stop_id":"U1242Z1","name":"Klusáčkova","arrival_time":"12:56:00","departure_time":"12:56:00","lat":49.212365,"lon":16.592666,"is_passed":false},{"stop_id":"U1601Z1","name":"Spojovací","arrival_time":"12:59:00","departure_time":"12:59:00","lat":49.212099,"lon":16.586305,"is_passed":false},{"stop_id":"U1206Z1","name":"Jindřichova","arrival_time":"13:00:00","departure_time":"13:00:00","lat":49.21326,"lon":16.582924,"is_passed":false},{"stop_id":"U1426Z1","name":"Náměstí Svornosti","arrival_time":"13:01:00","departure_time":"13:01:00","lat":49.215585,"lon":16.582,"is_passed":false},{"stop_id":"U1352Z1","name":"Makovského náměstí","arrival_time":"13:02:00","departure_time":"13:02:00","lat":49.217922,"lon":16.576761,"is_passed":false},{"stop_id":"U1528Z5","name":"Přívrat","arrival_time":"13:03:00","departure_time":"13:03:00","lat":49.218247,"lon":16.574102,"is_passed":false},{"stop_id":"U1758Z1","name":"Vrázova","arrival_time":"13:05:00","departure_time":"13:05:00","lat":49.216968,"lon":16.568321,"is_passed":false},{"stop_id":"U1651Z1","name":"Štursova","arrival_time":"13:06:00","departure_time":"13:06:00","lat":49.216462,"lon":16.563614,"is_passed":false},{"stop_id":"U1502Z1","name":"Podveská","arrival_time":"13:07:00","departure_time":"13:07:00","lat":49.217623,"lon":16.559017,"is_passed":false},{"stop_id":"U1633Z3","name":"Svratecká","arrival_time":"13:08:00","departure_time":"13:08:00","lat":49.219008,"lon":16.554451,"is_passed":false},{"stop_id":"U1296Z1","name":"Kristenova","arrival_time":"13:09:00","departure_time":"13:09:00","lat":49.220962,"lon":16.554325,"is_passed":false},{"stop_id":"U1178Z1","name":"Chaloupky","arrival_time":"13:10:00","departure_time":"13:10:00","lat":49.22272,"lon":16.55648,"is_passed":false},{"stop_id":"U1453Z1","name":"Olbrachtovo náměstí","arrival_time":"13:11:00","departure_time":"13:11:00","lat":49.225106,"lon":16.558598,"is_passed":false},{"stop_id":"U1561Z1","name":"Řezáčova","arrival_time":"13:12:00","departure_time":"13:12:00","lat":49.226354,"lon":16.555458,"is_passed":false},{"stop_id":"U1258Z1","name":"Komín, sídliště","arrival_time":"13:14:00","departure_time":"13:55:00","lat":49.22699,"lon":16.553346,"is_passed":false}],"54822":[{"stop_id":"U1258Z2","name":"Komín, sídliště","arrival_time":"13:55:00","departure_time":"13:55:00","lat":49.226847,"lon":16.5535,"is_passed":false},{"stop_id":"U1561Z2","name":"Řezáčova","arrival_time":"13:55:00","departure_time":"13:55:00","lat":49.225979,"lon":16.555563,"is_passed":false},{"stop_id":"U1453Z2","name":"Olbrachtovo náměstí","arrival_time":"13:56:00","departure_time":"13:56:00","lat":49.224292,"lon":16.558568,"is_passed":false},{"stop_id":"U1178Z2","name":"Chaloupky","arrival_time":"13:57:00","departure_time":"13:57:00","lat":49.223106,"lon":16.557048,"is_passed":false},{"stop_id":"U1296Z2","name":"Kristenova","arrival_time":"13:58:00","departure_time":"13:58:00","lat":49.221078,"lon":16.554278,"is_passed":false},{"stop_id":"U1633Z4","name":"Svratecká","arrival_time":"13:59:00","departure_time":"13:59:00","lat":49.218696,"lon":16.554399,"is_passed":false},{"stop_id":"U1502Z2","name":"Podveská","arrival_time":"14:01:00","departure_time":"14:01:00","lat":49.217607,"lon":16.558178,"is_passed":false},{"stop_id":"U1651Z2","name":"Štursova","arrival_time":"14:02:00","departure_time":"14:02:00","lat":49.215854,"lon":16.564522,"is_passed":false},{"stop_id":"U1758Z2","name":"Vrázova","arrival_time":"14:03:00","departure_time":"14:03:00","lat":49.216977,"lon":16.568646,"is_passed":false},{"stop_id":"U1528Z6","name":"Přívrat","arrival_time":"14:05:00","departure_time":"14:05:00","lat":49.218109,"lon":16.574404,"is_passed":false},{"stop_id":"U1352Z2","name":"Makovského náměstí","arrival_time":"14:05:00","departure_time":"14:05:00","lat":49.217881,"lon":16.576657,"is_passed":false},{"stop_id":"U1426Z2","name":"Náměstí Svornosti","arrival_time":"14:07:00","departure_time":"14:07:00","lat":49.215179,"lon":16.58299,"is_passed":false},{"stop_id":"U1206Z2","name":"Jindřichova","arrival_time":"14:08:00","departure_time":"14:08:00","lat":49.213132,"lon":16.583163,"is_passed":false},{"stop_id":"U1601Z2","name":"Spojovací","arrival_time":"14:09:00","departure_time":"14:09:00","lat":49.211772,"lon":16.58703,"is_passed":false},{"stop_id":"U1242Z2","name":"Klusáčkova","arrival_time":"14:11:00","departure_time":"14:11:00","lat":49.211903,"lon":16.592875,"is_passed":false},{"stop_id":"U1785Z2","name":"Zemská knihovna","arrival_time":"14:12:00","departure_time":"14:12:00","lat":49.208799,"lon":16.594624,"is_passed":false},{"stop_id":"U1626Z2","name":"Sušilova","arrival_time":"14:14:00","departure_time":"14:14:00","lat":49.204397,"lon":16.598621,"is_passed":false},{"stop_id":"U1587Z2","name":"Smetanova","arrival_time":"14:15:00","departure_time":"14:15:00","lat":49.201271,"lon":16.602293,"is_passed":false},{"stop_id":"U1073Z7","name":"Česká","arrival_time":"14:18:00","departure_time":"14:21:00","lat":49.198331,"lon":16.605663,"is_passed":false}],"54823":[{"stop_id":"U1073Z6","name":"Česká","arrival_time":"14:21:00","departure_time":"14:21:00","lat":49.198291,"lon":16.605232,"is_passed":false},{"stop_id":"U1587Z1","name":"Smetanova","arrival_time":"14:23:00","departure_time":"14:23:00","lat":49.201909,"lon":16.601644,"is_passed":false},{"stop_id":"U1626Z1","name":"Sušilova","arrival_time":"14:24:00","departure_time":"14:24:00","lat":49.204346,"lon":16.598828,"is_passed":false},{"stop_id":"U1785Z1","name":"Zemská knihovna","arrival_time":"14:26:00","departure_time":"14:26:00","lat":49.208934,"lon":16.594822,"is_passed":false},{"stop_id":"U1242Z1","name":"Klusáčkova","arrival_time":"14:27:00","departure_time":"14:27:00","lat":49.212365,"lon":16.592666,"is_passed":false},{"stop_id":"U1601Z1","name":"Spojovací","arrival_time":"14:30:00","departure_time":"14:30:00","lat":49.212099,"lon":16.586305,"is_passed":false},{"stop_id":"U1206Z1","name":"Jindřichova","arrival_time":"14:31:00","departure_time":"14:31:00","lat":49.21326,"lon":16.582924,"is_passed":false},{"stop_id":"U1426Z1","name":"Náměstí Svornosti","arrival_time":"14:32:00","departure_time":"14:32:00","lat":49.215585,"lon":16.582,"is_passed":false},{"stop_id":"U1352Z1","name":"Makovského náměstí","arrival_time":"14:33:00","departure_time":"14:33:00","lat":49.217922,"lon":16.576761,"is_passed":false},{"stop_id":"U1528Z5","name":"Přívrat","arrival_time":"14:34:00","departure_time":"14:34:00","lat":49.218247,"lon":16.574102,"is_passed":false},{"stop_id":"U1758Z1","name":"Vrázova","arrival_time":"14:36:00","departure_time":"14:36:00","lat":49.216968,"lon":16.568321,"is_passed":false},{"stop_id":"U1651Z1","name":"Štursova","arrival_time":"14:37:00","departure_time":"14:37:00","lat":49.216462,"lon":16.563614,"is_passed":false},{"stop_id":"U1502Z1","name":"Podveská","arrival_time":"14:38:00","departure_time":"14:38:00","lat":49.217623,"lon":16.559017,"is_passed":false},{"stop_id":"U1633Z3","name":"Svratecká","arrival_time":"14:39:00","departure_time":"14:39:00","lat":49.219008,"lon":16.554451,"is_passed":false},{"stop_id":"U1296Z1","name":"Kristenova","arrival_time":"14:40:00","departure_time":"14:40:00","lat":49.220962,"lon":16.554325,"is_passed":false},{"stop_id":"U1178Z1","name":"Chaloupky","arrival_time":"14:41:00","departure_time":"14:41:00","lat":49.22272,"lon":16.55648,"is_passed":false},{"stop_id":"U1453Z1","name":"Olbrachtovo náměstí","arrival_time":"14:42:00","departure_time":"14:42:00","lat":49.225106,"lon":16.558598,"is_passed":false},{"stop_id":"U1561Z1","name":"Řezáčova","arrival_time":"14:43:00","departure_time":"14:43:00","lat":49.226354,"lon":16.555458,"is_passed":false},{"stop_id":"U1258Z1","name":"Komín, sídliště","arrival_time":"14:45:00","departure_time":"15:10:00","lat":49.22699,"lon":16.553346,"is_passed":false}],"54824":[{"stop_id":"U1258Z2","name":"Komín, sídliště","arrival_time":"15:10:00","departure_time":"15:10:00","lat":49.226847,"lon":16.5535,"is_passed":false},{"stop_id":"U1561Z2","name":"Řezáčova","arrival_time":"15:10:00","departure_time":"15:10:00","lat":49.225979,"lon":16.555563,"is_passed":false},{"stop_id":"U1453Z2","name":"Olbrachtovo náměstí","arrival_time":"15:11:00","departure_time":"15:11:00","lat":49.224292,"lon":16.558568,"is_passed":false},{"stop_id":"U1178Z2","name":"Chaloupky","arrival_time":"15:12:00","departure_time":"15:12:00","lat":49.223106,"lon":16.557048,"is_passed":false},{"stop_id":"U1296Z2","name":"Kristenova","arrival_time":"15:13:00","departure_time":"15:13:00","lat":49.221078,"lon":16.554278,"is_passed":false},{"stop_id":"U1633Z4","name":"Svratecká","arrival_time":"15:14:00","departure_time":"15:14:00","lat":49.218696,"lon":16.554399,"is_passed":false},{"stop_id":"U1502Z2","name":"Podveská","arrival_time":"15:16:00","departure_time":"15:16:00","lat":49.217607,"lon":16.558178,"is_passed":false},{"stop_id":"U1651Z2","name":"Štursova","arrival_time":"15:17:00","departure_time":"15:17:00","lat":49.215854,"lon":16.564522,"is_passed":false},{"stop_id":"U1758Z2","name":"Vrázova","arrival_time":"15:18:00","departure_time":"15:18:00","lat":49.216977,"lon":16.568646,"is_passed":false},{"stop_id":"U1528Z6","name":"Přívrat","arrival_time":"15:20:00","departure_time":"15:20:00","lat":49.218109,"lon":16.574404,"is_passed":false},{"stop_id":"U1352Z2","name":"Makovského náměstí","arrival_time":"15:20:00","departure_time":"15:20:00","lat":49.217881,"lon":16.576657,"is_passed":false},{"stop_id":"U1426Z2","name":"Náměstí Svornosti","arrival_time":"15:22:00","departure_time":"15:22:00","lat":49.215179,"lon":16.58299,"is_passed":false},{"stop_id":"U1206Z2","name":"Jindřichova","arrival_time":"15:23:00","departure_time":"15:23:00","lat":49.213132,"lon":16.583163,"is_passed":false},{"stop_id":"U1601Z2","name":"Spojovací","arrival_time":"15:24:00","departure_time":"15:24:00","lat":49.211772,"lon":16.58703,"is_passed":false},{"stop_id":"U1242Z2","name":"Klusáčkova","arrival_time":"15:26:00","departure_time":"15:26:00","lat":49.211903,"lon":16.592875,"is_passed":false},{"stop_id":"U1785Z2","name":"Zemská knihovna","arrival_time":"15:27:00","departure_time":"15:27:00","lat":49.208799,"lon":16.594624,"is_passed":false},{"stop_id":"U1626Z2","name":"Sušilova","arrival_time":"15:29:00","departure_time":"15:29:00","lat":49.204397,"lon":16.598621,"is_passed":false},{"stop_id":"U1587Z2","name":"Smetanova","arrival_time":"15:30:00","departure_time":"15:30:00","lat":49.201271,"lon":16.602293,"is_passed":false},{"stop_id":"U1073Z7","name":"Česká","arrival_time":"15:33:00","departure_time":"15:36:00","lat":49.198331,"lon":16.605663,"is_passed":false}],"54825":[{"stop_id":"U1073Z6","name":"Česká","arrival_time":"15:36:00","departure_time":"15:36:00","lat":49.198291,"lon":16.605232,"is_passed":false},{"stop_id":"U1587Z1","name":"Smetanova","arrival_time":"15:38:00","departure_time":"15:38:00","lat":49.201909,"lon":16.601644,"is_passed":false},{"stop_id":"U1626Z1","name":"Sušilova","arrival_time":"15:39:00","departure_time":"15:39:00","lat":49.204346,"lon":16.598828,"is_passed":false},{"stop_id":"U1785Z1","name":"Zemská knihovna","arrival_time":"15:41:00","departure_time":"15:41:00","lat":49.208934,"lon":16.594822,"is_passed":false},{"stop_id":"U1242Z1","name":"Klusáčkova","arrival_time":"15:42:00","departure_time":"15:42:00","lat":49.212365,"lon":16.592666,"is_passed":false},{"stop_id":"U1601Z1","name":"Spojovací","arrival_time":"15:45:00","departure_time":"15:45:00","lat":49.212099,"lon":16.586305,"is_passed":false},{"stop_id":"U1206Z1","name":"Jindřichova","arrival_time":"15:46:00","departure_time":"15:46:00","lat":49.21326,"lon":16.582924,"is_passed":false},{"stop_id":"U1426Z1","name":"Náměstí Svornosti","arrival_time":"15:47:00","departure_time":"15:47:00","lat":49.215585,"lon":16.582,"is_passed":false},{"stop_id":"U1352Z1","name":"Makovského náměstí","arrival_time":"15:48:00","departure_time":"15:48:00","lat":49.217922,"lon":16.576761,"is_passed":false},{"stop_id":"U1528Z5","name":"Přívrat","arrival_time":"15:49:00","departure_time":"15:49:00","lat":49.218247,"lon":16.574102,"is_passed":false},{"stop_id":"U1758Z1","name":"Vrázova","arrival_time":"15:51:00","departure_time":"15:51:00","lat":49.216968,"lon":16.568321,"is_passed":false},{"stop_id":"U1651Z1","name":"Štursova","arrival_time":"15:52:00","departure_time":"15:52:00","lat":49.216462,"lon":16.563614,"is_passed":false},{"stop_id":"U1502Z1","name":"Podveská","arrival_time":"15:53:00","departure_time":"15:53:00","lat":49.217623,"lon":16.559017,"is_passed":false},{"stop_id":"U1633Z3","name":"Svratecká","arrival_time":"15:54:00","departure_time":"15:54:00","lat":49.219008,"lon":16.554451,"is_passed":false},{"stop_id":"U1296Z1","name":"Kristenova","arrival_time":"15:55:00","departure_time":"15:55:00","lat":49.220962,"lon":16.554325,"is_passed":false},{"stop_id":"U1178Z1","name":"Chaloupky","arrival_time":"15:56:00","departure_time":"15:56:00","lat":49.22272,"lon":16.55648,"is_passed":false},{"stop_id":"U1453Z1","name":"Olbrachtovo náměstí","arrival_time":"15:57:00","departure_time":"15:57:00","lat":49.225106,"lon":16.558598,"is_passed":false},{"stop_id":"U1561Z1","name":"Řezáčova","arrival_time":"15:58:00","departure_time":"15:58:00","lat":49.226354,"lon":16.555458,"is_passed":false},{"stop_id":"U1258Z1","name":"Komín, sídliště","arrival_time":"16:00:00","departure_time":"16:25:00","lat":49.22699,"lon":16.553346,"is_passed":false}],"54826":[{"stop_id":"U1258Z2","name":"Komín, sídliště","arrival_time":"16:25:00","departure_time":"16:25:00","lat":49.226847,"lon":16.5535,"is_passed":false},{"stop_id":"U1561Z2","name":"Řezáčova","arrival_time":"16:25:00","departure_time":"16:25:00","lat":49.225979,"lon":16.555563,"is_passed":false},{"stop_id":"U1453Z2","name":"Olbrachtovo náměstí","arrival_time":"16:26:00","departure_time":"16:26:00","lat":49.224292,"lon":16.558568,"is_passed":false},{"stop_id":"U1178Z2","name":"Chaloupky","arrival_time":"16:27:00","departure_time":"16:27:00","lat":49.223106,"lon":16.557048,"is_passed":false},{"stop_id":"U1296Z2","name":"Kristenova","arrival_time":"16:28:00","departure_time":"16:28:00","lat":49.221078,"lon":16.554278,"is_passed":false},{"stop_id":"U1633Z4","name":"Svratecká","arrival_time":"16:29:00","departure_time":"16:29:00","lat":49.218696,"lon":16.554399,"is_passed":false},{"stop_id":"U1502Z2","name":"Podveská","arrival_time":"16:31:00","departure_time":"16:31:00","lat":49.217607,"lon":16.558178,"is_passed":false},{"stop_id":"U1651Z2","name":"Štursova","arrival_time":"16:32:00","departure_time":"16:32:00","lat":49.215854,"lon":16.564522,"is_passed":false},{"stop_id":"U1758Z2","name":"Vrázova","arrival_time":"16:33:00","departure_time":"16:33:00","lat":49.216977,"lon":16.568646,"is_passed":false},{"stop_id":"U1528Z6","name":"Přívrat","arrival_time":"16:35:00","departure_time":"16:35:00","lat":49.218109,"lon":16.574404,"is_passed":false},{"stop_id":"U1352Z2","name":"Makovského náměstí","arrival_time":"16:35:00","departure_time":"16:35:00","lat":49.217881,"lon":16.576657,"is_passed":false},{"stop_id":"U1426Z2","name":"Náměstí Svornosti","arrival_time":"16:37:00","departure_time":"16:37:00","lat":49.215179,"lon":16.58299,"is_passed":false},{"stop_id":"U1206Z2","name":"Jindřichova","arrival_time":"16:38:00","departure_time":"16:38:00","lat":49.213132,"lon":16.583163,"is_passed":false},{"stop_id":"U1601Z2","name":"Spojovací","arrival_time":"16:39:00","departure_time":"16:39:00","lat":49.211772,"lon":16.58703,"is_passed":false},{"stop_id":"U1242Z2","name":"Klusáčkova","arrival_time":"16:41:00","departure_time":"16:41:00","lat":49.211903,"lon":16.592875,"is_passed":false},{"stop_id":"U1785Z2","name":"Zemská knihovna","arrival_time":"16:42:00","departure_time":"16:42:00","lat":49.208799,"lon":16.594624,"is_passed":false},{"stop_id":"U1626Z2","name":"Sušilova","arrival_time":"16:44:00","departure_time":"16:44:00","lat":49.204397,"lon":16.598621,"is_passed":false},{"stop_id":"U1587Z2","name":"Smetanova","arrival_time":"16:45:00","departure_time":"16:45:00","lat":49.201271,"lon":16.602293,"is_passed":false},{"stop_id":"U1073Z7","name":"Česká","arrival_time":"16:48:00","departure_time":"16:51:00","lat":49.198331,"lon":16.605663,"is_passed":false}],"54827":[{"stop_id":"U1073Z6","name":"Česká","arrival_time":"16:51:00","departure_time":"16:51:00","lat":49.198291,"lon":16.605232,"is_passed":false},{"stop_id":"U1587Z1","name":"Smetanova","arrival_time":"16:53:00","departure_time":"16:53:00","lat":49.201909,"lon":16.601644,"is_passed":false},{"stop_id":"U1626Z1","name":"Sušilova","arrival_time":"16:54:00","departure_time":"16:54:00","lat":49.204346,"lon":16.598828,"is_passed":false},{"stop_id":"U1785Z1","name":"Zemská knihovna","arrival_time":"16:56:00","departure_time":"16:56:00","lat":49.208934,"lon":16.594822,"is_passed":false},{"stop_id":"U1242Z1","name":"Klusáčkova","arrival_time":"16:57:00","departure_time":"16:57:00","lat":49.212365,"lon":16.592666,"is_passed":false},{"stop_id":"U1601Z1","name":"Spojovací","arrival_time":"17:00:00","departure_time":"17:00:00","lat":49.212099,"lon":16.586305,"is_passed":false},{"stop_id":"U1206Z1","name":"Jindřichova","arrival_time":"17:01:00","departure_time":"17:01:00","lat":49.21326,"lon":16.582924,"is_passed":false},{"stop_id":"U1426Z1","name":"Náměstí Svornosti","arrival_time":"17:02:00","departure_time":"17:02:00","lat":49.215585,"lon":16.582,"is_passed":false},{"stop_id":"U1352Z1","name":"Makovského náměstí","arrival_time":"17:03:00","departure_time":"17:03:00","lat":49.217922,"lon":16.576761,"is_passed":false},{"stop_id":"U1528Z5","name":"Přívrat","arrival_time":"17:04:00","departure_time":"17:04:00","lat":49.218247,"lon":16.574102,"is_passed":false},