{"551":[{"stop_id":"U16149Z10","name":"Sokolnice, železniční stanice","arrival_time":"19:40:00","departure_time":"19:40:00","lat":49.108029,"lon":16.733459,"is_passed":false},{"stop_id":"U1183Z10","name":"Chrlice, nádraží","arrival_time":"19:45:00","departure_time":"19:46:00","lat":49.132031,"lon":16.657232,"is_passed":false},{"stop_id":"U1146Z99","name":"Hlavní nádraží","arrival_time":"19:55:00","departure_time":"20:00:00","lat":49.19035,"lon":16.612342,"is_passed":false},{"stop_id":"U1809Z10","name":"Židenice, nádraží","arrival_time":"20:04:00","departure_time":"20:05:00","lat":49.204282,"lon":16.636042,"is_passed":false},{"stop_id":"U12158Z10","name":"Bílovice nad Svitavou, žel. stanice","arrival_time":"20:10:00","departure_time":"20:11:00","lat":49.242715,"lon":16.673677,"is_passed":false},{"stop_id":"U22101Z1","name":"Babice nad Svitavou","arrival_time":"20:15:00","departure_time":"20:15:00","lat":49.276645,"lon":16.673012,"is_passed":false},{"stop_id":"U12230Z10","name":"Adamov, železniční stanice","arrival_time":"20:18:00","departure_time":"20:19:00","lat":49.295341,"lon":16.663538,"is_passed":false},{"stop_id":"U12231Z10","name":"Adamov, železniční zastávka","arrival_time":"20:20:00","departure_time":"20:21:00","lat":49.300671,"lon":16.650653,"is_passed":false},{"stop_id":"U12342Z30","name":"Blansko, aut. st.","arrival_time":"20:26:00","departure_time":"20:28:00","lat":49.352753,"lon":16.646848,"is_passed":false},{"stop_id":"U22302Z1","name":"Blansko město","arrival_time":"20:30:00","departure_time":"20:31:00","lat":49.360996,"lon":16.639464,"is_passed":false},{"stop_id":"U22301Z1","name":"Dolní Lhota","arrival_time":"20:33:00","departure_time":"20:34:00","lat":49.386917,"lon":16.633978,"is_passed":false},{"stop_id":"U12439Z50","name":"Rájec-Jestřebí, železniční stanice","arrival_time":"20:36:00","departure_time":"20:37:00","lat":49.408206,"lon":16.627711,"is_passed":false},{"stop_id":"U12511Z50","name":"Doubravice, žel.st.","arrival_time":"20:40:00","departure_time":"20:40:00","lat":49.438707,"lon":16.621809,"is_passed":false},{"stop_id":"U12676Z50","name":"Skalice nad Svitavou, žel.st.","arrival_time":"20:45:00","departure_time":"20:51:00","lat":49.480123,"lon":16.609726,"is_passed":false},{"stop_id":"U22602Z1","name":"Svitávka","arrival_time":"20:53:00","departure_time":"20:54:00","lat":49.499434,"lon":16.599208,"is_passed":false},{"stop_id":"U22701Z1","name":"Zboněk","arrival_time":"20:56:00","departure_time":"20:56:00","lat":49.521608,"lon":16.583438,"is_passed":false},{"stop_id":"U22702Z1","name":"Letovice zastávka","arrival_time":"20:59:00","departure_time":"20:59:00","lat":49.535496,"lon":16.576998,"is_passed":false},{"stop_id":"U12736Z50","name":"Letovice, železniční stanice","arrival_time":"21:02:00","departure_time":"21:02:00","lat":49.555973,"lon":16.570906,"is_passed":false}],"5510":[{"stop_id":"U15317Z8","name":"Pohořelice, náměstí","arrival_time":"6:40:00","departure_time":"6:40:00","lat":48.980751,"lon":16.522478,"is_passed":false},{"stop_id":"U15315Z2","name":"Pohořelice, Brněnská","arrival_time":"6:41:00","departure_time":"6:41:00","lat":48.984956,"lon":16.530513,"is_passed":false},{"stop_id":"U15379Z2","name":"Pohořelice, průmyslová zóna východ","arrival_time":"6:43:00","departure_time":"6:43:00","lat":48.990539,"lon":16.540751,"is_passed":false},{"stop_id":"U15321Z1","name":"Pohořelice, Smolín","arrival_time":"6:47:00","departure_time":"6:47:00","lat":49.007295,"lon":16.54034,"is_passed":false},{"stop_id":"U15234Z1","name":"Medlov, Kafilerie","arrival_time":"6:49:00","departure_time":"6:49:00","lat":49.017847,"lon":16.534967,"is_passed":false},{"stop_id":"U15205Z1","name":"Medlov","arrival_time":"6:52:00","departure_time":"6:52:00","lat":49.034707,"lon":16.523155,"is_passed":false},{"stop_id":"U15255Z1","name":"Medlov, seniorcentrum","arrival_time":"6:53:00","departure_time":"6:53:00","lat":49.035709,"lon":16.528745,"is_passed":false},{"stop_id":"U15204Z4","name":"Ledce, rozcestí","arrival_time":"6:58:00","departure_time":"6:58:00","lat":49.04988,"lon":16.565693,"is_passed":false},{"stop_id":"U15203Z4","name":"Ledce, obecní úřad","arrival_time":"6:59:00","departure_time":"6:59:00","lat":49.052175,"lon":16.555735,"is_passed":false},{"stop_id":"U15208Z4","name":"Sobotovice","arrival_time":"7:01:00","departure_time":"7:01:00","lat":49.059145,"lon":16.558115,"is_passed":false},{"stop_id":"U15209Z2","name":"Sobotovice, transformátor","arrival_time":"7:03:00","departure_time":"7:03:00","lat":49.061625,"lon":16.552708,"is_passed":false},{"stop_id":"U15212Z2","name":"Syrovice, Sobotovická","arrival_time":"7:06:00","departure_time":"7:06:00","lat":49.077625,"lon":16.545298,"is_passed":false},{"stop_id":"U15210Z2","name":"Syrovice","arrival_time":"7:07:00","departure_time":"7:07:00","lat":49.08029,"lon":16.548905,"is_passed":false},{"stop_id":"U15182Z2","name":"Rajhrad, GEIS","arrival_time":"7:09:00","departure_time":"7:09:00","lat":49.085595,"lon":16.583357,"is_passed":false},{"stop_id":"U15166Z2","name":"Rajhrad, stará pošta","arrival_time":"7:10:00","departure_time":"7:10:00","lat":49.087794,"lon":16.591688,"is_passed":false},{"stop_id":"U15181Z7","name":"Rajhrad, železniční stanice","arrival_time":"7:15:00","departure_time":"7:15:00","lat":49.084495,"lon":16.605152,"is_passed":false},{"stop_id":"U15168Z2","name":"Rajhrad, městský úřad","arrival_time":"7:16:00","departure_time":"7:16:00","lat":49.089963,"lon":16.60397,"is_passed":false},{"stop_id":"U15122Z4","name":"Modřice, Brněnská","arrival_time":"7:22:00","departure_time":"7:22:00","lat":49.130132,"lon":16.604936,"is_passed":false},{"stop_id":"U1393Z4","name":"Moravanská","arrival_time":"7:24:00","departure_time":"7:24:00","lat":49.142614,"lon":16.603006,"is_passed":false},{"stop_id":"U1396Z4","name":"Moravanské lány","arrival_time":"7:25:00","departure_time":"7:25:00","lat":49.149305,"lon":16.601813,"is_passed":false},{"stop_id":"U1466Z4","name":"Ořechovská","arrival_time":"7:27:00","departure_time":"7:27:00","lat":49.156124,"lon":16.600676,"is_passed":false},{"stop_id":"U1703Z5","name":"Ústřední hřbitov","arrival_time":"7:32:00","departure_time":"8:10:00","lat":49.171604,"lon":16.597316,"is_passed":false}],"5511":[{"stop_id":"U1703Z6","name":"Ústřední hřbitov","arrival_time":"8:10:00","departure_time":"8:10:00","lat":49.170744,"lon":16.597612,"is_passed":false},{"stop_id":"U1435Z1","name":"Novomoravanská","arrival_time":"8:12:00","departure_time":"8:12:00","lat":49.153104,"lon":16.600346,"is_passed":false},{"stop_id":"U1396Z3","name":"Moravanské lány","arrival_time":"8:13:00","departure_time":"8:13:00","lat":49.149585,"lon":16.601004,"is_passed":false},{"stop_id":"U1393Z3","name":"Moravanská","arrival_time":"8:15:00","departure_time":"8:15:00","lat":49.142887,"lon":16.602097,"is_passed":false},{"stop_id":"U15137Z10","name":"Modřice, Tyršova","arrival_time":"8:17:00","departure_time":"8:17:00","lat":49.130136,"lon":16.603469,"is_passed":false},{"stop_id":"U15168Z1","name":"Rajhrad, městský úřad","arrival_time":"8:23:00","departure_time":"8:23:00","lat":49.089663,"lon":16.603985,"is_passed":false},{"stop_id":"U15181Z5","name":"Rajhrad, železniční stanice","arrival_time":"8:25:00","departure_time":"8:25:00","lat":49.083879,"lon":16.605011,"is_passed":false},{"stop_id":"U15166Z1","name":"Rajhrad, stará pošta","arrival_time":"8:29:00","departure_time":"8:29:00","lat":49.087759,"lon":16.591479,"is_passed":false},{"stop_id":"U15182Z1","name":"Rajhrad, GEIS","arrival_time":"8:30:00","departure_time":"8:30:00","lat":49.08538,"lon":16.582,"is_passed":false},{"stop_id":"U15210Z1","name":"Syrovice","arrival_time":"8:33:00","departure_time":"8:33:00","lat":49.080328,"lon":16.548173,"is_passed":false},{"stop_id":"U15212Z1","name":"Syrovice, Sobotovická","arrival_time":"8:34:00","departure_time":"8:34:00","lat":49.077625,"lon":16.545298,"is_passed":false},{"stop_id":"U15209Z1","name":"Sobotovice, transformátor","arrival_time":"8:37:00","departure_time":"8:37:00","lat":49.061401,"lon":16.552707,"is_passed":false},{"stop_id":"U15208Z3","name":"Sobotovice","arrival_time":"8:39:00","departure_time":"8:39:00","lat":49.059067,"lon":16.558138,"is_passed":false},{"stop_id":"U15203Z3","name":"Ledce, obecní úřad","arrival_time":"8:41:00","departure_time":"8:41:00","lat":49.052175,"lon":16.555735,"is_passed":false},{"stop_id":"U15204Z3","name":"Ledce, rozcestí","arrival_time":"8:42:00","departure_time":"8:42:00","lat":49.04971,"lon":16.565488,"is_passed":false},{"stop_id":"U15255Z2","name":"Medlov, seniorcentrum","arrival_time":"8:47:00","departure_time":"8:47:00","lat":49.035713,"lon":16.528477,"is_passed":false},{"stop_id":"U15205Z1","name":"Medlov","arrival_time":"8:48:00","departure_time":"8:48:00","lat":49.034707,"lon":16.523155,"is_passed":false},{"stop_id":"U15234Z2","name":"Medlov, Kafilerie","arrival_time":"8:51:00","departure_time":"8:51:00","lat":49.017717,"lon":16.534908,"is_passed":false},{"stop_id":"U15321Z2","name":"Pohořelice, Smolín","arrival_time":"8:53:00","departure_time":"8:53:00","lat":49.007298,"lon":16.540125,"is_passed":false},{"stop_id":"U15379Z1","name":"Pohořelice, průmyslová zóna východ","arrival_time":"8:57:00","departure_time":"8:57:00","lat":48.989921,"lon":16.539353,"is_passed":false},{"stop_id":"U15315Z1","name":"Pohořelice, Brněnská","arrival_time":"8:58:00","departure_time":"8:58:00","lat":48.984843,"lon":16.529998,"is_passed":false},{"stop_id":"U15317Z51","name":"Pohořelice, náměstí","arrival_time":"9:00:00","departure_time":"9:00:00","lat":48.98068,"lon":16.522099,"is_passed":false}],"5512":[{"stop_id":"U15317Z8","name":"Pohořelice, náměstí","arrival_time":"9:00:00","departure_time":"9:00:00","lat":48.980751,"lon":16.522478,"is_passed":false},{"stop_id":"U15315Z2","name":"Pohořelice, Brněnská","arrival_time":"9:01:00","departure_time":"9:01:00","lat":48.984956,"lon":16.530513,"is_passed":false},{"stop_id":"U15379Z2","name":"Pohořelice, průmyslová zóna východ","arrival_time":"9:03:00","departure_time":"9:03:00","lat":48.990539,"lon":16.540751,"is_passed":false},{"stop_id":"U15321Z1","name":"Pohořelice, Smolín","arrival_time":"9:07:00","departure_time":"9:07:00","lat":49.007295,"lon":16.54034,"is_passed":false},{"stop_id":"U15234Z1","name":"Medlov, Kafilerie","arrival_time":"9:09:00","departure_time":"9:09:00","lat":49.017847,"lon":16.534967,"is_passed":false},{"stop_id":"U15205Z1","name":"Medlov","arrival_time":"9:12:00","departure_time":"9:12:00","lat":49.034707,"lon":16.523155,"is_passed":false},{"stop_id":"U15255Z1","name":"Medlov, seniorcentrum","arrival_time":"9:13:00","departure_time":"9:13:00","lat":49.035709,"lon":16.528745,"is_passed":false},{"stop_id":"U15204Z4","name":"Ledce, rozcestí","arrival_time":"9:18:00","departure_time":"9:18:00","lat":49.04988,"lon":16.565693,"is_passed":false},{"stop_id":"U15203Z4","name":"Ledce, obecní úřad","arrival_time":"9:19:00","departure_time":"9:19:00","lat":49.052175,"lon":16.555735,"is_passed":false},{"stop_id":"U15208Z4","name":"Sobotovice","arrival_time":"9:21:00","departure_time":"9:21:00","lat":49.059145,"lon":16.558115,"is_passed":false},{"stop_id":"U15209Z2","name":"Sobotovice, transformátor","arrival_time":"9:23:00","departure_time":"9:23:00","lat":49.061625,"lon":16.552708,"is_passed":false},{"stop_id":"U15212Z2","name":"Syrovice, Sobotovická","arrival_time":"9:26:00","departure_time":"9:26:00","lat":49.077625,"lon":16.545298,"is_passed":false},{"stop_id":"U15210Z2","name":"Syrovice","arrival_time":"9:27:00","departure_time":"9:27:00","lat":49.08029,"lon":16.548905,"is_passed":false},{"stop_id":"U15182Z2","name":"Rajhrad, GEIS","arrival_time":"9:29:00","departure_time":"9:29:00","lat":49.085595,"lon":16.583357,"is_passed":false},{"stop_id":"U15166Z2","name":"Rajhrad, stará pošta","arrival_time":"9:30:00","departure_time":"9:30:00","lat":49.087794,"lon":16.591688,"is_passed":false},{"stop_id":"U15181Z7","name":"Rajhrad, železniční stanice","arrival_time":"9:35:00","departure_time":"9:35:00","lat":49.084495,"lon":16.605152,"is_passed":false},{"stop_id":"U15168Z2","name":"Rajhrad, městský úřad","arrival_time":"9:36:00","departure_time":"9:36:00","lat":49.089963,"lon":16.60397,"is_passed":false},{"stop_id":"U15122Z4","name":"Modřice, Brněnská","arrival_time":"9:42:00","departure_time":"9:42:00","lat":49.130132,"lon":16.604936,"is_passed":false},{"stop_id":"U1393Z4","name":"Moravanská","arrival_time":"9:44:00","departure_time":"9:44:00","lat":49.142614,"lon":16.603006,"is_passed":false},{"stop_id":"U1396Z4","name":"Moravanské lány","arrival_time":"9:45:00","departure_time":"9:45:00","lat":49.149305,"lon":16.601813,"is_passed":false},{"stop_id":"U1466Z4","name":"Ořechovská","arrival_time":"9:47:00","departure_time":"9:47:00","lat":49.156124,"lon":16.600676,"is_passed":false},{"stop_id":"U1703Z5","name":"Ústřední hřbitov","arrival_time":"9:52:00","departure_time":"14:40:00","lat":49.171604,"lon":16.597316,"is_passed":false}],"5513":[{"stop_id":"U1703Z6","name":"Ústřední hřbitov","arrival_time":"14:40:00","departure_time":"14:40:00","lat":49.170744,"lon":16.597612,"is_passed":false},{"stop_id":"U1435Z1","name":"Novomoravanská","arrival_time":"14:42:00","departure_time":"14:42:00","lat":49.153104,"lon":16.600346,"is_passed":false},{"stop_id":"U1396Z3","name":"Moravanské lány","arrival_time":"14:43:00","departure_time":"14:43:00","lat":49.149585,"lon":16.601004,"is_passed":false},{"stop_id":"U1393Z3","name":"Moravanská","arrival_time":"14:45:00","departure_time":"14:45:00","lat":49.142887,"lon":16.602097,"is_passed":false},{"stop_id":"U15137Z10","name":"Modřice, Tyršova","arrival_time":"14:47:00","departure_time":"14:47:00","lat":49.130136,"lon":16.603469,"is_passed":false},{"stop_id":"U15168Z1","name":"Rajhrad, městský úřad","arrival_time":"14:53:00","departure_time":"14:53:00","lat":49.089663,"lon":16.603985,"is_passed":false},{"stop_id":"U15181Z5","name":"Rajhrad, železniční stanice","arrival_time":"14:55:00","departure_time":"14:55:00","lat":49.083879,"lon":16.605011,"is_passed":false},{"stop_id":"U15166Z1","name":"Rajhrad, stará pošta","arrival_time":"14:59:00","departure_time":"14:59:00","lat":49.087759,"lon":16.591479,"is_passed":false},{"stop_id":"U15182Z1","name":"Rajhrad, GEIS","arrival_time":"15:00:00","departure_time":"15:00:00","lat":49.08538,"lon":16.582,"is_passed":false},{"stop_id":"U15210Z1","name":"Syrovice","arrival_time":"15:03:00","departure_time":"15:03:00","lat":49.080328,"lon":16.548173,"is_passed":false},{"stop_id":"U15212Z1","name":"Syrovice, Sobotovická","arrival_time":"15:04:00","departure_time":"15:04:00","lat":49.077625,"lon":16.545298,"is_passed":false},{"stop_id":"U15209Z1","name":"Sobotovice, transformátor","arrival_time":"15:07:00","departure_time":"15:07:00","lat":49.061401,"lon":16.552707,"is_passed":false},{"stop_id":"U15208Z3","name":"Sobotovice","arrival_time":"15:09:00","departure_time":"15:09:00","lat":49.059067,"lon":16.558138,"is_passed":false},{"stop_id":"U15203Z3","name":"Ledce, obecní úřad","arrival_time":"15:11:00","departure_time":"15:11:00","lat":49.052175,"lon":16.555735,"is_passed":false}],"5514":[{"stop_id":"U15203Z3","name":"Ledce, obecní úřad","arrival_time":"15:11:00","departure_time":"15:11:00","lat":49.052175,"lon":16.555735,"is_passed":false},{"stop_id":"U15236Z2","name":"Sobotovice, rozcestí","arrival_time":"15:14:00","departure_time":"15:14:00","lat":49.060587,"lon":16.565757,"is_passed":false},{"stop_id":"U15242Z2","name":"Syrovice, logistický areál","arrival_time":"15:17:00","departure_time":"15:17:00","lat":49.075933,"lon":16.55606,"is_passed":false},{"stop_id":"U15210Z2","name":"Syrovice","arrival_time":"15:19:00","departure_time":"15:19:00","lat":49.08029,"lon":16.548905,"is_passed":false},{"stop_id":"U15182Z2","name":"Rajhrad, GEIS","arrival_time":"15:21:00","departure_time":"15:21:00","lat":49.085595,"lon":16.583357,"is_passed":false},{"stop_id":"U15166Z2","name":"Rajhrad, stará pošta","arrival_time":"15:22:00","departure_time":"15:22:00","lat":49.087794,"lon":16.591688,"is_passed":false},{"stop_id":"U15122Z4","name":"Modřice, Brněnská","arrival_time":"15:29:00","departure_time":"15:29:00","lat":49.130132,"lon":16.604936,"is_passed":false},{"stop_id":"U1393Z4","name":"Moravanská","arrival_time":"15:31:00","departure_time":"15:31:00","lat":49.142614,"lon":16.603006,"is_passed":false},{"stop_id":"U1396Z4","name":"Moravanské lány","arrival_time":"15:32:00","departure_time":"15:32:00","lat":49.149305,"lon":16.601813,"is_passed":false},{"stop_id":"U1466Z4","name":"Ořechovská","arrival_time":"15:34:00","departure_time":"15:34:00","lat":49.156124,"lon":16.600676,"is_passed":false},{"stop_id":"U1703Z5","name":"Ústřední hřbitov","arrival_time":"15:39:00","departure_time":"15:40:00","lat":49.171604,"lon":16.597316,"is_passed":false}],"5515":[{"stop_id":"U1703Z6","name":"Ústřední hřbitov","arrival_time":"15:40:00","departure_time":"15:40:00","lat":49.170744,"lon":16.597612,"is_passed":false},{"stop_id":"U1435Z1","name":"Novomoravanská","arrival_time":"15:42:00","departure_time":"15:42:00","lat":49.153104,"lon":16.600346,"is_passed":false},{"stop_id":"U1396Z3","name":"Moravanské lány","arrival_time":"15:43:00","departure_time":"15:43:00","lat":49.149585,"lon":16.601004,"is_passed":false},{"stop_id":"U1393Z3","name":"Moravanská","arrival_time":"15:45:00","departure_time":"15:45:00","lat":49.142887,"lon":16.602097,"is_passed":false},{"stop_id":"U15137Z10","name":"Modřice, Tyršova","arrival_time":"15:47:00","departure_time":"15:47:00","lat":49.130136,"lon":16.603469,"is_passed":false},{"stop_id":"U15168Z1","name":"Rajhrad, městský úřad","arrival_time":"15:53:00","departure_time":"15:53:00","lat":49.089663,"lon":16.603985,"is_passed":false},{"stop_id":"U15181Z5","name":"Rajhrad, železniční stanice","arrival_time":"15:55:00","departure_time":"15:55:00","lat":49.083879,"lon":16.605011,"is_passed":false},{"stop_id":"U15166Z1","name":"Rajhrad, stará pošta","arrival_time":"15:59:00","departure_time":"15:59:00","lat":49.087759,"lon":16.591479,"is_passed":false},{"stop_id":"U15182Z1","name":"Rajhrad, GEIS","arrival_time":"16:00:00","departure_time":"16:00:00","lat":49.08538,"lon":16.582,"is_passed":false},{"stop_id":"U15210Z1","name":"Syrovice","arrival_time":"16:03:00","departure_time":"16:03:00","lat":49.080328,"lon":16.548173,"is_passed":false},{"stop_id":"U15212Z1","name":"Syrovice, Sobotovická","arrival_time":"16:04:00","departure_time":"16:04:00","lat":49.077625,"lon":16.545298,"is_passed":false},{"stop_id":"U15209Z1","name":"Sobotovice, transformátor","arrival_time":"16:07:00","departure_time":"16:07:00","lat":49.061401,"lon":16.552707,"is_passed":false},{"stop_id":"U15208Z3","name":"Sobotovice","arrival_time":"16:09:00","departure_time":"16:09:00","lat":49.059067,"lon":16.558138,"is_passed":false},{"stop_id":"U15203Z3","name":"Ledce, obecní úřad","arrival_time":"16:11:00","departure_time":"16:11:00","lat":49.052175,"lon":16.555735,"is_passed":false},{"stop_id":"U15204Z3","name":"Ledce, rozcestí","arrival_time":"16:12:00","departure_time":"16:12:00","lat":49.04971,"lon":16.565488,"is_passed":false},{"stop_id":"U15255Z2","name":"Medlov, seniorcentrum","arrival_time":"16:17:00","departure_time":"16:17:00","lat":49.035713,"lon":16.528477,"is_passed":false},{"stop_id":"U15205Z1","name":"Medlov","arrival_time":"16:18:00","departure_time":"16:18:00","lat":49.034707,"lon":16.523155,"is_passed":false},{"stop_id":"U15234Z2","name":"Medlov, Kafilerie","arrival_time":"16:21:00","departure_time":"16:21:00","lat":49.017717,"lon":16.534908,"is_passed":false},{"stop_id":"U15321Z2","name":"Pohořelice, Smolín","arrival_time":"16:23:00","departure_time":"16:23:00","lat":49.007298,"lon":16.540125,"is_passed":false},{"stop_id":"U15379Z1","name":"Pohořelice, průmyslová zóna východ","arrival_time":"16:27:00","departure_time":"16:27:00","lat":48.989921,"lon":16.539353,"is_passed":false},{"stop_id":"U15315Z1","name":"Pohořelice, Brněnská","arrival_time":"16:28:00","departure_time":"16:28:00","lat":48.984843,"lon":16.529998,"is_passed":false},{"stop_id":"U15317Z51","name":"Pohořelice, náměstí","arrival_time":"16:30:00","departure_time":"16:30:00","lat":48.98068,"lon":16.522099,"is_passed":false}],"5516":[{"stop_id":"U1696Z11","name":"ÚAN Zvonařka","arrival_time":"4:10:00","departure_time":"4:10:00","lat":49.185364,"lon":16.616151,"is_passed":false},{"stop_id":"U1622Z2","name":"Strážní","arrival_time":"4:13:00","departure_time":"4:13:00","lat":49.178477,"lon":16.603646,"is_passed":false},{"stop_id":"U1703Z6","name":"Ústřední hřbitov","arrival_time":"4:16:00","departure_time":"4:16:00","lat":49.170744,"lon":16.597612,"is_passed":false},{"stop_id":"U15137Z10","name":"Modřice, Tyršova","arrival_time":"4:22:00","departure_time":"4:22:00","lat":49.130136,"lon":16.603469,"is_passed":false},{"stop_id":"U15379Z1","name":"Pohořelice, průmyslová zóna východ","arrival_time":"4:35:00","departure_time":"4:35:00","lat":48.989921,"lon":16.539353,"is_passed":false},{"stop_id":"U15315Z1","name":"Pohořelice, Brněnská","arrival_time":"4:36:00","departure_time":"4:36:00","lat":48.984843,"lon":16.529998,"is_passed":false},{"stop_id":"U15317Z6","name":"Pohořelice, náměstí","arrival_time":"4:38:00","departure_time":"4:40:00","lat":48.980709,"lon":16.521906,"is_passed":false},{"stop_id":"U15320Z1","name":"Pohořelice, obchodní akademie","arrival_time":"4:42:00","departure_time":"4:42:00","lat":48.978628,"lon":16.505258,"is_passed":false},{"stop_id":"U14011Z1","name":"Branišovice, státní silnice","arrival_time":"4:48:00","departure_time":"4:48:00","lat":48.959107,"lon":16.428737,"is_passed":false},{"stop_id":"U14024Z1","name":"Trnové Pole, rozcestí","arrival_time":"4:50:00","departure_time":"4:50:00","lat":48.955275,"lon":16.413453,"is_passed":false},{"stop_id":"U14552Z1","name":"Miroslav, rozcestí","arrival_time":"4:55:00","departure_time":"4:55:00","lat":48.933498,"lon":16.362293,"is_passed":false},{"stop_id":"U14557Z1","name":"Miroslav, Kašenec, státní silnice","arrival_time":"4:58:00","departure_time":"4:58:00","lat":48.918435,"lon":16.33352,"is_passed":false},{"stop_id":"U15557Z1","name":"Mackovice, rozcestí","arrival_time":"5:01:00","departure_time":"5:01:00","lat":48.900637,"lon":16.292692,"is_passed":false},{"stop_id":"U18217Z1","name":"Oleksovice, rozcestí","arrival_time":"5:04:00","departure_time":"5:04:00","lat":48.887532,"lon":16.260192,"is_passed":false},{"stop_id":"U18215Z1","name":"Lechovice, zámek","arrival_time":"5:07:00","departure_time":"5:07:00","lat":48.875338,"lon":16.236347,"is_passed":false},{"stop_id":"U18214Z1","name":"Lechovice, obecní úřad","arrival_time":"5:10:00","departure_time":"5:10:00","lat":48.872558,"lon":16.222179,"is_passed":false},{"stop_id":"U18009Z51","name":"Znojmo, autobusové nádraží","arrival_time":"5:25:00","departure_time":"5:42:00","lat":48.851908,"lon":16.056983,"is_passed":false}],"5517":[{"stop_id":"U18009Z1","name":"Znojmo, autobusové nádraží","arrival_time":"5:42:00","departure_time":"5:42:00","lat":48.851886,"lon":16.057356,"is_passed":false},{"stop_id":"U1696Z11","name":"ÚAN Zvonařka","arrival_time":"6:34:00","departure_time":"6:34:00","lat":49.185364,"lon":16.616151,"is_passed":false}],"5518":[{"stop_id":"U1703Z6","name":"Ústřední hřbitov","arrival_time":"7:07:00","departure_time":"7:07:00","lat":49.170744,"lon":16.597612,"is_passed":false},{"stop_id":"U1466Z5","name":"Ořechovská","arrival_time":"7:10:00","departure_time":"7:10:00","lat":49.156238,"lon":16.599375,"is_passed":false},{"stop_id":"U1549Z1","name":"Rozhraní","arrival_time":"7:11:00","departure_time":"7:11:00","lat":49.155854,"lon":16.592288,"is_passed":false},{"stop_id":"U15113Z1","name":"Moravany, Bohunická cesta","arrival_time":"7:12:00","departure_time":"7:12:00","lat":49.15089,"lon":16.583503,"is_passed":false},{"stop_id":"U15114Z1","name":"Moravany, Hlavní","arrival_time":"7:13:00","departure_time":"7:13:00","lat":49.147228,"lon":16.578896,"is_passed":false},{"stop_id":"U15115Z1","name":"Moravany, Nebovidská","arrival_time":"7:14:00","departure_time":"7:14:00","lat":49.147983,"lon":16.569237,"is_passed":false},{"stop_id":"U15118Z1","name":"Nebovidy, u kostela","arrival_time":"7:16:00","departure_time":"7:16:00","lat":49.141636,"lon":16.553667,"is_passed":false},{"stop_id":"U15116Z1","name":"Nebovidy, dolní konec","arrival_time":"7:17:00","departure_time":"7:17:00","lat":49.142128,"lon":16.549075,"is_passed":false},{"stop_id":"U15117Z1","name":"Nebovidy, rozcestí Střelice","arrival_time":"7:19:00","departure_time":"7:19:00","lat":49.144946,"lon":16.530984,"is_passed":false},{"stop_id":"U15119Z1","name":"Nebovidy, Závist","arrival_time":"7:21:00","departure_time":"7:21:00","lat":49.13415,"lon":16.529119,"is_passed":false},{"stop_id":"U14202Z1","name":"Ořechov, Kerendov","arrival_time":"7:24:00","departure_time":"7:24:00","lat":49.117361,"lon":16.525717,"is_passed":false},{"stop_id":"U14205Z1","name":"Ořechov, orlovna","arrival_time":"7:25:00","departure_time":"7:25:00","lat":49.111073,"lon":16.526063,"is_passed":false},{"stop_id":"U14204Z1","name":"Ořechov, obecní úřad","arrival_time":"7:26:00","departure_time":"7:26:00","lat":49.111535,"lon":16.518505,"is_passed":false},{"stop_id":"U14201Z3","name":"Ořechov, Jeřábkova","arrival_time":"7:27:00","departure_time":"7:27:00","lat":49.108927,"lon":16.512613,"is_passed":false}],"5519":[{"stop_id":"U14201Z2","name":"Ořechov, Jeřábkova","arrival_time":"7:27:00","departure_time":"7:27:00","lat":49.108927,"lon":16.512613,"is_passed":false},{"stop_id":"U14204Z2","name":"Ořechov, obecní úřad","arrival_time":"7:29:00","departure_time":"7:29:00","lat":49.111497,"lon":16.51816,"is_passed":false},{"stop_id":"U14205Z2","name":"Ořechov, orlovna","arrival_time":"7:30:00","departure_time":"7:30:00","lat":49.111083,"lon":16.526193,"is_passed":false},{"stop_id":"U14202Z2","name":"Ořechov, Kerendov","arrival_time":"7:32:00","departure_time":"7:32:00","lat":49.11742,"lon":16.52586,"is_passed":false},{"stop_id":"U15119Z2","name":"Nebovidy, Závist","arrival_time":"7:35:00","departure_time":"7:35:00","lat":49.1347,"lon":16.528614,"is_passed":false},{"stop_id":"U15117Z2","name":"Nebovidy, rozcestí Střelice","arrival_time":"7:37:00","departure_time":"7:37:00","lat":49.145888,"lon":16.532103,"is_passed":false},{"stop_id":"U15116Z2","name":"Nebovidy, dolní konec","arrival_time":"7:39:00","departure_time":"7:39:00","lat":49.141953,"lon":16.54915,"is_passed":false},{"stop_id":"U15118Z2","name":"Nebovidy, u kostela","arrival_time":"7:40:00","departure_time":"7:40:00","lat":49.141783,"lon":16.554006,"is_passed":false},{"stop_id":"U15114Z2","name":"Moravany, Hlavní","arrival_time":"7:44:00","departure_time":"7:44:00","lat":49.147097,"lon":16.578552,"is_passed":false},{"stop_id":"U15113Z2","name":"Moravany, Bohunická cesta","arrival_time":"7:45:00","departure_time":"7:45:00","lat":49.151006,"lon":16.583777,"is_passed":false},{"stop_id":"U1549Z2","name":"Rozhraní","arrival_time":"7:46:00","departure_time":"7:46:00","lat":49.155698,"lon":16.592118,"is_passed":false},{"stop_id":"U1466Z55","name":"Ořechovská","arrival_time":"7:48:00","departure_time":"7:48:00","lat":49.156238,"lon":16.599375,"is_passed":false},{"stop_id":"U1141Z2","name":"Heršpická","arrival_time":"7:51:00","departure_time":"7:51:00","lat":49.170473,"lon":16.599896,"is_passed":false},{"stop_id":"U1703Z5","name":"Ústřední hřbitov","arrival_time":"7:55:00","departure_time":"7:57:00","lat":49.171604,"lon":16.597316,"is_passed":false}],"55100":[{"stop_id":"U1384Z2","name":"Mifkova","arrival_time":"13:42:00","departure_time":"13:42:00","lat":49.207315,"lon":16.692496,"is_passed":false},{"stop_id":"U1208Z2","name":"Jírova","arrival_time":"13:43:00","departure_time":"13:43:00","lat":49.209141,"lon":16.686376,"is_passed":false},{"stop_id":"U1277Z2","name":"Kotlanova","arrival_time":"13:44:00","departure_time":"13:44:00","lat":49.209763,"lon":16.681048,"is_passed":false},{"stop_id":"U1368Z2","name":"Masarova","arrival_time":"13:45:00","departure_time":"13:45:00","lat":49.206997,"lon":16.677557,"is_passed":false},{"stop_id":"U1438Z2","name":"Novolíšeňská","arrival_time":"13:47:00","departure_time":"13:47:00","lat":49.201911,"lon":16.669965,"is_passed":false},{"stop_id":"U1347Z2","name":"Líšeňská","arrival_time":"13:48:00","departure_time":"13:48:00","lat":49.197285,"lon":16.665584,"is_passed":false},{"stop_id":"U1026Z2","name":"Bílá hora","arrival_time":"13:48:00","departure_time":"13:48:00","lat":49.194271,"lon":16.667395,"is_passed":false},{"stop_id":"U1018Z2","name":"Bělohorská","arrival_time":"13:49:00","departure_time":"13:49:00","lat":49.190098,"lon":16.663444,"is_passed":false},{"stop_id":"U1291Z2","name":"Krásného","arrival_time":"13:51:00","departure_time":"13:51:00","lat":49.19067,"lon":16.649391,"is_passed":false},{"stop_id":"U1810Z2","name":"Židovský hřbitov","arrival_time":"13:52:00","departure_time":"13:52:00","lat":49.191517,"lon":16.641078,"is_passed":false},{"stop_id":"U1116Z2","name":"Geislerova","arrival_time":"13:53:00","departure_time":"13:53:00","lat":49.192754,"lon":16.634757,"is_passed":false},{"stop_id":"U1814Z2","name":"Životského","arrival_time":"13:55:00","departure_time":"13:55:00","lat":49.190687,"lon":16.633889,"is_passed":false},{"stop_id":"U1372Z2","name":"Masná","arrival_time":"13:57:00","departure_time":"13:57:00","lat":49.191283,"lon":16.6245,"is_passed":false},{"stop_id":"U1746Z2","name":"Vlhká","arrival_time":"13:58:00","departure_time":"13:58:00","lat":49.191852,"lon":16.619157,"is_passed":false},{"stop_id":"U1146Z3","name":"Hlavní nádraží","arrival_time":"14:01:00","departure_time":"14:01:00","lat":49.191063,"lon":16.611972,"is_passed":false},{"stop_id":"U1436Z1","name":"Nové sady","arrival_time":"14:02:00","departure_time":"14:02:00","lat":49.190116,"lon":16.609025,"is_passed":false},{"stop_id":"U1176Z1","name":"Hybešova","arrival_time":"14:04:00","departure_time":"14:04:00","lat":49.189322,"lon":16.602863,"is_passed":false},{"stop_id":"U1721Z1","name":"Václavská","arrival_time":"14:05:00","departure_time":"14:05:00","lat":49.188681,"lon":16.597217,"is_passed":false},{"stop_id":"U1512Z1","name":"Poříčí","arrival_time":"14:07:00","departure_time":"14:07:00","lat":49.187182,"lon":16.594633,"is_passed":false},{"stop_id":"U1430Z1","name":"Nemocnice Milosrdných bratří","arrival_time":"14:08:00","departure_time":"14:08:00","lat":49.183515,"lon":16.594981,"is_passed":false},{"stop_id":"U1053Z1","name":"Celní","arrival_time":"14:10:00","departure_time":"14:10:00","lat":49.179109,"lon":16.595328,"is_passed":false},{"stop_id":"U1293Z1","name":"Krematorium","arrival_time":"14:13:00","departure_time":"14:13:00","lat":49.172308,"lon":16.586427,"is_passed":false},{"stop_id":"U1021Z1","name":"Běloruská","arrival_time":"14:14:00","departure_time":"14:14:00","lat":49.170755,"lon":16.580895,"is_passed":false},{"stop_id":"U1653Z3","name":"Švermova","arrival_time":"14:15:00","departure_time":"14:15:00","lat":49.169262,"lon":16.573246,"is_passed":false},{"stop_id":"U1472Z1","name":"Osová","arrival_time":"14:16:00","departure_time":"14:16:00","lat":49.169023,"lon":16.56653,"is_passed":false},{"stop_id":"U1779Z1","name":"Západní brána","arrival_time":"14:18:00","departure_time":"14:18:00","lat":49.173486,"lon":16.567125,"is_passed":false},{"stop_id":"U1429Z1","name":"Nemocnice Bohunice","arrival_time":"14:20:00","departure_time":"14:29:00","lat":49.175849,"lon":16.567334,"is_passed":false}],"55101":[{"stop_id":"U1429Z2","name":"Nemocnice Bohunice","arrival_time":"14:29:00","departure_time":"14:29:00","lat":49.175849,"lon":16.567334,"is_passed":false},{"stop_id":"U1779Z2","name":"Západní brána","arrival_time":"14:29:00","departure_time":"14:29:00","lat":49.173114,"lon":16.566938,"is_passed":false},{"stop_id":"U1472Z2","name":"Osová","arrival_time":"14:31:00","departure_time":"14:31:00","lat":49.169005,"lon":16.567514,"is_passed":false},{"stop_id":"U1653Z4","name":"Švermova","arrival_time":"14:32:00","departure_time":"14:32:00","lat":49.169191,"lon":16.573122,"is_passed":false},{"stop_id":"U1021Z2","name":"Běloruská","arrival_time":"14:33:00","departure_time":"14:33:00","lat":49.170662,"lon":16.580727,"is_passed":false},{"stop_id":"U1293Z2","name":"Krematorium","arrival_time":"14:34:00","departure_time":"14:34:00","lat":49.172257,"lon":16.586414,"is_passed":false},{"stop_id":"U1053Z2","name":"Celní","arrival_time":"14:37:00","departure_time":"14:37:00","lat":49.179607,"lon":16.595242,"is_passed":false},{"stop_id":"U1430Z2","name":"Nemocnice Milosrdných bratří","arrival_time":"14:38:00","departure_time":"14:38:00","lat":49.183867,"lon":16.595061,"is_passed":false},{"stop_id":"U1512Z2","name":"Poříčí","arrival_time":"14:40:00","departure_time":"14:40:00","lat":49.187409,"lon":16.594512,"is_passed":false},{"stop_id":"U1721Z2","name":"Václavská","arrival_time":"14:42:00","departure_time":"14:42:00","lat":49.188715,"lon":16.596878,"is_passed":false},{"stop_id":"U1176Z2","name":"Hybešova","arrival_time":"14:43:00","departure_time":"14:43:00","lat":49.189209,"lon":16.603364,"is_passed":false},{"stop_id":"U1436Z2","name":"Nové sady","arrival_time":"14:46:00","departure_time":"14:46:00","lat":49.190222,"lon":16.609403,"is_passed":false},{"stop_id":"U1146Z4","name":"Hlavní nádraží","arrival_time":"14:48:00","departure_time":"14:48:00","lat":49.19125,"lon":16.612674,"is_passed":false},{"stop_id":"U1746Z1","name":"Vlhká","arrival_time":"14:49:00","departure_time":"14:49:00","lat":49.191847,"lon":16.618976,"is_passed":false},{"stop_id":"U1372Z1","name":"Masná","arrival_time":"14:51:00","departure_time":"14:51:00","lat":49.191244,"lon":16.625642,"is_passed":false},{"stop_id":"U1814Z1","name":"Životského","arrival_time":"14:53:00","departure_time":"14:53:00","lat":49.191036,"lon":16.633968,"is_passed":false},{"stop_id":"U1116Z1","name":"Geislerova","arrival_time":"14:54:00","departure_time":"14:54:00","lat":49.19278,"lon":16.635345,"is_passed":false},{"stop_id":"U1810Z1","name":"Židovský hřbitov","arrival_time":"14:55:00","departure_time":"14:55:00","lat":49.191354,"lon":16.641711,"is_passed":false},{"stop_id":"U1291Z1","name":"Krásného","arrival_time":"14:56:00","departure_time":"14:56:00","lat":49.190434,"lon":16.650066,"is_passed":false},{"stop_id":"U1018Z1","name":"Bělohorská","arrival_time":"14:58:00","departure_time":"14:58:00","lat":49.190201,"lon":16.6637,"is_passed":false},{"stop_id":"U1026Z1","name":"Bílá hora","arrival_time":"14:59:00","departure_time":"14:59:00","lat":49.194847,"lon":16.667411,"is_passed":false},{"stop_id":"U1347Z1","name":"Líšeňská","arrival_time":"14:59:00","departure_time":"14:59:00","lat":49.197876,"lon":16.664849,"is_passed":false},{"stop_id":"U1438Z1","name":"Novolíšeňská","arrival_time":"15:01:00","departure_time":"15:01:00","lat":49.202014,"lon":16.670642,"is_passed":false},{"stop_id":"U1368Z1","name":"Masarova","arrival_time":"15:03:00","departure_time":"15:03:00","lat":49.206997,"lon":16.677557,"is_passed":false},{"stop_id":"U1277Z1","name":"Kotlanova","arrival_time":"15:04:00","departure_time":"15:04:00","lat":49.209949,"lon":16.681681,"is_passed":false},{"stop_id":"U1208Z1","name":"Jírova","arrival_time":"15:06:00","departure_time":"15:06:00","lat":49.208552,"lon":16.686687,"is_passed":false},{"stop_id":"U1384Z1","name":"Mifkova","arrival_time":"15:07:00","departure_time":"15:15:00","lat":49.207315,"lon":16.692496,"is_passed":false}],"55102":[{"stop_id":"U1384Z2","name":"Mifkova","arrival_time":"15:15:00","departure_time":"15:15:00","lat":49.207315,"lon":16.692496,"is_passed":false},{"stop_id":"U1208Z2","name":"Jírova","arrival_time":"15:16:00","departure_time":"15:16:00","lat":49.209141,"lon":16.686376,"is_passed":false},{"stop_id":"U1277Z2","name":"Kotlanova","arrival_time":"15:17:00","departure_time":"15:17:00","lat":49.209763,"lon":16.681048,"is_passed":false},{"stop_id":"U1368Z2","name":"Masarova","arrival_time":"15:18:00","departure_time":"15:18:00","lat":49.206997,"lon":16.677557,"is_passed":false},{"stop_id":"U1438Z2","name":"Novolíšeňská","arrival_time":"15:20:00","departure_time":"15:20:00","lat":49.201911,"lon":16.669965,"is_passed":false},{"stop_id":"U1347Z2","name":"Líšeňská","arrival_time":"15:21:00","departure_time":"15:21:00","lat":49.197285,"lon":16.665584,"is_passed":false},{"stop_id":"U1026Z2","name":"Bílá hora","arrival_time":"15:21:00","departure_time":"15:21:00","lat":49.194271,"lon":16.667395,"is_passed":false},{"stop_id":"U1018Z2","name":"Bělohorská","arrival_time":"15:22:00","departure_time":"15:22:00","lat":49.190098,"lon":16.663444,"is_passed":false},{"stop_id":"U1291Z2","name":"Krásného","arrival_time":"15:24:00","departure_time":"15:24:00","lat":49.19067,"lon":16.649391,"is_passed":false},{"stop_id":"U1810Z2","name":"Židovský hřbitov","arrival_time":"15:25:00","departure_time":"15:25:00","lat":49.191517,"lon":16.641078,"is_passed":false},{"stop_id":"U1116Z2","name":"Geislerova","arrival_time":"15:26:00","departure_time":"15:26:00","lat":49.192754,"lon":16.634757,"is_passed":false},{"stop_id":"U1814Z2","name":"Životského","arrival_time":"15:28:00","departure_time":"15:28:00","lat":49.190687,"lon":16.633889,"is_passed":false},{"stop_id":"U1372Z2","name":"Masná","arrival_time":"15:30:00","departure_time":"15:30:00","lat":49.191283,"lon":16.6245,"is_passed":false},{"stop_id":"U1746Z2","name":"Vlhká","arrival_time":"15:31:00","departure_time":"15:31:00","lat":49.191852,"lon":16.619157,"is_passed":false},{"stop_id":"U1146Z3","name":"Hlavní nádraží","arrival_time":"15:34:00","departure_time":"15:34:00","lat":49.191063,"lon":16.611972,"is_passed":false},{"stop_id":"U1436Z1","name":"Nové sady","arrival_time":"15:35:00","departure_time":"15:35:00","lat":49.190116,"lon":16.609025,"is_passed":false},{"stop_id":"U1176Z1","name":"Hybešova","arrival_time":"15:37:00","departure_time":"15:37:00","lat":49.189322,"lon":16.602863,"is_passed":false},{"stop_id":"U1721Z1","name":"Václavská","arrival_time":"15:38:00","departure_time":"15:38:00","lat":49.188681,"lon":16.597217,"is_passed":false},{"stop_id":"U1512Z1","name":"Poříčí","arrival_time":"15:40:00","departure_time":"15:40:00","lat":49.187182,"lon":16.594633,"is_passed":false},{"stop_id":"U1430Z1","name":"Nemocnice Milosrdných bratří","arrival_time":"15:41:00","departure_time":"15:41:00","lat":49.183515,"lon":16.594981,"is_passed":false},{"stop_id":"U1053Z1","name":"Celní","arrival_time":"15:43:00","departure_time":"15:43:00","lat":49.179109,"lon":16.595328,"is_passed":false},{"stop_id":"U1293Z1","name":"Krematorium","arrival_time":"15:46:00","departure_time":"15:46:00","lat":49.172308,"lon":16.586427,"is_passed":false},{"stop_id":"U1021Z1","name":"Běloruská","arrival_time":"15:47:00","departure_time":"15:47:00","lat":49.170755,"lon":16.580895,"is_passed":false},{"stop_id":"U1653Z3","name":"Švermova","arrival_time":"15:48:00","departure_time":"15:48:00","lat":49.169262,"lon":16.573246,"is_passed":false},{"stop_id":"U1472Z1","name":"Osová","arrival_time":"15:49:00","departure_time":"15:49:00","lat":49.169023,"lon":16.56653,"is_passed":false},{"stop_id":"U1779Z1","name":"Západní brána","arrival_time":"15:51:00","departure_time":"15:51:00","lat":49.173486,"lon":16.567125,"is_passed":false},{"stop_id":"U1429Z1","name":"Nemocnice Bohunice","arrival_time":"15:53:00","departure_time":"16:02:00","lat":49.175849,"lon":16.567334,"is_passed":false}],"55103":[{"stop_id":"U1429Z2","name":"Nemocnice Bohunice","arrival_time":"16:02:00","departure_time":"16:02:00","lat":49.175849,"lon":16.567334,"is_passed":false},{"stop_id":"U1779Z2","name":"Západní brána","arrival_time":"16:02:00","departure_time":"16:02:00","lat":49.173114,"lon":16.566938,"is_passed":false},{"stop_id":"U1472Z2","name":"Osová","arrival_time":"16:04:00","departure_time":"16:04:00","lat":49.169005,"lon":16.567514,"is_passed":false},{"stop_id":"U1653Z4","name":"Švermova","arrival_time":"16:05:00","departure_time":"16:05:00","lat":49.169191,"lon":16.573122,"is_passed":false},{"stop_id":"U1021Z2","name":"Běloruská","arrival_time":"16:06:00","departure_time":"16:07:00","lat":49.170662,"lon":16.580727,"is_passed":false},{"stop_id":"U1293Z2","name":"Krematorium","arrival_time":"16:08:00","departure_time":"16:08:00","lat":49.172257,"lon":16.586414,"is_passed":false},{"stop_id":"U1053Z2","name":"Celní","arrival_time":"16:11:00","departure_time":"16:11:00","lat":49.179607,"lon":16.595242,"is_passed":false},{"stop_id":"U1430Z2","name":"Nemocnice Milosrdných bratří","arrival_time":"16:12:00","departure_time":"16:12:00","lat":49.183867,"lon":16.595061,"is_passed":false},{"stop_id":"U1512Z2","name":"Poříčí","arrival_time":"16:14:00","departure_time":"16:14:00","lat":49.187409,"lon":16.594512,"is_passed":false},{"stop_id":"U1721Z2","name":"Václavská","arrival_time":"16:16:00","departure_time":"16:16:00","lat":49.188715,"lon":16.596878,"is_passed":false},{"stop_id":"U1176Z2","name":"Hybešova","arrival_time":"16:17:00","departure_time":"16:17:00","lat":49.189209,"lon":16.603364,"is_passed":false},{"stop_id":"U1436Z2","name":"Nové sady","arrival_time":"16:20:00","departure_time":"16:20:00","lat":49.190222,"lon":16.609403,"is_passed":false},{"stop_id":"U1146Z4","name":"Hlavní nádraží","arrival_time":"16:22:00","departure_time":"16:22:00","lat":49.19125,"lon":16.612674,"is_passed":false},{"stop_id":"U1746Z1","name":"Vlhká","arrival_time":"16:23:00","departure_time":"16:23:00","lat":49.191847,"lon":16.618976,"is_passed":false},{"stop_id":"U1372Z1","name":"Masná","arrival_time":"16:25:00","departure_time":"16:25:00","lat":49.191244,"lon":16.625642,"is_passed":false},{"stop_id":"U1814Z1","name":"Životského","arrival_time":"16:27:00","departure_time":"16:27:00","lat":49.191036,"lon":16.633968,"is_passed":false},{"stop_id":"U1116Z1","name":"Geislerova","arrival_time":"16:28:00","departure_time":"16:28:00","lat":49.19278,"lon":16.635345,"is_passed":false},{"stop_id":"U1810Z1","name":"Židovský hřbitov","arrival_time":"16:29:00","departure_time":"16:29:00","lat":49.191354,"lon":16.641711,"is_passed":false},{"stop_id":"U1291Z1","name":"Krásného","arrival_time":"16:30:00","departure_time":"16:30:00","lat":49.190434,"lon":16.650066,"is_passed":false},{"stop_id":"U1018Z1","name":"Bělohorská","arrival_time":"16:32:00","departure_time":"16:32:00","lat":49.190201,"lon":16.6637,"is_passed":false},{"stop_id":"U1026Z1","name":"Bílá hora","arrival_time":"16:33:00","departure_time":"16:33:00","lat":49.194847,"lon":16.667411,"is_passed":false},{"stop_id":"U1347Z1","name":"Líšeňská","arrival_time":"16:33:00","departure_time":"16:33:00","lat":49.197876,"lon":16.664849,"is_passed":false},{"stop_id":"U1438Z1","name":"Novolíšeňská","arrival_time":"16:35:00","departure_time":"16:35:00","lat":49.202014,"lon":16.670642,"is_passed":false},{"stop_id":"U1368Z1","name":"Masarova","arrival_time":"16:37:00","departure_time":"16:37:00","lat":49.206997,"lon":16.677557,"is_passed":false},{"stop_id":"U1277Z1","name":"Kotlanova","arrival_time":"16:38:00","departure_time":"16:38:00","lat":49.209949,"lon":16.681681,"is_passed":false},{"stop_id":"U1208Z1","name":"Jírova","arrival_time":"16:40:00","departure_time":"16:40:00","lat":49.208552,"lon":16.686687,"is_passed":false},{"stop_id":"U1384Z1","name":"Mifkova","arrival_time":"16:41:00","departure_time":"16:49:00","lat":49.207315,"lon":16.692496,"is_passed":false}],"55104":[{"stop_id":"U1384Z2","name":"Mifkova","arrival_time":"16:49:00","departure_time":"16:49:00","lat":49.207315,"lon":16.692496,"is_passed":false},{"stop_id":"U1208Z2","name":"Jírova","arrival_time":"16:50:00","departure_time":"16:50:00","lat":49.209141,"lon":16.686376,"is_passed":false},{"stop_id":"U1277Z2","name":"Kotlanova","arrival_time":"16:51:00","departure_time":"16:51:00","lat":49.209763,"lon":16.681048,"is_passed":false},{"stop_id":"U1368Z2","name":"Masarova","arrival_time":"16:52:00","departure_time":"16:52:00","lat":49.206997,"lon":16.677557,"is_passed":false},{"stop_id":"U1438Z2","name":"Novolíšeňská","arrival_time":"16:54:00","departure_time":"16:54:00","lat":49.201911,"lon":16.669965,"is_passed":false},{"stop_id":"U1347Z2","name":"Líšeňská","arrival_time":"16:55:00","departure_time":"16:55:00","lat":49.197285,"lon":16.665584,"is_passed":false},{"stop_id":"U1026Z2","name":"Bílá hora","arrival_time":"16:55:00","departure_time":"16:55:00","lat":49.194271,"lon":16.667395,"is_passed":false},{"stop_id":"U1018Z2","name":"Bělohorská","arrival_time":"16:56:00","departure_time":"16:56:00","lat":49.190098,"lon":16.663444,"is_passed":false},{"stop_id":"U1291Z2","name":"Krásného","arrival_time":"16:58:00","departure_time":"16:58:00","lat":49.19067,"lon":16.649391,"is_passed":false},{"stop_id":"U1810Z2","name":"Židovský hřbitov","arrival_time":"16:59:00","departure_time":"16:59:00","lat":49.191517,"lon":16.641078,"is_passed":false},{"stop_id":"U1116Z2","name":"Geislerova","arrival_time":"17:00:00","departure_time":"17:00:00","lat":49.192754,"lon":16.634757,"is_passed":false},{"stop_id":"U1814Z2","name":"Životského","arrival_time":"17:02:00","departure_time":"17:02:00","lat":49.190687,"lon":16.633889,"is_passed":false},{"stop_id":"U1372Z2","name":"Masná","arrival_time":"17:04:00","departure_time":"17:04:00","lat":49.191283,"lon":16.6245,"is_passed":false},{"stop_id":"U1746Z2","name":"Vlhká","arrival_time":"17:05:00","departure_time":"17:05:00","lat":49.191852,"lon":16.619157,"is_passed":false},{"stop_id":"U1146Z3","name":"Hlavní nádraží","arrival_time":"17:08:00","departure_time":"17:08:00","lat":49.191063,"lon":16.611972,"is_passed":false},{"stop_id":"U1436Z1","name":"Nové sady","arrival_time":"17:09:00","departure_time":"17:09:00","lat":49.190116,"lon":16.609025,"is_passed":false},{"stop_id":"U1176Z1","name":"Hybešova","arrival_time":"17:11:00","departure_time":"17:11:00","lat":49.189322,"lon":16.602863,"is_passed":false},{"stop_id":"U1721Z1","name":"Václavská","arrival_time":"17:12:00","departure_time":"17:12:00","lat":49.188681,"lon":16.597217,"is_passed":false},{"stop_id":"U1512Z1","name":"Poříčí","arrival_time":"17:14:00","departure_time":"17:14:00","lat":49.187182,"lon":16.594633,"is_passed":false},{"stop_id":"U1430Z1","name":"Nemocnice Milosrdných bratří","arrival_time":"17:15:00","departure_time":"17:15:00","lat":49.183515,"lon":16.594981,"is_passed":false},{"stop_id":"U1053Z1","name":"Celní","arrival_time":"17:17:00","departure_time":"17:17:00","lat":49.179109,"lon":16.595328,"is_passed":false},{"stop_id":"U1293Z1","name":"Krematorium","arrival_time":"17:20:00","departure_time":"17:20:00","lat":49.172308,"lon":16.586427,"is_passed":false},{"stop_id":"U1021Z1","name":"Běloruská","arrival_time":"17:21:00","departure_time":"17:21:00","lat":49.170755,"lon":16.580895,"is_passed":false},{"stop_id":"U1653Z3","name":"Švermova","arrival_time":"17:22:00","departure_time":"17:22:00","lat":49.169262,"lon":16.573246,"is_passed":false},{"stop_id":"U1472Z1","name":"Osová","arrival_time":"17:23:00","departure_time":"17:23:00","lat":49.169023,"lon":16.56653,"is_passed":false},{"stop_id":"U1779Z1","name":"Západní brána","arrival_time":"17:25:00","departure_time":"17:25:00","lat":49.173486,"lon":16.567125,"is_passed":false},{"stop_id":"U1429Z1","name":"Nemocnice Bohunice","arrival_time":"17:27:00","departure_time":"17:35:00","lat":49.175849,"lon":16.567334,"is_passed":false}],"55105":[{"stop_id":"U1429Z2","name":"Nemocnice Bohunice","arrival_time":"17:35:00","departure_time":"17:35:00","lat":49.175849,"lon":16.567334,"is_passed":false},{"stop_id":"U1779Z2","name":"Západní brána","arrival_time":"17:35:00","departure_time":"17:35:00","lat":49.173114,"lon":16.566938,"is_passed":false},{"stop_id":"U1472Z2","name":"Osová","arrival_time":"17:37:00","departure_time":"17:37:00","lat":49.169005,"lon":16.567514,"is_passed":false},{"stop_id":"U1653Z4","name":"Švermova","arrival_time":"17:38:00","departure_time":"17:38:00","lat":49.169191,"lon":16.573122,"is_passed":false},{"stop_id":"U1021Z2","name":"Běloruská","arrival_time":"17:39:00","departure_time":"17:40:00","lat":49.170662,"lon":16.580727,"is_passed":false},{"stop_id":"U1293Z2","name":"Krematorium","arrival_time":"17:41:00","departure_time":"17:41:00","lat":49.172257,"lon":16.586414,"is_passed":false},{"stop_id":"U1053Z2","name":"Celní","arrival_time":"17:44:00","departure_time":"17:44:00","lat":49.179607,"lon":16.595242,"is_passed":false},{"stop_id":"U1430Z2","name":"Nemocnice Milosrdných bratří","arrival_time":"17:45:00","departure_time":"17:45:00","lat":49.183867,"lon":16.595061,"is_passed":false},{"stop_id":"U1512Z2","name":"Poříčí","arrival_time":"17:47:00","departure_time":"17:47:00","lat":49.187409,"lon":16.594512,"is_passed":false},{"stop_id":"U1721Z2","name":"Václavská","arrival_time":"17:49:00","departure_time":"17:49:00","lat":49.188715,"lon":16.596878,"is_passed":false},{"stop_id":"U1176Z2","name":"Hybešova","arrival_time":"17:50:00","departure_time":"17:50:00","lat":49.189209,"lon":16.603364,"is_passed":false},{"stop_id":"U1436Z2","name":"Nové sady","arrival_time":"17:53:00","departure_time":"17:53:00","lat":49.190222,"lon":16.609403,"is_passed":false},{"stop_id":"U1146Z4","name":"Hlavní nádraží","arrival_time":"17:55:00","departure_time":"17:55:00","lat":49.19125,"lon":16.612674,"is_passed":false},{"stop_id":"U1746Z1","name":"Vlhká","arrival_time":"17:56:00","departure_time":"17:56:00","lat":49.191847,"lon":16.618976,"is_passed":false},{"stop_id":"U1372Z1","name":"Masná","arrival_time":"17:58:00","departure_time":"17:58:00","lat":49.191244,"lon":16.625642,"is_passed":false},{"stop_id":"U1814Z1","name":"Životského","arrival_time":"18:00:00","departure_time":"18:00:00","lat":49.191036,"lon":16.633968,"is_passed":false},{"stop_id":"U1116Z1","name":"Geislerova","arrival_time":"18:01:00","departure_time":"18:01:00","lat":49.19278,"lon":16.635345,"is_passed":false},{"stop_id":"U1810Z1","name":"Židovský hřbitov","arrival_time":"18:02:00","departure_time":"18:02:00","lat":49.191354,"lon":16.641711,"is_passed":false},{"stop_id":"U1291Z1","name":"Krásného","arrival_time":"18:03:00","departure_time":"18:03:00","lat":49.190434,"lon":16.650066,"is_passed":false},{"stop_id":"U1018Z1","name":"Bělohorská","arrival_time":"18:05:00","departure_time":"18:05:00","lat":49.190201,"lon":16.6637,"is_passed":false},{"stop_id":"U1026Z1","name":"Bílá hora","arrival_time":"18:06:00","departure_time":"18:06:00","lat":49.194847,"lon":16.667411,"is_passed":false},{"stop_id":"U1347Z1","name":"Líšeňská","arrival_time":"18:06:00","departure_time":"18:06:00","lat":49.197876,"lon":16.664849,"is_passed":false},{"stop_id":"U1438Z1","name":"Novolíšeňská","arrival_time":"18:08:00","departure_time":"18:08:00","lat":49.202014,"lon":16.670642,"is_passed":false},{"stop_id":"U1368Z1","name":"Masarova","arrival_time":"18:10:00","departure_time":"18:10:00","lat":49.206997,"lon":16.677557,"is_passed":false},{"stop_id":"U1277Z1","name":"Kotlanova","arrival_time":"18:11:00","departure_time":"18:11:00","lat":49.209949,"lon":16.681681,"is_passed":false},{"stop_id":"U1208Z1","name":"Jírova","arrival_time":"18:13:00","departure_time":"18:13:00","lat":49.208552,"lon":16.686687,"is_passed":false},{"stop_id":"U1384Z1","name":"Mifkova","arrival_time":"18:14:00","departure_time":"18:22:00","lat":49.207315,"lon":16.692496,"is_passed":false}],"55106":[{"stop_id":"U1384Z2","name":"Mifkova","arrival_time":"18:22:00","departure_time":"18:22:00","lat":49.207315,"lon":16.692496,"is_passed":false},{"stop_id":"U1208Z2","name":"Jírova","arrival_time":"18:23:00","departure_time":"18:23:00","lat":49.209141,"lon":16.686376,"is_passed":false},{"stop_id":"U1277Z2","name":"Kotlanova","arrival_time":"18:24:00","departure_time":"18:24:00","lat":49.209763,"lon":16.681048,"is_passed":false},{"stop_id":"U1368Z2","name":"Masarova","arrival_time":"18:25:00","departure_time":"18:25:00","lat":49.206997,"lon":16.677557,"is_passed":false},{"stop_id":"U1438Z2","name":"Novolíšeňská","arrival_time":"18:27:00","departure_time":"18:27:00","lat":49.201911,"lon":16.669965,"is_passed":false},{"stop_id":"U1347Z2","name":"Líšeňská","arrival_time":"18:28:00","departure_time":"18:28:00","lat":49.197285,"lon":16.665584,"is_passed":false},{"stop_id":"U1026Z2","name":"Bílá hora","arrival_time":"18:28:00","departure_time":"18:28:00","lat":49.194271,"lon":16.667395,"is_passed":false},{"stop_id":"U1018Z2","name":"Bělohorská","arrival_time":"18:29:00","departure_time":"18:29:00","lat":49.190098,"lon":16.663444,"is_passed":false},{"stop_id":"U1291Z2","name":"Krásného","arrival_time":"18:31:00","departure_time":"18:31:00","lat":49.19067,"lon":16.649391,"is_passed":false},{"stop_id":"U1810Z2","name":"Židovský hřbitov","arrival_time":"18:32:00","departure_time":"18:32:00","lat":49.191517,"lon":16.641078,"is_passed":false},{"stop_id":"U1116Z2","name":"Geislerova","arrival_time":"18:33:00","departure_time":"18:33:00","lat":49.192754,"lon":16.634757,"is_passed":false},{"stop_id":"U1814Z2","name":"Životského","arrival_time":"18:35:00","departure_time":"18:35:00","lat":49.190687,"lon":16.633889,"is_passed":false},{"stop_id":"U1372Z2","name":"Masná","arrival_time":"18:37:00","departure_time":"18:37:00","lat":49.191283,"lon":16.6245,"is_passed":false},{"stop_id":"U1746Z2","name":"Vlhká","arrival_time":"18:38:00","departure_time":"18:38:00","lat":49.191852,"lon":16.619157,"is_passed":false},{"stop_id":"U1146Z3","name":"Hlavní nádraží","arrival_time":"18:41:00","departure_time":"18:41:00","lat":49.191063,"lon":16.611972,"is_passed":false},{"stop_id":"U1436Z1","name":"Nové sady","arrival_time":"18:42:00","departure_time":"18:42:00","lat":49.190116,"lon":16.609025,"is_passed":false},{"stop_id":"U1176Z1","name":"Hybešova","arrival_time":"18:44:00","departure_time":"18:44:00","lat":49.189322,"lon":16.602863,"is_passed":false},{"stop_id":"U1721Z1","name":"Václavská","arrival_time":"18:45:00","departure_time":"18:45:00","lat":49.188681,"lon":16.597217,"is_passed":false},{"stop_id":"U1512Z1","name":"Poříčí","arrival_time":"18:47:00","departure_time":"18:47:00","lat":49.187182,"lon":16.594633,"is_passed":false},{"stop_id":"U1430Z1","name":"Nemocnice Milosrdných bratří","arrival_time":"18:48:00","departure_time":"18:48:00","lat":49.183515,"lon":16.594981,"is_passed":false},{"stop_id":"U1053Z1","name":"Celní","arrival_time":"18:50:00","departure_time":"18:50:00","lat":49.179109,"lon":16.595328,"is_passed":false},{"stop_id":"U1293Z1","name":"Krematorium","arrival_time":"18:53:00","departure_time":"18:53:00","lat":49.172308,"lon":16.586427,"is_passed":false},{"stop_id":"U1021Z1","name":"Běloruská","arrival_time":"18:54:00","departure_time":"18:54:00","lat":49.170755,"lon":16.580895,"is_passed":false},{"stop_id":"U1653Z3","name":"Švermova","arrival_time":"18:55:00","departure_time":"18:55:00","lat":49.169262,"lon":16.573246,"is_passed":false},{"stop_id":"U1472Z1","name":"Osová","arrival_time":"18:56:00","departure_time":"18:56:00","lat":49.169023,"lon":16.56653,"is_passed":false},{"stop_id":"U1779Z1","name":"Západní brána","arrival_time":"18:58:00","departure_time":"18:58:00","lat":49.173486,"lon":16.567125,"is_passed":false},{"stop_id":"U1429Z1","name":"Nemocnice Bohunice","arrival_time":"19:00:00","departure_time":"19:05:00","lat":49.175849,"lon":16.567334,"is_passed":false}],"55107":[{"stop_id":"U1429Z2","name":"Nemocnice Bohunice","arrival_time":"19:05:00","departure_time":"19:05:00","lat":49.175849,"lon":16.567334,"is_passed":false},{"stop_id":"U1779Z2","name":"Západní brána","arrival_time":"19:05:00","departure_time":"19:05:00","lat":49.173114,"lon":16.566938,"is_passed":false},{"stop_id":"U1472Z2","name":"Osová","arrival_time":"19:07:00","departure_time":"19:07:00","lat":49.169005,"lon":16.567514,"is_passed":false},{"stop_id":"U1653Z4","name":"Švermova","arrival_time":"19:08:00","departure_time":"19:08:00","lat":49.169191,"lon":16.573122,"is_passed":false},{"stop_id":"U1021Z2","name":"Běloruská","arrival_time":"19:09:00","departure_time":"19:09:00","lat":49.170662,"lon":16.580727,"is_passed":false},{"stop_id":"U1293Z2","name":"Krematorium","arrival_time":"19:10:00","departure_time":"19:10:00","lat":49.172257,"lon":16.586414,"is_passed":false},{"stop_id":"U1053Z2","name":"Celní","arrival_time":"19:13:00","departure_time":"19:13:00","lat":49.179607,"lon":16.595242,"is_passed":false},{"stop_id":"U1430Z2","name":"Nemocnice Milosrdných bratří","arrival_time":"19:14:00","departure_time":"19:14:00","lat":49.183867,"lon":16.595061,"is_passed":false},{"stop_id":"U1512Z2","name":"Poříčí","arrival_time":"19:16:00","departure_time":"19:16:00","lat":49.187409,"lon":16.594512,"is_passed":false},{"stop_id":"U1721Z2","name":"Václavská","arrival_time":"19:18:00","departure_time":"19:18:00","lat":49.188715,"lon":16.596878,"is_passed":false},{"stop_id":"U1176Z2","name":"Hybešova","arrival_time":"19:19:00","departure_time":"19:19:00","lat":49.189209,"lon":16.603364,"is_passed":false},{"stop_id":"U1436Z2","name":"Nové sady","arrival_time":"19:22:00","departure_time":"19:22:00","lat":49.190222,"lon":16.609403,"is_passed":false},{"stop_id":"U1146Z4","name":"Hlavní nádraží","arrival_time":"19:24:00","departure_time":"19:24:00","lat":49.19125,"lon":16.612674,"is_passed":false},{"stop_id":"U1746Z1","name":"Vlhká","arrival_time":"19:25:00","departure_time":"19:25:00","lat":49.191847,"lon":16.618976,"is_passed":false},{"stop_id":"U1372Z1","name":"Masná","arrival_time":"19:27:00","departure_time":"19:27:00","lat":49.191244,"lon":16.625642,"is_passed":false},{"stop_id":"U1814Z1","name":"Životského","arrival_time":"19:29:00","departure_time":"19:29:00","lat":49.191036,"lon":16.633968,"is_passed":false},{"stop_id":"U1116Z1","name":"Geislerova","arrival_time":"19:30:00","departure_time":"19:30:00","lat":49.19278,"lon":16.635345,"is_passed":false},{"stop_id":"U1810Z1","name":"Židovský hřbitov","arrival_time":"19:31:00","departure_time":"19:31:00","lat":49.191354,"lon":16.641711,"is_passed":false},{"stop_id":"U1291Z1","name":"Krásného","arrival_time":"19:32:00","departure_time":"19:32:00","lat":49.190434,"lon":16.650066,"is_passed":false},{"stop_id":"U1018Z1","name":"Bělohorská","arrival_time":"19:34:00","departure_time":"19:34:00","lat":49.190201,"lon":16.6637,"is_passed":false},{"stop_id":"U1026Z1","name":"Bílá hora","arrival_time":"19:35:00","departure_time":"19:35:00","lat":49.194847,"lon":16.667411,"is_passed":false},{"stop_id":"U1347Z1","name":"Líšeňská","arrival_time":"19:35:00","departure_time":"19:35:00","lat":49.197876,"lon":16.664849,"is_passed":false},{"stop_id":"U1438Z1","name":"Novolíšeňská","arrival_time":"19:37:00","departure_time":"19:37:00","lat":49.202014,"lon":16.670642,"is_passed":false},{"stop_id":"U1368Z1","name":"Masarova","arrival_time":"19:39:00","departure_time":"19:39:00","lat":49.206997,"lon":16.677557,"is_passed":false},{"stop_id":"U1277Z1","name":"Kotlanova","arrival_time":"19:40:00","departure_time":"19:40:00","lat":49.209949,"lon":16.681681,"is_passed":false},{"stop_id":"U1208Z1","name":"Jírova","arrival_time":"19:41:00","departure_time":"19:41:00","lat":49.208552,"lon":16.686687,"is_passed":false},{"stop_id":"U1384Z1","name":"Mifkova","arrival_time":"19:42:00","departure_time":"20:02:00","lat":49.207315,"lon":16.692496,"is_passed":false}],"55108":[{"stop_id":"U1384Z2","name":"Mifkova","arrival_time":"20:02:00","departure_time":"20:02:00","lat":49.207315,"lon":16.692496,"is_passed":false},{"stop_id":"U1208Z2","name":"Jírova","arrival_time":"20:03:00","departure_time":"20:03:00","lat":49.209141,"lon":16.686376,"is_passed":false},{"stop_id":"U1277Z2","name":"Kotlanova","arrival_time":"20:04:00","departure_time":"20:04:00","lat":49.209763,"lon":16.681048,"is_passed":false},{"stop_id":"U1368Z2","name":"Masarova","arrival_time":"20:05:00","departure_time":"20:05:00","lat":49.206997,"lon":16.677557,"is_passed":false},{"stop_id":"U1438Z2","name":"Novolíšeňská","arrival_time":"20:07:00","departure_time":"20:07:00","lat":49.201911,"lon":16.669965,"is_passed":false},{"stop_id":"U1347Z2","name":"Líšeňská","arrival_time":"20:08:00","departure_time":"20:08:00","lat":49.197285,"lon":16.665584,"is_passed":false},{"stop_id":"U1026Z2","name":"Bílá hora","arrival_time":"20:08:00","departure_time":"20:08:00","lat":49.194271,"lon":16.667395,"is_passed":false},{"stop_id":"U1018Z2","name":"Bělohorská","arrival_time":"20:09:00","departure_time":"20:09:00","lat":49.190098,"lon":16.663444,"is_passed":false},{"stop_id":"U1291Z2","name":"Krásného","arrival_time":"20:11:00","departure_time":"20:11:00","lat":49.19067,"lon":16.649391,"is_passed":false},{"stop_id":"U1810Z2","name":"Židovský hřbitov","arrival_time":"20:12:00","departure_time":"20:12:00","lat":49.191517,"lon":16.641078,"is_passed":false},{"stop_id":"U1116Z2","name":"Geislerova","arrival_time":"20:13:00","departure_time":"20:13:00","lat":49.192754,"lon":16.634757,"is_passed":false},{"stop_id":"U1814Z2","name":"Životského","arrival_time":"20:15:00","departure_time":"20:15:00","lat":49.190687,"lon":16.633889,"is_passed":false},{"stop_id":"U1372Z2","name":"Masná","arrival_time":"20:17:00","departure_time":"20:17:00","lat":49.191283,"lon":16.6245,"is_passed":false},{"stop_id":"U1746Z2","name":"Vlhká","arrival_time":"20:18:00","departure_time":"20:18:00","lat":49.191852,"lon":16.619157,"is_passed":false},{"stop_id":"U1146Z3","name":"Hlavní nádraží","arrival_time":"20:21:00","departure_time":"20:21:00","lat":49.191063,"lon":16.611972,"is_passed":false},{"stop_id":"U1436Z1","name":"Nové sady","arrival_time":"20:22:00","departure_time":"20:22:00","lat":49.190116,"lon":16.609025,"is_passed":false},{"stop_id":"U1176Z1","name":"Hybešova","arrival_time":"20:24:00","departure_time":"20:24:00","lat":49.189322,"lon":16.602863,"is_passed":false},{"stop_id":"U1721Z1","name":"Václavská","arrival_time":"20:25:00","departure_time":"20:25:00","lat":49.188681,"lon":16.597217,"is_passed":false},{"stop_id":"U1512Z1","name":"Poříčí","arrival_time":"20:27:00","departure_time":"20:27:00","lat":49.187182,"lon":16.594633,"is_passed":false},{"stop_id":"U1430Z1","name":"Nemocnice Milosrdných bratří","arrival_time":"20:28:00","departure_time":"20:28:00","lat":49.183515,"lon":16.594981,"is_passed":false},{"stop_id":"U1053Z1","name":"Celní","arrival_time":"20:30:00","departure_time":"20:30:00","lat":49.179109,"lon":16.595328,"is_passed":false},{"stop_id":"U1293Z1","name":"Krematorium","arrival_time":"20:32:00","departure_time":"20:32:00","lat":49.172308,"lon":16.586427,"is_passed":false},{"stop_id":"U1021Z1","name":"Běloruská","arrival_time":"20:33:00","departure_time":"20:33:00","lat":49.170755,"lon":16.580895,"is_passed":false},{"stop_id":"U1653Z3","name":"Švermova","arrival_time":"20:34:00","departure_time":"20:34:00","lat":49.169262,"lon":16.573246,"is_passed":false},{"stop_id":"U1472Z1","name":"Osová","arrival_time":"20:35:00","departure_time":"20:35:00","lat":49.169023,"lon":16.56653,"is_passed":false},{"stop_id":"U1779Z1","name":"Západní brána","arrival_time":"20:36:00","departure_time":"20:36:00","lat":49.173486,"lon":16.567125,"is_passed":false},{"stop_id":"U1429Z1","name":"Nemocnice Bohunice","arrival_time":"20:38:00","departure_time":"21:20:00","lat":49.175849,"lon":16.567334,"is_passed":false}],"55109":[{"stop_id":"U1429Z2","name":"Nemocnice Bohunice","arrival_time":"21:20:00","departure_time":"21:20:00","lat":49.175849,"lon":16.567334,"is_passed":false},{"stop_id":"U1779Z2","name":"Západní brána","arrival_time":"21:20:00","departure_time":"21:20:00","lat":49.173114,"lon":16.566938,"is_passed":false},{"stop_id":"U1472Z2","name":"Osová","arrival_time":"21:22:00","departure_time":"21:22:00","lat":49.169005,"lon":16.567514,"is_passed":false},{"stop_id":"U1653Z4","name":"Švermova","arrival_time":"21:23:00","departure_time":"21:23:00","lat":49.169191,"lon":16.573122,"is_passed":false},{"stop_id":"U1021Z2","name":"Běloruská","arrival_time":"21:24:00","departure_time":"21:24:00","lat":49.170662,"lon":16.580727,"is_passed":false},{"stop_id":"U1293Z2","name":"Krematorium","arrival_time":"21:25:00","departure_time":"21:25:00","lat":49.172257,"lon":16.586414,"is_passed":false},{"stop_id":"U1053Z2","name":"Celní","arrival_time":"21:28:00","departure_time":"21:28:00","lat":49.179607,"lon":16.595242,"is_passed":false},{"stop_id":"U1430Z2","name":"Nemocnice Milosrdných bratří","arrival_time":"21:29:00","departure_time":"21:29:00","lat":49.183867,"lon":16.595061,"is_passed":false},{"stop_id":"U1512Z2","name":"Poříčí","arrival_time":"21:31:00","departure_time":"21:31:00","lat":49.187409,"lon":16.594512,"is_passed":false},{"stop_id":"U1721Z2","name":"Václavská","arrival_time":"21:33:00","departure_time":"21:33:00","lat":49.188715,"lon":16.596878,"is_passed":false},{"stop_id":"U1176Z2","name":"Hybešova","arrival_time":"21:34:00","departure_time":"21:34:00","lat":49.189209,"lon":16.603364,"is_passed":false},{"stop_id":"U1436Z2","name":"Nové sady","arrival_time":"21:37:00","departure_time":"21:37:00","lat":49.190222,"lon":16.609403,"is_passed":false},{"stop_id":"U1146Z4","name":"Hlavní nádraží","arrival_time":"21:39:00","departure_time":"21:39:00","lat":49.19125,"lon":16.612674,"is_passed":false},{"stop_id":"U1746Z1","name":"Vlhká","arrival_time":"21:40:00","departure_time":"21:40:00","lat":49.191847,"lon":16.618976,"is_passed":false},{"stop_id":"U1372Z1","name":"Masná","arrival_time":"21:42:00","departure_time":"21:42:00","lat":49.191244,"lon":16.625642,"is_passed":false},{"stop_id":"U1814Z1","name":"Životského","arrival_time":"21:44:00","departure_time":"21:44:00","lat":49.191036,"lon":16.633968,"is_passed":false},{"stop_id":"U1116Z1","name":"Geislerova","arrival_time":"21:45:00","departure_time":"21:45:00","lat":49.19278,"lon":16.635345,"is_passed":false},{"stop_id":"U1810Z1","name":"Židovský hřbitov","arrival_time":"21:46:00","departure_time":"21:46:00","lat":49.191354,"lon":16.641711,"is_passed":false},{"stop_id":"U1291Z1","name":"Krásného","arrival_time":"21:47:00","departure_time":"21:47:00","lat":49.190434,"lon":16.650066,"is_passed":false},{"stop_id":"U1018Z1","name":"Bělohorská","arrival_time":"21:49:00","departure_time":"21:49:00","lat":49.190201,"lon":16.6637,"is_passed":false},{"stop_id":"U1026Z1","name":"Bílá hora","arrival_time":"21:50:00","departure_time":"21:50:00","lat":49.194847,"lon":16.667411,"is_passed":false},{"stop_id":"U1347Z1","name":"Líšeňská","arrival_time":"21:50:00","departure_time":"21:50:00","lat":49.197876,"lon":16.664849,"is_passed":false},{"stop_id":"U1438Z1","name":"Novolíšeňská","arrival_time":"21:52:00","departure_time":"21:52:00","lat":49.202014,"lon":16.670642,"is_passed":false},{"stop_id":"U1368Z1","name":"Masarova","arrival_time":"21:54:00","departure_time":"21:54:00","lat":49.206997,"lon":16.677557,"is_passed":false},{"stop_id":"U1277Z1","name":"Kotlanova","arrival_time":"21:55:00","departure_time":"21:55:00","lat":49.209949,"lon":16.681681,"is_passed":false},{"stop_id":"U1208Z1","name":"Jírova","arrival_time":"21:56:00","departure_time":"21:56:00","lat":49.208552,"lon":16.686687,"is_passed":false},{"stop_id":"U1384Z1","name":"Mifkova","arrival_time":"21:57:00","departure_time":"22:09:00","lat":49.207315,"lon":16.692496,"is_passed":false}],"55110":[{"stop_id":"U1384Z2","name":"Mifkova","arrival_time":"22:09:00","departure_time":"22:09:00","lat":49.207315,"lon":16.692496,"is_passed":false},{"stop_id":"U1208Z2","name":"Jírova","arrival_time":"22:10:00","departure_time":"22:10:00","lat":49.209141,"lon":16.686376,"is_passed":false},{"stop_id":"U1277Z2","name":"Kotlanova","arrival_time":"22:11:00","departure_time":"22:11:00","lat":49.209763,"lon":16.681048,"is_passed":false},{"stop_id":"U1368Z2","name":"Masarova","arrival_time":"22:12:00","departure_time":"22:12:00","lat":49.206997,"lon":16.677557,"is_passed":false},{"stop_id":"U1438Z2","name":"Novolíšeňská","arrival_time":"22:14:00","departure_time":"22:14:00","lat":49.201911,"lon":16.669965,"is_passed":false},{"stop_id":"U1347Z2","name":"Líšeňská","arrival_time":"22:15:00","departure_time":"22:15:00","lat":49.197285,"lon":16.665584,"is_passed":false},{"stop_id":"U1026Z2","name":"Bílá hora","arrival_time":"22:15:00","departure_time":"22:15:00","lat":49.194271,"lon":16.667395,"is_passed":false},{"stop_id":"U1018Z2","name":"Bělohorská","arrival_time":"22:16:00","departure_time":"22:16:00","lat":49.190098,"lon":16.663444,"is_passed":false},{"stop_id":"U1291Z2","name":"Krásného","arrival_time":"22:18:00","departure_time":"22:18:00","lat":49.19067,"lon":16.649391,"is_passed":false},{"stop_id":"U1810Z2","name":"Židovský hřbitov","arrival_time":"22:19:00","departure_time":"22:19:00","lat":49.191517,"lon":16.641078,"is_passed":false},{"stop_id":"U1116Z2","name":"Geislerova","arrival_time":"22:20:00","departure_time":"22:20:00","lat":49.192754,"lon":16.634757,"is_passed":false},{"stop_id":"U1814Z2","name":"Životského","arrival_time":"22:21:00","departure_time":"22:21:00","lat":49.190687,"lon":16.633889,"is_passed":false},{"stop_id":"U1372Z2","name":"Masná","arrival_time":"22:23:00","departure_time":"22:23:00","lat":49.191283,"lon":16.6245,"is_passed":false},{"stop_id":"U1746Z2","name":"Vlhká","arrival_time":"22:24:00","departure_time":"22:24:00","lat":49.191852,"lon":16.619157,"is_passed":false},{"stop_id":"U1146Z3","name":"Hlavní nádraží","arrival_time":"22:27:00","departure_time":"22:27:00","lat":49.191063,"lon":16.611972,"is_passed":false},{"stop_id":"U1436Z1","name":"Nové sady","arrival_time":"22:28:00","departure_time":"22:28:00","lat":49.190116,"lon":16.609025,"is_passed":false},{"stop_id":"U1176Z1","name":"Hybešova","arrival_time":"22:30:00","departure_time":"22:30:00","lat":49.189322,"lon":16.602863,"is_passed":false},{"stop_id":"U1721Z1","name":"Václavská","arrival_time":"22:31:00","departure_time":"22:31:00","lat":49.188681,"lon":16.597217,"is_passed":false},{"stop_id":"U1512Z1","name":"Poříčí","arrival_time":"22:33:00","departure_time":"22:33:00","lat":49.187182,"lon":16.594633,"is_passed":false},{"stop_id":"U1430Z1","name":"Nemocnice Milosrdných bratří","arrival_time":"22:34:00","departure_time":"22:34:00","lat":49.183515,"lon":16.594981,"is_passed":false},{"stop_id":"U1053Z1","name":"Celní","arrival_time":"22:36:00","departure_time":"22:36:00","lat":49.179109,"lon":16.595328,"is_passed":false},{"stop_id":"U1293Z1","name":"Krematorium","arrival_time":"22:38:00","departure_time":"22:38:00","lat":49.172308,"lon":16.586427,"is_passed":false},{"stop_id":"U1021Z1","name":"Běloruská","arrival_time":"22:39:00","departure_time":"22:39:00","lat":49.170755,"lon":16.580895,"is_passed":false},{"stop_id":"U1653Z3","name":"Švermova","arrival_time":"22:40:00","departure_time":"22:40:00","lat":49.169262,"lon":16.573246,"is_passed":false},{"stop_id":"U1472Z1","name":"Osová","arrival_time":"22:41:00","departure_time":"22:41:00","lat":49.169023,"lon":16.56653,"is_passed":false},{"stop_id":"U1779Z1","name":"Západní brána","arrival_time":"22:42:00","departure_time":"22:42:00","lat":49.173486,"lon":16.567125,"is_passed":false},{"stop_id":"U1429Z1","name":"Nemocnice Bohunice","arrival_time":"22:44:00","departure_time":"23:00:00","lat":49.175849,"lon":16.567334,"is_passed":false}],"55111":[{"stop_id":"U1429Z2","name":"Nemocnice Bohunice","arrival_time":"23:00:00","departure_time":"23:00:00","lat":49.175849,"lon":16.567334,"is_passed":false},{"stop_id":"U1779Z2","name":"Západní brána","arrival_time":"23:00:00","departure_time":"23:00:00","lat":49.173114,"lon":16.566938,"is_passed":false},{"stop_id":"U1472Z2","name":"Osová","arrival_time":"23:02:00","departure_time":"23:02:00","lat":49.169005,"lon":16.567514,"is_passed":false}],"55112":[{"stop_id":"U1472Z2","name":"Osová","arrival_time":"23:02:00","departure_time":"23:02:00","lat":49.169005,"lon":16.567514,"is_passed":false},{"stop_id":"U1653Z4","name":"Švermova","arrival_time":"23:03:00","departure_time":"23:03:00","lat":49.169191,"lon":16.573122,"is_passed":false},{"stop_id":"U1021Z2","name":"Běloruská","arrival_time":"23:04:00","departure_time":"23:04:00","lat":49.170662,"lon":16.580727,"is_passed":false},{"stop_id":"U1293Z2","name":"Krematorium","arrival_time":"23:05:00","departure_time":"23:05:00","lat":49.172257,"lon":16.586414,"is_passed":false},{"stop_id":"U1053Z2","name":"Celní","arrival_time":"23:08:00","departure_time":"23:08:00","lat":49.179607,"lon":16.595242,"is_passed":false},{"stop_id":"U1430Z2","name":"Nemocnice Milosrdných bratří","arrival_time":"23:09:00","departure_time":"23:09:00","lat":49.183867,"lon":16.595061,"is_passed":false},{"stop_id":"U1512Z2","name":"Poříčí","arrival_time":"23:11:00","departure_time":"23:11:00","lat":49.187409,"lon":16.594512,"is_passed":false},{"stop_id":"U1378Z3","name":"Mendlovo náměstí","arrival_time":"23:13:00","departure_time":"23:13:00","lat":49.190293,"lon":16.594781,"is_passed":false},{"stop_id":"U1428Z1","name":"Nemocnice u sv. Anny","arrival_time":"23:15:00","departure_time":"23:15:00","lat":49.191471,"lon":16.599302,"is_passed":false},{"stop_id":"U1637Z4","name":"Šilingrovo náměstí","arrival_time":"23:16:00","departure_time":"23:16:00","lat":49.192271,"lon":16.604367,"is_passed":false},{"stop_id":"U1073Z2","name":"Česká","arrival_time":"23:19:00","departure_time":"23:19:00","lat":49.197702,"lon":16.606463,"is_passed":false},{"stop_id":"U1397Z1","name":"Moravské náměstí","arrival_time":"23:20:00","departure_time":"23:20:00","lat":49.19996,"lon":16.607931,"is_passed":false},{"stop_id":"U1006Z1","name":"Antonínská","arrival_time":"23:21:00","departure_time":"23:21:00","lat":49.203685,"lon":16.606678,"is_passed":false},{"stop_id":"U1483Z1","name":"Pionýrská","arrival_time":"23:22:00","departure_time":"23:22:00","lat":49.207491,"lon":16.604472,"is_passed":false},{"stop_id":"U1166Z1","name":"Hrnčířská","arrival_time":"23:23:00","departure_time":"23:23:00","lat":49.210254,"lon":16.602868,"is_passed":false},{"stop_id":"U1652Z1","name":"Šumavská","arrival_time":"23:24:00","departure_time":"23:24:00","lat":49.213991,"lon":16.600669,"is_passed":false},{"stop_id":"U1233Z1","name":"Kartouzská","arrival_time":"23:25:00","departure_time":"23:25:00","lat":49.216998,"lon":16.598896,"is_passed":false},{"stop_id":"U1218Z1","name":"Jungmannova","arrival_time":"23:26:00","departure_time":"23:26:00","lat":49.220856,"lon":16.596583,"is_passed":false},{"stop_id":"U1171Z1","name":"Husitská","arrival_time":"23:27:00","departure_time":"23:27:00","lat":49.223125,"lon":16.59524,"is_passed":false},{"stop_id":"U1566Z1","name":"Semilasso","arrival_time":"23:29:00","departure_time":"23:29:00","lat":49.227417,"lon":16.592683,"is_passed":false},{"stop_id":"U1683Z1","name":"Tylova","arrival_time":"23:30:00","departure_time":"23:30:00","lat":49.23243,"lon":16.589321,"is_passed":false},{"stop_id":"U1756Z1","name":"Vozovna Medlánky","arrival_time":"23:32:00","departure_time":"23:32:00","lat":49.235402,"lon":16.586291,"is_passed":false}],"55113":[{"stop_id":"U1429Z2","name":"Nemocnice Bohunice","arrival_time":"5:05:00","departure_time":"5:05:00","lat":49.175849,"lon":16.567334,"is_passed":false},{"stop_id":"U1779Z2","name":"Západní brána","arrival_time":"5:05:00","departure_time":"5:05:00","lat":49.173114,"lon":16.566938,"is_passed":false},{"stop_id":"U1472Z2","name":"Osová","arrival_time":"5:07:00","departure_time":"5:07:00","lat":49.169005,"lon":16.567514,"is_passed":false},{"stop_id":"U1653Z4","name":"Švermova","arrival_time":"5:08:00","departure_time":"5:08:00","lat":49.169191,"lon":16.573122,"is_passed":false},{"stop_id":"U1021Z2","name":"Běloruská","arrival_time":"5:09:00","departure_time":"5:09:00","lat":49.170662,"lon":16.580727,"is_passed":false},{"stop_id":"U1293Z2","name":"Krematorium","arrival_time":"5:10:00","departure_time":"5:10:00","lat":49.172257,"lon":16.586414,"is_passed":false},{"stop_id":"U1053Z2","name":"Celní","arrival_time":"5:13:00","departure_time":"5:13:00","lat":49.179607,"lon":16.595242,"is_passed":false},{"stop_id":"U1430Z2","name":"Nemocnice Milosrdných bratří","arrival_time":"5:14:00","departure_time":"5:14:00","lat":49.183867,"lon":16.595061,"is_passed":false},{"stop_id":"U1512Z2","name":"Poříčí","arrival_time":"5:16:00","departure_time":"5:16:00","lat":49.187409,"lon":16.594512,"is_passed":false},{"stop_id":"U1721Z2","name":"Václavská","arrival_time":"5:18:00","departure_time":"5:18:00","lat":49.188715,"lon":16.596878,"is_passed":false},{"stop_id":"U1176Z2","name":"Hybešova","arrival_time":"5:19:00","departure_time":"5:19:00","lat":49.189209,"lon":16.603364,"is_passed":false},{"stop_id":"U1436Z2","name":"Nové sady","arrival_time":"5:22:00","departure_time":"5:22:00","lat":49.190222,"lon":16.609403,"is_passed":false},{"stop_id":"U1146Z4","name":"Hlavní nádraží","arrival_time":"5:24:00","departure_time":"5:24:00","lat":49.19125,"lon":16.612674,"is_passed":false},{"stop_id":"U1746Z1","name":"Vlhká","arrival_time":"5:25:00","departure_time":"5:25:00","lat":49.191847,"lon":16.618976,"is_passed":false},{"stop_id":"U1372Z1","name":"Masná","arrival_time":"5:27:00","departure_time":"5:27:00","lat":49.191244,"lon":16.625642,"is_passed":false},{"stop_id":"U1814Z1","name":"Životského","arrival_time":"5:29:00","departure_time":"5:29:00","lat":49.191036,"lon":16.633968,"is_passed":false},{"stop_id":"U1116Z1","name":"Geislerova","arrival_time":"5:30:00","departure_time":"5:30:00","lat":49.19278,"lon":16.635345,"is_passed":false},{"stop_id":"U1810Z1","name":"Židovský hřbitov","arrival_time":"5:31:00","departure_time":"5:31:00","lat":49.191354,"lon":16.641711,"is_passed":false},{"stop_id":"U1291Z1","name":"Krásného","arrival_time":"5:32:00","departure_time":"5:32:00","lat":49.190434,"lon":16.650066,"is_passed":false},{"stop_id":"U1018Z1","name":"Bělohorská","arrival_time":"5:34:00","departure_time":"5:34:00","lat":49.190201,"lon":16.6637,"is_passed":false},{"stop_id":"U1026Z1","name":"Bílá hora","arrival_time":"5:35:00","departure_time":"5:35:00","lat":49.194847,"lon":16.667411,"is_passed":false},{"stop_id":"U1347Z1","name":"Líšeňská","arrival_time":"5:35:00","departure_time":"5:35:00","lat":49.197876,"lon":16.664849,"is_passed":false},{"stop_id":"U1438Z1","name":"Novolíšeňská","arrival_time":"5:37:00","departure_time":"5:37:00","lat":49.202014,"lon":16.670642,"is_passed":false},{"stop_id":"U1368Z1","name":"Masarova","arrival_time":"5:39:00","departure_time":"5:39:00","lat":49.206997,"lon":16.677557,"is_passed":false},{"stop_id":"U1277Z1","name":"Kotlanova","arrival_time":"5:40:00","departure_time":"5:40:00","lat":49.209949,"lon":16.681681,"is_passed":false},{"stop_id":"U1208Z1","name":"Jírova","arrival_time":"5:41:00","departure_time":"5:41:00","lat":49.208552,"lon":16.686687,"is_passed":false},{"stop_id":"U1384Z1","name":"Mifkova","arrival_time":"5:42:00","departure_time":"6:02:00","lat":49.207315,"lon":16.692496,"is_passed":false}],"55114":[{"stop_id":"U1384Z2","name":"Mifkova","arrival_time":"6:02:00","departure_time":"6:02:00","lat":49.207315,"lon":16.692496,"is_passed":false},{"stop_id":"U1208Z2","name":"Jírova","arrival_time":"6:03:00","departure_time":"6:03:00","lat":49.209141,"lon":16.686376,"is_passed":false},{"stop_id":"U1277Z2","name":"Kotlanova","arrival_time":"6:04:00","departure_time":"6:04:00","lat":49.209763,"lon":16.681048,"is_passed":false},{"stop_id":"U1368Z2","name":"Masarova","arrival_time":"6:05:00","departure_time":"6:05:00","lat":49.206997,"lon":16.677557,"is_passed":false},{"stop_id":"U1438Z2","name":"Novolíšeňská","arrival_time":"6:07:00","departure_time":"6:07:00","lat":49.201911,"lon":16.669965,"is_passed":false},{"stop_id":"U1347Z2","name":"Líšeňská","arrival_time":"6:08:00","departure_time":"6:08:00","lat":49.197285,"lon":16.665584,"is_passed":false},{"stop_id":"U1026Z2","name":"Bílá hora","arrival_time":"6:08:00","departure_time":"6:08:00","lat":49.194271,"lon":16.667395,"is_passed":false},{"stop_id":"U1018Z2","name":"Bělohorská","arrival_time":"6:09:00","departure_time":"6:09:00","lat":49.190098,"lon":16.663444,"is_passed":false},{"stop_id":"U1291Z2","name":"Krásného","arrival_time":"6:11:00","departure_time":"6:11:00","lat":49.19067,"lon":16.649391,"is_passed":false},{"stop_id":"U1810Z2","name":"Židovský hřbitov","arrival_time":"6:12:00","departure_time":"6:12:00","lat":49.191517,"lon":16.641078,"is_passed":false},{"stop_id":"U1116Z2","name":"Geislerova","arrival_time":"6:13:00","departure_time":"6:13:00","lat":49.192754,"lon":16.634757,"is_passed":false},{"stop_id":"U1814Z2","name":"Životského","arrival_time":"6:15:00","departure_time":"6:15:00","lat":49.190687,"lon":16.633889,"is_passed":false},{"stop_id":"U1372Z2","name":"Masná","arrival_time":"6:17:00","departure_time":"6:17:00","lat":49.191283,"lon":16.6245,"is_passed":false},{"stop_id":"U1746Z2","name":"Vlhká","arrival_time":"6:18:00","departure_time":"6:18:00","lat":49.191852,"lon":16.619157,"is_passed":false},{"stop_id":"U1146Z3","name":"Hlavní nádraží","arrival_time":"6:21:00","departure_time":"6:21:00","lat":49.191063,"lon":16.611972,"is_passed":false},{"stop_id":"U1436Z1","name":"Nové sady","arrival_time":"6:22:00","departure_time":"6:22:00","lat":49.190116,"lon":16.609025,"is_passed":false},{"stop_id":"U1176Z1","name":"Hybešova","arrival_time":"6:24:00","departure_time":"6:24:00","lat":49.189322,"lon":16.602863,"is_passed":false},{"stop_id":"U1721Z1","name":"Václavská","arrival_time":"6:25:00","departure_time":"6:25:00","lat":49.188681,"lon":16.597217,"is_passed":false},{"stop_id":"U1512Z1","name":"Poříčí","arrival_time":"6:27:00","departure_time":"6:27:00","lat":49.187182,"lon":16.594633,"is_passed":false},{"stop_id":"U1430Z1","name":"Nemocnice Milosrdných bratří","arrival_time":"6:28:00","departure_time":"6:28:00","lat":49.183515,"lon":16.594981,"is_passed":false},{"stop_id":"U1053Z1","name":"Celní","arrival_time":"6:30:00","departure_time":"6:30:00","lat":49.179109,"lon":16.595328,"is_passed":false},{"stop_id":"U1293Z1","name":"Krematorium","arrival_time":"6:32:00","departure_time":"6:32:00","lat":49.172308,"lon":16.586427,"is_passed":false},{"stop_id":"U1021Z1","name":"Běloruská","arrival_time":"6:33:00","departure_time":"6:33:00","lat":49.170755,"lon":16.580895,"is_passed":false},{"stop_id":"U1653Z3","name":"Švermova","arrival_time":"6:34:00","departure_time":"6:34:00","lat":49.169262,"lon":16.573246,"is_passed":false},{"stop_id":"U1472Z1","name":"Osová","arrival_time":"6:35:00","departure_time":"6:35:00","lat":49.169023,"lon":16.56653,"is_passed":false},{"stop_id":"U1779Z1","name":"Západní brána","arrival_time":"6:36:00","departure_time":"6:36:00","lat":49.173486,"lon":16.567125,"is_passed":false},{"stop_id":"U1429Z1","name":"Nemocnice Bohunice","arrival_time":"6:38:00","departure_time":"6:49:00","lat":49.175849,"lon":16.567334,"is_passed":false}],"55115":[{"stop_id":"U1429Z2","name":"Nemocnice Bohunice","arrival_time":"6:49:00","departure_time":"6:49:00","lat":49.175849,"lon":16.567334,"is_passed":false},{"stop_id":"U1779Z2","name":"Západní brána","arrival_time":"6:49:00","departure_time":"6:49:00","lat":49.173114,"lon":16.566938,"is_passed":false},{"stop_id":"U1472Z2","name":"Osová","arrival_time":"6:51:00","departure_time":"6:51:00","lat":49.169005,"lon":16.567514,"is_passed":false},{"stop_id":"U1653Z4","name":"Švermova","arrival_time":"6:52:00","departure_time":"6:52:00","lat":49.169191,"lon":16.573122,"is_passed":false},{"stop_id":"U1021Z2","name":"Běloruská","arrival_time":"6:53:00","departure_time":"6:53:00","lat":49.170662,"lon":16.580727,"is_passed":false},{"stop_id":"U1293Z2","name":"Krematorium","arrival_time":"6:54:00","departure_time":"6:54:00","lat":49.172257,"lon":16.586414,"is_passed":false},{"stop_id":"U1053Z2","name":"Celní","arrival_time":"6:57:00","departure_time":"6:57:00","lat":49.179607,"lon":16.595242,"is_passed":false},{"stop_id":"U1430Z2","name":"Nemocnice Milosrdných bratří","arrival_time":"6:58:00","departure_time":"6:58:00","lat":49.183867,"lon":16.595061,"is_passed":false},{"stop_id":"U1512Z2","name":"Poříčí","arrival_time":"7:00:00","departure_time":"7:00:00","lat":49.187409,"lon":16.594512,"is_passed":false},{"stop_id":"U1721Z2","name":"Václavská","arrival_time":"7:02:00","departure_time":"7:02:00","lat":49.188715,"lon":16.596878,"is_passed":false},{"stop_id":"U1176Z2","name":"Hybešova","arrival_time":"7:03:00","departure_time":"7:03:00","lat":49.189209,"lon":16.603364,"is_passed":false},{"stop_id":"U1436Z2","name":"Nové sady","arrival_time":"7:06:00","departure_time":"7:06:00","lat":49.190222,"lon":16.609403,"is_passed":false},{"stop_id":"U1146Z4","name":"Hlavní nádraží","arrival_time":"7:08:00","departure_time":"7:08:00","lat":49.19125,"lon":16.612674,"is_passed":false},{"stop_id":"U1746Z1","name":"Vlhká","arrival_time":"7:09:00","departure_time":"7:09:00","lat":49.191847,"lon":16.618976,"is_passed":false},{"stop_id":"U1372Z1","name":"Masná","arrival_time":"7:11:00","departure_time":"7:11:00","lat":49.191244,"lon":16.625642,"is_passed":false},{"stop_id":"U1814Z1","name":"Životského","arrival_time":"7:13:00","departure_time":"7:13:00","lat":49.191036,"lon":16.633968,"is_passed":false},{"stop_id":"U1116Z1","name":"Geislerova","arrival_time":"7:14:00","departure_time":"7:14:00","lat":49.19278,"lon":16.635345,"is_passed":false},{"stop_id":"U1810Z1","name":"Židovský hřbitov","arrival_time":"7:15:00","departure_time":"7:15:00","lat":49.191354,"lon":16.641711,"is_passed":false},{"stop_id":"U1291Z1","name":"Krásného","arrival_time":"7:16:00","departure_time":"7:16:00","lat":49.190434,"lon":16.650066,"is_passed":false},{"stop_id":"U1018Z1","name":"Bělohorská","arrival_time":"7:18:00","departure_time":"7:18:00","lat":49.190201,"lon":16.6637,"is_passed":false},{"stop_id":"U1026Z1","name":"Bílá hora","arrival_time":"7:19:00","departure_time":"7:19:00","lat":49.194847,"lon":16.667411,"is_passed":false},{"stop_id":"U1347Z1","name":"Líšeňská","arrival_time":"7:19:00","departure_time":"7:19:00","lat":49.197876,"lon":16.664849,"is_passed":false},{"stop_id":"U1438Z1","name":"Novolíšeňská","arrival_time":"7:21:00","departure_time":"7:21:00","lat":49.202014,"lon":16.670642,"is_passed":false},{"stop_id":"U1368Z1","name":"Masarova","arrival_time":"7:23:00","departure_time":"7:23:00","lat":49.206997,"lon":16.677557,"is_passed":false},{"stop_id":"U1277Z1","name":"Kotlanova","arrival_time":"7:24:00","departure_time":"7:24:00","lat":49.209949,"lon":16.681681,"is_passed":false},{"stop_id":"U1208Z1","name":"Jírova","arrival_time":"7:26:00","departure_time":"7:26:00","lat":49.208552,"lon":16.686687,"is_passed":false},{"stop_id":"U1384Z1","name":"Mifkova","arrival_time":"7:27:00","departure_time":"7:35:00","lat":49.207315,"lon":16.692496,"is_passed":false}],"55116":[{"stop_id":"U1384Z2","name":"Mifkova","arrival_time":"7:35:00","departure_time":"7:35:00","lat":49.207315,"lon":16.692496,"is_passed":false},{"stop_id":"U1208Z2","name":"Jírova","arrival_time":"7:36:00","departure_time":"7:36:00","lat":49.209141,"lon":16.686376,"is_passed":false},{"stop_id":"U1277Z2","name":"Kotlanova","arrival_time":"7:37:00","departure_time":"7:37:00","lat":49.209763,"lon":16.681048,"is_passed":false},{"stop_id":"U1368Z2","name":"Masarova","arrival_time":"7:38:00","departure_time":"7:38:00","lat":49.206997,"lon":16.677557,"is_passed":false},{"stop_id":"U1438Z2","name":"Novolíšeňská","arrival_time":"7:40:00","departure_time":"7:40:00","lat":49.201911,"lon":16.669965,"is_passed":false},{"stop_id":"U1347Z2","name":"Líšeňská","arrival_time":"7:41:00","departure_time":"7:41:00","lat":49.197285,"lon":16.665584,"is_passed":false},{"stop_id":"U1026Z2","name":"Bílá hora","arrival_time":"7:41:00","departure_time":"7:41:00","lat":49.194271,"lon":16.667395,"is_passed":false},{"stop_id":"U1018Z2","name":"Bělohorská","arrival_time":"7:42:00","departure_time":"7:42:00","lat":49.190098,"lon":16.663444,"is_passed":false},{"stop_id":"U1291Z2","name":"Krásného","arrival_time":"7:44:00","departure_time":"7:44:00","lat":49.19067,"lon":16.649391,"is_passed":false},{"stop_id":"U1810Z2","name":"Židovský hřbitov","arrival_time":"7:45:00","departure_time":"7:45:00","lat":49.191517,"lon":16.641078,"is_passed":false},{"stop_id":"U1116Z2","name":"Geislerova","arrival_time":"7:46:00","departure_time":"7:46:00","lat":49.192754,"lon":16.634757,"is_passed":false},{"stop_id":"U1814Z2","name":"Životského","arrival_time":"7:48:00","departure_time":"7:48:00","lat":49.190687,"lon":16.633889,"is_passed":false},{"stop_id":"U1372Z2","name":"Masná","arrival_time":"7:50:00","departure_time":"7:50:00","lat":49.191283,"lon":16.6245,"is_passed":false},{"stop_id":"U1746Z2","name":"Vlhká","arrival_time":"7:51:00","departure_time":"7:51:00","lat":49.191852,"lon":16.619157,"is_passed":false},{"stop_id":"U1146Z3","name":"Hlavní nádraží","arrival_time":"7:54:00","departure_time":"7:54:00","lat":49.191063,"lon":16.611972,"is_passed":false},{"stop_id":"U1436Z1","name":"Nové sady","arrival_time":"7:55:00","departure_time":"7:55:00","lat":49.190116,"lon":16.609025,"is_passed":false},{"stop_id":"U1176Z1","name":"Hybešova","arrival_time":"7:57:00","departure_time":"7:57:00","lat":49.189322,"lon":16.602863,"is_passed":false},{"stop_id":"U1721Z1","name":"Václavská","arrival_time":"7:58:00","departure_time":"7:58:00","lat":49.188681,"lon":16.597217,"is_passed":false},{"stop_id":"U1512Z1","name":"Poříčí","arrival_time":"8:00:00","departure_time":"8:00:00","lat":49.187182,"lon":16.594633,"is_passed":false},{"stop_id":"U1430Z1","name":"Nemocnice Milosrdných bratří","arrival_time":"8:01:00","departure_time":"8:01:00","lat":49.183515,"lon":16.594981,"is_passed":false},{"stop_id":"U1053Z1","name":"Celní","arrival_time":"8:03:00","departure_time":"8:03:00","lat":49.179109,"lon":16.595328,"is_passed":false},{"stop_id":"U1293Z1","name":"Krematorium","arrival_time":"8:06:00","departure_time":"8:06:00","lat":49.172308,"lon":16.586427,"is_passed":false},{"stop_id":"U1021Z1","name":"Běloruská","arrival_time":"8:07:00","departure_time":"8:07:00","lat":49.170755,"lon":16.580895,"is_passed":false},{"stop_id":"U1653Z3","name":"Švermova","arrival_time":"8:08:00","departure_time":"8:08:00","lat":49.169262,"lon":16.573246,"is_passed":false},{"stop_id":"U1472Z1","name":"Osová","arrival_time":"8:09:00","departure_time":"8:09:00","lat":49.169023,"lon":16.56653,"is_passed":false},{"stop_id":"U1779Z1","name":"Západní brána","arrival_time":"8:11:00","departure_time":"8:11:00","lat":49.173486,"lon":16.567125,"is_passed":false},{"stop_id":"U1429Z1","name":"Nemocnice Bohunice","arrival_time":"8:13:00","departure_time":"8:22:00","lat":49.175849,"lon":16.567334,"is_passed":false}],"55117":[{"stop_id":"U1429Z2","name":"Nemocnice Bohunice","arrival_time":"8:22:00","departure_time":"8:22:00","lat":49.175849,"lon":16.567334,"is_passed":false},{"stop_id":"U1779Z2","name":"Západní brána","arrival_time":"8:22:00","departure_time":"8:22:00","lat":49.173114,"lon":16.566938,"is_passed":false},{"stop_id":"U1472Z2","name":"Osová","arrival_time":"8:24:00","departure_time":"8:24:00","lat":49.169005,"lon":16.567514,"is_passed":false},{"stop_id":"U1653Z4","name":"Švermova","arrival_time":"8:25:00","departure_time":"8:25:00","lat":49.169191,"lon":16.573122,"is_passed":false},{"stop_id":"U1021Z2","name":"Běloruská","arrival_time":"8:26:00","departure_time":"8:27:00","lat":49.170662,"lon":16.580727,"is_passed":false},{"stop_id":"U1293Z2","name":"Krematorium","arrival_time":"8:28:00","departure_time":"8:28:00","lat":49.172257,"lon":16.586414,"is_passed":false},{"stop_id":"U1053Z2","name":"Celní","arrival_time":"8:31:00","departure_time":"8:31:00","lat":49.179607,"lon":16.595242,"is_passed":false},{"stop_id":"U1430Z2","name":"Nemocnice Milosrdných bratří","arrival_time":"8:32:00","departure_time":"8:32:00","lat":49.183867,"lon":16.595061,"is_passed":false},{"stop_id":"U1512Z2","name":"Poříčí","arrival_time":"8:34:00","departure_time":"8:34:00","lat":49.187409,"lon":16.594512,"is_passed":false},{"stop_id":"U1721Z2","name":"Václavská","arrival_time":"8:36:00","departure_time":"8:36:00","lat":49.188715,"lon":16.596878,"is_passed":false},{"stop_id":"U1176Z2","name":"Hybešova","arrival_time":"8:37:00","departure_time":"8:37:00","lat":49.189209,"lon":16.603364,"is_passed":false},{"stop_id":"U1436Z2","name":"Nové sady","arrival_time":"8:40:00","departure_time":"8:40:00","lat":49.190222,"lon":16.609403,"is_passed":false},{"stop_id":"U1146Z4","name":"Hlavní nádraží","arrival_time":"8:42:00","departure_time":"8:42:00","lat":49.19125,"lon":16.612674,"is_passed":false},{"stop_id":"U1746Z1","name":"Vlhká","arrival_time":"8:43:00","departure_time":"8:43:00","lat":49.191847,"lon":16.618976,"is_passed":false},{"stop_id":"U1372Z1","name":"Masná","arrival_time":"8:45:00","departure_time":"8:45:00","lat":49.191244,"lon":16.625642,"is_passed":false},{"stop_id":"U1814Z1","name":"Životského","arrival_time":"8:47:00","departure_time":"8:47:00","lat":49.191036,"lon":16.633968,"is_passed":false},{"stop_id":"U1116Z1","name":"Geislerova","arrival_time":"8:48:00","departure_time":"8:48:00","lat":49.19278,"lon":16.635345,"is_passed":false},{"stop_id":"U1810Z1","name":"Židovský hřbitov","arrival_time":"8:49:00","departure_time":"8:49:00","lat":49.191354,"lon":16.641711,"is_passed":false},{"stop_id":"U1291Z1","name":"Krásného","arrival_time":"8:50:00","departure_time":"8:50:00","lat":49.190434,"lon":16.650066,"is_passed":false},{"stop_id":"U1018Z1","name":"Bělohorská","arrival_time":"8:52:00","departure_time":"8:52:00","lat":49.190201,"lon":16.6637,"is_passed":false},{"stop_id":"U1026Z1","name":"Bílá hora","arrival_time":"8:53:00","departure_time":"8:53:00","lat":49.194847,"lon":16.667411,"is_passed":false},{"stop_id":"U1347Z1","name":"Líšeňská","arrival_time":"8:53:00","departure_time":"8:53:00","lat":49.197876,"lon":16.664849,"is_passed":false},{"stop_id":"U1438Z1","name":"Novolíšeňská","arrival_time":"8:55:00","departure_time":"8:55:00","lat":49.202014,"lon":16.670642,"is_passed":false},{"stop_id":"U1368Z1","name":"Masarova","arrival_time":"8:57:00","departure_time":"8:57:00","lat":49.206997,"lon":16.677557,"is_passed":false},{"stop_id":"U1277Z1","name":"Kotlanova","arrival_time":"8:58:00","departure_time":"8:58:00","lat":49.209949,"lon":16.681681,"is_passed":false},{"stop_id":"U1208Z1","name":"Jírova","arrival_time":"9:00:00","departure_time":"9:00:00","lat":49.208552,"lon":16.686687,"is_passed":false},{"stop_id":"U1384Z1","name":"Mifkova","arrival_time":"9:01:00","departure_time":"9:09:00","lat":49.207315,"lon":16.692496,"is_passed":false}],"55118":[{"stop_id":"U1384Z2","name":"Mifkova","arrival_time":"9:09:00","departure_time":"9:09:00","lat":49.207315,"lon":16.692496,"is_passed":false},{"stop_id":"U1208Z2","name":"Jírova","arrival_time":"9:10:00","departure_time":"9:10:00","lat":49.209141,"lon":16.686376,"is_passed":false},{"stop_id":"U1277Z2","name":"Kotlanova","arrival_time":"9:11:00","departure_time":"9:11:00","lat":49.209763,"lon":16.681048,"is_passed":false},{"stop_id":"U1368Z2","name":"Masarova","arrival_time":"9:12:00","departure_time":"9:12:00","lat":49.206997,"lon":16.677557,"is_passed":false},{"stop_id":"U1438Z2","name":"Novolíšeňská","arrival_time":"9:14:00","departure_time":"9:14:00","lat":49.201911,"lon":16.669965,"is_passed":false},{"stop_id":"U1347Z2","name":"Líšeňská","arrival_time":"9:15:00","departure_time":"9:15:00","lat":49.197285,"lon":16.665584,"is_passed":false},{"stop_id":"U1026Z2","name":"Bílá hora","arrival_time":"9:15:00","departure_time":"9:15:00","lat":49.194271,"lon":16.667395,"is_passed":false},{"stop_id":"U1018Z2","name":"Bělohorská","arrival_time":"9:16:00","departure_time":"9:16:00","lat":49.190098,"lon":16.663444,"is_passed":false},{"stop_id":"U1291Z2","name":"Krásného","arrival_time":"9:18:00","departure_time":"9:18:00","lat":49.19067,"lon":16.649391,"is_passed":false},{"stop_id":"U1810Z2","name":"Židovský hřbitov","arrival_time":"9:19:00","departure_time":"9:19:00","lat":49.191517,"lon":16.641078,"is_passed":false},{"stop_id":"U1116Z2","name":"Geislerova","arrival_time":"9:20:00","departure_time":"9:20:00","lat":49.192754,"lon":16.634757,"is_passed":false},{"stop_id":"U1814Z2","name":"Životského","arrival_time":"9:22:00","departure_time":"9:22:00","lat":49.190687,"lon":16.633889,"is_passed":false},{"stop_id":"U1372Z2","name":"Masná","arrival_time":"9:24:00","departure_time":"9:24:00","lat":49.191283,"lon":16.6245,"is_passed":false},{"stop_id":"U1746Z2","name":"Vlhká","arrival_time":"9:25:00","departure_time":"9:25:00","lat":49.191852,"lon":16.619157,"is_passed":false},{"stop_id":"U1146Z3","name":"Hlavní nádraží","arrival_time":"9:28:00","departure_time":"9:28:00","lat":49.191063,"lon":16.611972,"is_passed":false},{"stop_id":"U1436Z1","name":"Nové sady","arrival_time":"9:29:00","departure_time":"9:29:00","lat":49.190116,"lon":16.609025,"is_passed":false},{"stop_id":"U1176Z1","name":"Hybešova","arrival_time":"9:31:00","departure_time":"9:31:00","lat":49.189322,"lon":16.602863,"is_passed":false},{"stop_id":"U1721Z1","name":"Václavská","arrival_time":"9:32:00","departure_time":"9:32:00","lat":49.188681,"lon":16.597217,"is_passed":false},{"stop_id":"U1512Z1","name":"Poříčí","arrival_time":"9:34:00","departure_time":"9:34:00","lat":49.187182,"lon":16.594633,"is_passed":false},{"stop_id":"U1430Z1","name":"Nemocnice Milosrdných bratří","arrival_time":"9:35:00","departure_time":"9:35:00","lat":49.183515,"lon":16.594981,"is_passed":false},{"stop_id":"U1053Z1","name":"Celní","arrival_time":"9:37:00","departure_time":"9:37:00","lat":49.179109,"lon":16.595328,"is_passed":false},{"stop_id":"U1293Z1","name":"Krematorium","arrival_time":"9:40:00","departure_time":"9:40:00","lat":49.172308,"lon":16.586427,"is_passed":false},{"stop_id":"U1021Z1","name":"Běloruská","arrival_time":"9:41:00","departure_time":"9:41:00","lat":49.170755,"lon":16.580895,"is_passed":false},{"stop_id":"U1653Z3","name":"Švermova","arrival_time":"9:42:00","departure_time":"9:42:00","lat":49.169262,"lon":16.573246,"is_passed":false},{"stop_id":"U1472Z1","name":"Osová","arrival_time":"9:43:00","departure_time":"9:43:00","lat":49.169023,"lon":16.56653,"is_passed":false},{"stop_id":"U1779Z1","name":"Západní brána","arrival_time":"9:45:00","departure_time":"9:45:00","lat":49.173486,"lon":16.567125,"is_passed":false},{"stop_id":"U1429Z1","name":"Nemocnice Bohunice","arrival_time":"9:47:00","departure_time":"9:55:00","lat":49.175849,"lon":16.567334,"is_passed":false}],"55119":[{"stop_id":"U1429Z2","name":"Nemocnice Bohunice","arrival_time":"9:55:00","departure_time":"9:55:00","lat":49.175849,"lon":16.567334,"is_passed":false},{"stop_id":"U1779Z2","name":"Západní brána","arrival_time":"9:55:00","departure_time":"9:55:00","lat":49.173114,"lon":16.566938,"is_passed":false},{"stop_id":"U1472Z2","name":"Osová","arrival_time":"9:57:00","departure_time":"9:57:00","lat":49.169005,"lon":16.567514,"is_passed":false},{"stop_id":"U1653Z4","name":"Švermova","arrival_time":"9:58:00","departure_time":"9:58:00","lat":49.169191,"lon":16.573122,"is_passed":false},{"stop_id":"U1021Z2","name":"Běloruská","arrival_time":"9:59:00","departure_time":"10:00:00","lat":49.170662,"lon":16.580727,"is_passed":false},{"stop_id":"U1293Z2","name":"Krematorium","arrival_time":"10:01:00","departure_time":"10:01:00","lat":49.172257,"lon":16.586414,"is_passed":false},{"stop_id":"U1053Z2","name":"Celní","arrival_time":"10:04:00","departure_time":"10:04:00","lat":49.179607,"lon":16.595242,"is_passed":false},{"stop_id":"U1430Z2","name":"Nemocnice Milosrdných bratří","arrival_time":"10:05:00","departure_time":"10:05:00","lat":49.183867,"lon":16.595061,"is_passed":false},{"stop_id":"U1512Z2","name":"Poříčí","arrival_time":"10:07:00","departure_time":"10:07:00","lat":49.187409,"lon":16.594512,"is_passed":false},{"stop_id":"U1721Z2","name":"Václavská","arrival_time":"10:09:00","departure_time":"10:09:00","lat":49.188715,"lon":16.596878,"is_passed":false},{"stop_id":"U1176Z2","name":"Hybešova","arrival_time":"10:10:00","departure_time":"10:10:00","lat":49.189209,"lon":16.603364,"is_passed":false},{"stop_id":"U1436Z2","name":"Nové sady","arrival_time":"10:13:00","departure_time":"10:13:00","lat":49.190222,"lon":16.609403,"is_passed":false},{"stop_id":"U1146Z4","name":"Hlavní nádraží","arrival_time":"10:15:00","departure_time":"10:15:00","lat":49.19125,"lon":16.612674,"is_passed":false},{"stop_id":"U1746Z1","name":"Vlhká","arrival_time":"10:16:00","departure_time":"10:16:00","lat":49.191847,"lon":16.618976,"is_passed":false},