{"551":[{"stop_id":"U16149Z10","name":"Sokolnice, železniční stanice","arrival_time":"19:40:00","departure_time":"19:40:00","lat":49.108029,"lon":16.733459,"is_passed":false},{"stop_id":"U1183Z10","name":"Chrlice, nádraží","arrival_time":"19:45:00","departure_time":"19:46:00","lat":49.132031,"lon":16.657232,"is_passed":false},{"stop_id":"U1146Z99","name":"Hlavní nádraží","arrival_time":"19:55:00","departure_time":"20:00:00","lat":49.19035,"lon":16.612342,"is_passed":false},{"stop_id":"U1809Z10","name":"Židenice, nádraží","arrival_time":"20:04:00","departure_time":"20:05:00","lat":49.204282,"lon":16.636042,"is_passed":false},{"stop_id":"U12158Z10","name":"Bílovice nad Svitavou, žel. stanice","arrival_time":"20:10:00","departure_time":"20:11:00","lat":49.242715,"lon":16.673677,"is_passed":false},{"stop_id":"U22101Z1","name":"Babice nad Svitavou","arrival_time":"20:15:00","departure_time":"20:15:00","lat":49.276645,"lon":16.673012,"is_passed":false},{"stop_id":"U12230Z10","name":"Adamov, železniční stanice","arrival_time":"20:18:00","departure_time":"20:19:00","lat":49.295341,"lon":16.663538,"is_passed":false},{"stop_id":"U12231Z10","name":"Adamov, železniční zastávka","arrival_time":"20:20:00","departure_time":"20:21:00","lat":49.300671,"lon":16.650653,"is_passed":false},{"stop_id":"U12342Z30","name":"Blansko, aut. st.","arrival_time":"20:26:00","departure_time":"20:28:00","lat":49.352753,"lon":16.646848,"is_passed":false},{"stop_id":"U22302Z1","name":"Blansko město","arrival_time":"20:30:00","departure_time":"20:31:00","lat":49.360996,"lon":16.639464,"is_passed":false},{"stop_id":"U22301Z1","name":"Dolní Lhota","arrival_time":"20:33:00","departure_time":"20:34:00","lat":49.386917,"lon":16.633978,"is_passed":false},{"stop_id":"U12439Z50","name":"Rájec-Jestřebí, železniční stanice","arrival_time":"20:36:00","departure_time":"20:37:00","lat":49.408206,"lon":16.627711,"is_passed":false},{"stop_id":"U12511Z50","name":"Doubravice, žel.st.","arrival_time":"20:40:00","departure_time":"20:40:00","lat":49.438707,"lon":16.621809,"is_passed":false},{"stop_id":"U12676Z50","name":"Skalice nad Svitavou, žel.st.","arrival_time":"20:45:00","departure_time":"20:51:00","lat":49.480123,"lon":16.609726,"is_passed":false},{"stop_id":"U22602Z1","name":"Svitávka","arrival_time":"20:53:00","departure_time":"20:54:00","lat":49.499434,"lon":16.599208,"is_passed":false},{"stop_id":"U22701Z1","name":"Zboněk","arrival_time":"20:56:00","departure_time":"20:56:00","lat":49.521608,"lon":16.583438,"is_passed":false},{"stop_id":"U22702Z1","name":"Letovice zastávka","arrival_time":"20:59:00","departure_time":"20:59:00","lat":49.535496,"lon":16.576998,"is_passed":false},{"stop_id":"U12736Z50","name":"Letovice, železniční stanice","arrival_time":"21:02:00","departure_time":"21:02:00","lat":49.555973,"lon":16.570906,"is_passed":false}],"5510":[{"stop_id":"U1429Z5","name":"Nemocnice Bohunice","arrival_time":"18:13:00","departure_time":"18:13:00","lat":49.175206,"lon":16.56694,"is_passed":false},{"stop_id":"U1492Z2","name":"Pod nemocnicí","arrival_time":"18:15:00","departure_time":"18:15:00","lat":49.172338,"lon":16.569417,"is_passed":false},{"stop_id":"U1472Z8","name":"Osová","arrival_time":"18:17:00","departure_time":"18:17:00","lat":49.168617,"lon":16.566306,"is_passed":false},{"stop_id":"U1273Z2","name":"Kosmonautů","arrival_time":"18:17:00","departure_time":"18:17:00","lat":49.167124,"lon":16.56745,"is_passed":false},{"stop_id":"U1627Z1","name":"Svah","arrival_time":"18:18:00","departure_time":"18:18:00","lat":49.165199,"lon":16.567969,"is_passed":false},{"stop_id":"U1061Z1","name":"Čermákova","arrival_time":"18:18:00","departure_time":"18:18:00","lat":49.164336,"lon":16.565516,"is_passed":false},{"stop_id":"U1666Z1","name":"Točná","arrival_time":"18:19:00","departure_time":"18:19:00","lat":49.16476,"lon":16.561692,"is_passed":false},{"stop_id":"U1488Z1","name":"Pod dálnicí","arrival_time":"18:20:00","departure_time":"18:20:00","lat":49.163512,"lon":16.555152,"is_passed":false},{"stop_id":"U14101Z1","name":"Ostopovice, Branky","arrival_time":"18:21:00","departure_time":"18:21:00","lat":49.159937,"lon":16.548801,"is_passed":false},{"stop_id":"U14103Z1","name":"Ostopovice, U Kaple","arrival_time":"18:22:00","departure_time":"18:22:00","lat":49.161083,"lon":16.545743,"is_passed":false},{"stop_id":"U14104Z1","name":"Ostopovice, rozcestí","arrival_time":"18:22:00","departure_time":"18:22:00","lat":49.163046,"lon":16.542924,"is_passed":false},{"stop_id":"U14105Z2","name":"Ostopovice, smyčka","arrival_time":"18:23:00","departure_time":"18:23:00","lat":49.164301,"lon":16.540971,"is_passed":false},{"stop_id":"U15114Z2","name":"Moravany, Hlavní","arrival_time":"18:29:00","departure_time":"18:29:00","lat":49.147097,"lon":16.578552,"is_passed":false},{"stop_id":"U15113Z2","name":"Moravany, Bohunická cesta","arrival_time":"18:30:00","departure_time":"18:30:00","lat":49.151006,"lon":16.583777,"is_passed":false},{"stop_id":"U1549Z2","name":"Rozhraní","arrival_time":"18:31:00","departure_time":"18:31:00","lat":49.155698,"lon":16.592118,"is_passed":false},{"stop_id":"U1466Z55","name":"Ořechovská","arrival_time":"18:33:00","departure_time":"18:33:00","lat":49.156238,"lon":16.599375,"is_passed":false},{"stop_id":"U1141Z2","name":"Heršpická","arrival_time":"18:35:00","departure_time":"18:35:00","lat":49.170473,"lon":16.599896,"is_passed":false},{"stop_id":"U1703Z5","name":"Ústřední hřbitov","arrival_time":"18:39:00","departure_time":"18:39:00","lat":49.171604,"lon":16.597316,"is_passed":false}],"5511":[{"stop_id":"U15317Z8","name":"Pohořelice, náměstí","arrival_time":"4:55:00","departure_time":"4:55:00","lat":48.980751,"lon":16.522478,"is_passed":false},{"stop_id":"U15315Z2","name":"Pohořelice, Brněnská","arrival_time":"4:56:00","departure_time":"4:56:00","lat":48.984956,"lon":16.530513,"is_passed":false},{"stop_id":"U15379Z2","name":"Pohořelice, průmyslová zóna východ","arrival_time":"4:58:00","departure_time":"4:58:00","lat":48.990539,"lon":16.540751,"is_passed":false},{"stop_id":"U15321Z1","name":"Pohořelice, Smolín","arrival_time":"5:02:00","departure_time":"5:02:00","lat":49.007295,"lon":16.54034,"is_passed":false},{"stop_id":"U15234Z1","name":"Medlov, Kafilerie","arrival_time":"5:04:00","departure_time":"5:04:00","lat":49.017847,"lon":16.534967,"is_passed":false},{"stop_id":"U15205Z1","name":"Medlov","arrival_time":"5:07:00","departure_time":"5:07:00","lat":49.034707,"lon":16.523155,"is_passed":false},{"stop_id":"U15255Z1","name":"Medlov, seniorcentrum","arrival_time":"5:08:00","departure_time":"5:08:00","lat":49.035709,"lon":16.528745,"is_passed":false},{"stop_id":"U15204Z4","name":"Ledce, rozcestí","arrival_time":"5:13:00","departure_time":"5:13:00","lat":49.04988,"lon":16.565693,"is_passed":false},{"stop_id":"U15203Z4","name":"Ledce, obecní úřad","arrival_time":"5:14:00","departure_time":"5:14:00","lat":49.052175,"lon":16.555735,"is_passed":false},{"stop_id":"U15208Z4","name":"Sobotovice","arrival_time":"5:16:00","departure_time":"5:16:00","lat":49.059145,"lon":16.558115,"is_passed":false},{"stop_id":"U15209Z2","name":"Sobotovice, transformátor","arrival_time":"5:18:00","departure_time":"5:18:00","lat":49.061625,"lon":16.552708,"is_passed":false},{"stop_id":"U15212Z2","name":"Syrovice, Sobotovická","arrival_time":"5:21:00","departure_time":"5:21:00","lat":49.077625,"lon":16.545298,"is_passed":false},{"stop_id":"U15210Z2","name":"Syrovice","arrival_time":"5:22:00","departure_time":"5:22:00","lat":49.08029,"lon":16.548905,"is_passed":false},{"stop_id":"U15182Z2","name":"Rajhrad, GEIS","arrival_time":"5:24:00","departure_time":"5:24:00","lat":49.085595,"lon":16.583357,"is_passed":false},{"stop_id":"U15166Z2","name":"Rajhrad, stará pošta","arrival_time":"5:25:00","departure_time":"5:25:00","lat":49.087794,"lon":16.591688,"is_passed":false},{"stop_id":"U15181Z7","name":"Rajhrad, železniční stanice","arrival_time":"5:30:00","departure_time":"5:30:00","lat":49.084495,"lon":16.605152,"is_passed":false},{"stop_id":"U15168Z2","name":"Rajhrad, městský úřad","arrival_time":"5:31:00","departure_time":"5:31:00","lat":49.089963,"lon":16.60397,"is_passed":false},{"stop_id":"U15122Z4","name":"Modřice, Brněnská","arrival_time":"5:37:00","departure_time":"5:37:00","lat":49.130132,"lon":16.604936,"is_passed":false},{"stop_id":"U1393Z4","name":"Moravanská","arrival_time":"5:39:00","departure_time":"5:39:00","lat":49.142614,"lon":16.603006,"is_passed":false},{"stop_id":"U1396Z4","name":"Moravanské lány","arrival_time":"5:40:00","departure_time":"5:40:00","lat":49.149305,"lon":16.601813,"is_passed":false},{"stop_id":"U1466Z4","name":"Ořechovská","arrival_time":"5:42:00","departure_time":"5:42:00","lat":49.156124,"lon":16.600676,"is_passed":false},{"stop_id":"U1703Z5","name":"Ústřední hřbitov","arrival_time":"5:47:00","departure_time":"5:47:00","lat":49.171604,"lon":16.597316,"is_passed":false}],"5512":[{"stop_id":"U1703Z6","name":"Ústřední hřbitov","arrival_time":"5:47:00","departure_time":"5:47:00","lat":49.170744,"lon":16.597612,"is_passed":false},{"stop_id":"U1435Z1","name":"Novomoravanská","arrival_time":"5:49:00","departure_time":"5:49:00","lat":49.153104,"lon":16.600346,"is_passed":false},{"stop_id":"U1396Z3","name":"Moravanské lány","arrival_time":"5:50:00","departure_time":"5:50:00","lat":49.149585,"lon":16.601004,"is_passed":false},{"stop_id":"U1393Z3","name":"Moravanská","arrival_time":"5:52:00","departure_time":"5:52:00","lat":49.142887,"lon":16.602097,"is_passed":false},{"stop_id":"U15137Z10","name":"Modřice, Tyršova","arrival_time":"5:54:00","departure_time":"5:54:00","lat":49.130136,"lon":16.603469,"is_passed":false},{"stop_id":"U15168Z1","name":"Rajhrad, městský úřad","arrival_time":"6:00:00","departure_time":"6:00:00","lat":49.089663,"lon":16.603985,"is_passed":false},{"stop_id":"U15181Z5","name":"Rajhrad, železniční stanice","arrival_time":"6:02:00","departure_time":"6:02:00","lat":49.083879,"lon":16.605011,"is_passed":false},{"stop_id":"U15166Z1","name":"Rajhrad, stará pošta","arrival_time":"6:06:00","departure_time":"6:06:00","lat":49.087759,"lon":16.591479,"is_passed":false},{"stop_id":"U15182Z1","name":"Rajhrad, GEIS","arrival_time":"6:07:00","departure_time":"6:07:00","lat":49.08538,"lon":16.582,"is_passed":false},{"stop_id":"U15210Z1","name":"Syrovice","arrival_time":"6:10:00","departure_time":"6:10:00","lat":49.080328,"lon":16.548173,"is_passed":false},{"stop_id":"U15242Z2","name":"Syrovice, logistický areál","arrival_time":"6:12:00","departure_time":"6:12:00","lat":49.075933,"lon":16.55606,"is_passed":false},{"stop_id":"U15212Z1","name":"Syrovice, Sobotovická","arrival_time":"6:14:00","departure_time":"6:14:00","lat":49.077625,"lon":16.545298,"is_passed":false},{"stop_id":"U15209Z1","name":"Sobotovice, transformátor","arrival_time":"6:17:00","departure_time":"6:17:00","lat":49.061401,"lon":16.552707,"is_passed":false},{"stop_id":"U15208Z3","name":"Sobotovice","arrival_time":"6:19:00","departure_time":"6:19:00","lat":49.059067,"lon":16.558138,"is_passed":false},{"stop_id":"U15203Z3","name":"Ledce, obecní úřad","arrival_time":"6:21:00","departure_time":"6:21:00","lat":49.052175,"lon":16.555735,"is_passed":false},{"stop_id":"U15204Z3","name":"Ledce, rozcestí","arrival_time":"6:22:00","departure_time":"6:22:00","lat":49.04971,"lon":16.565488,"is_passed":false},{"stop_id":"U15255Z2","name":"Medlov, seniorcentrum","arrival_time":"6:27:00","departure_time":"6:27:00","lat":49.035713,"lon":16.528477,"is_passed":false},{"stop_id":"U15205Z1","name":"Medlov","arrival_time":"6:28:00","departure_time":"6:28:00","lat":49.034707,"lon":16.523155,"is_passed":false},{"stop_id":"U15234Z2","name":"Medlov, Kafilerie","arrival_time":"6:31:00","departure_time":"6:31:00","lat":49.017717,"lon":16.534908,"is_passed":false},{"stop_id":"U15321Z2","name":"Pohořelice, Smolín","arrival_time":"6:33:00","departure_time":"6:33:00","lat":49.007298,"lon":16.540125,"is_passed":false},{"stop_id":"U15379Z1","name":"Pohořelice, průmyslová zóna východ","arrival_time":"6:37:00","departure_time":"6:37:00","lat":48.989921,"lon":16.539353,"is_passed":false},{"stop_id":"U15315Z1","name":"Pohořelice, Brněnská","arrival_time":"6:38:00","departure_time":"6:38:00","lat":48.984843,"lon":16.529998,"is_passed":false},{"stop_id":"U15317Z51","name":"Pohořelice, náměstí","arrival_time":"6:40:00","departure_time":"6:40:00","lat":48.98068,"lon":16.522099,"is_passed":false}],"5513":[{"stop_id":"U15317Z8","name":"Pohořelice, náměstí","arrival_time":"6:40:00","departure_time":"6:40:00","lat":48.980751,"lon":16.522478,"is_passed":false},{"stop_id":"U15315Z2","name":"Pohořelice, Brněnská","arrival_time":"6:41:00","departure_time":"6:41:00","lat":48.984956,"lon":16.530513,"is_passed":false},{"stop_id":"U15379Z2","name":"Pohořelice, průmyslová zóna východ","arrival_time":"6:43:00","departure_time":"6:43:00","lat":48.990539,"lon":16.540751,"is_passed":false},{"stop_id":"U15321Z1","name":"Pohořelice, Smolín","arrival_time":"6:47:00","departure_time":"6:47:00","lat":49.007295,"lon":16.54034,"is_passed":false},{"stop_id":"U15234Z1","name":"Medlov, Kafilerie","arrival_time":"6:49:00","departure_time":"6:49:00","lat":49.017847,"lon":16.534967,"is_passed":false},{"stop_id":"U15205Z1","name":"Medlov","arrival_time":"6:52:00","departure_time":"6:52:00","lat":49.034707,"lon":16.523155,"is_passed":false},{"stop_id":"U15255Z1","name":"Medlov, seniorcentrum","arrival_time":"6:53:00","departure_time":"6:53:00","lat":49.035709,"lon":16.528745,"is_passed":false},{"stop_id":"U15204Z4","name":"Ledce, rozcestí","arrival_time":"6:58:00","departure_time":"6:58:00","lat":49.04988,"lon":16.565693,"is_passed":false},{"stop_id":"U15203Z4","name":"Ledce, obecní úřad","arrival_time":"6:59:00","departure_time":"6:59:00","lat":49.052175,"lon":16.555735,"is_passed":false},{"stop_id":"U15208Z4","name":"Sobotovice","arrival_time":"7:01:00","departure_time":"7:01:00","lat":49.059145,"lon":16.558115,"is_passed":false},{"stop_id":"U15209Z2","name":"Sobotovice, transformátor","arrival_time":"7:03:00","departure_time":"7:03:00","lat":49.061625,"lon":16.552708,"is_passed":false},{"stop_id":"U15212Z2","name":"Syrovice, Sobotovická","arrival_time":"7:06:00","departure_time":"7:06:00","lat":49.077625,"lon":16.545298,"is_passed":false},{"stop_id":"U15210Z2","name":"Syrovice","arrival_time":"7:07:00","departure_time":"7:07:00","lat":49.08029,"lon":16.548905,"is_passed":false},{"stop_id":"U15182Z2","name":"Rajhrad, GEIS","arrival_time":"7:09:00","departure_time":"7:09:00","lat":49.085595,"lon":16.583357,"is_passed":false},{"stop_id":"U15166Z2","name":"Rajhrad, stará pošta","arrival_time":"7:10:00","departure_time":"7:10:00","lat":49.087794,"lon":16.591688,"is_passed":false},{"stop_id":"U15181Z7","name":"Rajhrad, železniční stanice","arrival_time":"7:15:00","departure_time":"7:15:00","lat":49.084495,"lon":16.605152,"is_passed":false},{"stop_id":"U15168Z2","name":"Rajhrad, městský úřad","arrival_time":"7:16:00","departure_time":"7:16:00","lat":49.089963,"lon":16.60397,"is_passed":false},{"stop_id":"U15122Z4","name":"Modřice, Brněnská","arrival_time":"7:22:00","departure_time":"7:22:00","lat":49.130132,"lon":16.604936,"is_passed":false},{"stop_id":"U1393Z4","name":"Moravanská","arrival_time":"7:24:00","departure_time":"7:24:00","lat":49.142614,"lon":16.603006,"is_passed":false},{"stop_id":"U1396Z4","name":"Moravanské lány","arrival_time":"7:25:00","departure_time":"7:25:00","lat":49.149305,"lon":16.601813,"is_passed":false},{"stop_id":"U1466Z4","name":"Ořechovská","arrival_time":"7:27:00","departure_time":"7:27:00","lat":49.156124,"lon":16.600676,"is_passed":false},{"stop_id":"U1703Z5","name":"Ústřední hřbitov","arrival_time":"7:32:00","departure_time":"8:10:00","lat":49.171604,"lon":16.597316,"is_passed":false}],"5514":[{"stop_id":"U1703Z6","name":"Ústřední hřbitov","arrival_time":"8:10:00","departure_time":"8:10:00","lat":49.170744,"lon":16.597612,"is_passed":false},{"stop_id":"U1435Z1","name":"Novomoravanská","arrival_time":"8:12:00","departure_time":"8:12:00","lat":49.153104,"lon":16.600346,"is_passed":false},{"stop_id":"U1396Z3","name":"Moravanské lány","arrival_time":"8:13:00","departure_time":"8:13:00","lat":49.149585,"lon":16.601004,"is_passed":false},{"stop_id":"U1393Z3","name":"Moravanská","arrival_time":"8:15:00","departure_time":"8:15:00","lat":49.142887,"lon":16.602097,"is_passed":false},{"stop_id":"U15137Z10","name":"Modřice, Tyršova","arrival_time":"8:17:00","departure_time":"8:17:00","lat":49.130136,"lon":16.603469,"is_passed":false},{"stop_id":"U15168Z1","name":"Rajhrad, městský úřad","arrival_time":"8:23:00","departure_time":"8:23:00","lat":49.089663,"lon":16.603985,"is_passed":false},{"stop_id":"U15181Z5","name":"Rajhrad, železniční stanice","arrival_time":"8:25:00","departure_time":"8:25:00","lat":49.083879,"lon":16.605011,"is_passed":false},{"stop_id":"U15166Z1","name":"Rajhrad, stará pošta","arrival_time":"8:29:00","departure_time":"8:29:00","lat":49.087759,"lon":16.591479,"is_passed":false},{"stop_id":"U15182Z1","name":"Rajhrad, GEIS","arrival_time":"8:30:00","departure_time":"8:30:00","lat":49.08538,"lon":16.582,"is_passed":false},{"stop_id":"U15210Z1","name":"Syrovice","arrival_time":"8:33:00","departure_time":"8:33:00","lat":49.080328,"lon":16.548173,"is_passed":false},{"stop_id":"U15212Z1","name":"Syrovice, Sobotovická","arrival_time":"8:34:00","departure_time":"8:34:00","lat":49.077625,"lon":16.545298,"is_passed":false},{"stop_id":"U15209Z1","name":"Sobotovice, transformátor","arrival_time":"8:37:00","departure_time":"8:37:00","lat":49.061401,"lon":16.552707,"is_passed":false},{"stop_id":"U15208Z3","name":"Sobotovice","arrival_time":"8:39:00","departure_time":"8:39:00","lat":49.059067,"lon":16.558138,"is_passed":false},{"stop_id":"U15203Z3","name":"Ledce, obecní úřad","arrival_time":"8:41:00","departure_time":"8:41:00","lat":49.052175,"lon":16.555735,"is_passed":false},{"stop_id":"U15204Z3","name":"Ledce, rozcestí","arrival_time":"8:42:00","departure_time":"8:42:00","lat":49.04971,"lon":16.565488,"is_passed":false},{"stop_id":"U15255Z2","name":"Medlov, seniorcentrum","arrival_time":"8:47:00","departure_time":"8:47:00","lat":49.035713,"lon":16.528477,"is_passed":false},{"stop_id":"U15205Z1","name":"Medlov","arrival_time":"8:48:00","departure_time":"8:48:00","lat":49.034707,"lon":16.523155,"is_passed":false},{"stop_id":"U15234Z2","name":"Medlov, Kafilerie","arrival_time":"8:51:00","departure_time":"8:51:00","lat":49.017717,"lon":16.534908,"is_passed":false},{"stop_id":"U15321Z2","name":"Pohořelice, Smolín","arrival_time":"8:53:00","departure_time":"8:53:00","lat":49.007298,"lon":16.540125,"is_passed":false},{"stop_id":"U15379Z1","name":"Pohořelice, průmyslová zóna východ","arrival_time":"8:57:00","departure_time":"8:57:00","lat":48.989921,"lon":16.539353,"is_passed":false},{"stop_id":"U15315Z1","name":"Pohořelice, Brněnská","arrival_time":"8:58:00","departure_time":"8:58:00","lat":48.984843,"lon":16.529998,"is_passed":false},{"stop_id":"U15317Z51","name":"Pohořelice, náměstí","arrival_time":"9:00:00","departure_time":"9:00:00","lat":48.98068,"lon":16.522099,"is_passed":false}],"5515":[{"stop_id":"U15317Z8","name":"Pohořelice, náměstí","arrival_time":"9:00:00","departure_time":"9:00:00","lat":48.980751,"lon":16.522478,"is_passed":false},{"stop_id":"U15315Z2","name":"Pohořelice, Brněnská","arrival_time":"9:01:00","departure_time":"9:01:00","lat":48.984956,"lon":16.530513,"is_passed":false},{"stop_id":"U15379Z2","name":"Pohořelice, průmyslová zóna východ","arrival_time":"9:03:00","departure_time":"9:03:00","lat":48.990539,"lon":16.540751,"is_passed":false},{"stop_id":"U15321Z1","name":"Pohořelice, Smolín","arrival_time":"9:07:00","departure_time":"9:07:00","lat":49.007295,"lon":16.54034,"is_passed":false},{"stop_id":"U15234Z1","name":"Medlov, Kafilerie","arrival_time":"9:09:00","departure_time":"9:09:00","lat":49.017847,"lon":16.534967,"is_passed":false},{"stop_id":"U15205Z1","name":"Medlov","arrival_time":"9:12:00","departure_time":"9:12:00","lat":49.034707,"lon":16.523155,"is_passed":false},{"stop_id":"U15255Z1","name":"Medlov, seniorcentrum","arrival_time":"9:13:00","departure_time":"9:13:00","lat":49.035709,"lon":16.528745,"is_passed":false},{"stop_id":"U15204Z4","name":"Ledce, rozcestí","arrival_time":"9:18:00","departure_time":"9:18:00","lat":49.04988,"lon":16.565693,"is_passed":false},{"stop_id":"U15203Z4","name":"Ledce, obecní úřad","arrival_time":"9:19:00","departure_time":"9:19:00","lat":49.052175,"lon":16.555735,"is_passed":false},{"stop_id":"U15208Z4","name":"Sobotovice","arrival_time":"9:21:00","departure_time":"9:21:00","lat":49.059145,"lon":16.558115,"is_passed":false},{"stop_id":"U15209Z2","name":"Sobotovice, transformátor","arrival_time":"9:23:00","departure_time":"9:23:00","lat":49.061625,"lon":16.552708,"is_passed":false},{"stop_id":"U15212Z2","name":"Syrovice, Sobotovická","arrival_time":"9:26:00","departure_time":"9:26:00","lat":49.077625,"lon":16.545298,"is_passed":false},{"stop_id":"U15210Z2","name":"Syrovice","arrival_time":"9:27:00","departure_time":"9:27:00","lat":49.08029,"lon":16.548905,"is_passed":false},{"stop_id":"U15182Z2","name":"Rajhrad, GEIS","arrival_time":"9:29:00","departure_time":"9:29:00","lat":49.085595,"lon":16.583357,"is_passed":false},{"stop_id":"U15166Z2","name":"Rajhrad, stará pošta","arrival_time":"9:30:00","departure_time":"9:30:00","lat":49.087794,"lon":16.591688,"is_passed":false},{"stop_id":"U15181Z7","name":"Rajhrad, železniční stanice","arrival_time":"9:35:00","departure_time":"9:35:00","lat":49.084495,"lon":16.605152,"is_passed":false},{"stop_id":"U15168Z2","name":"Rajhrad, městský úřad","arrival_time":"9:36:00","departure_time":"9:36:00","lat":49.089963,"lon":16.60397,"is_passed":false},{"stop_id":"U15122Z4","name":"Modřice, Brněnská","arrival_time":"9:42:00","departure_time":"9:42:00","lat":49.130132,"lon":16.604936,"is_passed":false},{"stop_id":"U1393Z4","name":"Moravanská","arrival_time":"9:44:00","departure_time":"9:44:00","lat":49.142614,"lon":16.603006,"is_passed":false},{"stop_id":"U1396Z4","name":"Moravanské lány","arrival_time":"9:45:00","departure_time":"9:45:00","lat":49.149305,"lon":16.601813,"is_passed":false},{"stop_id":"U1466Z4","name":"Ořechovská","arrival_time":"9:47:00","departure_time":"9:47:00","lat":49.156124,"lon":16.600676,"is_passed":false},{"stop_id":"U1703Z5","name":"Ústřední hřbitov","arrival_time":"9:52:00","departure_time":"14:40:00","lat":49.171604,"lon":16.597316,"is_passed":false}],"5516":[{"stop_id":"U1703Z6","name":"Ústřední hřbitov","arrival_time":"14:40:00","departure_time":"14:40:00","lat":49.170744,"lon":16.597612,"is_passed":false},{"stop_id":"U1435Z1","name":"Novomoravanská","arrival_time":"14:42:00","departure_time":"14:42:00","lat":49.153104,"lon":16.600346,"is_passed":false},{"stop_id":"U1396Z3","name":"Moravanské lány","arrival_time":"14:43:00","departure_time":"14:43:00","lat":49.149585,"lon":16.601004,"is_passed":false},{"stop_id":"U1393Z3","name":"Moravanská","arrival_time":"14:45:00","departure_time":"14:45:00","lat":49.142887,"lon":16.602097,"is_passed":false},{"stop_id":"U15137Z10","name":"Modřice, Tyršova","arrival_time":"14:47:00","departure_time":"14:47:00","lat":49.130136,"lon":16.603469,"is_passed":false},{"stop_id":"U15168Z1","name":"Rajhrad, městský úřad","arrival_time":"14:53:00","departure_time":"14:53:00","lat":49.089663,"lon":16.603985,"is_passed":false},{"stop_id":"U15181Z5","name":"Rajhrad, železniční stanice","arrival_time":"14:55:00","departure_time":"14:55:00","lat":49.083879,"lon":16.605011,"is_passed":false},{"stop_id":"U15166Z1","name":"Rajhrad, stará pošta","arrival_time":"14:59:00","departure_time":"14:59:00","lat":49.087759,"lon":16.591479,"is_passed":false},{"stop_id":"U15182Z1","name":"Rajhrad, GEIS","arrival_time":"15:00:00","departure_time":"15:00:00","lat":49.08538,"lon":16.582,"is_passed":false},{"stop_id":"U15210Z1","name":"Syrovice","arrival_time":"15:03:00","departure_time":"15:03:00","lat":49.080328,"lon":16.548173,"is_passed":false},{"stop_id":"U15212Z1","name":"Syrovice, Sobotovická","arrival_time":"15:04:00","departure_time":"15:04:00","lat":49.077625,"lon":16.545298,"is_passed":false},{"stop_id":"U15209Z1","name":"Sobotovice, transformátor","arrival_time":"15:07:00","departure_time":"15:07:00","lat":49.061401,"lon":16.552707,"is_passed":false},{"stop_id":"U15208Z3","name":"Sobotovice","arrival_time":"15:09:00","departure_time":"15:09:00","lat":49.059067,"lon":16.558138,"is_passed":false},{"stop_id":"U15203Z3","name":"Ledce, obecní úřad","arrival_time":"15:11:00","departure_time":"15:11:00","lat":49.052175,"lon":16.555735,"is_passed":false}],"5517":[{"stop_id":"U15203Z3","name":"Ledce, obecní úřad","arrival_time":"15:11:00","departure_time":"15:11:00","lat":49.052175,"lon":16.555735,"is_passed":false},{"stop_id":"U15236Z2","name":"Sobotovice, rozcestí","arrival_time":"15:14:00","departure_time":"15:14:00","lat":49.060587,"lon":16.565757,"is_passed":false},{"stop_id":"U15242Z2","name":"Syrovice, logistický areál","arrival_time":"15:17:00","departure_time":"15:17:00","lat":49.075933,"lon":16.55606,"is_passed":false},{"stop_id":"U15210Z2","name":"Syrovice","arrival_time":"15:19:00","departure_time":"15:19:00","lat":49.08029,"lon":16.548905,"is_passed":false},{"stop_id":"U15182Z2","name":"Rajhrad, GEIS","arrival_time":"15:21:00","departure_time":"15:21:00","lat":49.085595,"lon":16.583357,"is_passed":false},{"stop_id":"U15166Z2","name":"Rajhrad, stará pošta","arrival_time":"15:22:00","departure_time":"15:22:00","lat":49.087794,"lon":16.591688,"is_passed":false},{"stop_id":"U15122Z4","name":"Modřice, Brněnská","arrival_time":"15:29:00","departure_time":"15:29:00","lat":49.130132,"lon":16.604936,"is_passed":false},{"stop_id":"U1393Z4","name":"Moravanská","arrival_time":"15:31:00","departure_time":"15:31:00","lat":49.142614,"lon":16.603006,"is_passed":false},{"stop_id":"U1396Z4","name":"Moravanské lány","arrival_time":"15:32:00","departure_time":"15:32:00","lat":49.149305,"lon":16.601813,"is_passed":false},{"stop_id":"U1466Z4","name":"Ořechovská","arrival_time":"15:34:00","departure_time":"15:34:00","lat":49.156124,"lon":16.600676,"is_passed":false},{"stop_id":"U1703Z5","name":"Ústřední hřbitov","arrival_time":"15:39:00","departure_time":"15:40:00","lat":49.171604,"lon":16.597316,"is_passed":false}],"5518":[{"stop_id":"U1703Z6","name":"Ústřední hřbitov","arrival_time":"15:40:00","departure_time":"15:40:00","lat":49.170744,"lon":16.597612,"is_passed":false},{"stop_id":"U1435Z1","name":"Novomoravanská","arrival_time":"15:42:00","departure_time":"15:42:00","lat":49.153104,"lon":16.600346,"is_passed":false},{"stop_id":"U1396Z3","name":"Moravanské lány","arrival_time":"15:43:00","departure_time":"15:43:00","lat":49.149585,"lon":16.601004,"is_passed":false},{"stop_id":"U1393Z3","name":"Moravanská","arrival_time":"15:45:00","departure_time":"15:45:00","lat":49.142887,"lon":16.602097,"is_passed":false},{"stop_id":"U15137Z10","name":"Modřice, Tyršova","arrival_time":"15:47:00","departure_time":"15:47:00","lat":49.130136,"lon":16.603469,"is_passed":false},{"stop_id":"U15168Z1","name":"Rajhrad, městský úřad","arrival_time":"15:53:00","departure_time":"15:53:00","lat":49.089663,"lon":16.603985,"is_passed":false},{"stop_id":"U15181Z5","name":"Rajhrad, železniční stanice","arrival_time":"15:55:00","departure_time":"15:55:00","lat":49.083879,"lon":16.605011,"is_passed":false},{"stop_id":"U15166Z1","name":"Rajhrad, stará pošta","arrival_time":"15:59:00","departure_time":"15:59:00","lat":49.087759,"lon":16.591479,"is_passed":false},{"stop_id":"U15182Z1","name":"Rajhrad, GEIS","arrival_time":"16:00:00","departure_time":"16:00:00","lat":49.08538,"lon":16.582,"is_passed":false},{"stop_id":"U15210Z1","name":"Syrovice","arrival_time":"16:03:00","departure_time":"16:03:00","lat":49.080328,"lon":16.548173,"is_passed":false},{"stop_id":"U15212Z1","name":"Syrovice, Sobotovická","arrival_time":"16:04:00","departure_time":"16:04:00","lat":49.077625,"lon":16.545298,"is_passed":false},{"stop_id":"U15209Z1","name":"Sobotovice, transformátor","arrival_time":"16:07:00","departure_time":"16:07:00","lat":49.061401,"lon":16.552707,"is_passed":false},{"stop_id":"U15208Z3","name":"Sobotovice","arrival_time":"16:09:00","departure_time":"16:09:00","lat":49.059067,"lon":16.558138,"is_passed":false},{"stop_id":"U15203Z3","name":"Ledce, obecní úřad","arrival_time":"16:11:00","departure_time":"16:11:00","lat":49.052175,"lon":16.555735,"is_passed":false},{"stop_id":"U15204Z3","name":"Ledce, rozcestí","arrival_time":"16:12:00","departure_time":"16:12:00","lat":49.04971,"lon":16.565488,"is_passed":false},{"stop_id":"U15255Z2","name":"Medlov, seniorcentrum","arrival_time":"16:17:00","departure_time":"16:17:00","lat":49.035713,"lon":16.528477,"is_passed":false},{"stop_id":"U15205Z1","name":"Medlov","arrival_time":"16:18:00","departure_time":"16:18:00","lat":49.034707,"lon":16.523155,"is_passed":false},{"stop_id":"U15234Z2","name":"Medlov, Kafilerie","arrival_time":"16:21:00","departure_time":"16:21:00","lat":49.017717,"lon":16.534908,"is_passed":false},{"stop_id":"U15321Z2","name":"Pohořelice, Smolín","arrival_time":"16:23:00","departure_time":"16:23:00","lat":49.007298,"lon":16.540125,"is_passed":false},{"stop_id":"U15379Z1","name":"Pohořelice, průmyslová zóna východ","arrival_time":"16:27:00","departure_time":"16:27:00","lat":48.989921,"lon":16.539353,"is_passed":false},{"stop_id":"U15315Z1","name":"Pohořelice, Brněnská","arrival_time":"16:28:00","departure_time":"16:28:00","lat":48.984843,"lon":16.529998,"is_passed":false},{"stop_id":"U15317Z51","name":"Pohořelice, náměstí","arrival_time":"16:30:00","departure_time":"16:30:00","lat":48.98068,"lon":16.522099,"is_passed":false}],"5519":[{"stop_id":"U1696Z11","name":"ÚAN Zvonařka","arrival_time":"4:10:00","departure_time":"4:10:00","lat":49.185364,"lon":16.616151,"is_passed":false},{"stop_id":"U1622Z2","name":"Strážní","arrival_time":"4:13:00","departure_time":"4:13:00","lat":49.178477,"lon":16.603646,"is_passed":false},{"stop_id":"U1703Z6","name":"Ústřední hřbitov","arrival_time":"4:16:00","departure_time":"4:16:00","lat":49.170744,"lon":16.597612,"is_passed":false},{"stop_id":"U15137Z10","name":"Modřice, Tyršova","arrival_time":"4:22:00","departure_time":"4:22:00","lat":49.130136,"lon":16.603469,"is_passed":false},{"stop_id":"U15379Z1","name":"Pohořelice, průmyslová zóna východ","arrival_time":"4:35:00","departure_time":"4:35:00","lat":48.989921,"lon":16.539353,"is_passed":false},{"stop_id":"U15315Z1","name":"Pohořelice, Brněnská","arrival_time":"4:36:00","departure_time":"4:36:00","lat":48.984843,"lon":16.529998,"is_passed":false},{"stop_id":"U15317Z6","name":"Pohořelice, náměstí","arrival_time":"4:38:00","departure_time":"4:40:00","lat":48.980709,"lon":16.521906,"is_passed":false},{"stop_id":"U15320Z1","name":"Pohořelice, obchodní akademie","arrival_time":"4:42:00","departure_time":"4:42:00","lat":48.978628,"lon":16.505258,"is_passed":false},{"stop_id":"U14011Z1","name":"Branišovice, státní silnice","arrival_time":"4:48:00","departure_time":"4:48:00","lat":48.959107,"lon":16.428737,"is_passed":false},{"stop_id":"U14024Z1","name":"Trnové Pole, rozcestí","arrival_time":"4:50:00","departure_time":"4:50:00","lat":48.955275,"lon":16.413453,"is_passed":false},{"stop_id":"U14552Z1","name":"Miroslav, rozcestí","arrival_time":"4:55:00","departure_time":"4:55:00","lat":48.933498,"lon":16.362293,"is_passed":false},{"stop_id":"U14557Z1","name":"Miroslav, Kašenec, státní silnice","arrival_time":"4:58:00","departure_time":"4:58:00","lat":48.918435,"lon":16.33352,"is_passed":false},{"stop_id":"U15557Z1","name":"Mackovice, rozcestí","arrival_time":"5:01:00","departure_time":"5:01:00","lat":48.900637,"lon":16.292692,"is_passed":false},{"stop_id":"U18217Z1","name":"Oleksovice, rozcestí","arrival_time":"5:04:00","departure_time":"5:04:00","lat":48.887532,"lon":16.260192,"is_passed":false},{"stop_id":"U18215Z1","name":"Lechovice, zámek","arrival_time":"5:07:00","departure_time":"5:07:00","lat":48.875338,"lon":16.236347,"is_passed":false},{"stop_id":"U18214Z1","name":"Lechovice, obecní úřad","arrival_time":"5:10:00","departure_time":"5:10:00","lat":48.872558,"lon":16.222179,"is_passed":false},{"stop_id":"U18009Z51","name":"Znojmo, autobusové nádraží","arrival_time":"5:25:00","departure_time":"5:42:00","lat":48.851908,"lon":16.056983,"is_passed":false}],"55100":[{"stop_id":"U1014Z2","name":"Babická","arrival_time":"7:52:00","departure_time":"7:52:00","lat":49.228129,"lon":16.652126,"is_passed":false},{"stop_id":"U1448Z2","name":"Obřanský most","arrival_time":"7:52:00","departure_time":"7:52:00","lat":49.227463,"lon":16.649577,"is_passed":false},{"stop_id":"U1077Z2","name":"Čtvery hony","arrival_time":"7:53:00","departure_time":"7:53:00","lat":49.225534,"lon":16.644942,"is_passed":false},{"stop_id":"U1447Z2","name":"Obřanská - u školy","arrival_time":"7:54:00","departure_time":"7:54:00","lat":49.22256,"lon":16.644731,"is_passed":false},{"stop_id":"U1521Z2","name":"Proškovo náměstí","arrival_time":"7:55:00","departure_time":"7:55:00","lat":49.21983,"lon":16.643286,"is_passed":false},{"stop_id":"U1358Z1","name":"Maloměřický most","arrival_time":"7:56:00","departure_time":"7:56:00","lat":49.21558,"lon":16.642601,"is_passed":false},{"stop_id":"U1668Z2","name":"Tomkovo náměstí","arrival_time":"7:58:00","departure_time":"8:00:00","lat":49.213819,"lon":16.636067,"is_passed":false},{"stop_id":"U1422Z2","name":"Náměstí Republiky","arrival_time":"8:01:00","departure_time":"8:01:00","lat":49.211428,"lon":16.634106,"is_passed":false},{"stop_id":"U1434Z2","name":"Vozovna Husovice","arrival_time":"8:02:00","departure_time":"8:02:00","lat":49.208534,"lon":16.629847,"is_passed":false},{"stop_id":"U1398Z2","name":"Mostecká","arrival_time":"8:04:00","departure_time":"8:04:00","lat":49.206873,"lon":16.626866,"is_passed":false},{"stop_id":"U1676Z2","name":"Trávníčkova","arrival_time":"8:05:00","departure_time":"8:05:00","lat":49.204401,"lon":16.625637,"is_passed":false},{"stop_id":"U1663Z2","name":"Tkalcovská","arrival_time":"8:07:00","departure_time":"8:07:00","lat":49.199805,"lon":16.625934,"is_passed":false},{"stop_id":"U1271Z2","name":"Körnerova","arrival_time":"8:08:00","departure_time":"8:08:00","lat":49.198152,"lon":16.619504,"is_passed":false},{"stop_id":"U1357Z1","name":"Malinovského náměstí","arrival_time":"8:10:00","departure_time":"8:10:00","lat":49.195492,"lon":16.61386,"is_passed":false},{"stop_id":"U1146Z1","name":"Hlavní nádraží","arrival_time":"8:13:00","departure_time":"8:15:00","lat":49.191185,"lon":16.611879,"is_passed":false},{"stop_id":"U1436Z1","name":"Nové sady","arrival_time":"8:16:00","departure_time":"8:16:00","lat":49.190116,"lon":16.609025,"is_passed":false},{"stop_id":"U1637Z2","name":"Šilingrovo náměstí","arrival_time":"8:17:00","departure_time":"8:17:00","lat":49.192027,"lon":16.605234,"is_passed":false},{"stop_id":"U1257Z1","name":"Komenského náměstí","arrival_time":"8:21:00","departure_time":"8:21:00","lat":49.197047,"lon":16.601844,"is_passed":false},{"stop_id":"U1442Z1","name":"Obilní trh","arrival_time":"8:22:00","departure_time":"8:22:00","lat":49.198221,"lon":16.597478,"is_passed":false},{"stop_id":"U1712Z1","name":"Úvoz","arrival_time":"8:23:00","departure_time":"8:23:00","lat":49.19829,"lon":16.59265,"is_passed":false},{"stop_id":"U1762Z1","name":"Všetičkova","arrival_time":"8:24:00","departure_time":"8:24:00","lat":49.198749,"lon":16.588757,"is_passed":false},{"stop_id":"U1371Z1","name":"Náměstí Míru","arrival_time":"8:27:00","departure_time":"8:36:00","lat":49.202197,"lon":16.582014,"is_passed":false}],"55101":[{"stop_id":"U1371Z2","name":"Náměstí Míru","arrival_time":"8:36:00","departure_time":"8:36:00","lat":49.201971,"lon":16.581885,"is_passed":false},{"stop_id":"U1137Z1","name":"Heinrichova","arrival_time":"8:36:00","departure_time":"8:36:00","lat":49.200413,"lon":16.584511,"is_passed":false},{"stop_id":"U1762Z2","name":"Všetičkova","arrival_time":"8:37:00","departure_time":"8:37:00","lat":49.198648,"lon":16.589335,"is_passed":false},{"stop_id":"U1712Z2","name":"Úvoz","arrival_time":"8:38:00","departure_time":"8:38:00","lat":49.198275,"lon":16.593189,"is_passed":false},{"stop_id":"U1442Z2","name":"Obilní trh","arrival_time":"8:39:00","departure_time":"8:39:00","lat":49.198022,"lon":16.598215,"is_passed":false},{"stop_id":"U1257Z2","name":"Komenského náměstí","arrival_time":"8:41:00","departure_time":"8:41:00","lat":49.197135,"lon":16.602612,"is_passed":false},{"stop_id":"U1637Z1","name":"Šilingrovo náměstí","arrival_time":"8:44:00","departure_time":"8:44:00","lat":49.19171,"lon":16.605355,"is_passed":false},{"stop_id":"U1436Z2","name":"Nové sady","arrival_time":"8:46:00","departure_time":"8:46:00","lat":49.190222,"lon":16.609403,"is_passed":false},{"stop_id":"U1146Z2","name":"Hlavní nádraží","arrival_time":"8:48:00","departure_time":"8:48:00","lat":49.191394,"lon":16.612548,"is_passed":false},{"stop_id":"U1357Z2","name":"Malinovského náměstí","arrival_time":"8:50:00","departure_time":"8:50:00","lat":49.195034,"lon":16.614825,"is_passed":false},{"stop_id":"U1271Z1","name":"Körnerova","arrival_time":"8:52:00","departure_time":"8:52:00","lat":49.19828,"lon":16.619945,"is_passed":false},{"stop_id":"U1663Z1","name":"Tkalcovská","arrival_time":"8:54:00","departure_time":"8:54:00","lat":49.200261,"lon":16.626109,"is_passed":false},{"stop_id":"U1676Z1","name":"Trávníčkova","arrival_time":"8:56:00","departure_time":"8:56:00","lat":49.204439,"lon":16.625679,"is_passed":false},{"stop_id":"U1398Z1","name":"Mostecká","arrival_time":"8:57:00","departure_time":"8:57:00","lat":49.20703,"lon":16.627792,"is_passed":false},{"stop_id":"U1434Z1","name":"Vozovna Husovice","arrival_time":"8:58:00","departure_time":"8:58:00","lat":49.208331,"lon":16.629789,"is_passed":false},{"stop_id":"U1422Z1","name":"Náměstí Republiky","arrival_time":"8:59:00","departure_time":"8:59:00","lat":49.210591,"lon":16.633523,"is_passed":false},{"stop_id":"U1668Z1","name":"Tomkovo náměstí","arrival_time":"9:01:00","departure_time":"9:01:00","lat":49.214035,"lon":16.636587,"is_passed":false},{"stop_id":"U1358Z2","name":"Maloměřický most","arrival_time":"9:02:00","departure_time":"9:02:00","lat":49.215518,"lon":16.642987,"is_passed":false},{"stop_id":"U1521Z1","name":"Proškovo náměstí","arrival_time":"9:03:00","departure_time":"9:03:00","lat":49.220207,"lon":16.643397,"is_passed":false},{"stop_id":"U1447Z1","name":"Obřanská - u školy","arrival_time":"9:04:00","departure_time":"9:04:00","lat":49.222872,"lon":16.644811,"is_passed":false},{"stop_id":"U1077Z1","name":"Čtvery hony","arrival_time":"9:05:00","departure_time":"9:05:00","lat":49.226227,"lon":16.645584,"is_passed":false},{"stop_id":"U1448Z1","name":"Obřanský most","arrival_time":"9:06:00","departure_time":"9:06:00","lat":49.227602,"lon":16.650226,"is_passed":false},{"stop_id":"U1014Z1","name":"Babická","arrival_time":"9:08:00","departure_time":"9:12:00","lat":49.228004,"lon":16.652555,"is_passed":false}],"55102":[{"stop_id":"U1014Z2","name":"Babická","arrival_time":"9:12:00","departure_time":"9:12:00","lat":49.228129,"lon":16.652126,"is_passed":false},{"stop_id":"U1448Z2","name":"Obřanský most","arrival_time":"9:12:00","departure_time":"9:12:00","lat":49.227463,"lon":16.649577,"is_passed":false},{"stop_id":"U1077Z2","name":"Čtvery hony","arrival_time":"9:13:00","departure_time":"9:13:00","lat":49.225534,"lon":16.644942,"is_passed":false},{"stop_id":"U1447Z2","name":"Obřanská - u školy","arrival_time":"9:14:00","departure_time":"9:14:00","lat":49.22256,"lon":16.644731,"is_passed":false},{"stop_id":"U1521Z2","name":"Proškovo náměstí","arrival_time":"9:15:00","departure_time":"9:15:00","lat":49.21983,"lon":16.643286,"is_passed":false},{"stop_id":"U1358Z1","name":"Maloměřický most","arrival_time":"9:16:00","departure_time":"9:16:00","lat":49.21558,"lon":16.642601,"is_passed":false},{"stop_id":"U1668Z2","name":"Tomkovo náměstí","arrival_time":"9:18:00","departure_time":"9:18:00","lat":49.213819,"lon":16.636067,"is_passed":false},{"stop_id":"U1422Z2","name":"Náměstí Republiky","arrival_time":"9:19:00","departure_time":"9:19:00","lat":49.211428,"lon":16.634106,"is_passed":false},{"stop_id":"U1434Z2","name":"Vozovna Husovice","arrival_time":"9:20:00","departure_time":"9:20:00","lat":49.208534,"lon":16.629847,"is_passed":false},{"stop_id":"U1398Z2","name":"Mostecká","arrival_time":"9:22:00","departure_time":"9:22:00","lat":49.206873,"lon":16.626866,"is_passed":false},{"stop_id":"U1676Z2","name":"Trávníčkova","arrival_time":"9:23:00","departure_time":"9:23:00","lat":49.204401,"lon":16.625637,"is_passed":false},{"stop_id":"U1663Z2","name":"Tkalcovská","arrival_time":"9:25:00","departure_time":"9:25:00","lat":49.199805,"lon":16.625934,"is_passed":false},{"stop_id":"U1271Z2","name":"Körnerova","arrival_time":"9:26:00","departure_time":"9:26:00","lat":49.198152,"lon":16.619504,"is_passed":false},{"stop_id":"U1357Z1","name":"Malinovského náměstí","arrival_time":"9:29:00","departure_time":"9:29:00","lat":49.195492,"lon":16.61386,"is_passed":false},{"stop_id":"U1146Z1","name":"Hlavní nádraží","arrival_time":"9:32:00","departure_time":"9:32:00","lat":49.191185,"lon":16.611879,"is_passed":false},{"stop_id":"U1436Z1","name":"Nové sady","arrival_time":"9:33:00","departure_time":"9:33:00","lat":49.190116,"lon":16.609025,"is_passed":false},{"stop_id":"U1637Z2","name":"Šilingrovo náměstí","arrival_time":"9:34:00","departure_time":"9:34:00","lat":49.192027,"lon":16.605234,"is_passed":false},{"stop_id":"U1257Z1","name":"Komenského náměstí","arrival_time":"9:38:00","departure_time":"9:38:00","lat":49.197047,"lon":16.601844,"is_passed":false},{"stop_id":"U1442Z1","name":"Obilní trh","arrival_time":"9:39:00","departure_time":"9:39:00","lat":49.198221,"lon":16.597478,"is_passed":false},{"stop_id":"U1712Z1","name":"Úvoz","arrival_time":"9:40:00","departure_time":"9:40:00","lat":49.19829,"lon":16.59265,"is_passed":false},{"stop_id":"U1762Z1","name":"Všetičkova","arrival_time":"9:41:00","departure_time":"9:41:00","lat":49.198749,"lon":16.588757,"is_passed":false},{"stop_id":"U1371Z1","name":"Náměstí Míru","arrival_time":"9:44:00","departure_time":"9:56:00","lat":49.202197,"lon":16.582014,"is_passed":false}],"55103":[{"stop_id":"U1371Z2","name":"Náměstí Míru","arrival_time":"9:56:00","departure_time":"9:56:00","lat":49.201971,"lon":16.581885,"is_passed":false},{"stop_id":"U1137Z1","name":"Heinrichova","arrival_time":"9:56:00","departure_time":"9:56:00","lat":49.200413,"lon":16.584511,"is_passed":false},{"stop_id":"U1762Z2","name":"Všetičkova","arrival_time":"9:57:00","departure_time":"9:57:00","lat":49.198648,"lon":16.589335,"is_passed":false},{"stop_id":"U1712Z2","name":"Úvoz","arrival_time":"9:58:00","departure_time":"9:58:00","lat":49.198275,"lon":16.593189,"is_passed":false},{"stop_id":"U1442Z2","name":"Obilní trh","arrival_time":"9:59:00","departure_time":"9:59:00","lat":49.198022,"lon":16.598215,"is_passed":false},{"stop_id":"U1257Z2","name":"Komenského náměstí","arrival_time":"10:01:00","departure_time":"10:01:00","lat":49.197135,"lon":16.602612,"is_passed":false},{"stop_id":"U1637Z1","name":"Šilingrovo náměstí","arrival_time":"10:04:00","departure_time":"10:04:00","lat":49.19171,"lon":16.605355,"is_passed":false},{"stop_id":"U1436Z2","name":"Nové sady","arrival_time":"10:06:00","departure_time":"10:06:00","lat":49.190222,"lon":16.609403,"is_passed":false},{"stop_id":"U1146Z2","name":"Hlavní nádraží","arrival_time":"10:08:00","departure_time":"10:08:00","lat":49.191394,"lon":16.612548,"is_passed":false},{"stop_id":"U1357Z2","name":"Malinovského náměstí","arrival_time":"10:10:00","departure_time":"10:10:00","lat":49.195034,"lon":16.614825,"is_passed":false},{"stop_id":"U1271Z1","name":"Körnerova","arrival_time":"10:12:00","departure_time":"10:12:00","lat":49.19828,"lon":16.619945,"is_passed":false},{"stop_id":"U1663Z1","name":"Tkalcovská","arrival_time":"10:14:00","departure_time":"10:14:00","lat":49.200261,"lon":16.626109,"is_passed":false},{"stop_id":"U1676Z1","name":"Trávníčkova","arrival_time":"10:16:00","departure_time":"10:16:00","lat":49.204439,"lon":16.625679,"is_passed":false},{"stop_id":"U1398Z1","name":"Mostecká","arrival_time":"10:17:00","departure_time":"10:17:00","lat":49.20703,"lon":16.627792,"is_passed":false},{"stop_id":"U1434Z1","name":"Vozovna Husovice","arrival_time":"10:18:00","departure_time":"10:18:00","lat":49.208331,"lon":16.629789,"is_passed":false},{"stop_id":"U1422Z1","name":"Náměstí Republiky","arrival_time":"10:19:00","departure_time":"10:19:00","lat":49.210591,"lon":16.633523,"is_passed":false},{"stop_id":"U1668Z1","name":"Tomkovo náměstí","arrival_time":"10:21:00","departure_time":"10:21:00","lat":49.214035,"lon":16.636587,"is_passed":false},{"stop_id":"U1358Z2","name":"Maloměřický most","arrival_time":"10:22:00","departure_time":"10:22:00","lat":49.215518,"lon":16.642987,"is_passed":false},{"stop_id":"U1521Z1","name":"Proškovo náměstí","arrival_time":"10:23:00","departure_time":"10:23:00","lat":49.220207,"lon":16.643397,"is_passed":false},{"stop_id":"U1447Z1","name":"Obřanská - u školy","arrival_time":"10:24:00","departure_time":"10:24:00","lat":49.222872,"lon":16.644811,"is_passed":false},{"stop_id":"U1077Z1","name":"Čtvery hony","arrival_time":"10:25:00","departure_time":"10:25:00","lat":49.226227,"lon":16.645584,"is_passed":false},{"stop_id":"U1448Z1","name":"Obřanský most","arrival_time":"10:26:00","departure_time":"10:26:00","lat":49.227602,"lon":16.650226,"is_passed":false},{"stop_id":"U1014Z1","name":"Babická","arrival_time":"10:28:00","departure_time":"10:42:00","lat":49.228004,"lon":16.652555,"is_passed":false}],"55104":[{"stop_id":"U1014Z2","name":"Babická","arrival_time":"10:42:00","departure_time":"10:42:00","lat":49.228129,"lon":16.652126,"is_passed":false},{"stop_id":"U1448Z2","name":"Obřanský most","arrival_time":"10:42:00","departure_time":"10:42:00","lat":49.227463,"lon":16.649577,"is_passed":false},{"stop_id":"U1077Z2","name":"Čtvery hony","arrival_time":"10:43:00","departure_time":"10:43:00","lat":49.225534,"lon":16.644942,"is_passed":false},{"stop_id":"U1447Z2","name":"Obřanská - u školy","arrival_time":"10:44:00","departure_time":"10:44:00","lat":49.22256,"lon":16.644731,"is_passed":false},{"stop_id":"U1521Z2","name":"Proškovo náměstí","arrival_time":"10:45:00","departure_time":"10:45:00","lat":49.21983,"lon":16.643286,"is_passed":false},{"stop_id":"U1358Z1","name":"Maloměřický most","arrival_time":"10:46:00","departure_time":"10:46:00","lat":49.21558,"lon":16.642601,"is_passed":false},{"stop_id":"U1668Z2","name":"Tomkovo náměstí","arrival_time":"10:48:00","departure_time":"10:48:00","lat":49.213819,"lon":16.636067,"is_passed":false},{"stop_id":"U1422Z2","name":"Náměstí Republiky","arrival_time":"10:49:00","departure_time":"10:49:00","lat":49.211428,"lon":16.634106,"is_passed":false},{"stop_id":"U1434Z2","name":"Vozovna Husovice","arrival_time":"10:50:00","departure_time":"10:50:00","lat":49.208534,"lon":16.629847,"is_passed":false},{"stop_id":"U1398Z2","name":"Mostecká","arrival_time":"10:52:00","departure_time":"10:52:00","lat":49.206873,"lon":16.626866,"is_passed":false},{"stop_id":"U1676Z2","name":"Trávníčkova","arrival_time":"10:53:00","departure_time":"10:53:00","lat":49.204401,"lon":16.625637,"is_passed":false},{"stop_id":"U1663Z2","name":"Tkalcovská","arrival_time":"10:55:00","departure_time":"10:55:00","lat":49.199805,"lon":16.625934,"is_passed":false},{"stop_id":"U1271Z2","name":"Körnerova","arrival_time":"10:56:00","departure_time":"10:56:00","lat":49.198152,"lon":16.619504,"is_passed":false},{"stop_id":"U1357Z1","name":"Malinovského náměstí","arrival_time":"10:59:00","departure_time":"10:59:00","lat":49.195492,"lon":16.61386,"is_passed":false},{"stop_id":"U1146Z1","name":"Hlavní nádraží","arrival_time":"11:02:00","departure_time":"11:02:00","lat":49.191185,"lon":16.611879,"is_passed":false},{"stop_id":"U1436Z1","name":"Nové sady","arrival_time":"11:03:00","departure_time":"11:03:00","lat":49.190116,"lon":16.609025,"is_passed":false},{"stop_id":"U1637Z2","name":"Šilingrovo náměstí","arrival_time":"11:04:00","departure_time":"11:04:00","lat":49.192027,"lon":16.605234,"is_passed":false},{"stop_id":"U1257Z1","name":"Komenského náměstí","arrival_time":"11:08:00","departure_time":"11:08:00","lat":49.197047,"lon":16.601844,"is_passed":false},{"stop_id":"U1442Z1","name":"Obilní trh","arrival_time":"11:09:00","departure_time":"11:09:00","lat":49.198221,"lon":16.597478,"is_passed":false},{"stop_id":"U1712Z1","name":"Úvoz","arrival_time":"11:10:00","departure_time":"11:10:00","lat":49.19829,"lon":16.59265,"is_passed":false},{"stop_id":"U1762Z1","name":"Všetičkova","arrival_time":"11:11:00","departure_time":"11:11:00","lat":49.198749,"lon":16.588757,"is_passed":false},{"stop_id":"U1371Z1","name":"Náměstí Míru","arrival_time":"11:14:00","departure_time":"11:26:00","lat":49.202197,"lon":16.582014,"is_passed":false}],"55105":[{"stop_id":"U1371Z2","name":"Náměstí Míru","arrival_time":"11:26:00","departure_time":"11:26:00","lat":49.201971,"lon":16.581885,"is_passed":false},{"stop_id":"U1137Z1","name":"Heinrichova","arrival_time":"11:26:00","departure_time":"11:26:00","lat":49.200413,"lon":16.584511,"is_passed":false},{"stop_id":"U1762Z2","name":"Všetičkova","arrival_time":"11:27:00","departure_time":"11:27:00","lat":49.198648,"lon":16.589335,"is_passed":false},{"stop_id":"U1712Z2","name":"Úvoz","arrival_time":"11:28:00","departure_time":"11:28:00","lat":49.198275,"lon":16.593189,"is_passed":false},{"stop_id":"U1442Z2","name":"Obilní trh","arrival_time":"11:29:00","departure_time":"11:29:00","lat":49.198022,"lon":16.598215,"is_passed":false},{"stop_id":"U1257Z2","name":"Komenského náměstí","arrival_time":"11:31:00","departure_time":"11:31:00","lat":49.197135,"lon":16.602612,"is_passed":false},{"stop_id":"U1637Z1","name":"Šilingrovo náměstí","arrival_time":"11:34:00","departure_time":"11:34:00","lat":49.19171,"lon":16.605355,"is_passed":false},{"stop_id":"U1436Z2","name":"Nové sady","arrival_time":"11:36:00","departure_time":"11:36:00","lat":49.190222,"lon":16.609403,"is_passed":false},{"stop_id":"U1146Z2","name":"Hlavní nádraží","arrival_time":"11:38:00","departure_time":"11:38:00","lat":49.191394,"lon":16.612548,"is_passed":false},{"stop_id":"U1357Z2","name":"Malinovského náměstí","arrival_time":"11:40:00","departure_time":"11:40:00","lat":49.195034,"lon":16.614825,"is_passed":false},{"stop_id":"U1271Z1","name":"Körnerova","arrival_time":"11:42:00","departure_time":"11:42:00","lat":49.19828,"lon":16.619945,"is_passed":false},{"stop_id":"U1663Z1","name":"Tkalcovská","arrival_time":"11:44:00","departure_time":"11:44:00","lat":49.200261,"lon":16.626109,"is_passed":false},{"stop_id":"U1676Z1","name":"Trávníčkova","arrival_time":"11:46:00","departure_time":"11:46:00","lat":49.204439,"lon":16.625679,"is_passed":false},{"stop_id":"U1398Z1","name":"Mostecká","arrival_time":"11:47:00","departure_time":"11:47:00","lat":49.20703,"lon":16.627792,"is_passed":false},{"stop_id":"U1434Z1","name":"Vozovna Husovice","arrival_time":"11:48:00","departure_time":"11:48:00","lat":49.208331,"lon":16.629789,"is_passed":false},{"stop_id":"U1422Z1","name":"Náměstí Republiky","arrival_time":"11:49:00","departure_time":"11:49:00","lat":49.210591,"lon":16.633523,"is_passed":false},{"stop_id":"U1668Z1","name":"Tomkovo náměstí","arrival_time":"11:51:00","departure_time":"11:51:00","lat":49.214035,"lon":16.636587,"is_passed":false},{"stop_id":"U1358Z2","name":"Maloměřický most","arrival_time":"11:52:00","departure_time":"11:52:00","lat":49.215518,"lon":16.642987,"is_passed":false},{"stop_id":"U1521Z1","name":"Proškovo náměstí","arrival_time":"11:53:00","departure_time":"11:53:00","lat":49.220207,"lon":16.643397,"is_passed":false},{"stop_id":"U1447Z1","name":"Obřanská - u školy","arrival_time":"11:54:00","departure_time":"11:54:00","lat":49.222872,"lon":16.644811,"is_passed":false},{"stop_id":"U1077Z1","name":"Čtvery hony","arrival_time":"11:55:00","departure_time":"11:55:00","lat":49.226227,"lon":16.645584,"is_passed":false},{"stop_id":"U1448Z1","name":"Obřanský most","arrival_time":"11:56:00","departure_time":"11:56:00","lat":49.227602,"lon":16.650226,"is_passed":false},{"stop_id":"U1014Z1","name":"Babická","arrival_time":"11:58:00","departure_time":"12:22:00","lat":49.228004,"lon":16.652555,"is_passed":false}],"55106":[{"stop_id":"U1014Z2","name":"Babická","arrival_time":"12:22:00","departure_time":"12:22:00","lat":49.228129,"lon":16.652126,"is_passed":false},{"stop_id":"U1448Z2","name":"Obřanský most","arrival_time":"12:22:00","departure_time":"12:22:00","lat":49.227463,"lon":16.649577,"is_passed":false},{"stop_id":"U1077Z2","name":"Čtvery hony","arrival_time":"12:23:00","departure_time":"12:23:00","lat":49.225534,"lon":16.644942,"is_passed":false},{"stop_id":"U1447Z2","name":"Obřanská - u školy","arrival_time":"12:24:00","departure_time":"12:24:00","lat":49.22256,"lon":16.644731,"is_passed":false},{"stop_id":"U1521Z2","name":"Proškovo náměstí","arrival_time":"12:25:00","departure_time":"12:25:00","lat":49.21983,"lon":16.643286,"is_passed":false},{"stop_id":"U1358Z1","name":"Maloměřický most","arrival_time":"12:26:00","departure_time":"12:26:00","lat":49.21558,"lon":16.642601,"is_passed":false},{"stop_id":"U1668Z2","name":"Tomkovo náměstí","arrival_time":"12:28:00","departure_time":"12:28:00","lat":49.213819,"lon":16.636067,"is_passed":false},{"stop_id":"U1422Z2","name":"Náměstí Republiky","arrival_time":"12:29:00","departure_time":"12:29:00","lat":49.211428,"lon":16.634106,"is_passed":false},{"stop_id":"U1434Z2","name":"Vozovna Husovice","arrival_time":"12:30:00","departure_time":"12:30:00","lat":49.208534,"lon":16.629847,"is_passed":false},{"stop_id":"U1398Z2","name":"Mostecká","arrival_time":"12:32:00","departure_time":"12:32:00","lat":49.206873,"lon":16.626866,"is_passed":false},{"stop_id":"U1676Z2","name":"Trávníčkova","arrival_time":"12:33:00","departure_time":"12:33:00","lat":49.204401,"lon":16.625637,"is_passed":false},{"stop_id":"U1663Z2","name":"Tkalcovská","arrival_time":"12:35:00","departure_time":"12:35:00","lat":49.199805,"lon":16.625934,"is_passed":false},{"stop_id":"U1271Z2","name":"Körnerova","arrival_time":"12:36:00","departure_time":"12:36:00","lat":49.198152,"lon":16.619504,"is_passed":false},{"stop_id":"U1357Z1","name":"Malinovského náměstí","arrival_time":"12:39:00","departure_time":"12:39:00","lat":49.195492,"lon":16.61386,"is_passed":false},{"stop_id":"U1146Z1","name":"Hlavní nádraží","arrival_time":"12:42:00","departure_time":"12:42:00","lat":49.191185,"lon":16.611879,"is_passed":false},{"stop_id":"U1436Z1","name":"Nové sady","arrival_time":"12:43:00","departure_time":"12:43:00","lat":49.190116,"lon":16.609025,"is_passed":false},{"stop_id":"U1637Z2","name":"Šilingrovo náměstí","arrival_time":"12:44:00","departure_time":"12:44:00","lat":49.192027,"lon":16.605234,"is_passed":false},{"stop_id":"U1257Z1","name":"Komenského náměstí","arrival_time":"12:48:00","departure_time":"12:48:00","lat":49.197047,"lon":16.601844,"is_passed":false},{"stop_id":"U1442Z1","name":"Obilní trh","arrival_time":"12:49:00","departure_time":"12:49:00","lat":49.198221,"lon":16.597478,"is_passed":false},{"stop_id":"U1712Z1","name":"Úvoz","arrival_time":"12:50:00","departure_time":"12:50:00","lat":49.19829,"lon":16.59265,"is_passed":false},{"stop_id":"U1762Z1","name":"Všetičkova","arrival_time":"12:51:00","departure_time":"12:51:00","lat":49.198749,"lon":16.588757,"is_passed":false},{"stop_id":"U1371Z1","name":"Náměstí Míru","arrival_time":"12:54:00","departure_time":"13:06:00","lat":49.202197,"lon":16.582014,"is_passed":false}],"55107":[{"stop_id":"U1371Z2","name":"Náměstí Míru","arrival_time":"13:06:00","departure_time":"13:06:00","lat":49.201971,"lon":16.581885,"is_passed":false},{"stop_id":"U1137Z1","name":"Heinrichova","arrival_time":"13:06:00","departure_time":"13:06:00","lat":49.200413,"lon":16.584511,"is_passed":false},{"stop_id":"U1762Z2","name":"Všetičkova","arrival_time":"13:07:00","departure_time":"13:07:00","lat":49.198648,"lon":16.589335,"is_passed":false},{"stop_id":"U1712Z2","name":"Úvoz","arrival_time":"13:08:00","departure_time":"13:08:00","lat":49.198275,"lon":16.593189,"is_passed":false},{"stop_id":"U1442Z2","name":"Obilní trh","arrival_time":"13:09:00","departure_time":"13:09:00","lat":49.198022,"lon":16.598215,"is_passed":false},{"stop_id":"U1257Z2","name":"Komenského náměstí","arrival_time":"13:11:00","departure_time":"13:11:00","lat":49.197135,"lon":16.602612,"is_passed":false},{"stop_id":"U1637Z1","name":"Šilingrovo náměstí","arrival_time":"13:14:00","departure_time":"13:14:00","lat":49.19171,"lon":16.605355,"is_passed":false},{"stop_id":"U1436Z2","name":"Nové sady","arrival_time":"13:16:00","departure_time":"13:16:00","lat":49.190222,"lon":16.609403,"is_passed":false},{"stop_id":"U1146Z2","name":"Hlavní nádraží","arrival_time":"13:18:00","departure_time":"13:18:00","lat":49.191394,"lon":16.612548,"is_passed":false},{"stop_id":"U1357Z2","name":"Malinovského náměstí","arrival_time":"13:20:00","departure_time":"13:20:00","lat":49.195034,"lon":16.614825,"is_passed":false},{"stop_id":"U1271Z1","name":"Körnerova","arrival_time":"13:22:00","departure_time":"13:22:00","lat":49.19828,"lon":16.619945,"is_passed":false},{"stop_id":"U1663Z1","name":"Tkalcovská","arrival_time":"13:24:00","departure_time":"13:24:00","lat":49.200261,"lon":16.626109,"is_passed":false},{"stop_id":"U1676Z1","name":"Trávníčkova","arrival_time":"13:26:00","departure_time":"13:26:00","lat":49.204439,"lon":16.625679,"is_passed":false},{"stop_id":"U1398Z1","name":"Mostecká","arrival_time":"13:27:00","departure_time":"13:27:00","lat":49.20703,"lon":16.627792,"is_passed":false},{"stop_id":"U1434Z1","name":"Vozovna Husovice","arrival_time":"13:28:00","departure_time":"13:28:00","lat":49.208331,"lon":16.629789,"is_passed":false},{"stop_id":"U1422Z1","name":"Náměstí Republiky","arrival_time":"13:29:00","departure_time":"13:29:00","lat":49.210591,"lon":16.633523,"is_passed":false},{"stop_id":"U1668Z1","name":"Tomkovo náměstí","arrival_time":"13:31:00","departure_time":"13:31:00","lat":49.214035,"lon":16.636587,"is_passed":false},{"stop_id":"U1358Z2","name":"Maloměřický most","arrival_time":"13:32:00","departure_time":"13:32:00","lat":49.215518,"lon":16.642987,"is_passed":false},{"stop_id":"U1521Z1","name":"Proškovo náměstí","arrival_time":"13:33:00","departure_time":"13:33:00","lat":49.220207,"lon":16.643397,"is_passed":false},{"stop_id":"U1447Z1","name":"Obřanská - u školy","arrival_time":"13:34:00","departure_time":"13:34:00","lat":49.222872,"lon":16.644811,"is_passed":false},{"stop_id":"U1077Z1","name":"Čtvery hony","arrival_time":"13:35:00","departure_time":"13:35:00","lat":49.226227,"lon":16.645584,"is_passed":false},{"stop_id":"U1448Z1","name":"Obřanský most","arrival_time":"13:36:00","departure_time":"13:36:00","lat":49.227602,"lon":16.650226,"is_passed":false},{"stop_id":"U1014Z1","name":"Babická","arrival_time":"13:38:00","departure_time":"14:02:00","lat":49.228004,"lon":16.652555,"is_passed":false}],"55108":[{"stop_id":"U1014Z2","name":"Babická","arrival_time":"14:02:00","departure_time":"14:02:00","lat":49.228129,"lon":16.652126,"is_passed":false},{"stop_id":"U1448Z2","name":"Obřanský most","arrival_time":"14:02:00","departure_time":"14:02:00","lat":49.227463,"lon":16.649577,"is_passed":false},{"stop_id":"U1077Z2","name":"Čtvery hony","arrival_time":"14:03:00","departure_time":"14:03:00","lat":49.225534,"lon":16.644942,"is_passed":false},{"stop_id":"U1447Z2","name":"Obřanská - u školy","arrival_time":"14:04:00","departure_time":"14:04:00","lat":49.22256,"lon":16.644731,"is_passed":false},{"stop_id":"U1521Z2","name":"Proškovo náměstí","arrival_time":"14:05:00","departure_time":"14:05:00","lat":49.21983,"lon":16.643286,"is_passed":false},{"stop_id":"U1358Z1","name":"Maloměřický most","arrival_time":"14:06:00","departure_time":"14:06:00","lat":49.21558,"lon":16.642601,"is_passed":false},{"stop_id":"U1668Z2","name":"Tomkovo náměstí","arrival_time":"14:08:00","departure_time":"14:08:00","lat":49.213819,"lon":16.636067,"is_passed":false},{"stop_id":"U1422Z2","name":"Náměstí Republiky","arrival_time":"14:09:00","departure_time":"14:09:00","lat":49.211428,"lon":16.634106,"is_passed":false},{"stop_id":"U1434Z2","name":"Vozovna Husovice","arrival_time":"14:10:00","departure_time":"14:10:00","lat":49.208534,"lon":16.629847,"is_passed":false},{"stop_id":"U1398Z2","name":"Mostecká","arrival_time":"14:12:00","departure_time":"14:12:00","lat":49.206873,"lon":16.626866,"is_passed":false},{"stop_id":"U1676Z2","name":"Trávníčkova","arrival_time":"14:13:00","departure_time":"14:13:00","lat":49.204401,"lon":16.625637,"is_passed":false},{"stop_id":"U1663Z2","name":"Tkalcovská","arrival_time":"14:15:00","departure_time":"14:15:00","lat":49.199805,"lon":16.625934,"is_passed":false},{"stop_id":"U1271Z2","name":"Körnerova","arrival_time":"14:16:00","departure_time":"14:16:00","lat":49.198152,"lon":16.619504,"is_passed":false},{"stop_id":"U1357Z1","name":"Malinovského náměstí","arrival_time":"14:19:00","departure_time":"14:19:00","lat":49.195492,"lon":16.61386,"is_passed":false},{"stop_id":"U1146Z1","name":"Hlavní nádraží","arrival_time":"14:22:00","departure_time":"14:22:00","lat":49.191185,"lon":16.611879,"is_passed":false},{"stop_id":"U1436Z1","name":"Nové sady","arrival_time":"14:23:00","departure_time":"14:23:00","lat":49.190116,"lon":16.609025,"is_passed":false},{"stop_id":"U1637Z2","name":"Šilingrovo náměstí","arrival_time":"14:24:00","departure_time":"14:24:00","lat":49.192027,"lon":16.605234,"is_passed":false},{"stop_id":"U1257Z1","name":"Komenského náměstí","arrival_time":"14:28:00","departure_time":"14:28:00","lat":49.197047,"lon":16.601844,"is_passed":false},{"stop_id":"U1442Z1","name":"Obilní trh","arrival_time":"14:29:00","departure_time":"14:29:00","lat":49.198221,"lon":16.597478,"is_passed":false},{"stop_id":"U1712Z1","name":"Úvoz","arrival_time":"14:30:00","departure_time":"14:30:00","lat":49.19829,"lon":16.59265,"is_passed":false},{"stop_id":"U1762Z1","name":"Všetičkova","arrival_time":"14:31:00","departure_time":"14:31:00","lat":49.198749,"lon":16.588757,"is_passed":false},{"stop_id":"U1371Z1","name":"Náměstí Míru","arrival_time":"14:34:00","departure_time":"14:46:00","lat":49.202197,"lon":16.582014,"is_passed":false}],"55109":[{"stop_id":"U1371Z2","name":"Náměstí Míru","arrival_time":"14:46:00","departure_time":"14:46:00","lat":49.201971,"lon":16.581885,"is_passed":false},{"stop_id":"U1137Z1","name":"Heinrichova","arrival_time":"14:46:00","departure_time":"14:46:00","lat":49.200413,"lon":16.584511,"is_passed":false},{"stop_id":"U1762Z2","name":"Všetičkova","arrival_time":"14:47:00","departure_time":"14:47:00","lat":49.198648,"lon":16.589335,"is_passed":false},{"stop_id":"U1712Z2","name":"Úvoz","arrival_time":"14:48:00","departure_time":"14:48:00","lat":49.198275,"lon":16.593189,"is_passed":false},{"stop_id":"U1442Z2","name":"Obilní trh","arrival_time":"14:49:00","departure_time":"14:49:00","lat":49.198022,"lon":16.598215,"is_passed":false},{"stop_id":"U1257Z2","name":"Komenského náměstí","arrival_time":"14:51:00","departure_time":"14:51:00","lat":49.197135,"lon":16.602612,"is_passed":false},{"stop_id":"U1637Z1","name":"Šilingrovo náměstí","arrival_time":"14:54:00","departure_time":"14:54:00","lat":49.19171,"lon":16.605355,"is_passed":false},{"stop_id":"U1436Z2","name":"Nové sady","arrival_time":"14:56:00","departure_time":"14:56:00","lat":49.190222,"lon":16.609403,"is_passed":false},{"stop_id":"U1146Z2","name":"Hlavní nádraží","arrival_time":"14:58:00","departure_time":"14:58:00","lat":49.191394,"lon":16.612548,"is_passed":false},{"stop_id":"U1357Z2","name":"Malinovského náměstí","arrival_time":"15:00:00","departure_time":"15:00:00","lat":49.195034,"lon":16.614825,"is_passed":false},{"stop_id":"U1271Z1","name":"Körnerova","arrival_time":"15:02:00","departure_time":"15:02:00","lat":49.19828,"lon":16.619945,"is_passed":false},{"stop_id":"U1663Z1","name":"Tkalcovská","arrival_time":"15:04:00","departure_time":"15:04:00","lat":49.200261,"lon":16.626109,"is_passed":false},{"stop_id":"U1676Z1","name":"Trávníčkova","arrival_time":"15:06:00","departure_time":"15:06:00","lat":49.204439,"lon":16.625679,"is_passed":false},{"stop_id":"U1398Z1","name":"Mostecká","arrival_time":"15:07:00","departure_time":"15:07:00","lat":49.20703,"lon":16.627792,"is_passed":false},{"stop_id":"U1434Z1","name":"Vozovna Husovice","arrival_time":"15:08:00","departure_time":"15:08:00","lat":49.208331,"lon":16.629789,"is_passed":false},{"stop_id":"U1422Z1","name":"Náměstí Republiky","arrival_time":"15:09:00","departure_time":"15:09:00","lat":49.210591,"lon":16.633523,"is_passed":false},{"stop_id":"U1668Z1","name":"Tomkovo náměstí","arrival_time":"15:11:00","departure_time":"15:11:00","lat":49.214035,"lon":16.636587,"is_passed":false},{"stop_id":"U1358Z2","name":"Maloměřický most","arrival_time":"15:12:00","departure_time":"15:12:00","lat":49.215518,"lon":16.642987,"is_passed":false},{"stop_id":"U1521Z1","name":"Proškovo náměstí","arrival_time":"15:13:00","departure_time":"15:13:00","lat":49.220207,"lon":16.643397,"is_passed":false},{"stop_id":"U1447Z1","name":"Obřanská - u školy","arrival_time":"15:14:00","departure_time":"15:14:00","lat":49.222872,"lon":16.644811,"is_passed":false},{"stop_id":"U1077Z1","name":"Čtvery hony","arrival_time":"15:15:00","departure_time":"15:15:00","lat":49.226227,"lon":16.645584,"is_passed":false},{"stop_id":"U1448Z1","name":"Obřanský most","arrival_time":"15:16:00","departure_time":"15:16:00","lat":49.227602,"lon":16.650226,"is_passed":false},{"stop_id":"U1014Z1","name":"Babická","arrival_time":"15:18:00","departure_time":"15:42:00","lat":49.228004,"lon":16.652555,"is_passed":false}],"55110":[{"stop_id":"U1014Z2","name":"Babická","arrival_time":"15:42:00","departure_time":"15:42:00","lat":49.228129,"lon":16.652126,"is_passed":false},{"stop_id":"U1448Z2","name":"Obřanský most","arrival_time":"15:42:00","departure_time":"15:42:00","lat":49.227463,"lon":16.649577,"is_passed":false},{"stop_id":"U1077Z2","name":"Čtvery hony","arrival_time":"15:43:00","departure_time":"15:43:00","lat":49.225534,"lon":16.644942,"is_passed":false},{"stop_id":"U1447Z2","name":"Obřanská - u školy","arrival_time":"15:44:00","departure_time":"15:44:00","lat":49.22256,"lon":16.644731,"is_passed":false},{"stop_id":"U1521Z2","name":"Proškovo náměstí","arrival_time":"15:45:00","departure_time":"15:45:00","lat":49.21983,"lon":16.643286,"is_passed":false},{"stop_id":"U1358Z1","name":"Maloměřický most","arrival_time":"15:46:00","departure_time":"15:46:00","lat":49.21558,"lon":16.642601,"is_passed":false},{"stop_id":"U1668Z2","name":"Tomkovo náměstí","arrival_time":"15:48:00","departure_time":"15:48:00","lat":49.213819,"lon":16.636067,"is_passed":false},{"stop_id":"U1422Z2","name":"Náměstí Republiky","arrival_time":"15:49:00","departure_time":"15:49:00","lat":49.211428,"lon":16.634106,"is_passed":false},{"stop_id":"U1434Z2","name":"Vozovna Husovice","arrival_time":"15:50:00","departure_time":"15:50:00","lat":49.208534,"lon":16.629847,"is_passed":false},{"stop_id":"U1398Z2","name":"Mostecká","arrival_time":"15:52:00","departure_time":"15:52:00","lat":49.206873,"lon":16.626866,"is_passed":false},{"stop_id":"U1676Z2","name":"Trávníčkova","arrival_time":"15:53:00","departure_time":"15:53:00","lat":49.204401,"lon":16.625637,"is_passed":false},{"stop_id":"U1663Z2","name":"Tkalcovská","arrival_time":"15:55:00","departure_time":"15:55:00","lat":49.199805,"lon":16.625934,"is_passed":false},{"stop_id":"U1271Z2","name":"Körnerova","arrival_time":"15:56:00","departure_time":"15:56:00","lat":49.198152,"lon":16.619504,"is_passed":false},{"stop_id":"U1357Z1","name":"Malinovského náměstí","arrival_time":"15:59:00","departure_time":"15:59:00","lat":49.195492,"lon":16.61386,"is_passed":false},{"stop_id":"U1146Z1","name":"Hlavní nádraží","arrival_time":"16:02:00","departure_time":"16:02:00","lat":49.191185,"lon":16.611879,"is_passed":false},{"stop_id":"U1436Z1","name":"Nové sady","arrival_time":"16:03:00","departure_time":"16:03:00","lat":49.190116,"lon":16.609025,"is_passed":false},{"stop_id":"U1637Z2","name":"Šilingrovo náměstí","arrival_time":"16:04:00","departure_time":"16:04:00","lat":49.192027,"lon":16.605234,"is_passed":false},{"stop_id":"U1257Z1","name":"Komenského náměstí","arrival_time":"16:08:00","departure_time":"16:08:00","lat":49.197047,"lon":16.601844,"is_passed":false},{"stop_id":"U1442Z1","name":"Obilní trh","arrival_time":"16:09:00","departure_time":"16:09:00","lat":49.198221,"lon":16.597478,"is_passed":false},{"stop_id":"U1712Z1","name":"Úvoz","arrival_time":"16:10:00","departure_time":"16:10:00","lat":49.19829,"lon":16.59265,"is_passed":false},{"stop_id":"U1762Z1","name":"Všetičkova","arrival_time":"16:11:00","departure_time":"16:11:00","lat":49.198749,"lon":16.588757,"is_passed":false},{"stop_id":"U1371Z1","name":"Náměstí Míru","arrival_time":"16:14:00","departure_time":"16:26:00","lat":49.202197,"lon":16.582014,"is_passed":false}],"55111":[{"stop_id":"U1371Z2","name":"Náměstí Míru","arrival_time":"16:26:00","departure_time":"16:26:00","lat":49.201971,"lon":16.581885,"is_passed":false},{"stop_id":"U1137Z1","name":"Heinrichova","arrival_time":"16:26:00","departure_time":"16:26:00","lat":49.200413,"lon":16.584511,"is_passed":false},{"stop_id":"U1762Z2","name":"Všetičkova","arrival_time":"16:27:00","departure_time":"16:27:00","lat":49.198648,"lon":16.589335,"is_passed":false},{"stop_id":"U1712Z2","name":"Úvoz","arrival_time":"16:28:00","departure_time":"16:28:00","lat":49.198275,"lon":16.593189,"is_passed":false},{"stop_id":"U1442Z2","name":"Obilní trh","arrival_time":"16:29:00","departure_time":"16:29:00","lat":49.198022,"lon":16.598215,"is_passed":false},{"stop_id":"U1257Z2","name":"Komenského náměstí","arrival_time":"16:31:00","departure_time":"16:31:00","lat":49.197135,"lon":16.602612,"is_passed":false},{"stop_id":"U1637Z1","name":"Šilingrovo náměstí","arrival_time":"16:34:00","departure_time":"16:34:00","lat":49.19171,"lon":16.605355,"is_passed":false},{"stop_id":"U1436Z2","name":"Nové sady","arrival_time":"16:36:00","departure_time":"16:36:00","lat":49.190222,"lon":16.609403,"is_passed":false},{"stop_id":"U1146Z2","name":"Hlavní nádraží","arrival_time":"16:38:00","departure_time":"16:38:00","lat":49.191394,"lon":16.612548,"is_passed":false},{"stop_id":"U1357Z2","name":"Malinovského náměstí","arrival_time":"16:40:00","departure_time":"16:40:00","lat":49.195034,"lon":16.614825,"is_passed":false},{"stop_id":"U1271Z1","name":"Körnerova","arrival_time":"16:42:00","departure_time":"16:42:00","lat":49.19828,"lon":16.619945,"is_passed":false},{"stop_id":"U1663Z1","name":"Tkalcovská","arrival_time":"16:44:00","departure_time":"16:44:00","lat":49.200261,"lon":16.626109,"is_passed":false},{"stop_id":"U1676Z1","name":"Trávníčkova","arrival_time":"16:46:00","departure_time":"16:46:00","lat":49.204439,"lon":16.625679,"is_passed":false},{"stop_id":"U1398Z1","name":"Mostecká","arrival_time":"16:47:00","departure_time":"16:47:00","lat":49.20703,"lon":16.627792,"is_passed":false},{"stop_id":"U1434Z1","name":"Vozovna Husovice","arrival_time":"16:48:00","departure_time":"16:48:00","lat":49.208331,"lon":16.629789,"is_passed":false},{"stop_id":"U1422Z1","name":"Náměstí Republiky","arrival_time":"16:49:00","departure_time":"16:49:00","lat":49.210591,"lon":16.633523,"is_passed":false},{"stop_id":"U1668Z1","name":"Tomkovo náměstí","arrival_time":"16:51:00","departure_time":"16:51:00","lat":49.214035,"lon":16.636587,"is_passed":false},{"stop_id":"U1358Z2","name":"Maloměřický most","arrival_time":"16:52:00","departure_time":"16:52:00","lat":49.215518,"lon":16.642987,"is_passed":false},{"stop_id":"U1521Z1","name":"Proškovo náměstí","arrival_time":"16:53:00","departure_time":"16:53:00","lat":49.220207,"lon":16.643397,"is_passed":false},{"stop_id":"U1447Z1","name":"Obřanská - u školy","arrival_time":"16:54:00","departure_time":"16:54:00","lat":49.222872,"lon":16.644811,"is_passed":false},{"stop_id":"U1077Z1","name":"Čtvery hony","arrival_time":"16:55:00","departure_time":"16:55:00","lat":49.226227,"lon":16.645584,"is_passed":false},{"stop_id":"U1448Z1","name":"Obřanský most","arrival_time":"16:56:00","departure_time":"16:56:00","lat":49.227602,"lon":16.650226,"is_passed":false},{"stop_id":"U1014Z1","name":"Babická","arrival_time":"16:58:00","departure_time":"17:22:00","lat":49.228004,"lon":16.652555,"is_passed":false}],"55112":[{"stop_id":"U1014Z2","name":"Babická","arrival_time":"17:22:00","departure_time":"17:22:00","lat":49.228129,"lon":16.652126,"is_passed":false},{"stop_id":"U1448Z2","name":"Obřanský most","arrival_time":"17:22:00","departure_time":"17:22:00","lat":49.227463,"lon":16.649577,"is_passed":false},{"stop_id":"U1077Z2","name":"Čtvery hony","arrival_time":"17:23:00","departure_time":"17:23:00","lat":49.225534,"lon":16.644942,"is_passed":false},{"stop_id":"U1447Z2","name":"Obřanská - u školy","arrival_time":"17:24:00","departure_time":"17:24:00","lat":49.22256,"lon":16.644731,"is_passed":false},{"stop_id":"U1521Z2","name":"Proškovo náměstí","arrival_time":"17:25:00","departure_time":"17:25:00","lat":49.21983,"lon":16.643286,"is_passed":false},{"stop_id":"U1358Z1","name":"Maloměřický most","arrival_time":"17:26:00","departure_time":"17:26:00","lat":49.21558,"lon":16.642601,"is_passed":false},{"stop_id":"U1668Z2","name":"Tomkovo náměstí","arrival_time":"17:28:00","departure_time":"17:28:00","lat":49.213819,"lon":16.636067,"is_passed":false},{"stop_id":"U1422Z2","name":"Náměstí Republiky","arrival_time":"17:29:00","departure_time":"17:29:00","lat":49.211428,"lon":16.634106,"is_passed":false},{"stop_id":"U1434Z2","name":"Vozovna Husovice","arrival_time":"17:30:00","departure_time":"17:30:00","lat":49.208534,"lon":16.629847,"is_passed":false},{"stop_id":"U1398Z2","name":"Mostecká","arrival_time":"17:32:00","departure_time":"17:32:00","lat":49.206873,"lon":16.626866,"is_passed":false},{"stop_id":"U1676Z2","name":"Trávníčkova","arrival_time":"17:33:00","departure_time":"17:33:00","lat":49.204401,"lon":16.625637,"is_passed":false},{"stop_id":"U1663Z2","name":"Tkalcovská","arrival_time":"17:35:00","departure_time":"17:35:00","lat":49.199805,"lon":16.625934,"is_passed":false},{"stop_id":"U1271Z2","name":"Körnerova","arrival_time":"17:36:00","departure_time":"17:36:00","lat":49.198152,"lon":16.619504,"is_passed":false},{"stop_id":"U1357Z1","name":"Malinovského náměstí","arrival_time":"17:39:00","departure_time":"17:39:00","lat":49.195492,"lon":16.61386,"is_passed":false},{"stop_id":"U1146Z1","name":"Hlavní nádraží","arrival_time":"17:42:00","departure_time":"17:42:00","lat":49.191185,"lon":16.611879,"is_passed":false},{"stop_id":"U1436Z1","name":"Nové sady","arrival_time":"17:43:00","departure_time":"17:43:00","lat":49.190116,"lon":16.609025,"is_passed":false},{"stop_id":"U1637Z2","name":"Šilingrovo náměstí","arrival_time":"17:44:00","departure_time":"17:44:00","lat":49.192027,"lon":16.605234,"is_passed":false},{"stop_id":"U1257Z1","name":"Komenského náměstí","arrival_time":"17:48:00","departure_time":"17:48:00","lat":49.197047,"lon":16.601844,"is_passed":false},{"stop_id":"U1442Z1","name":"Obilní trh","arrival_time":"17:49:00","departure_time":"17:49:00","lat":49.198221,"lon":16.597478,"is_passed":false},{"stop_id":"U1712Z1","name":"Úvoz","arrival_time":"17:50:00","departure_time":"17:50:00","lat":49.19829,"lon":16.59265,"is_passed":false},{"stop_id":"U1762Z1","name":"Všetičkova","arrival_time":"17:51:00","departure_time":"17:51:00","lat":49.198749,"lon":16.588757,"is_passed":false},{"stop_id":"U1371Z1","name":"Náměstí Míru","arrival_time":"17:54:00","departure_time":"18:06:00","lat":49.202197,"lon":16.582014,"is_passed":false}],"55113":[{"stop_id":"U1371Z2","name":"Náměstí Míru","arrival_time":"18:06:00","departure_time":"18:06:00","lat":49.201971,"lon":16.581885,"is_passed":false},{"stop_id":"U1137Z1","name":"Heinrichova","arrival_time":"18:06:00","departure_time":"18:06:00","lat":49.200413,"lon":16.584511,"is_passed":false},{"stop_id":"U1762Z2","name":"Všetičkova","arrival_time":"18:07:00","departure_time":"18:07:00","lat":49.198648,"lon":16.589335,"is_passed":false},{"stop_id":"U1712Z2","name":"Úvoz","arrival_time":"18:08:00","departure_time":"18:08:00","lat":49.198275,"lon":16.593189,"is_passed":false},{"stop_id":"U1442Z2","name":"Obilní trh","arrival_time":"18:09:00","departure_time":"18:09:00","lat":49.198022,"lon":16.598215,"is_passed":false},{"stop_id":"U1257Z2","name":"Komenského náměstí","arrival_time":"18:11:00","departure_time":"18:11:00","lat":49.197135,"lon":16.602612,"is_passed":false},{"stop_id":"U1637Z1","name":"Šilingrovo náměstí","arrival_time":"18:14:00","departure_time":"18:14:00","lat":49.19171,"lon":16.605355,"is_passed":false},{"stop_id":"U1436Z2","name":"Nové sady","arrival_time":"18:16:00","departure_time":"18:16:00","lat":49.190222,"lon":16.609403,"is_passed":false},{"stop_id":"U1146Z2","name":"Hlavní nádraží","arrival_time":"18:18:00","departure_time":"18:18:00","lat":49.191394,"lon":16.612548,"is_passed":false},{"stop_id":"U1357Z2","name":"Malinovského náměstí","arrival_time":"18:20:00","departure_time":"18:20:00","lat":49.195034,"lon":16.614825,"is_passed":false},{"stop_id":"U1271Z1","name":"Körnerova","arrival_time":"18:22:00","departure_time":"18:22:00","lat":49.19828,"lon":16.619945,"is_passed":false},{"stop_id":"U1663Z1","name":"Tkalcovská","arrival_time":"18:24:00","departure_time":"18:24:00","lat":49.200261,"lon":16.626109,"is_passed":false},{"stop_id":"U1676Z1","name":"Trávníčkova","arrival_time":"18:26:00","departure_time":"18:26:00","lat":49.204439,"lon":16.625679,"is_passed":false},{"stop_id":"U1398Z1","name":"Mostecká","arrival_time":"18:27:00","departure_time":"18:27:00","lat":49.20703,"lon":16.627792,"is_passed":false},{"stop_id":"U1434Z1","name":"Vozovna Husovice","arrival_time":"18:28:00","departure_time":"18:28:00","lat":49.208331,"lon":16.629789,"is_passed":false},{"stop_id":"U1422Z1","name":"Náměstí Republiky","arrival_time":"18:29:00","departure_time":"18:29:00","lat":49.210591,"lon":16.633523,"is_passed":false},{"stop_id":"U1668Z1","name":"Tomkovo náměstí","arrival_time":"18:31:00","departure_time":"18:31:00","lat":49.214035,"lon":16.636587,"is_passed":false},{"stop_id":"U1358Z2","name":"Maloměřický most","arrival_time":"18:32:00","departure_time":"18:32:00","lat":49.215518,"lon":16.642987,"is_passed":false},{"stop_id":"U1521Z1","name":"Proškovo náměstí","arrival_time":"18:33:00","departure_time":"18:33:00","lat":49.220207,"lon":16.643397,"is_passed":false},{"stop_id":"U1447Z1","name":"Obřanská - u školy","arrival_time":"18:34:00","departure_time":"18:34:00","lat":49.222872,"lon":16.644811,"is_passed":false},{"stop_id":"U1077Z1","name":"Čtvery hony","arrival_time":"18:35:00","departure_time":"18:35:00","lat":49.226227,"lon":16.645584,"is_passed":false},{"stop_id":"U1448Z1","name":"Obřanský most","arrival_time":"18:36:00","departure_time":"18:36:00","lat":49.227602,"lon":16.650226,"is_passed":false},{"stop_id":"U1014Z1","name":"Babická","arrival_time":"18:38:00","departure_time":"18:52:00","lat":49.228004,"lon":16.652555,"is_passed":false}],"55114":[{"stop_id":"U1014Z2","name":"Babická","arrival_time":"18:52:00","departure_time":"18:52:00","lat":49.228129,"lon":16.652126,"is_passed":false},{"stop_id":"U1448Z2","name":"Obřanský most","arrival_time":"18:52:00","departure_time":"18:52:00","lat":49.227463,"lon":16.649577,"is_passed":false},{"stop_id":"U1077Z2","name":"Čtvery hony","arrival_time":"18:53:00","departure_time":"18:53:00","lat":49.225534,"lon":16.644942,"is_passed":false},{"stop_id":"U1447Z2","name":"Obřanská - u školy","arrival_time":"18:54:00","departure_time":"18:54:00","lat":49.22256,"lon":16.644731,"is_passed":false},{"stop_id":"U1521Z2","name":"Proškovo náměstí","arrival_time":"18:55:00","departure_time":"18:55:00","lat":49.21983,"lon":16.643286,"is_passed":false},{"stop_id":"U1358Z1","name":"Maloměřický most","arrival_time":"18:56:00","departure_time":"18:56:00","lat":49.21558,"lon":16.642601,"is_passed":false},{"stop_id":"U1668Z2","name":"Tomkovo náměstí","arrival_time":"18:58:00","departure_time":"18:58:00","lat":49.213819,"lon":16.636067,"is_passed":false},{"stop_id":"U1422Z2","name":"Náměstí Republiky","arrival_time":"18:59:00","departure_time":"18:59:00","lat":49.211428,"lon":16.634106,"is_passed":false},{"stop_id":"U1434Z2","name":"Vozovna Husovice","arrival_time":"19:00:00","departure_time":"19:00:00","lat":49.208534,"lon":16.629847,"is_passed":false},{"stop_id":"U1398Z2","name":"Mostecká","arrival_time":"19:02:00","departure_time":"19:02:00","lat":49.206873,"lon":16.626866,"is_passed":false},{"stop_id":"U1676Z2","name":"Trávníčkova","arrival_time":"19:03:00","departure_time":"19:03:00","lat":49.204401,"lon":16.625637,"is_passed":false},{"stop_id":"U1663Z2","name":"Tkalcovská","arrival_time":"19:05:00","departure_time":"19:05:00","lat":49.199805,"lon":16.625934,"is_passed":false},{"stop_id":"U1271Z2","name":"Körnerova","arrival_time":"19:06:00","departure_time":"19:06:00","lat":49.198152,"lon":16.619504,"is_passed":false},{"stop_id":"U1357Z1","name":"Malinovského náměstí","arrival_time":"19:09:00","departure_time":"19:09:00","lat":49.195492,"lon":16.61386,"is_passed":false},{"stop_id":"U1146Z1","name":"Hlavní nádraží","arrival_time":"19:12:00","departure_time":"19:12:00","lat":49.191185,"lon":16.611879,"is_passed":false},{"stop_id":"U1436Z1","name":"Nové sady","arrival_time":"19:13:00","departure_time":"19:13:00","lat":49.190116,"lon":16.609025,"is_passed":false},{"stop_id":"U1637Z2","name":"Šilingrovo náměstí","arrival_time":"19:14:00","departure_time":"19:14:00","lat":49.192027,"lon":16.605234,"is_passed":false},{"stop_id":"U1257Z1","name":"Komenského náměstí","arrival_time":"19:18:00","departure_time":"19:18:00","lat":49.197047,"lon":16.601844,"is_passed":false},{"stop_id":"U1442Z1","name":"Obilní trh","arrival_time":"19:19:00","departure_time":"19:19:00","lat":49.198221,"lon":16.597478,"is_passed":false},{"stop_id":"U1712Z1","name":"Úvoz","arrival_time":"19:20:00","departure_time":"19:20:00","lat":49.19829,"lon":16.59265,"is_passed":false},{"stop_id":"U1762Z1","name":"Všetičkova","arrival_time":"19:21:00","departure_time":"19:21:00","lat":49.198749,"lon":16.588757,"is_passed":false},{"stop_id":"U1371Z1","name":"Náměstí Míru","arrival_time":"19:24:00","departure_time":"19:36:00","lat":49.202197,"lon":16.582014,"is_passed":false}],"55115":[{"stop_id":"U1371Z2","name":"Náměstí Míru","arrival_time":"19:36:00","departure_time":"19:36:00","lat":49.201971,"lon":16.581885,"is_passed":false},{"stop_id":"U1137Z1","name":"Heinrichova","arrival_time":"19:36:00","departure_time":"19:36:00","lat":49.200413,"lon":16.584511,"is_passed":false},{"stop_id":"U1762Z2","name":"Všetičkova","arrival_time":"19:37:00","departure_time":"19:37:00","lat":49.198648,"lon":16.589335,"is_passed":false},{"stop_id":"U1712Z2","name":"Úvoz","arrival_time":"19:38:00","departure_time":"19:38:00","lat":49.198275,"lon":16.593189,"is_passed":false},{"stop_id":"U1442Z2","name":"Obilní trh","arrival_time":"19:39:00","departure_time":"19:39:00","lat":49.198022,"lon":16.598215,"is_passed":false},{"stop_id":"U1257Z2","name":"Komenského náměstí","arrival_time":"19:41:00","departure_time":"19:41:00","lat":49.197135,"lon":16.602612,"is_passed":false},{"stop_id":"U1637Z1","name":"Šilingrovo náměstí","arrival_time":"19:44:00","departure_time":"19:44:00","lat":49.19171,"lon":16.605355,"is_passed":false},{"stop_id":"U1436Z2","name":"Nové sady","arrival_time":"19:46:00","departure_time":"19:46:00","lat":49.190222,"lon":16.609403,"is_passed":false},{"stop_id":"U1146Z2","name":"Hlavní nádraží","arrival_time":"19:48:00","departure_time":"19:48:00","lat":49.191394,"lon":16.612548,"is_passed":false},{"stop_id":"U1357Z2","name":"Malinovského náměstí","arrival_time":"19:50:00","departure_time":"19:50:00","lat":49.195034,"lon":16.614825,"is_passed":false},{"stop_id":"U1271Z1","name":"Körnerova","arrival_time":"19:52:00","departure_time":"19:52:00","lat":49.19828,"lon":16.619945,"is_passed":false},{"stop_id":"U1663Z1","name":"Tkalcovská","arrival_time":"19:54:00","departure_time":"19:54:00","lat":49.200261,"lon":16.626109,"is_passed":false},{"stop_id":"U1676Z1","name":"Trávníčkova","arrival_time":"19:56:00","departure_time":"19:56:00","lat":49.204439,"lon":16.625679,"is_passed":false},{"stop_id":"U1398Z1","name":"Mostecká","arrival_time":"19:57:00","departure_time":"19:57:00","lat":49.20703,"lon":16.627792,"is_passed":false},{"stop_id":"U1434Z1","name":"Vozovna Husovice","arrival_time":"19:58:00","departure_time":"19:58:00","lat":49.208331,"lon":16.629789,"is_passed":false},{"stop_id":"U1422Z1","name":"Náměstí Republiky","arrival_time":"19:59:00","departure_time":"19:59:00","lat":49.210591,"lon":16.633523,"is_passed":false},{"stop_id":"U1668Z1","name":"Tomkovo náměstí","arrival_time":"20:01:00","departure_time":"20:01:00","lat":49.214035,"lon":16.636587,"is_passed":false},{"stop_id":"U1358Z2","name":"Maloměřický most","arrival_time":"20:02:00","departure_time":"20:02:00","lat":49.215518,"lon":16.642987,"is_passed":false},{"stop_id":"U1521Z1","name":"Proškovo náměstí","arrival_time":"20:03:00","departure_time":"20:03:00","lat":49.220207,"lon":16.643397,"is_passed":false},{"stop_id":"U1447Z1","name":"Obřanská - u školy","arrival_time":"20:04:00","departure_time":"20:04:00","lat":49.222872,"lon":16.644811,"is_passed":false},{"stop_id":"U1077Z1","name":"Čtvery hony","arrival_time":"20:05:00","departure_time":"20:05:00","lat":49.226227,"lon":16.645584,"is_passed":false},{"stop_id":"U1448Z1","name":"Obřanský most","arrival_time":"20:06:00","departure_time":"20:06:00","lat":49.227602,"lon":16.650226,"is_passed":false},{"stop_id":"U1014Z1","name":"Babická","arrival_time":"20:08:00","departure_time":"20:12:00","lat":49.228004,"lon":16.652555,"is_passed":false}],"55116":[{"stop_id":"U1014Z2","name":"Babická","arrival_time":"20:12:00","departure_time":"20:12:00","lat":49.228129,"lon":16.652126,"is_passed":false},{"stop_id":"U1448Z2","name":"Obřanský most","arrival_time":"20:12:00","departure_time":"20:12:00","lat":49.227463,"lon":16.649577,"is_passed":false},{"stop_id":"U1077Z2","name":"Čtvery hony","arrival_time":"20:13:00","departure_time":"20:13:00","lat":49.225534,"lon":16.644942,"is_passed":false},{"stop_id":"U1447Z2","name":"Obřanská - u školy","arrival_time":"20:14:00","departure_time":"20:14:00","lat":49.22256,"lon":16.644731,"is_passed":false},{"stop_id":"U1521Z2","name":"Proškovo náměstí","arrival_time":"20:15:00","departure_time":"20:15:00","lat":49.21983,"lon":16.643286,"is_passed":false},{"stop_id":"U1358Z1","name":"Maloměřický most","arrival_time":"20:16:00","departure_time":"20:16:00","lat":49.21558,"lon":16.642601,"is_passed":false},{"stop_id":"U1668Z2","name":"Tomkovo náměstí","arrival_time":"20:18:00","departure_time":"20:18:00","lat":49.213819,"lon":16.636067,"is_passed":false},{"stop_id":"U1422Z2","name":"Náměstí Republiky","arrival_time":"20:19:00","departure_time":"20:19:00","lat":49.211428,"lon":16.634106,"is_passed":false},{"stop_id":"U1434Z2","name":"Vozovna Husovice","arrival_time":"20:20:00","departure_time":"20:20:00","lat":49.208534,"lon":16.629847,"is_passed":false},{"stop_id":"U1398Z2","name":"Mostecká","arrival_time":"20:22:00","departure_time":"20:22:00","lat":49.206873,"lon":16.626866,"is_passed":false},{"stop_id":"U1676Z2","name":"Trávníčkova","arrival_time":"20:23:00","departure_time":"20:23:00","lat":49.204401,"lon":16.625637,"is_passed":false},{"stop_id":"U1663Z2","name":"Tkalcovská","arrival_time":"20:25:00","departure_time":"20:25:00","lat":49.199805,"lon":16.625934,"is_passed":false},{"stop_id":"U1271Z2","name":"Körnerova","arrival_time":"20:26:00","departure_time":"20:26:00","lat":49.198152,"lon":16.619504,"is_passed":false},{"stop_id":"U1357Z1","name":"Malinovského náměstí","arrival_time":"20:29:00","departure_time":"20:29:00","lat":49.195492,"lon":16.61386,"is_passed":false},{"stop_id":"U1146Z1","name":"Hlavní nádraží","arrival_time":"20:32:00","departure_time":"20:32:00","lat":49.191185,"lon":16.611879,"is_passed":false},{"stop_id":"U1436Z1","name":"Nové sady","arrival_time":"20:33:00","departure_time":"20:33:00","lat":49.190116,"lon":16.609025,"is_passed":false},{"stop_id":"U1637Z2","name":"Šilingrovo náměstí","arrival_time":"20:34:00","departure_time":"20:34:00","lat":49.192027,"lon":16.605234,"is_passed":false},{"stop_id":"U1257Z1","name":"Komenského náměstí","arrival_time":"20:38:00","departure_time":"20:38:00","lat":49.197047,"lon":16.601844,"is_passed":false},{"stop_id":"U1442Z1","name":"Obilní trh","arrival_time":"20:39:00","departure_time":"20:39:00","lat":49.198221,"lon":16.597478,"is_passed":false},{"stop_id":"U1712Z1","name":"Úvoz","arrival_time":"20:40:00","departure_time":"20:40:00","lat":49.19829,"lon":16.59265,"is_passed":false},{"stop_id":"U1762Z1","name":"Všetičkova","arrival_time":"20:41:00","departure_time":"20:41:00","lat":49.198749,"lon":16.588757,"is_passed":false},{"stop_id":"U1371Z1","name":"Náměstí Míru","arrival_time":"20:44:00","departure_time":"20:54:00","lat":49.202197,"lon":16.582014,"is_passed":false}],"55117":[{"stop_id":"U1371Z2","name":"Náměstí Míru","arrival_time":"20:54:00","departure_time":"20:54:00","lat":49.201971,"lon":16.581885,"is_passed":false},{"stop_id":"U1137Z1","name":"Heinrichova","arrival_time":"20:54:00","departure_time":"20:54:00","lat":49.200413,"lon":16.584511,"is_passed":false},{"stop_id":"U1762Z2","name":"Všetičkova","arrival_time":"20:55:00","departure_time":"20:55:00","lat":49.198648,"lon":16.589335,"is_passed":false},{"stop_id":"U1712Z2","name":"Úvoz","arrival_time":"20:56:00","departure_time":"20:56:00","lat":49.198275,"lon":16.593189,"is_passed":false},{"stop_id":"U1442Z2","name":"Obilní trh","arrival_time":"20:57:00","departure_time":"20:57:00","lat":49.198022,"lon":16.598215,"is_passed":false},{"stop_id":"U1257Z2","name":"Komenského náměstí","arrival_time":"20:59:00","departure_time":"20:59:00","lat":49.197135,"lon":16.602612,"is_passed":false},{"stop_id":"U1637Z1","name":"Šilingrovo náměstí","arrival_time":"21:01:00","departure_time":"21:01:00","lat":49.19171,"lon":16.605355,"is_passed":false},{"stop_id":"U1436Z2","name":"Nové sady","arrival_time":"21:03:00","departure_time":"21:03:00","lat":49.190222,"lon":16.609403,"is_passed":false},{"stop_id":"U1146Z2","name":"Hlavní nádraží","arrival_time":"21:05:00","departure_time":"21:07:00","lat":49.191394,"lon":16.612548,"is_passed":false},{"stop_id":"U1357Z2","name":"Malinovského náměstí","arrival_time":"21:08:00","departure_time":"21:08:00","lat":49.195034,"lon":16.614825,"is_passed":false},{"stop_id":"U1271Z1","name":"Körnerova","arrival_time":"21:10:00","departure_time":"21:10:00","lat":49.19828,"lon":16.619945,"is_passed":false},{"stop_id":"U1663Z1","name":"Tkalcovská","arrival_time":"21:11:00","departure_time":"21:11:00","lat":49.200261,"lon":16.626109,"is_passed":false},{"stop_id":"U1676Z1","name":"Trávníčkova","arrival_time":"21:13:00","departure_time":"21:13:00","lat":49.204439,"lon":16.625679,"is_passed":false},{"stop_id":"U1398Z1","name":"Mostecká","arrival_time":"21:14:00","departure_time":"21:14:00","lat":49.20703,"lon":16.627792,"is_passed":false},{"stop_id":"U1434Z1","name":"Vozovna Husovice","arrival_time":"21:15:00","departure_time":"21:15:00","lat":49.208331,"lon":16.629789,"is_passed":false},{"stop_id":"U1422Z1","name":"Náměstí Republiky","arrival_time":"21:16:00","departure_time":"21:16:00","lat":49.210591,"lon":16.633523,"is_passed":false},{"stop_id":"U1668Z1","name":"Tomkovo náměstí","arrival_time":"21:18:00","departure_time":"21:20:00","lat":49.214035,"lon":16.636587,"is_passed":false},{"stop_id":"U1358Z2","name":"Maloměřický most","arrival_time":"21:21:00","departure_time":"21:21:00","lat":49.215518,"lon":16.642987,"is_passed":false},{"stop_id":"U1521Z1","name":"Proškovo náměstí","arrival_time":"21:22:00","departure_time":"21:22:00","lat":49.220207,"lon":16.643397,"is_passed":false},{"stop_id":"U1447Z1","name":"Obřanská - u školy","arrival_time":"21:23:00","departure_time":"21:23:00","lat":49.222872,"lon":16.644811,"is_passed":false},{"stop_id":"U1077Z1","name":"Čtvery hony","arrival_time":"21:24:00","departure_time":"21:24:00","lat":49.226227,"lon":16.645584,"is_passed":false},{"stop_id":"U1448Z1","name":"Obřanský most","arrival_time":"21:25:00","departure_time":"21:25:00","lat":49.227602,"lon":16.650226,"is_passed":false},{"stop_id":"U1014Z1","name":"Babická","arrival_time":"21:27:00","departure_time":"21:39:00","lat":49.228004,"lon":16.652555,"is_passed":false}],"55118":[{"stop_id":"U1014Z2","name":"Babická","arrival_time":"21:39:00","departure_time":"21:39:00","lat":49.228129,"lon":16.652126,"is_passed":false},{"stop_id":"U1448Z2","name":"Obřanský most","arrival_time":"21:39:00","departure_time":"21:39:00","lat":49.227463,"lon":16.649577,"is_passed":false},{"stop_id":"U1077Z2","name":"Čtvery hony","arrival_time":"21:40:00","departure_time":"21:40:00","lat":49.225534,"lon":16.644942,"is_passed":false},{"stop_id":"U1447Z2","name":"Obřanská - u školy","arrival_time":"21:41:00","departure_time":"21:41:00","lat":49.22256,"lon":16.644731,"is_passed":false},{"stop_id":"U1521Z2","name":"Proškovo náměstí","arrival_time":"21:42:00","departure_time":"21:42:00","lat":49.21983,"lon":16.643286,"is_passed":false},{"stop_id":"U1358Z1","name":"Maloměřický most","arrival_time":"21:43:00","departure_time":"21:43:00","lat":49.21558,"lon":16.642601,"is_passed":false},{"stop_id":"U1668Z2","name":"Tomkovo náměstí","arrival_time":"21:45:00","departure_time":"21:45:00","lat":49.213819,"lon":16.636067,"is_passed":false},{"stop_id":"U1422Z2","name":"Náměstí Republiky","arrival_time":"21:46:00","departure_time":"21:46:00","lat":49.211428,"lon":16.634106,"is_passed":false},{"stop_id":"U1434Z2","name":"Vozovna Husovice","arrival_time":"21:47:00","departure_time":"21:47:00","lat":49.208534,"lon":16.629847,"is_passed":false},{"stop_id":"U1398Z2","name":"Mostecká","arrival_time":"21:49:00","departure_time":"21:49:00","lat":49.206873,"lon":16.626866,"is_passed":false},{"stop_id":"U1676Z2","name":"Trávníčkova","arrival_time":"21:50:00","departure_time":"21:50:00","lat":49.204401,"lon":16.625637,"is_passed":false},{"stop_id":"U1663Z2","name":"Tkalcovská","arrival_time":"21:52:00","departure_time":"21:52:00","lat":49.199805,"lon":16.625934,"is_passed":false},{"stop_id":"U1271Z2","name":"Körnerova","arrival_time":"21:53:00","departure_time":"21:53:00","lat":49.198152,"lon":16.619504,"is_passed":false},{"stop_id":"U1357Z1","name":"Malinovského náměstí","arrival_time":"21:55:00","departure_time":"21:55:00","lat":49.195492,"lon":16.61386,"is_passed":false},{"stop_id":"U1146Z1","name":"Hlavní nádraží","arrival_time":"21:58:00","departure_time":"22:00:00","lat":49.191185,"lon":16.611879,"is_passed":false},{"stop_id":"U1436Z1","name":"Nové sady","arrival_time":"22:01:00","departure_time":"22:01:00","lat":49.190116,"lon":16.609025,"is_passed":false},{"stop_id":"U1637Z2","name":"Šilingrovo náměstí","arrival_time":"22:02:00","departure_time":"22:02:00","lat":49.192027,"lon":16.605234,"is_passed":false},{"stop_id":"U1257Z1","name":"Komenského náměstí","arrival_time":"22:06:00","departure_time":"22:06:00","lat":49.197047,"lon":16.601844,"is_passed":false},{"stop_id":"U1442Z1","name":"Obilní trh","arrival_time":"22:07:00","departure_time":"22:07:00","lat":49.198221,"lon":16.597478,"is_passed":false},{"stop_id":"U1712Z1","name":"Úvoz","arrival_time":"22:08:00","departure_time":"22:08:00","lat":49.19829,"lon":16.59265,"is_passed":false},{"stop_id":"U1762Z1","name":"Všetičkova","arrival_time":"22:09:00","departure_time":"22:09:00","lat":49.198749,"lon":16.588757,"is_passed":false},{"stop_id":"U1371Z1","name":"Náměstí Míru","arrival_time":"22:12:00","departure_time":"22:24:00","lat":49.202197,"lon":16.582014,"is_passed":false}],"55119":[{"stop_id":"U1371Z2","name":"Náměstí Míru","arrival_time":"22:24:00","departure_time":"22:24:00","lat":49.201971,"lon":16.581885,"is_passed":false},{"stop_id":"U1137Z1","name":"Heinrichova","arrival_time":"22:24:00","departure_time":"22:24:00","lat":49.200413,"lon":16.584511,"is_passed":false},{"stop_id":"U1762Z2","name":"Všetičkova","arrival_time":"22:25:00","departure_time":"22:25:00","lat":49.198648,"lon":16.589335,"is_passed":false},{"stop_id":"U1712Z2","name":"Úvoz","arrival_time":"22:26:00","departure_time":"22:26:00","lat":49.198275,"lon":16.593189,"is_passed":false},{"stop_id":"U1442Z2","name":"Obilní trh","arrival_time":"22:27:00","departure_time":"22:27:00","lat":49.198022,"lon":16.598215,"is_passed":false},{"stop_id":"U1257Z2","name":"Komenského náměstí","arrival_time":"22:29:00","departure_time":"22:29:00","lat":49.197135,"lon":16.602612,"is_passed":false},{"stop_id":"U1637Z1","name":"Šilingrovo náměstí","arrival_time":"22:31:00","departure_time":"22:31:00","lat":49.19171,"lon":16.605355,"is_passed":false},{"stop_id":"U1436Z2","name":"Nové sady","arrival_time":"22:33:00","departure_time":"22:33:00","lat":49.190222,"lon":16.609403,"is_passed":false},{"stop_id":"U1146Z2","name":"Hlavní nádraží","arrival_time":"22:35:00","departure_time":"22:37:00","lat":49.191394,"lon":16.612548,"is_passed":false},{"stop_id":"U1357Z2","name":"Malinovského náměstí","arrival_time":"22:38:00","departure_time":"22:38:00","lat":49.195034,"lon":16.614825,"is_passed":false},{"stop_id":"U1271Z1","name":"Körnerova","arrival_time":"22:40:00","departure_time":"22:40:00","lat":49.19828,"lon":16.619945,"is_passed":false},{"stop_id":"U1663Z1","name":"Tkalcovská","arrival_time":"22:41:00","departure_time":"22:41:00","lat":49.200261,"lon":16.626109,"is_passed":false},{"stop_id":"U1676Z1","name":"Trávníčkova","arrival_time":"22:43:00","departure_time":"22:43:00","lat":49.204439,"lon":16.625679,"is_passed":false},{"stop_id":"U1398Z1","name":"Mostecká","arrival_time":"22:44:00","departure_time":"22:44:00","lat":49.20703,"lon":16.627792,"is_passed":false},{"stop_id":"U1434Z1","name":"Vozovna Husovice","arrival_time":"22:45:00","departure_time":"22:45:00","lat":49.208331,"lon":16.629789,"is_passed":false},{"stop_id":"U1422Z1","name":"Náměstí Republiky","arrival_time":"22:46:00","departure_time":"22:46:00","lat":49.210591,"lon":16.633523,"is_passed":false},{"stop_id":"U1668Z1","name":"Tomkovo náměstí","arrival_time":"22:48:00","departure_time":"22:50:00","lat":49.214035,"lon":16.636587,"is_passed":false},{"stop_id":"U1358Z2","name":"Maloměřický most","arrival_time":"22:51:00","departure_time":"22:51:00","lat":49.215518,"lon":16.642987,"is_passed":false},{"stop_id":"U1521Z1","name":"Proškovo náměstí","arrival_time":"22:52:00","departure_time":"22:52:00","lat":49.220207,"lon":16.643397,"is_passed":false},{"stop_id":"U1447Z1","name":"Obřanská - u školy","arrival_time":"22:53:00","departure_time":"22:53:00","lat":49.222872,"lon":16.644811,"is_passed":false},{"stop_id":"U1077Z1","name":"Čtvery hony","arrival_time":"22:54:00","departure_time":"22:54:00","lat":49.226227,"lon":16.645584,"is_passed":false},{"stop_id":"U1448Z1","name":"Obřanský most","arrival_time":"22:55:00","departure_time":"22:55:00","lat":49.227602,"lon":16.650226,"is_passed":false},{"stop_id":"U1014Z1","name":"Babická","arrival_time":"22:57:00","departure_time":"23:09:00","lat":49.228004,"lon":16.652555,"is_passed":false}],"55120":[{"stop_id":"U1014Z2","name":"Babická","arrival_time":"23:09:00","departure_time":"23:09:00","lat":49.228129,"lon":16.652126,"is_passed":false},{"stop_id":"U1448Z2","name":"Obřanský most","arrival_time":"23:09:00","departure_time":"23:09:00","lat":49.227463,"lon":16.649577,"is_passed":false},{"stop_id":"U1077Z2","name":"Čtvery hony","arrival_time":"23:10:00","departure_time":"23:10:00","lat":49.225534,"lon":16.644942,"is_passed":false},{"stop_id":"U1447Z2","name":"Obřanská - u školy","arrival_time":"23:11:00","departure_time":"23:11:00","lat":49.22256,"lon":16.644731,"is_passed":false},