[{"stop_id":"U1703Z6","name":"Ústřední hřbitov","arrival_time":"8:10:00","departure_time":"8:10:00","lat":49.170744,"lon":16.597612,"is_passed":false},{"stop_id":"U1435Z1","name":"Novomoravanská","arrival_time":"8:12:00","departure_time":"8:12:00","lat":49.153104,"lon":16.600346,"is_passed":false},{"stop_id":"U1396Z3","name":"Moravanské lány","arrival_time":"8:13:00","departure_time":"8:13:00","lat":49.149585,"lon":16.601004,"is_passed":false},{"stop_id":"U1393Z3","name":"Moravanská","arrival_time":"8:15:00","departure_time":"8:15:00","lat":49.142887,"lon":16.602097,"is_passed":false},{"stop_id":"U15137Z10","name":"Modřice, Tyršova","arrival_time":"8:17:00","departure_time":"8:17:00","lat":49.130136,"lon":16.603469,"is_passed":false},{"stop_id":"U15168Z1","name":"Rajhrad, městský úřad","arrival_time":"8:23:00","departure_time":"8:23:00","lat":49.089663,"lon":16.603985,"is_passed":false},{"stop_id":"U15181Z5","name":"Rajhrad, železniční stanice","arrival_time":"8:25:00","departure_time":"8:25:00","lat":49.083879,"lon":16.605011,"is_passed":false},{"stop_id":"U15166Z1","name":"Rajhrad, stará pošta","arrival_time":"8:29:00","departure_time":"8:29:00","lat":49.087759,"lon":16.591479,"is_passed":false},{"stop_id":"U15182Z1","name":"Rajhrad, GEIS","arrival_time":"8:30:00","departure_time":"8:30:00","lat":49.08538,"lon":16.582,"is_passed":false},{"stop_id":"U15210Z1","name":"Syrovice","arrival_time":"8:33:00","departure_time":"8:33:00","lat":49.080328,"lon":16.548173,"is_passed":false},{"stop_id":"U15212Z1","name":"Syrovice, Sobotovická","arrival_time":"8:34:00","departure_time":"8:34:00","lat":49.077625,"lon":16.545298,"is_passed":false},{"stop_id":"U15209Z1","name":"Sobotovice, transformátor","arrival_time":"8:37:00","departure_time":"8:37:00","lat":49.061401,"lon":16.552707,"is_passed":false},{"stop_id":"U15208Z3","name":"Sobotovice","arrival_time":"8:39:00","departure_time":"8:39:00","lat":49.059067,"lon":16.558138,"is_passed":false},{"stop_id":"U15203Z3","name":"Ledce, obecní úřad","arrival_time":"8:41:00","departure_time":"8:41:00","lat":49.052175,"lon":16.555735,"is_passed":false},{"stop_id":"U15204Z3","name":"Ledce, rozcestí","arrival_time":"8:42:00","departure_time":"8:42:00","lat":49.04971,"lon":16.565488,"is_passed":false},{"stop_id":"U15255Z2","name":"Medlov, seniorcentrum","arrival_time":"8:47:00","departure_time":"8:47:00","lat":49.035713,"lon":16.528477,"is_passed":false},{"stop_id":"U15205Z1","name":"Medlov","arrival_time":"8:48:00","departure_time":"8:48:00","lat":49.034707,"lon":16.523155,"is_passed":false},{"stop_id":"U15234Z2","name":"Medlov, Kafilerie","arrival_time":"8:51:00","departure_time":"8:51:00","lat":49.017717,"lon":16.534908,"is_passed":false},{"stop_id":"U15321Z2","name":"Pohořelice, Smolín","arrival_time":"8:53:00","departure_time":"8:53:00","lat":49.007298,"lon":16.540125,"is_passed":false},{"stop_id":"U15379Z1","name":"Pohořelice, průmyslová zóna východ","arrival_time":"8:57:00","departure_time":"8:57:00","lat":48.989921,"lon":16.539353,"is_passed":false},{"stop_id":"U15315Z1","name":"Pohořelice, Brněnská","arrival_time":"8:58:00","departure_time":"8:58:00","lat":48.984843,"lon":16.529998,"is_passed":false},{"stop_id":"U15317Z51","name":"Pohořelice, náměstí","arrival_time":"9:00:00","departure_time":"9:00:00","lat":48.98068,"lon":16.522099,"is_passed":false}]