[{"stop_id":"U1258Z2","name":"Komín, sídliště","arrival_time":"22:41:00","departure_time":"22:41:00","lat":49.226847,"lon":16.5535,"is_passed":false},{"stop_id":"U1561Z2","name":"Řezáčova","arrival_time":"22:41:00","departure_time":"22:41:00","lat":49.225979,"lon":16.555563,"is_passed":false},{"stop_id":"U1453Z2","name":"Olbrachtovo náměstí","arrival_time":"22:42:00","departure_time":"22:42:00","lat":49.224292,"lon":16.558568,"is_passed":false},{"stop_id":"U1178Z2","name":"Chaloupky","arrival_time":"22:43:00","departure_time":"22:43:00","lat":49.223106,"lon":16.557048,"is_passed":false},{"stop_id":"U1296Z2","name":"Kristenova","arrival_time":"22:44:00","departure_time":"22:44:00","lat":49.221078,"lon":16.554278,"is_passed":false},{"stop_id":"U1633Z4","name":"Svratecká","arrival_time":"22:45:00","departure_time":"22:45:00","lat":49.218696,"lon":16.554399,"is_passed":false},{"stop_id":"U1502Z2","name":"Podveská","arrival_time":"22:46:00","departure_time":"22:46:00","lat":49.217607,"lon":16.558178,"is_passed":false},{"stop_id":"U1143Z1","name":"Hlavní","arrival_time":"22:47:00","departure_time":"22:47:00","lat":49.216836,"lon":16.560198,"is_passed":false}]