[{"stop_id":"U1068Z1","name":"Černovičky","arrival_time":"9:00:00","departure_time":"9:00:00","lat":49.182244,"lon":16.66894,"is_passed":false},{"stop_id":"U1741Z1","name":"Vlárská","arrival_time":"9:01:00","departure_time":"9:01:00","lat":49.180745,"lon":16.671647,"is_passed":false},{"stop_id":"U1046Z1","name":"Brněnky","arrival_time":"9:02:00","departure_time":"9:02:00","lat":49.17891,"lon":16.674895,"is_passed":false},{"stop_id":"U1562Z1","name":"Řípská","arrival_time":"9:03:00","departure_time":"9:03:00","lat":49.173814,"lon":16.682005,"is_passed":false},{"stop_id":"U1300Z1","name":"Křehlíkova","arrival_time":"9:04:00","departure_time":"9:04:00","lat":49.174839,"lon":16.685145,"is_passed":false},{"stop_id":"U1525Z1","name":"Přemyslovo náměstí","arrival_time":"9:05:00","departure_time":"9:05:00","lat":49.176289,"lon":16.687296,"is_passed":false},{"stop_id":"U1292Z1","name":"Krejčího","arrival_time":"9:06:00","departure_time":"9:06:00","lat":49.177441,"lon":16.690968,"is_passed":false},{"stop_id":"U16165Z1","name":"Šlapanice, sídliště","arrival_time":"9:09:00","departure_time":"9:09:00","lat":49.16703,"lon":16.718338,"is_passed":false},{"stop_id":"U16155Z1","name":"Šlapanice, Čechova","arrival_time":"9:10:00","departure_time":"9:10:00","lat":49.165752,"lon":16.722536,"is_passed":false},{"stop_id":"U16159Z1","name":"Šlapanice, Kalvodova","arrival_time":"9:12:00","departure_time":"9:18:00","lat":49.166442,"lon":16.726521,"is_passed":false}]