[{"stop_id":"U1068Z3","name":"Černovičky","arrival_time":"7:26:00","departure_time":"7:26:00","lat":49.183143,"lon":16.669108,"is_passed":false},{"stop_id":"U1757Z2","name":"Vozovna Slatina","arrival_time":"7:27:00","departure_time":"7:27:00","lat":49.182866,"lon":16.673489,"is_passed":false},{"stop_id":"U1173Z2","name":"Hviezdoslavova","arrival_time":"7:28:00","departure_time":"7:28:00","lat":49.181664,"lon":16.677149,"is_passed":false},{"stop_id":"U1323Z2","name":"Langrova","arrival_time":"7:29:00","departure_time":"7:29:00","lat":49.17982,"lon":16.68105,"is_passed":false},{"stop_id":"U1382Z2","name":"Mikulčická","arrival_time":"7:30:00","departure_time":"7:30:00","lat":49.178227,"lon":16.684944,"is_passed":false},{"stop_id":"U1297Z2","name":"Kroměřížská","arrival_time":"7:31:00","departure_time":"7:31:00","lat":49.178988,"lon":16.689151,"is_passed":false},{"stop_id":"U1577Z1","name":"Slatina, sídliště","arrival_time":"7:33:00","departure_time":"7:36:00","lat":49.181827,"lon":16.690272,"is_passed":false}]