{"562":[{"stop_id":"U16212Z10","name":"Křenovice, hor. žel. st.","arrival_time":"12:58:00","departure_time":"12:58:00","lat":49.143553,"lon":16.824564,"is_passed":false},{"stop_id":"U26201Z1","name":"Zbýšov","arrival_time":"13:00:00","departure_time":"13:01:00","lat":49.132691,"lon":16.806859,"is_passed":false},{"stop_id":"U26102Z1","name":"Hostěrádky-Rešov","arrival_time":"13:03:00","departure_time":"13:04:00","lat":49.119822,"lon":16.782755,"is_passed":false},{"stop_id":"U26101Z1","name":"Újezd u Brna","arrival_time":"13:07:00","departure_time":"13:07:00","lat":49.107297,"lon":16.745564,"is_passed":false},{"stop_id":"U16149Z10","name":"Sokolnice, železniční stanice","arrival_time":"13:09:00","departure_time":"13:10:00","lat":49.108029,"lon":16.733459,"is_passed":false},{"stop_id":"U1183Z10","name":"Chrlice, nádraží","arrival_time":"13:15:00","departure_time":"13:16:00","lat":49.132031,"lon":16.657232,"is_passed":false},{"stop_id":"U1146Z99","name":"Hlavní nádraží","arrival_time":"13:26:00","departure_time":"13:29:00","lat":49.19035,"lon":16.612342,"is_passed":false},{"stop_id":"U1809Z10","name":"Židenice, nádraží","arrival_time":"13:33:00","departure_time":"13:34:00","lat":49.204282,"lon":16.636042,"is_passed":false},{"stop_id":"U12158Z10","name":"Bílovice nad Svitavou, žel. stanice","arrival_time":"13:39:00","departure_time":"13:40:00","lat":49.242715,"lon":16.673677,"is_passed":false},{"stop_id":"U22101Z1","name":"Babice nad Svitavou","arrival_time":"13:44:00","departure_time":"13:44:00","lat":49.276645,"lon":16.673012,"is_passed":false},{"stop_id":"U12230Z10","name":"Adamov, železniční stanice","arrival_time":"13:47:00","departure_time":"13:48:00","lat":49.295341,"lon":16.663538,"is_passed":false},{"stop_id":"U12231Z10","name":"Adamov, železniční zastávka","arrival_time":"13:50:00","departure_time":"13:50:00","lat":49.300671,"lon":16.650653,"is_passed":false},{"stop_id":"U12342Z30","name":"Blansko, aut. st.","arrival_time":"13:56:00","departure_time":"13:57:00","lat":49.352753,"lon":16.646848,"is_passed":false},{"stop_id":"U22302Z1","name":"Blansko město","arrival_time":"13:59:00","departure_time":"14:00:00","lat":49.360996,"lon":16.639464,"is_passed":false},{"stop_id":"U22301Z1","name":"Dolní Lhota","arrival_time":"14:02:00","departure_time":"14:03:00","lat":49.386917,"lon":16.633978,"is_passed":false},{"stop_id":"U12439Z50","name":"Rájec-Jestřebí, železniční stanice","arrival_time":"14:06:00","departure_time":"14:10:00","lat":49.408206,"lon":16.627711,"is_passed":false},{"stop_id":"U12511Z50","name":"Doubravice, žel.st.","arrival_time":"14:13:00","departure_time":"14:13:00","lat":49.438707,"lon":16.621809,"is_passed":false},{"stop_id":"U12676Z50","name":"Skalice nad Svitavou, žel.st.","arrival_time":"14:19:00","departure_time":"14:35:00","lat":49.480123,"lon":16.609726,"is_passed":false}],"5620":[{"stop_id":"U1187Z1","name":"Chrlické náměstí","arrival_time":"7:21:00","departure_time":"7:21:00","lat":49.135283,"lon":16.653902,"is_passed":false},{"stop_id":"U1183Z1","name":"Chrlice, nádraží","arrival_time":"7:22:00","departure_time":"7:22:00","lat":49.131712,"lon":16.656596,"is_passed":false},{"stop_id":"U1182Z4","name":"Chrlice, smyčka","arrival_time":"7:23:00","departure_time":"7:23:00","lat":49.126443,"lon":16.654784,"is_passed":false},{"stop_id":"U15146Z1","name":"Rebešovice, Horky","arrival_time":"7:26:00","departure_time":"7:26:00","lat":49.108356,"lon":16.64093,"is_passed":false},{"stop_id":"U15145Z1","name":"Rebešovice","arrival_time":"7:27:00","departure_time":"7:27:00","lat":49.10491,"lon":16.637941,"is_passed":false},{"stop_id":"U15144Z1","name":"Rajhradice, váha","arrival_time":"7:30:00","departure_time":"7:30:00","lat":49.093623,"lon":16.63553,"is_passed":false},{"stop_id":"U15176Z1","name":"Rajhradice, obalovna","arrival_time":"7:32:00","departure_time":"7:32:00","lat":49.0964,"lon":16.651802,"is_passed":false},{"stop_id":"U15175Z1","name":"Otmarov","arrival_time":"7:34:00","departure_time":"7:34:00","lat":49.100468,"lon":16.672571,"is_passed":false},{"stop_id":"U15133Z1","name":"Otmarov, chaloupka","arrival_time":"7:35:00","departure_time":"7:35:00","lat":49.09991,"lon":16.681232,"is_passed":false},{"stop_id":"U15154Z1","name":"Měnín, ZD","arrival_time":"7:37:00","departure_time":"7:37:00","lat":49.091455,"lon":16.689825,"is_passed":false},{"stop_id":"U15128Z1","name":"Měnín, u mlýna","arrival_time":"7:38:00","departure_time":"7:38:00","lat":49.084102,"lon":16.694181,"is_passed":false},{"stop_id":"U15165Z1","name":"Měnín, obchodní středisko","arrival_time":"7:40:00","departure_time":"7:52:00","lat":49.079732,"lon":16.693543,"is_passed":false}],"5621":[{"stop_id":"U15165Z2","name":"Měnín, obchodní středisko","arrival_time":"7:52:00","departure_time":"7:52:00","lat":49.079732,"lon":16.693543,"is_passed":false},{"stop_id":"U15128Z2","name":"Měnín, u mlýna","arrival_time":"7:53:00","departure_time":"7:53:00","lat":49.085172,"lon":16.694708,"is_passed":false},{"stop_id":"U15154Z2","name":"Měnín, ZD","arrival_time":"7:54:00","departure_time":"7:54:00","lat":49.091685,"lon":16.689643,"is_passed":false},{"stop_id":"U15133Z2","name":"Otmarov, chaloupka","arrival_time":"7:56:00","departure_time":"7:56:00","lat":49.101007,"lon":16.679762,"is_passed":false},{"stop_id":"U15175Z2","name":"Otmarov","arrival_time":"7:58:00","departure_time":"7:58:00","lat":49.100336,"lon":16.671844,"is_passed":false},{"stop_id":"U15176Z2","name":"Rajhradice, obalovna","arrival_time":"8:00:00","departure_time":"8:00:00","lat":49.096394,"lon":16.651454,"is_passed":false},{"stop_id":"U15144Z2","name":"Rajhradice, váha","arrival_time":"8:02:00","departure_time":"8:02:00","lat":49.09362,"lon":16.635452,"is_passed":false},{"stop_id":"U15145Z2","name":"Rebešovice","arrival_time":"8:04:00","departure_time":"8:04:00","lat":49.105028,"lon":16.638127,"is_passed":false},{"stop_id":"U15146Z2","name":"Rebešovice, Horky","arrival_time":"8:05:00","departure_time":"8:05:00","lat":49.108966,"lon":16.641733,"is_passed":false},{"stop_id":"U1182Z3","name":"Chrlice, smyčka","arrival_time":"8:08:00","departure_time":"8:08:00","lat":49.126855,"lon":16.655081,"is_passed":false},{"stop_id":"U1183Z2","name":"Chrlice, nádraží","arrival_time":"8:09:00","departure_time":"8:09:00","lat":49.132136,"lon":16.656638,"is_passed":false},{"stop_id":"U1187Z2","name":"Chrlické náměstí","arrival_time":"8:10:00","departure_time":"13:51:00","lat":49.13548,"lon":16.653876,"is_passed":false}],"5622":[{"stop_id":"U1187Z1","name":"Chrlické náměstí","arrival_time":"13:51:00","departure_time":"13:51:00","lat":49.135283,"lon":16.653902,"is_passed":false},{"stop_id":"U1183Z1","name":"Chrlice, nádraží","arrival_time":"13:52:00","departure_time":"13:52:00","lat":49.131712,"lon":16.656596,"is_passed":false},{"stop_id":"U1182Z4","name":"Chrlice, smyčka","arrival_time":"13:53:00","departure_time":"13:53:00","lat":49.126443,"lon":16.654784,"is_passed":false},{"stop_id":"U15146Z1","name":"Rebešovice, Horky","arrival_time":"13:56:00","departure_time":"13:56:00","lat":49.108356,"lon":16.64093,"is_passed":false},{"stop_id":"U15145Z1","name":"Rebešovice","arrival_time":"13:57:00","departure_time":"13:57:00","lat":49.10491,"lon":16.637941,"is_passed":false},{"stop_id":"U15144Z1","name":"Rajhradice, váha","arrival_time":"14:00:00","departure_time":"14:32:00","lat":49.093623,"lon":16.63553,"is_passed":false}],"5623":[{"stop_id":"U15144Z2","name":"Rajhradice, váha","arrival_time":"14:32:00","departure_time":"14:32:00","lat":49.09362,"lon":16.635452,"is_passed":false},{"stop_id":"U15145Z2","name":"Rebešovice","arrival_time":"14:34:00","departure_time":"14:34:00","lat":49.105028,"lon":16.638127,"is_passed":false},{"stop_id":"U15146Z2","name":"Rebešovice, Horky","arrival_time":"14:35:00","departure_time":"14:35:00","lat":49.108966,"lon":16.641733,"is_passed":false},{"stop_id":"U1182Z3","name":"Chrlice, smyčka","arrival_time":"14:38:00","departure_time":"14:38:00","lat":49.126855,"lon":16.655081,"is_passed":false},{"stop_id":"U1183Z2","name":"Chrlice, nádraží","arrival_time":"14:39:00","departure_time":"14:39:00","lat":49.132136,"lon":16.656638,"is_passed":false},{"stop_id":"U1187Z2","name":"Chrlické náměstí","arrival_time":"14:40:00","departure_time":"14:51:00","lat":49.13548,"lon":16.653876,"is_passed":false}],"5624":[{"stop_id":"U1187Z1","name":"Chrlické náměstí","arrival_time":"14:51:00","departure_time":"14:51:00","lat":49.135283,"lon":16.653902,"is_passed":false},{"stop_id":"U1183Z1","name":"Chrlice, nádraží","arrival_time":"14:52:00","departure_time":"14:52:00","lat":49.131712,"lon":16.656596,"is_passed":false},{"stop_id":"U1182Z4","name":"Chrlice, smyčka","arrival_time":"14:53:00","departure_time":"14:53:00","lat":49.126443,"lon":16.654784,"is_passed":false},{"stop_id":"U15146Z1","name":"Rebešovice, Horky","arrival_time":"14:56:00","departure_time":"14:56:00","lat":49.108356,"lon":16.64093,"is_passed":false},{"stop_id":"U15145Z1","name":"Rebešovice","arrival_time":"14:57:00","departure_time":"14:57:00","lat":49.10491,"lon":16.637941,"is_passed":false},{"stop_id":"U15144Z1","name":"Rajhradice, váha","arrival_time":"15:00:00","departure_time":"15:00:00","lat":49.093623,"lon":16.63553,"is_passed":false},{"stop_id":"U15176Z1","name":"Rajhradice, obalovna","arrival_time":"15:02:00","departure_time":"15:02:00","lat":49.0964,"lon":16.651802,"is_passed":false},{"stop_id":"U15175Z1","name":"Otmarov","arrival_time":"15:04:00","departure_time":"15:04:00","lat":49.100468,"lon":16.672571,"is_passed":false},{"stop_id":"U15133Z1","name":"Otmarov, chaloupka","arrival_time":"15:05:00","departure_time":"15:05:00","lat":49.09991,"lon":16.681232,"is_passed":false},{"stop_id":"U15154Z1","name":"Měnín, ZD","arrival_time":"15:07:00","departure_time":"15:07:00","lat":49.091455,"lon":16.689825,"is_passed":false},{"stop_id":"U15128Z1","name":"Měnín, u mlýna","arrival_time":"15:08:00","departure_time":"15:08:00","lat":49.084102,"lon":16.694181,"is_passed":false},{"stop_id":"U15165Z1","name":"Měnín, obchodní středisko","arrival_time":"15:10:00","departure_time":"15:22:00","lat":49.079732,"lon":16.693543,"is_passed":false}],"5625":[{"stop_id":"U15165Z2","name":"Měnín, obchodní středisko","arrival_time":"15:22:00","departure_time":"15:22:00","lat":49.079732,"lon":16.693543,"is_passed":false},{"stop_id":"U15128Z2","name":"Měnín, u mlýna","arrival_time":"15:23:00","departure_time":"15:23:00","lat":49.085172,"lon":16.694708,"is_passed":false},{"stop_id":"U15154Z2","name":"Měnín, ZD","arrival_time":"15:24:00","departure_time":"15:24:00","lat":49.091685,"lon":16.689643,"is_passed":false},{"stop_id":"U15133Z2","name":"Otmarov, chaloupka","arrival_time":"15:26:00","departure_time":"15:26:00","lat":49.101007,"lon":16.679762,"is_passed":false},{"stop_id":"U15175Z2","name":"Otmarov","arrival_time":"15:28:00","departure_time":"15:28:00","lat":49.100336,"lon":16.671844,"is_passed":false},{"stop_id":"U15176Z2","name":"Rajhradice, obalovna","arrival_time":"15:30:00","departure_time":"15:30:00","lat":49.096394,"lon":16.651454,"is_passed":false},{"stop_id":"U15144Z2","name":"Rajhradice, váha","arrival_time":"15:32:00","departure_time":"15:32:00","lat":49.09362,"lon":16.635452,"is_passed":false},{"stop_id":"U15145Z2","name":"Rebešovice","arrival_time":"15:34:00","departure_time":"15:34:00","lat":49.105028,"lon":16.638127,"is_passed":false},{"stop_id":"U15146Z2","name":"Rebešovice, Horky","arrival_time":"15:35:00","departure_time":"15:35:00","lat":49.108966,"lon":16.641733,"is_passed":false},{"stop_id":"U1182Z3","name":"Chrlice, smyčka","arrival_time":"15:38:00","departure_time":"15:38:00","lat":49.126855,"lon":16.655081,"is_passed":false},{"stop_id":"U1183Z2","name":"Chrlice, nádraží","arrival_time":"15:39:00","departure_time":"15:39:00","lat":49.132136,"lon":16.656638,"is_passed":false},{"stop_id":"U1187Z2","name":"Chrlické náměstí","arrival_time":"15:40:00","departure_time":"15:51:00","lat":49.13548,"lon":16.653876,"is_passed":false}],"5626":[{"stop_id":"U1187Z1","name":"Chrlické náměstí","arrival_time":"15:51:00","departure_time":"15:51:00","lat":49.135283,"lon":16.653902,"is_passed":false},{"stop_id":"U1183Z1","name":"Chrlice, nádraží","arrival_time":"15:52:00","departure_time":"15:52:00","lat":49.131712,"lon":16.656596,"is_passed":false},{"stop_id":"U1182Z4","name":"Chrlice, smyčka","arrival_time":"15:53:00","departure_time":"15:53:00","lat":49.126443,"lon":16.654784,"is_passed":false},{"stop_id":"U15146Z1","name":"Rebešovice, Horky","arrival_time":"15:56:00","departure_time":"15:56:00","lat":49.108356,"lon":16.64093,"is_passed":false},{"stop_id":"U15145Z1","name":"Rebešovice","arrival_time":"15:57:00","departure_time":"15:57:00","lat":49.10491,"lon":16.637941,"is_passed":false},{"stop_id":"U15144Z1","name":"Rajhradice, váha","arrival_time":"16:00:00","departure_time":"16:00:00","lat":49.093623,"lon":16.63553,"is_passed":false},{"stop_id":"U15176Z1","name":"Rajhradice, obalovna","arrival_time":"16:02:00","departure_time":"16:02:00","lat":49.0964,"lon":16.651802,"is_passed":false},{"stop_id":"U15175Z1","name":"Otmarov","arrival_time":"16:04:00","departure_time":"16:04:00","lat":49.100468,"lon":16.672571,"is_passed":false},{"stop_id":"U15133Z1","name":"Otmarov, chaloupka","arrival_time":"16:05:00","departure_time":"16:05:00","lat":49.09991,"lon":16.681232,"is_passed":false},{"stop_id":"U15154Z1","name":"Měnín, ZD","arrival_time":"16:07:00","departure_time":"16:07:00","lat":49.091455,"lon":16.689825,"is_passed":false},{"stop_id":"U15128Z1","name":"Měnín, u mlýna","arrival_time":"16:08:00","departure_time":"16:08:00","lat":49.084102,"lon":16.694181,"is_passed":false},{"stop_id":"U15165Z1","name":"Měnín, obchodní středisko","arrival_time":"16:10:00","departure_time":"16:22:00","lat":49.079732,"lon":16.693543,"is_passed":false}],"5627":[{"stop_id":"U15165Z2","name":"Měnín, obchodní středisko","arrival_time":"16:22:00","departure_time":"16:22:00","lat":49.079732,"lon":16.693543,"is_passed":false},{"stop_id":"U15128Z2","name":"Měnín, u mlýna","arrival_time":"16:23:00","departure_time":"16:23:00","lat":49.085172,"lon":16.694708,"is_passed":false},{"stop_id":"U15154Z2","name":"Měnín, ZD","arrival_time":"16:24:00","departure_time":"16:24:00","lat":49.091685,"lon":16.689643,"is_passed":false},{"stop_id":"U15133Z2","name":"Otmarov, chaloupka","arrival_time":"16:26:00","departure_time":"16:26:00","lat":49.101007,"lon":16.679762,"is_passed":false},{"stop_id":"U15175Z2","name":"Otmarov","arrival_time":"16:28:00","departure_time":"16:28:00","lat":49.100336,"lon":16.671844,"is_passed":false},{"stop_id":"U15176Z2","name":"Rajhradice, obalovna","arrival_time":"16:30:00","departure_time":"16:30:00","lat":49.096394,"lon":16.651454,"is_passed":false},{"stop_id":"U15144Z2","name":"Rajhradice, váha","arrival_time":"16:32:00","departure_time":"16:32:00","lat":49.09362,"lon":16.635452,"is_passed":false},{"stop_id":"U15145Z2","name":"Rebešovice","arrival_time":"16:34:00","departure_time":"16:34:00","lat":49.105028,"lon":16.638127,"is_passed":false},{"stop_id":"U15146Z2","name":"Rebešovice, Horky","arrival_time":"16:35:00","departure_time":"16:35:00","lat":49.108966,"lon":16.641733,"is_passed":false},{"stop_id":"U1182Z3","name":"Chrlice, smyčka","arrival_time":"16:38:00","departure_time":"16:38:00","lat":49.126855,"lon":16.655081,"is_passed":false},{"stop_id":"U1183Z2","name":"Chrlice, nádraží","arrival_time":"16:39:00","departure_time":"16:39:00","lat":49.132136,"lon":16.656638,"is_passed":false},{"stop_id":"U1187Z2","name":"Chrlické náměstí","arrival_time":"16:40:00","departure_time":"16:51:00","lat":49.13548,"lon":16.653876,"is_passed":false}],"5628":[{"stop_id":"U1187Z1","name":"Chrlické náměstí","arrival_time":"16:51:00","departure_time":"16:51:00","lat":49.135283,"lon":16.653902,"is_passed":false},{"stop_id":"U1183Z1","name":"Chrlice, nádraží","arrival_time":"16:52:00","departure_time":"16:52:00","lat":49.131712,"lon":16.656596,"is_passed":false},{"stop_id":"U1182Z4","name":"Chrlice, smyčka","arrival_time":"16:53:00","departure_time":"16:53:00","lat":49.126443,"lon":16.654784,"is_passed":false},{"stop_id":"U15146Z1","name":"Rebešovice, Horky","arrival_time":"16:56:00","departure_time":"16:56:00","lat":49.108356,"lon":16.64093,"is_passed":false},{"stop_id":"U15145Z1","name":"Rebešovice","arrival_time":"16:57:00","departure_time":"16:57:00","lat":49.10491,"lon":16.637941,"is_passed":false},{"stop_id":"U15144Z1","name":"Rajhradice, váha","arrival_time":"17:00:00","departure_time":"17:00:00","lat":49.093623,"lon":16.63553,"is_passed":false},{"stop_id":"U15176Z1","name":"Rajhradice, obalovna","arrival_time":"17:02:00","departure_time":"17:02:00","lat":49.0964,"lon":16.651802,"is_passed":false},{"stop_id":"U15175Z1","name":"Otmarov","arrival_time":"17:04:00","departure_time":"17:04:00","lat":49.100468,"lon":16.672571,"is_passed":false},{"stop_id":"U15133Z1","name":"Otmarov, chaloupka","arrival_time":"17:05:00","departure_time":"17:05:00","lat":49.09991,"lon":16.681232,"is_passed":false},{"stop_id":"U15154Z1","name":"Měnín, ZD","arrival_time":"17:07:00","departure_time":"17:07:00","lat":49.091455,"lon":16.689825,"is_passed":false},{"stop_id":"U15128Z1","name":"Měnín, u mlýna","arrival_time":"17:08:00","departure_time":"17:08:00","lat":49.084102,"lon":16.694181,"is_passed":false},{"stop_id":"U15165Z1","name":"Měnín, obchodní středisko","arrival_time":"17:10:00","departure_time":"17:22:00","lat":49.079732,"lon":16.693543,"is_passed":false}],"5629":[{"stop_id":"U15165Z2","name":"Měnín, obchodní středisko","arrival_time":"17:22:00","departure_time":"17:22:00","lat":49.079732,"lon":16.693543,"is_passed":false},{"stop_id":"U15128Z2","name":"Měnín, u mlýna","arrival_time":"17:23:00","departure_time":"17:23:00","lat":49.085172,"lon":16.694708,"is_passed":false},{"stop_id":"U15154Z2","name":"Měnín, ZD","arrival_time":"17:24:00","departure_time":"17:24:00","lat":49.091685,"lon":16.689643,"is_passed":false},{"stop_id":"U15133Z2","name":"Otmarov, chaloupka","arrival_time":"17:26:00","departure_time":"17:26:00","lat":49.101007,"lon":16.679762,"is_passed":false},{"stop_id":"U15175Z2","name":"Otmarov","arrival_time":"17:28:00","departure_time":"17:28:00","lat":49.100336,"lon":16.671844,"is_passed":false},{"stop_id":"U15176Z2","name":"Rajhradice, obalovna","arrival_time":"17:30:00","departure_time":"17:30:00","lat":49.096394,"lon":16.651454,"is_passed":false},{"stop_id":"U15144Z2","name":"Rajhradice, váha","arrival_time":"17:32:00","departure_time":"17:32:00","lat":49.09362,"lon":16.635452,"is_passed":false},{"stop_id":"U15145Z2","name":"Rebešovice","arrival_time":"17:34:00","departure_time":"17:34:00","lat":49.105028,"lon":16.638127,"is_passed":false},{"stop_id":"U15146Z2","name":"Rebešovice, Horky","arrival_time":"17:35:00","departure_time":"17:35:00","lat":49.108966,"lon":16.641733,"is_passed":false},{"stop_id":"U1182Z3","name":"Chrlice, smyčka","arrival_time":"17:38:00","departure_time":"17:38:00","lat":49.126855,"lon":16.655081,"is_passed":false},{"stop_id":"U1183Z2","name":"Chrlice, nádraží","arrival_time":"17:39:00","departure_time":"17:39:00","lat":49.132136,"lon":16.656638,"is_passed":false},{"stop_id":"U1187Z2","name":"Chrlické náměstí","arrival_time":"17:40:00","departure_time":"17:51:00","lat":49.13548,"lon":16.653876,"is_passed":false}],"56200":[{"stop_id":"U1477Z2","name":"Pálavské náměstí","arrival_time":"18:22:00","departure_time":"18:22:00","lat":49.20538,"lon":16.658103,"is_passed":false},{"stop_id":"U1052Z2","name":"Bzenecká","arrival_time":"18:23:00","departure_time":"18:23:00","lat":49.205822,"lon":16.661645,"is_passed":false},{"stop_id":"U1523Z2","name":"Prušánecká","arrival_time":"18:24:00","departure_time":"18:24:00","lat":49.209503,"lon":16.663369,"is_passed":false},{"stop_id":"U1743Z2","name":"Vlčnovská","arrival_time":"18:25:00","departure_time":"18:25:00","lat":49.211166,"lon":16.659638,"is_passed":false},{"stop_id":"U1002Z2","name":"Akátky","arrival_time":"18:26:00","departure_time":"18:26:00","lat":49.208751,"lon":16.648718,"is_passed":false},{"stop_id":"U1698Z2","name":"Údolíček","arrival_time":"18:27:00","departure_time":"18:27:00","lat":49.206553,"lon":16.643865,"is_passed":false},{"stop_id":"U1631Z1","name":"Svatoplukova","arrival_time":"18:28:00","departure_time":"18:28:00","lat":49.2051,"lon":16.641425,"is_passed":false},{"stop_id":"U1611Z3","name":"Stará osada","arrival_time":"18:30:00","departure_time":"18:32:00","lat":49.202353,"lon":16.64196,"is_passed":false}],"56201":[{"stop_id":"U1611Z4","name":"Stará osada","arrival_time":"18:32:00","departure_time":"18:32:00","lat":49.202225,"lon":16.641851,"is_passed":false},{"stop_id":"U1698Z1","name":"Údolíček","arrival_time":"18:34:00","departure_time":"18:34:00","lat":49.206732,"lon":16.644592,"is_passed":false},{"stop_id":"U1002Z1","name":"Akátky","arrival_time":"18:34:00","departure_time":"18:34:00","lat":49.208518,"lon":16.648742,"is_passed":false},{"stop_id":"U1743Z1","name":"Vlčnovská","arrival_time":"18:36:00","departure_time":"18:36:00","lat":49.210995,"lon":16.660327,"is_passed":false},{"stop_id":"U1523Z1","name":"Prušánecká","arrival_time":"18:37:00","departure_time":"18:37:00","lat":49.20827,"lon":16.663465,"is_passed":false},{"stop_id":"U1052Z1","name":"Bzenecká","arrival_time":"18:39:00","departure_time":"18:39:00","lat":49.206117,"lon":16.660595,"is_passed":false},{"stop_id":"U1477Z3","name":"Pálavské náměstí","arrival_time":"18:40:00","departure_time":"18:40:00","lat":49.20612,"lon":16.657683,"is_passed":false},{"stop_id":"U1403Z1","name":"Mutěnická","arrival_time":"18:41:00","departure_time":"18:41:00","lat":49.20299,"lon":16.654796,"is_passed":false},{"stop_id":"U1036Z1","name":"Bořetická","arrival_time":"18:42:00","departure_time":"18:42:00","lat":49.201326,"lon":16.659292,"is_passed":false},{"stop_id":"U1058Z1","name":"Čejkovická","arrival_time":"18:43:00","departure_time":"18:43:00","lat":49.200178,"lon":16.662528,"is_passed":false},{"stop_id":"U1438Z3","name":"Novolíšeňská","arrival_time":"18:45:00","departure_time":"18:45:00","lat":49.201692,"lon":16.670699,"is_passed":false},{"stop_id":"U1012Z1","name":"Bartákova","arrival_time":"18:46:00","departure_time":"18:46:00","lat":49.203714,"lon":16.678742,"is_passed":false},{"stop_id":"U1546Z1","name":"Rotreklova","arrival_time":"18:47:00","departure_time":"18:47:00","lat":49.2066,"lon":16.685331,"is_passed":false},{"stop_id":"U1208Z6","name":"Jírova","arrival_time":"18:49:00","departure_time":"19:04:00","lat":49.209179,"lon":16.688685,"is_passed":false}],"56202":[{"stop_id":"U1208Z3","name":"Jírova","arrival_time":"19:04:00","departure_time":"19:04:00","lat":49.208886,"lon":16.687979,"is_passed":false},{"stop_id":"U1546Z2","name":"Rotreklova","arrival_time":"19:04:00","departure_time":"19:04:00","lat":49.206534,"lon":16.684689,"is_passed":false},{"stop_id":"U1012Z2","name":"Bartákova","arrival_time":"19:05:00","departure_time":"19:05:00","lat":49.204255,"lon":16.679185,"is_passed":false},{"stop_id":"U1438Z4","name":"Novolíšeňská","arrival_time":"19:07:00","departure_time":"19:07:00","lat":49.201792,"lon":16.670352,"is_passed":false},{"stop_id":"U1058Z2","name":"Čejkovická","arrival_time":"19:09:00","departure_time":"19:09:00","lat":49.200493,"lon":16.661793,"is_passed":false},{"stop_id":"U1036Z2","name":"Bořetická","arrival_time":"19:10:00","departure_time":"19:10:00","lat":49.201495,"lon":16.658055,"is_passed":false},{"stop_id":"U1403Z2","name":"Mutěnická","arrival_time":"19:11:00","departure_time":"19:11:00","lat":49.203951,"lon":16.654889,"is_passed":false},{"stop_id":"U1477Z2","name":"Pálavské náměstí","arrival_time":"19:12:00","departure_time":"19:12:00","lat":49.20538,"lon":16.658103,"is_passed":false},{"stop_id":"U1052Z2","name":"Bzenecká","arrival_time":"19:13:00","departure_time":"19:13:00","lat":49.205822,"lon":16.661645,"is_passed":false},{"stop_id":"U1523Z2","name":"Prušánecká","arrival_time":"19:14:00","departure_time":"19:14:00","lat":49.209503,"lon":16.663369,"is_passed":false},{"stop_id":"U1743Z2","name":"Vlčnovská","arrival_time":"19:15:00","departure_time":"19:15:00","lat":49.211166,"lon":16.659638,"is_passed":false},{"stop_id":"U1002Z2","name":"Akátky","arrival_time":"19:16:00","departure_time":"19:16:00","lat":49.208751,"lon":16.648718,"is_passed":false},{"stop_id":"U1698Z2","name":"Údolíček","arrival_time":"19:17:00","departure_time":"19:17:00","lat":49.206553,"lon":16.643865,"is_passed":false},{"stop_id":"U1631Z1","name":"Svatoplukova","arrival_time":"19:18:00","departure_time":"19:18:00","lat":49.2051,"lon":16.641425,"is_passed":false},{"stop_id":"U1611Z3","name":"Stará osada","arrival_time":"19:20:00","departure_time":"19:32:00","lat":49.202353,"lon":16.64196,"is_passed":false}],"56203":[{"stop_id":"U1611Z4","name":"Stará osada","arrival_time":"19:32:00","departure_time":"19:32:00","lat":49.202225,"lon":16.641851,"is_passed":false},{"stop_id":"U1698Z1","name":"Údolíček","arrival_time":"19:34:00","departure_time":"19:34:00","lat":49.206732,"lon":16.644592,"is_passed":false},{"stop_id":"U1002Z1","name":"Akátky","arrival_time":"19:34:00","departure_time":"19:34:00","lat":49.208518,"lon":16.648742,"is_passed":false},{"stop_id":"U1743Z1","name":"Vlčnovská","arrival_time":"19:36:00","departure_time":"19:36:00","lat":49.210995,"lon":16.660327,"is_passed":false},{"stop_id":"U1523Z1","name":"Prušánecká","arrival_time":"19:37:00","departure_time":"19:37:00","lat":49.20827,"lon":16.663465,"is_passed":false},{"stop_id":"U1052Z1","name":"Bzenecká","arrival_time":"19:39:00","departure_time":"19:39:00","lat":49.206117,"lon":16.660595,"is_passed":false},{"stop_id":"U1477Z3","name":"Pálavské náměstí","arrival_time":"19:40:00","departure_time":"19:40:00","lat":49.20612,"lon":16.657683,"is_passed":false},{"stop_id":"U1403Z1","name":"Mutěnická","arrival_time":"19:41:00","departure_time":"19:41:00","lat":49.20299,"lon":16.654796,"is_passed":false},{"stop_id":"U1036Z1","name":"Bořetická","arrival_time":"19:42:00","departure_time":"19:42:00","lat":49.201326,"lon":16.659292,"is_passed":false},{"stop_id":"U1058Z1","name":"Čejkovická","arrival_time":"19:43:00","departure_time":"19:43:00","lat":49.200178,"lon":16.662528,"is_passed":false},{"stop_id":"U1438Z3","name":"Novolíšeňská","arrival_time":"19:45:00","departure_time":"19:45:00","lat":49.201692,"lon":16.670699,"is_passed":false},{"stop_id":"U1012Z1","name":"Bartákova","arrival_time":"19:46:00","departure_time":"19:46:00","lat":49.203714,"lon":16.678742,"is_passed":false},{"stop_id":"U1546Z1","name":"Rotreklova","arrival_time":"19:47:00","departure_time":"19:47:00","lat":49.2066,"lon":16.685331,"is_passed":false},{"stop_id":"U1208Z6","name":"Jírova","arrival_time":"19:49:00","departure_time":"19:51:00","lat":49.209179,"lon":16.688685,"is_passed":false}],"56204":[{"stop_id":"U1477Z2","name":"Pálavské náměstí","arrival_time":"6:38:00","departure_time":"6:38:00","lat":49.20538,"lon":16.658103,"is_passed":false},{"stop_id":"U1052Z2","name":"Bzenecká","arrival_time":"6:39:00","departure_time":"6:39:00","lat":49.205822,"lon":16.661645,"is_passed":false},{"stop_id":"U1523Z2","name":"Prušánecká","arrival_time":"6:40:00","departure_time":"6:40:00","lat":49.209503,"lon":16.663369,"is_passed":false},{"stop_id":"U1743Z2","name":"Vlčnovská","arrival_time":"6:41:00","departure_time":"6:41:00","lat":49.211166,"lon":16.659638,"is_passed":false},{"stop_id":"U1002Z2","name":"Akátky","arrival_time":"6:42:00","departure_time":"6:42:00","lat":49.208751,"lon":16.648718,"is_passed":false},{"stop_id":"U1698Z2","name":"Údolíček","arrival_time":"6:43:00","departure_time":"6:43:00","lat":49.206553,"lon":16.643865,"is_passed":false},{"stop_id":"U1631Z1","name":"Svatoplukova","arrival_time":"6:45:00","departure_time":"6:45:00","lat":49.2051,"lon":16.641425,"is_passed":false},{"stop_id":"U1611Z3","name":"Stará osada","arrival_time":"6:47:00","departure_time":"6:49:00","lat":49.202353,"lon":16.64196,"is_passed":false}],"56205":[{"stop_id":"U1611Z4","name":"Stará osada","arrival_time":"6:49:00","departure_time":"6:49:00","lat":49.202225,"lon":16.641851,"is_passed":false},{"stop_id":"U1698Z1","name":"Údolíček","arrival_time":"6:51:00","departure_time":"6:51:00","lat":49.206732,"lon":16.644592,"is_passed":false},{"stop_id":"U1002Z1","name":"Akátky","arrival_time":"6:51:00","departure_time":"6:51:00","lat":49.208518,"lon":16.648742,"is_passed":false},{"stop_id":"U1743Z1","name":"Vlčnovská","arrival_time":"6:53:00","departure_time":"6:53:00","lat":49.210995,"lon":16.660327,"is_passed":false},{"stop_id":"U1523Z1","name":"Prušánecká","arrival_time":"6:54:00","departure_time":"6:54:00","lat":49.20827,"lon":16.663465,"is_passed":false},{"stop_id":"U1052Z1","name":"Bzenecká","arrival_time":"6:56:00","departure_time":"6:56:00","lat":49.206117,"lon":16.660595,"is_passed":false},{"stop_id":"U1477Z3","name":"Pálavské náměstí","arrival_time":"6:57:00","departure_time":"6:57:00","lat":49.20612,"lon":16.657683,"is_passed":false},{"stop_id":"U1403Z1","name":"Mutěnická","arrival_time":"6:58:00","departure_time":"6:58:00","lat":49.20299,"lon":16.654796,"is_passed":false},{"stop_id":"U1036Z1","name":"Bořetická","arrival_time":"6:59:00","departure_time":"6:59:00","lat":49.201326,"lon":16.659292,"is_passed":false},{"stop_id":"U1058Z1","name":"Čejkovická","arrival_time":"7:00:00","departure_time":"7:00:00","lat":49.200178,"lon":16.662528,"is_passed":false},{"stop_id":"U1438Z3","name":"Novolíšeňská","arrival_time":"7:02:00","departure_time":"7:02:00","lat":49.201692,"lon":16.670699,"is_passed":false},{"stop_id":"U1012Z1","name":"Bartákova","arrival_time":"7:03:00","departure_time":"7:03:00","lat":49.203714,"lon":16.678742,"is_passed":false},{"stop_id":"U1546Z1","name":"Rotreklova","arrival_time":"7:04:00","departure_time":"7:04:00","lat":49.2066,"lon":16.685331,"is_passed":false},{"stop_id":"U1208Z6","name":"Jírova","arrival_time":"7:06:00","departure_time":"7:18:00","lat":49.209179,"lon":16.688685,"is_passed":false}],"56206":[{"stop_id":"U1208Z3","name":"Jírova","arrival_time":"7:18:00","departure_time":"7:18:00","lat":49.208886,"lon":16.687979,"is_passed":false},{"stop_id":"U1546Z2","name":"Rotreklova","arrival_time":"7:18:00","departure_time":"7:18:00","lat":49.206534,"lon":16.684689,"is_passed":false},{"stop_id":"U1012Z2","name":"Bartákova","arrival_time":"7:19:00","departure_time":"7:19:00","lat":49.204255,"lon":16.679185,"is_passed":false},{"stop_id":"U1438Z4","name":"Novolíšeňská","arrival_time":"7:21:00","departure_time":"7:21:00","lat":49.201792,"lon":16.670352,"is_passed":false},{"stop_id":"U1058Z2","name":"Čejkovická","arrival_time":"7:23:00","departure_time":"7:23:00","lat":49.200493,"lon":16.661793,"is_passed":false},{"stop_id":"U1036Z2","name":"Bořetická","arrival_time":"7:24:00","departure_time":"7:24:00","lat":49.201495,"lon":16.658055,"is_passed":false},{"stop_id":"U1403Z2","name":"Mutěnická","arrival_time":"7:25:00","departure_time":"7:25:00","lat":49.203951,"lon":16.654889,"is_passed":false},{"stop_id":"U1477Z2","name":"Pálavské náměstí","arrival_time":"7:26:00","departure_time":"7:26:00","lat":49.20538,"lon":16.658103,"is_passed":false},{"stop_id":"U1052Z2","name":"Bzenecká","arrival_time":"7:27:00","departure_time":"7:27:00","lat":49.205822,"lon":16.661645,"is_passed":false},{"stop_id":"U1523Z2","name":"Prušánecká","arrival_time":"7:28:00","departure_time":"7:28:00","lat":49.209503,"lon":16.663369,"is_passed":false},{"stop_id":"U1743Z2","name":"Vlčnovská","arrival_time":"7:29:00","departure_time":"7:29:00","lat":49.211166,"lon":16.659638,"is_passed":false},{"stop_id":"U1002Z2","name":"Akátky","arrival_time":"7:30:00","departure_time":"7:30:00","lat":49.208751,"lon":16.648718,"is_passed":false},{"stop_id":"U1698Z2","name":"Údolíček","arrival_time":"7:31:00","departure_time":"7:31:00","lat":49.206553,"lon":16.643865,"is_passed":false},{"stop_id":"U1631Z1","name":"Svatoplukova","arrival_time":"7:33:00","departure_time":"7:33:00","lat":49.2051,"lon":16.641425,"is_passed":false},{"stop_id":"U1611Z3","name":"Stará osada","arrival_time":"7:35:00","departure_time":"7:41:00","lat":49.202353,"lon":16.64196,"is_passed":false}],"56207":[{"stop_id":"U1611Z4","name":"Stará osada","arrival_time":"7:41:00","departure_time":"7:41:00","lat":49.202225,"lon":16.641851,"is_passed":false},{"stop_id":"U1698Z1","name":"Údolíček","arrival_time":"7:43:00","departure_time":"7:43:00","lat":49.206732,"lon":16.644592,"is_passed":false},{"stop_id":"U1002Z1","name":"Akátky","arrival_time":"7:43:00","departure_time":"7:43:00","lat":49.208518,"lon":16.648742,"is_passed":false},{"stop_id":"U1743Z1","name":"Vlčnovská","arrival_time":"7:45:00","departure_time":"7:45:00","lat":49.210995,"lon":16.660327,"is_passed":false},{"stop_id":"U1523Z1","name":"Prušánecká","arrival_time":"7:46:00","departure_time":"7:46:00","lat":49.20827,"lon":16.663465,"is_passed":false},{"stop_id":"U1052Z1","name":"Bzenecká","arrival_time":"7:48:00","departure_time":"7:48:00","lat":49.206117,"lon":16.660595,"is_passed":false},{"stop_id":"U1477Z3","name":"Pálavské náměstí","arrival_time":"7:49:00","departure_time":"7:49:00","lat":49.20612,"lon":16.657683,"is_passed":false},{"stop_id":"U1403Z1","name":"Mutěnická","arrival_time":"7:50:00","departure_time":"7:50:00","lat":49.20299,"lon":16.654796,"is_passed":false},{"stop_id":"U1036Z1","name":"Bořetická","arrival_time":"7:51:00","departure_time":"7:51:00","lat":49.201326,"lon":16.659292,"is_passed":false},{"stop_id":"U1058Z1","name":"Čejkovická","arrival_time":"7:52:00","departure_time":"7:52:00","lat":49.200178,"lon":16.662528,"is_passed":false},{"stop_id":"U1438Z3","name":"Novolíšeňská","arrival_time":"7:54:00","departure_time":"7:54:00","lat":49.201692,"lon":16.670699,"is_passed":false},{"stop_id":"U1012Z1","name":"Bartákova","arrival_time":"7:55:00","departure_time":"7:55:00","lat":49.203714,"lon":16.678742,"is_passed":false},{"stop_id":"U1546Z1","name":"Rotreklova","arrival_time":"7:56:00","departure_time":"7:56:00","lat":49.2066,"lon":16.685331,"is_passed":false},{"stop_id":"U1208Z6","name":"Jírova","arrival_time":"7:58:00","departure_time":"8:22:00","lat":49.209179,"lon":16.688685,"is_passed":false}],"56208":[{"stop_id":"U1208Z3","name":"Jírova","arrival_time":"8:22:00","departure_time":"8:22:00","lat":49.208886,"lon":16.687979,"is_passed":false},{"stop_id":"U1546Z2","name":"Rotreklova","arrival_time":"8:22:00","departure_time":"8:22:00","lat":49.206534,"lon":16.684689,"is_passed":false},{"stop_id":"U1012Z2","name":"Bartákova","arrival_time":"8:23:00","departure_time":"8:23:00","lat":49.204255,"lon":16.679185,"is_passed":false},{"stop_id":"U1438Z4","name":"Novolíšeňská","arrival_time":"8:25:00","departure_time":"8:25:00","lat":49.201792,"lon":16.670352,"is_passed":false},{"stop_id":"U1058Z2","name":"Čejkovická","arrival_time":"8:27:00","departure_time":"8:27:00","lat":49.200493,"lon":16.661793,"is_passed":false},{"stop_id":"U1036Z2","name":"Bořetická","arrival_time":"8:28:00","departure_time":"8:28:00","lat":49.201495,"lon":16.658055,"is_passed":false},{"stop_id":"U1403Z2","name":"Mutěnická","arrival_time":"8:29:00","departure_time":"8:29:00","lat":49.203951,"lon":16.654889,"is_passed":false},{"stop_id":"U1477Z2","name":"Pálavské náměstí","arrival_time":"8:30:00","departure_time":"8:30:00","lat":49.20538,"lon":16.658103,"is_passed":false},{"stop_id":"U1052Z2","name":"Bzenecká","arrival_time":"8:31:00","departure_time":"8:31:00","lat":49.205822,"lon":16.661645,"is_passed":false},{"stop_id":"U1523Z2","name":"Prušánecká","arrival_time":"8:32:00","departure_time":"8:32:00","lat":49.209503,"lon":16.663369,"is_passed":false},{"stop_id":"U1743Z2","name":"Vlčnovská","arrival_time":"8:33:00","departure_time":"8:33:00","lat":49.211166,"lon":16.659638,"is_passed":false},{"stop_id":"U1002Z2","name":"Akátky","arrival_time":"8:34:00","departure_time":"8:34:00","lat":49.208751,"lon":16.648718,"is_passed":false},{"stop_id":"U1698Z2","name":"Údolíček","arrival_time":"8:35:00","departure_time":"8:35:00","lat":49.206553,"lon":16.643865,"is_passed":false},{"stop_id":"U1631Z1","name":"Svatoplukova","arrival_time":"8:37:00","departure_time":"8:37:00","lat":49.2051,"lon":16.641425,"is_passed":false},{"stop_id":"U1611Z3","name":"Stará osada","arrival_time":"8:39:00","departure_time":"8:41:00","lat":49.202353,"lon":16.64196,"is_passed":false}],"56209":[{"stop_id":"U1611Z4","name":"Stará osada","arrival_time":"8:41:00","departure_time":"8:41:00","lat":49.202225,"lon":16.641851,"is_passed":false},{"stop_id":"U1698Z1","name":"Údolíček","arrival_time":"8:43:00","departure_time":"8:43:00","lat":49.206732,"lon":16.644592,"is_passed":false},{"stop_id":"U1002Z1","name":"Akátky","arrival_time":"8:43:00","departure_time":"8:43:00","lat":49.208518,"lon":16.648742,"is_passed":false},{"stop_id":"U1743Z1","name":"Vlčnovská","arrival_time":"8:45:00","departure_time":"8:45:00","lat":49.210995,"lon":16.660327,"is_passed":false},{"stop_id":"U1523Z1","name":"Prušánecká","arrival_time":"8:46:00","departure_time":"8:46:00","lat":49.20827,"lon":16.663465,"is_passed":false},{"stop_id":"U1052Z1","name":"Bzenecká","arrival_time":"8:48:00","departure_time":"8:48:00","lat":49.206117,"lon":16.660595,"is_passed":false},{"stop_id":"U1477Z3","name":"Pálavské náměstí","arrival_time":"8:49:00","departure_time":"8:49:00","lat":49.20612,"lon":16.657683,"is_passed":false},{"stop_id":"U1403Z1","name":"Mutěnická","arrival_time":"8:50:00","departure_time":"8:50:00","lat":49.20299,"lon":16.654796,"is_passed":false},{"stop_id":"U1036Z1","name":"Bořetická","arrival_time":"8:51:00","departure_time":"8:51:00","lat":49.201326,"lon":16.659292,"is_passed":false},{"stop_id":"U1058Z1","name":"Čejkovická","arrival_time":"8:52:00","departure_time":"8:52:00","lat":49.200178,"lon":16.662528,"is_passed":false},{"stop_id":"U1438Z3","name":"Novolíšeňská","arrival_time":"8:54:00","departure_time":"8:54:00","lat":49.201692,"lon":16.670699,"is_passed":false},{"stop_id":"U1012Z1","name":"Bartákova","arrival_time":"8:55:00","departure_time":"8:55:00","lat":49.203714,"lon":16.678742,"is_passed":false},{"stop_id":"U1546Z1","name":"Rotreklova","arrival_time":"8:56:00","departure_time":"8:56:00","lat":49.2066,"lon":16.685331,"is_passed":false},{"stop_id":"U1208Z6","name":"Jírova","arrival_time":"8:58:00","departure_time":"9:22:00","lat":49.209179,"lon":16.688685,"is_passed":false}],"56210":[{"stop_id":"U1208Z3","name":"Jírova","arrival_time":"9:22:00","departure_time":"9:22:00","lat":49.208886,"lon":16.687979,"is_passed":false},{"stop_id":"U1546Z2","name":"Rotreklova","arrival_time":"9:22:00","departure_time":"9:22:00","lat":49.206534,"lon":16.684689,"is_passed":false},{"stop_id":"U1012Z2","name":"Bartákova","arrival_time":"9:23:00","departure_time":"9:23:00","lat":49.204255,"lon":16.679185,"is_passed":false},{"stop_id":"U1438Z4","name":"Novolíšeňská","arrival_time":"9:25:00","departure_time":"9:25:00","lat":49.201792,"lon":16.670352,"is_passed":false},{"stop_id":"U1058Z2","name":"Čejkovická","arrival_time":"9:27:00","departure_time":"9:27:00","lat":49.200493,"lon":16.661793,"is_passed":false},{"stop_id":"U1036Z2","name":"Bořetická","arrival_time":"9:28:00","departure_time":"9:28:00","lat":49.201495,"lon":16.658055,"is_passed":false},{"stop_id":"U1403Z2","name":"Mutěnická","arrival_time":"9:29:00","departure_time":"9:29:00","lat":49.203951,"lon":16.654889,"is_passed":false},{"stop_id":"U1477Z2","name":"Pálavské náměstí","arrival_time":"9:30:00","departure_time":"9:30:00","lat":49.20538,"lon":16.658103,"is_passed":false},{"stop_id":"U1052Z2","name":"Bzenecká","arrival_time":"9:31:00","departure_time":"9:31:00","lat":49.205822,"lon":16.661645,"is_passed":false},{"stop_id":"U1523Z2","name":"Prušánecká","arrival_time":"9:32:00","departure_time":"9:32:00","lat":49.209503,"lon":16.663369,"is_passed":false},{"stop_id":"U1743Z2","name":"Vlčnovská","arrival_time":"9:33:00","departure_time":"9:33:00","lat":49.211166,"lon":16.659638,"is_passed":false},{"stop_id":"U1002Z2","name":"Akátky","arrival_time":"9:34:00","departure_time":"9:34:00","lat":49.208751,"lon":16.648718,"is_passed":false},{"stop_id":"U1698Z2","name":"Údolíček","arrival_time":"9:35:00","departure_time":"9:35:00","lat":49.206553,"lon":16.643865,"is_passed":false},{"stop_id":"U1631Z1","name":"Svatoplukova","arrival_time":"9:37:00","departure_time":"9:37:00","lat":49.2051,"lon":16.641425,"is_passed":false},{"stop_id":"U1611Z3","name":"Stará osada","arrival_time":"9:39:00","departure_time":"9:41:00","lat":49.202353,"lon":16.64196,"is_passed":false}],"56211":[{"stop_id":"U1611Z4","name":"Stará osada","arrival_time":"9:41:00","departure_time":"9:41:00","lat":49.202225,"lon":16.641851,"is_passed":false},{"stop_id":"U1698Z1","name":"Údolíček","arrival_time":"9:43:00","departure_time":"9:43:00","lat":49.206732,"lon":16.644592,"is_passed":false},{"stop_id":"U1002Z1","name":"Akátky","arrival_time":"9:43:00","departure_time":"9:43:00","lat":49.208518,"lon":16.648742,"is_passed":false},{"stop_id":"U1743Z1","name":"Vlčnovská","arrival_time":"9:45:00","departure_time":"9:45:00","lat":49.210995,"lon":16.660327,"is_passed":false},{"stop_id":"U1523Z1","name":"Prušánecká","arrival_time":"9:46:00","departure_time":"9:46:00","lat":49.20827,"lon":16.663465,"is_passed":false},{"stop_id":"U1052Z1","name":"Bzenecká","arrival_time":"9:48:00","departure_time":"9:48:00","lat":49.206117,"lon":16.660595,"is_passed":false},{"stop_id":"U1477Z3","name":"Pálavské náměstí","arrival_time":"9:49:00","departure_time":"9:49:00","lat":49.20612,"lon":16.657683,"is_passed":false},{"stop_id":"U1403Z1","name":"Mutěnická","arrival_time":"9:50:00","departure_time":"9:50:00","lat":49.20299,"lon":16.654796,"is_passed":false},{"stop_id":"U1036Z1","name":"Bořetická","arrival_time":"9:51:00","departure_time":"9:51:00","lat":49.201326,"lon":16.659292,"is_passed":false},{"stop_id":"U1058Z1","name":"Čejkovická","arrival_time":"9:52:00","departure_time":"9:52:00","lat":49.200178,"lon":16.662528,"is_passed":false},{"stop_id":"U1438Z3","name":"Novolíšeňská","arrival_time":"9:54:00","departure_time":"9:54:00","lat":49.201692,"lon":16.670699,"is_passed":false},{"stop_id":"U1012Z1","name":"Bartákova","arrival_time":"9:55:00","departure_time":"9:55:00","lat":49.203714,"lon":16.678742,"is_passed":false},{"stop_id":"U1546Z1","name":"Rotreklova","arrival_time":"9:56:00","departure_time":"9:56:00","lat":49.2066,"lon":16.685331,"is_passed":false},{"stop_id":"U1208Z6","name":"Jírova","arrival_time":"9:58:00","departure_time":"10:22:00","lat":49.209179,"lon":16.688685,"is_passed":false}],"56212":[{"stop_id":"U1208Z3","name":"Jírova","arrival_time":"10:22:00","departure_time":"10:22:00","lat":49.208886,"lon":16.687979,"is_passed":false},{"stop_id":"U1546Z2","name":"Rotreklova","arrival_time":"10:22:00","departure_time":"10:22:00","lat":49.206534,"lon":16.684689,"is_passed":false},{"stop_id":"U1012Z2","name":"Bartákova","arrival_time":"10:23:00","departure_time":"10:23:00","lat":49.204255,"lon":16.679185,"is_passed":false},{"stop_id":"U1438Z4","name":"Novolíšeňská","arrival_time":"10:25:00","departure_time":"10:25:00","lat":49.201792,"lon":16.670352,"is_passed":false},{"stop_id":"U1058Z2","name":"Čejkovická","arrival_time":"10:27:00","departure_time":"10:27:00","lat":49.200493,"lon":16.661793,"is_passed":false},{"stop_id":"U1036Z2","name":"Bořetická","arrival_time":"10:28:00","departure_time":"10:28:00","lat":49.201495,"lon":16.658055,"is_passed":false},{"stop_id":"U1403Z2","name":"Mutěnická","arrival_time":"10:29:00","departure_time":"10:29:00","lat":49.203951,"lon":16.654889,"is_passed":false},{"stop_id":"U1477Z2","name":"Pálavské náměstí","arrival_time":"10:30:00","departure_time":"10:30:00","lat":49.20538,"lon":16.658103,"is_passed":false},{"stop_id":"U1052Z2","name":"Bzenecká","arrival_time":"10:31:00","departure_time":"10:31:00","lat":49.205822,"lon":16.661645,"is_passed":false},{"stop_id":"U1523Z2","name":"Prušánecká","arrival_time":"10:32:00","departure_time":"10:32:00","lat":49.209503,"lon":16.663369,"is_passed":false},{"stop_id":"U1743Z2","name":"Vlčnovská","arrival_time":"10:33:00","departure_time":"10:33:00","lat":49.211166,"lon":16.659638,"is_passed":false},{"stop_id":"U1002Z2","name":"Akátky","arrival_time":"10:34:00","departure_time":"10:34:00","lat":49.208751,"lon":16.648718,"is_passed":false},{"stop_id":"U1698Z2","name":"Údolíček","arrival_time":"10:35:00","departure_time":"10:35:00","lat":49.206553,"lon":16.643865,"is_passed":false},{"stop_id":"U1631Z1","name":"Svatoplukova","arrival_time":"10:37:00","departure_time":"10:37:00","lat":49.2051,"lon":16.641425,"is_passed":false},{"stop_id":"U1611Z3","name":"Stará osada","arrival_time":"10:39:00","departure_time":"10:41:00","lat":49.202353,"lon":16.64196,"is_passed":false}],"56213":[{"stop_id":"U1611Z4","name":"Stará osada","arrival_time":"10:41:00","departure_time":"10:41:00","lat":49.202225,"lon":16.641851,"is_passed":false},{"stop_id":"U1698Z1","name":"Údolíček","arrival_time":"10:43:00","departure_time":"10:43:00","lat":49.206732,"lon":16.644592,"is_passed":false},{"stop_id":"U1002Z1","name":"Akátky","arrival_time":"10:43:00","departure_time":"10:43:00","lat":49.208518,"lon":16.648742,"is_passed":false},{"stop_id":"U1743Z1","name":"Vlčnovská","arrival_time":"10:45:00","departure_time":"10:45:00","lat":49.210995,"lon":16.660327,"is_passed":false},{"stop_id":"U1523Z1","name":"Prušánecká","arrival_time":"10:46:00","departure_time":"10:46:00","lat":49.20827,"lon":16.663465,"is_passed":false},{"stop_id":"U1052Z1","name":"Bzenecká","arrival_time":"10:48:00","departure_time":"10:48:00","lat":49.206117,"lon":16.660595,"is_passed":false},{"stop_id":"U1477Z3","name":"Pálavské náměstí","arrival_time":"10:49:00","departure_time":"10:49:00","lat":49.20612,"lon":16.657683,"is_passed":false},{"stop_id":"U1403Z1","name":"Mutěnická","arrival_time":"10:50:00","departure_time":"10:50:00","lat":49.20299,"lon":16.654796,"is_passed":false},{"stop_id":"U1036Z1","name":"Bořetická","arrival_time":"10:51:00","departure_time":"10:51:00","lat":49.201326,"lon":16.659292,"is_passed":false},{"stop_id":"U1058Z1","name":"Čejkovická","arrival_time":"10:52:00","departure_time":"10:52:00","lat":49.200178,"lon":16.662528,"is_passed":false},{"stop_id":"U1438Z3","name":"Novolíšeňská","arrival_time":"10:54:00","departure_time":"10:54:00","lat":49.201692,"lon":16.670699,"is_passed":false},{"stop_id":"U1012Z1","name":"Bartákova","arrival_time":"10:55:00","departure_time":"10:55:00","lat":49.203714,"lon":16.678742,"is_passed":false},{"stop_id":"U1546Z1","name":"Rotreklova","arrival_time":"10:56:00","departure_time":"10:56:00","lat":49.2066,"lon":16.685331,"is_passed":false},{"stop_id":"U1208Z6","name":"Jírova","arrival_time":"10:58:00","departure_time":"11:22:00","lat":49.209179,"lon":16.688685,"is_passed":false}],"56214":[{"stop_id":"U1208Z3","name":"Jírova","arrival_time":"11:22:00","departure_time":"11:22:00","lat":49.208886,"lon":16.687979,"is_passed":false},{"stop_id":"U1546Z2","name":"Rotreklova","arrival_time":"11:22:00","departure_time":"11:22:00","lat":49.206534,"lon":16.684689,"is_passed":false},{"stop_id":"U1012Z2","name":"Bartákova","arrival_time":"11:23:00","departure_time":"11:23:00","lat":49.204255,"lon":16.679185,"is_passed":false},{"stop_id":"U1438Z4","name":"Novolíšeňská","arrival_time":"11:25:00","departure_time":"11:25:00","lat":49.201792,"lon":16.670352,"is_passed":false},{"stop_id":"U1058Z2","name":"Čejkovická","arrival_time":"11:27:00","departure_time":"11:27:00","lat":49.200493,"lon":16.661793,"is_passed":false},{"stop_id":"U1036Z2","name":"Bořetická","arrival_time":"11:28:00","departure_time":"11:28:00","lat":49.201495,"lon":16.658055,"is_passed":false},{"stop_id":"U1403Z2","name":"Mutěnická","arrival_time":"11:29:00","departure_time":"11:29:00","lat":49.203951,"lon":16.654889,"is_passed":false},{"stop_id":"U1477Z2","name":"Pálavské náměstí","arrival_time":"11:30:00","departure_time":"11:30:00","lat":49.20538,"lon":16.658103,"is_passed":false},{"stop_id":"U1052Z2","name":"Bzenecká","arrival_time":"11:31:00","departure_time":"11:31:00","lat":49.205822,"lon":16.661645,"is_passed":false},{"stop_id":"U1523Z2","name":"Prušánecká","arrival_time":"11:32:00","departure_time":"11:32:00","lat":49.209503,"lon":16.663369,"is_passed":false},{"stop_id":"U1743Z2","name":"Vlčnovská","arrival_time":"11:33:00","departure_time":"11:33:00","lat":49.211166,"lon":16.659638,"is_passed":false},{"stop_id":"U1002Z2","name":"Akátky","arrival_time":"11:34:00","departure_time":"11:34:00","lat":49.208751,"lon":16.648718,"is_passed":false},{"stop_id":"U1698Z2","name":"Údolíček","arrival_time":"11:35:00","departure_time":"11:35:00","lat":49.206553,"lon":16.643865,"is_passed":false},{"stop_id":"U1631Z1","name":"Svatoplukova","arrival_time":"11:37:00","departure_time":"11:37:00","lat":49.2051,"lon":16.641425,"is_passed":false},{"stop_id":"U1611Z3","name":"Stará osada","arrival_time":"11:39:00","departure_time":"11:41:00","lat":49.202353,"lon":16.64196,"is_passed":false}],"56215":[{"stop_id":"U1611Z4","name":"Stará osada","arrival_time":"11:41:00","departure_time":"11:41:00","lat":49.202225,"lon":16.641851,"is_passed":false},{"stop_id":"U1698Z1","name":"Údolíček","arrival_time":"11:43:00","departure_time":"11:43:00","lat":49.206732,"lon":16.644592,"is_passed":false},{"stop_id":"U1002Z1","name":"Akátky","arrival_time":"11:43:00","departure_time":"11:43:00","lat":49.208518,"lon":16.648742,"is_passed":false},{"stop_id":"U1743Z1","name":"Vlčnovská","arrival_time":"11:45:00","departure_time":"11:45:00","lat":49.210995,"lon":16.660327,"is_passed":false},{"stop_id":"U1523Z1","name":"Prušánecká","arrival_time":"11:46:00","departure_time":"11:46:00","lat":49.20827,"lon":16.663465,"is_passed":false},{"stop_id":"U1052Z1","name":"Bzenecká","arrival_time":"11:48:00","departure_time":"11:48:00","lat":49.206117,"lon":16.660595,"is_passed":false},{"stop_id":"U1477Z3","name":"Pálavské náměstí","arrival_time":"11:49:00","departure_time":"11:49:00","lat":49.20612,"lon":16.657683,"is_passed":false},{"stop_id":"U1403Z1","name":"Mutěnická","arrival_time":"11:50:00","departure_time":"11:50:00","lat":49.20299,"lon":16.654796,"is_passed":false},{"stop_id":"U1036Z1","name":"Bořetická","arrival_time":"11:51:00","departure_time":"11:51:00","lat":49.201326,"lon":16.659292,"is_passed":false},{"stop_id":"U1058Z1","name":"Čejkovická","arrival_time":"11:52:00","departure_time":"11:52:00","lat":49.200178,"lon":16.662528,"is_passed":false},{"stop_id":"U1438Z3","name":"Novolíšeňská","arrival_time":"11:54:00","departure_time":"11:54:00","lat":49.201692,"lon":16.670699,"is_passed":false},{"stop_id":"U1012Z1","name":"Bartákova","arrival_time":"11:55:00","departure_time":"11:55:00","lat":49.203714,"lon":16.678742,"is_passed":false},{"stop_id":"U1546Z1","name":"Rotreklova","arrival_time":"11:56:00","departure_time":"11:56:00","lat":49.2066,"lon":16.685331,"is_passed":false},{"stop_id":"U1208Z6","name":"Jírova","arrival_time":"11:58:00","departure_time":"12:22:00","lat":49.209179,"lon":16.688685,"is_passed":false}],"56216":[{"stop_id":"U1208Z3","name":"Jírova","arrival_time":"12:22:00","departure_time":"12:22:00","lat":49.208886,"lon":16.687979,"is_passed":false},{"stop_id":"U1546Z2","name":"Rotreklova","arrival_time":"12:22:00","departure_time":"12:22:00","lat":49.206534,"lon":16.684689,"is_passed":false},{"stop_id":"U1012Z2","name":"Bartákova","arrival_time":"12:23:00","departure_time":"12:23:00","lat":49.204255,"lon":16.679185,"is_passed":false},{"stop_id":"U1438Z4","name":"Novolíšeňská","arrival_time":"12:25:00","departure_time":"12:25:00","lat":49.201792,"lon":16.670352,"is_passed":false},{"stop_id":"U1058Z2","name":"Čejkovická","arrival_time":"12:27:00","departure_time":"12:27:00","lat":49.200493,"lon":16.661793,"is_passed":false},{"stop_id":"U1036Z2","name":"Bořetická","arrival_time":"12:28:00","departure_time":"12:28:00","lat":49.201495,"lon":16.658055,"is_passed":false},{"stop_id":"U1403Z2","name":"Mutěnická","arrival_time":"12:29:00","departure_time":"12:29:00","lat":49.203951,"lon":16.654889,"is_passed":false},{"stop_id":"U1477Z2","name":"Pálavské náměstí","arrival_time":"12:30:00","departure_time":"12:30:00","lat":49.20538,"lon":16.658103,"is_passed":false},{"stop_id":"U1052Z2","name":"Bzenecká","arrival_time":"12:31:00","departure_time":"12:31:00","lat":49.205822,"lon":16.661645,"is_passed":false},{"stop_id":"U1523Z2","name":"Prušánecká","arrival_time":"12:32:00","departure_time":"12:32:00","lat":49.209503,"lon":16.663369,"is_passed":false},{"stop_id":"U1743Z2","name":"Vlčnovská","arrival_time":"12:33:00","departure_time":"12:33:00","lat":49.211166,"lon":16.659638,"is_passed":false},{"stop_id":"U1002Z2","name":"Akátky","arrival_time":"12:34:00","departure_time":"12:34:00","lat":49.208751,"lon":16.648718,"is_passed":false},{"stop_id":"U1698Z2","name":"Údolíček","arrival_time":"12:35:00","departure_time":"12:35:00","lat":49.206553,"lon":16.643865,"is_passed":false},{"stop_id":"U1631Z1","name":"Svatoplukova","arrival_time":"12:37:00","departure_time":"12:37:00","lat":49.2051,"lon":16.641425,"is_passed":false},{"stop_id":"U1611Z3","name":"Stará osada","arrival_time":"12:39:00","departure_time":"12:41:00","lat":49.202353,"lon":16.64196,"is_passed":false}],"56217":[{"stop_id":"U1611Z4","name":"Stará osada","arrival_time":"12:41:00","departure_time":"12:41:00","lat":49.202225,"lon":16.641851,"is_passed":false},{"stop_id":"U1698Z1","name":"Údolíček","arrival_time":"12:43:00","departure_time":"12:43:00","lat":49.206732,"lon":16.644592,"is_passed":false},{"stop_id":"U1002Z1","name":"Akátky","arrival_time":"12:43:00","departure_time":"12:43:00","lat":49.208518,"lon":16.648742,"is_passed":false},{"stop_id":"U1743Z1","name":"Vlčnovská","arrival_time":"12:45:00","departure_time":"12:45:00","lat":49.210995,"lon":16.660327,"is_passed":false},{"stop_id":"U1523Z1","name":"Prušánecká","arrival_time":"12:46:00","departure_time":"12:46:00","lat":49.20827,"lon":16.663465,"is_passed":false},{"stop_id":"U1052Z1","name":"Bzenecká","arrival_time":"12:48:00","departure_time":"12:48:00","lat":49.206117,"lon":16.660595,"is_passed":false},{"stop_id":"U1477Z3","name":"Pálavské náměstí","arrival_time":"12:49:00","departure_time":"12:49:00","lat":49.20612,"lon":16.657683,"is_passed":false},{"stop_id":"U1403Z1","name":"Mutěnická","arrival_time":"12:50:00","departure_time":"12:50:00","lat":49.20299,"lon":16.654796,"is_passed":false},{"stop_id":"U1036Z1","name":"Bořetická","arrival_time":"12:51:00","departure_time":"12:51:00","lat":49.201326,"lon":16.659292,"is_passed":false},{"stop_id":"U1058Z1","name":"Čejkovická","arrival_time":"12:52:00","departure_time":"12:52:00","lat":49.200178,"lon":16.662528,"is_passed":false},{"stop_id":"U1438Z3","name":"Novolíšeňská","arrival_time":"12:54:00","departure_time":"12:54:00","lat":49.201692,"lon":16.670699,"is_passed":false},{"stop_id":"U1012Z1","name":"Bartákova","arrival_time":"12:55:00","departure_time":"12:55:00","lat":49.203714,"lon":16.678742,"is_passed":false},{"stop_id":"U1546Z1","name":"Rotreklova","arrival_time":"12:56:00","departure_time":"12:56:00","lat":49.2066,"lon":16.685331,"is_passed":false},{"stop_id":"U1208Z6","name":"Jírova","arrival_time":"12:58:00","departure_time":"13:22:00","lat":49.209179,"lon":16.688685,"is_passed":false}],"56218":[{"stop_id":"U1208Z3","name":"Jírova","arrival_time":"13:22:00","departure_time":"13:22:00","lat":49.208886,"lon":16.687979,"is_passed":false},{"stop_id":"U1546Z2","name":"Rotreklova","arrival_time":"13:22:00","departure_time":"13:22:00","lat":49.206534,"lon":16.684689,"is_passed":false},{"stop_id":"U1012Z2","name":"Bartákova","arrival_time":"13:23:00","departure_time":"13:23:00","lat":49.204255,"lon":16.679185,"is_passed":false},{"stop_id":"U1438Z4","name":"Novolíšeňská","arrival_time":"13:25:00","departure_time":"13:25:00","lat":49.201792,"lon":16.670352,"is_passed":false},{"stop_id":"U1058Z2","name":"Čejkovická","arrival_time":"13:27:00","departure_time":"13:27:00","lat":49.200493,"lon":16.661793,"is_passed":false},{"stop_id":"U1036Z2","name":"Bořetická","arrival_time":"13:28:00","departure_time":"13:28:00","lat":49.201495,"lon":16.658055,"is_passed":false},{"stop_id":"U1403Z2","name":"Mutěnická","arrival_time":"13:29:00","departure_time":"13:29:00","lat":49.203951,"lon":16.654889,"is_passed":false},{"stop_id":"U1477Z2","name":"Pálavské náměstí","arrival_time":"13:30:00","departure_time":"13:30:00","lat":49.20538,"lon":16.658103,"is_passed":false},{"stop_id":"U1052Z2","name":"Bzenecká","arrival_time":"13:31:00","departure_time":"13:31:00","lat":49.205822,"lon":16.661645,"is_passed":false},{"stop_id":"U1523Z2","name":"Prušánecká","arrival_time":"13:32:00","departure_time":"13:32:00","lat":49.209503,"lon":16.663369,"is_passed":false},{"stop_id":"U1743Z2","name":"Vlčnovská","arrival_time":"13:33:00","departure_time":"13:33:00","lat":49.211166,"lon":16.659638,"is_passed":false},{"stop_id":"U1002Z2","name":"Akátky","arrival_time":"13:34:00","departure_time":"13:34:00","lat":49.208751,"lon":16.648718,"is_passed":false},{"stop_id":"U1698Z2","name":"Údolíček","arrival_time":"13:35:00","departure_time":"13:35:00","lat":49.206553,"lon":16.643865,"is_passed":false},{"stop_id":"U1631Z1","name":"Svatoplukova","arrival_time":"13:37:00","departure_time":"13:37:00","lat":49.2051,"lon":16.641425,"is_passed":false},{"stop_id":"U1611Z3","name":"Stará osada","arrival_time":"13:39:00","departure_time":"13:41:00","lat":49.202353,"lon":16.64196,"is_passed":false}],"56219":[{"stop_id":"U1611Z4","name":"Stará osada","arrival_time":"13:41:00","departure_time":"13:41:00","lat":49.202225,"lon":16.641851,"is_passed":false},{"stop_id":"U1698Z1","name":"Údolíček","arrival_time":"13:43:00","departure_time":"13:43:00","lat":49.206732,"lon":16.644592,"is_passed":false},{"stop_id":"U1002Z1","name":"Akátky","arrival_time":"13:43:00","departure_time":"13:43:00","lat":49.208518,"lon":16.648742,"is_passed":false},{"stop_id":"U1743Z1","name":"Vlčnovská","arrival_time":"13:45:00","departure_time":"13:45:00","lat":49.210995,"lon":16.660327,"is_passed":false},{"stop_id":"U1523Z1","name":"Prušánecká","arrival_time":"13:46:00","departure_time":"13:46:00","lat":49.20827,"lon":16.663465,"is_passed":false},{"stop_id":"U1052Z1","name":"Bzenecká","arrival_time":"13:48:00","departure_time":"13:48:00","lat":49.206117,"lon":16.660595,"is_passed":false},{"stop_id":"U1477Z3","name":"Pálavské náměstí","arrival_time":"13:49:00","departure_time":"13:49:00","lat":49.20612,"lon":16.657683,"is_passed":false},{"stop_id":"U1403Z1","name":"Mutěnická","arrival_time":"13:50:00","departure_time":"13:50:00","lat":49.20299,"lon":16.654796,"is_passed":false},{"stop_id":"U1036Z1","name":"Bořetická","arrival_time":"13:51:00","departure_time":"13:51:00","lat":49.201326,"lon":16.659292,"is_passed":false},{"stop_id":"U1058Z1","name":"Čejkovická","arrival_time":"13:52:00","departure_time":"13:52:00","lat":49.200178,"lon":16.662528,"is_passed":false},{"stop_id":"U1438Z3","name":"Novolíšeňská","arrival_time":"13:54:00","departure_time":"13:54:00","lat":49.201692,"lon":16.670699,"is_passed":false},{"stop_id":"U1012Z1","name":"Bartákova","arrival_time":"13:55:00","departure_time":"13:55:00","lat":49.203714,"lon":16.678742,"is_passed":false},{"stop_id":"U1546Z1","name":"Rotreklova","arrival_time":"13:56:00","departure_time":"13:56:00","lat":49.2066,"lon":16.685331,"is_passed":false},{"stop_id":"U1208Z6","name":"Jírova","arrival_time":"13:58:00","departure_time":"14:18:00","lat":49.209179,"lon":16.688685,"is_passed":false}],"56220":[{"stop_id":"U1208Z3","name":"Jírova","arrival_time":"14:18:00","departure_time":"14:18:00","lat":49.208886,"lon":16.687979,"is_passed":false},{"stop_id":"U1546Z2","name":"Rotreklova","arrival_time":"14:18:00","departure_time":"14:18:00","lat":49.206534,"lon":16.684689,"is_passed":false},{"stop_id":"U1012Z2","name":"Bartákova","arrival_time":"14:19:00","departure_time":"14:19:00","lat":49.204255,"lon":16.679185,"is_passed":false},{"stop_id":"U1438Z4","name":"Novolíšeňská","arrival_time":"14:21:00","departure_time":"14:21:00","lat":49.201792,"lon":16.670352,"is_passed":false},{"stop_id":"U1058Z2","name":"Čejkovická","arrival_time":"14:23:00","departure_time":"14:23:00","lat":49.200493,"lon":16.661793,"is_passed":false},{"stop_id":"U1036Z2","name":"Bořetická","arrival_time":"14:24:00","departure_time":"14:24:00","lat":49.201495,"lon":16.658055,"is_passed":false},{"stop_id":"U1403Z2","name":"Mutěnická","arrival_time":"14:25:00","departure_time":"14:25:00","lat":49.203951,"lon":16.654889,"is_passed":false},{"stop_id":"U1477Z2","name":"Pálavské náměstí","arrival_time":"14:26:00","departure_time":"14:26:00","lat":49.20538,"lon":16.658103,"is_passed":false},{"stop_id":"U1052Z2","name":"Bzenecká","arrival_time":"14:27:00","departure_time":"14:27:00","lat":49.205822,"lon":16.661645,"is_passed":false},{"stop_id":"U1523Z2","name":"Prušánecká","arrival_time":"14:28:00","departure_time":"14:28:00","lat":49.209503,"lon":16.663369,"is_passed":false},{"stop_id":"U1743Z2","name":"Vlčnovská","arrival_time":"14:29:00","departure_time":"14:29:00","lat":49.211166,"lon":16.659638,"is_passed":false},{"stop_id":"U1002Z2","name":"Akátky","arrival_time":"14:30:00","departure_time":"14:30:00","lat":49.208751,"lon":16.648718,"is_passed":false},{"stop_id":"U1698Z2","name":"Údolíček","arrival_time":"14:31:00","departure_time":"14:31:00","lat":49.206553,"lon":16.643865,"is_passed":false},{"stop_id":"U1631Z1","name":"Svatoplukova","arrival_time":"14:33:00","departure_time":"14:33:00","lat":49.2051,"lon":16.641425,"is_passed":false},{"stop_id":"U1611Z3","name":"Stará osada","arrival_time":"14:35:00","departure_time":"14:44:00","lat":49.202353,"lon":16.64196,"is_passed":false}],"56221":[{"stop_id":"U1611Z4","name":"Stará osada","arrival_time":"14:44:00","departure_time":"14:44:00","lat":49.202225,"lon":16.641851,"is_passed":false},{"stop_id":"U1698Z1","name":"Údolíček","arrival_time":"14:46:00","departure_time":"14:46:00","lat":49.206732,"lon":16.644592,"is_passed":false},{"stop_id":"U1002Z1","name":"Akátky","arrival_time":"14:46:00","departure_time":"14:46:00","lat":49.208518,"lon":16.648742,"is_passed":false},{"stop_id":"U1743Z1","name":"Vlčnovská","arrival_time":"14:48:00","departure_time":"14:48:00","lat":49.210995,"lon":16.660327,"is_passed":false},{"stop_id":"U1523Z1","name":"Prušánecká","arrival_time":"14:49:00","departure_time":"14:49:00","lat":49.20827,"lon":16.663465,"is_passed":false},{"stop_id":"U1052Z1","name":"Bzenecká","arrival_time":"14:51:00","departure_time":"14:51:00","lat":49.206117,"lon":16.660595,"is_passed":false},{"stop_id":"U1477Z3","name":"Pálavské náměstí","arrival_time":"14:52:00","departure_time":"14:52:00","lat":49.20612,"lon":16.657683,"is_passed":false},{"stop_id":"U1403Z1","name":"Mutěnická","arrival_time":"14:53:00","departure_time":"14:53:00","lat":49.20299,"lon":16.654796,"is_passed":false},{"stop_id":"U1036Z1","name":"Bořetická","arrival_time":"14:54:00","departure_time":"14:54:00","lat":49.201326,"lon":16.659292,"is_passed":false},{"stop_id":"U1058Z1","name":"Čejkovická","arrival_time":"14:55:00","departure_time":"14:55:00","lat":49.200178,"lon":16.662528,"is_passed":false},{"stop_id":"U1438Z3","name":"Novolíšeňská","arrival_time":"14:57:00","departure_time":"14:57:00","lat":49.201692,"lon":16.670699,"is_passed":false},{"stop_id":"U1012Z1","name":"Bartákova","arrival_time":"14:58:00","departure_time":"14:58:00","lat":49.203714,"lon":16.678742,"is_passed":false},{"stop_id":"U1546Z1","name":"Rotreklova","arrival_time":"14:59:00","departure_time":"14:59:00","lat":49.2066,"lon":16.685331,"is_passed":false},{"stop_id":"U1208Z6","name":"Jírova","arrival_time":"15:01:00","departure_time":"15:18:00","lat":49.209179,"lon":16.688685,"is_passed":false}],"56222":[{"stop_id":"U1208Z3","name":"Jírova","arrival_time":"15:18:00","departure_time":"15:18:00","lat":49.208886,"lon":16.687979,"is_passed":false},{"stop_id":"U1546Z2","name":"Rotreklova","arrival_time":"15:18:00","departure_time":"15:18:00","lat":49.206534,"lon":16.684689,"is_passed":false},{"stop_id":"U1012Z2","name":"Bartákova","arrival_time":"15:19:00","departure_time":"15:19:00","lat":49.204255,"lon":16.679185,"is_passed":false},{"stop_id":"U1438Z4","name":"Novolíšeňská","arrival_time":"15:21:00","departure_time":"15:21:00","lat":49.201792,"lon":16.670352,"is_passed":false},{"stop_id":"U1058Z2","name":"Čejkovická","arrival_time":"15:23:00","departure_time":"15:23:00","lat":49.200493,"lon":16.661793,"is_passed":false},{"stop_id":"U1036Z2","name":"Bořetická","arrival_time":"15:24:00","departure_time":"15:24:00","lat":49.201495,"lon":16.658055,"is_passed":false},{"stop_id":"U1403Z2","name":"Mutěnická","arrival_time":"15:25:00","departure_time":"15:25:00","lat":49.203951,"lon":16.654889,"is_passed":false},{"stop_id":"U1477Z2","name":"Pálavské náměstí","arrival_time":"15:26:00","departure_time":"15:26:00","lat":49.20538,"lon":16.658103,"is_passed":false},{"stop_id":"U1052Z2","name":"Bzenecká","arrival_time":"15:27:00","departure_time":"15:27:00","lat":49.205822,"lon":16.661645,"is_passed":false},{"stop_id":"U1523Z2","name":"Prušánecká","arrival_time":"15:28:00","departure_time":"15:28:00","lat":49.209503,"lon":16.663369,"is_passed":false},{"stop_id":"U1743Z2","name":"Vlčnovská","arrival_time":"15:29:00","departure_time":"15:29:00","lat":49.211166,"lon":16.659638,"is_passed":false},{"stop_id":"U1002Z2","name":"Akátky","arrival_time":"15:30:00","departure_time":"15:30:00","lat":49.208751,"lon":16.648718,"is_passed":false},{"stop_id":"U1698Z2","name":"Údolíček","arrival_time":"15:31:00","departure_time":"15:31:00","lat":49.206553,"lon":16.643865,"is_passed":false},{"stop_id":"U1631Z1","name":"Svatoplukova","arrival_time":"15:33:00","departure_time":"15:33:00","lat":49.2051,"lon":16.641425,"is_passed":false},{"stop_id":"U1611Z3","name":"Stará osada","arrival_time":"15:35:00","departure_time":"15:44:00","lat":49.202353,"lon":16.64196,"is_passed":false}],"56223":[{"stop_id":"U1611Z4","name":"Stará osada","arrival_time":"15:44:00","departure_time":"15:44:00","lat":49.202225,"lon":16.641851,"is_passed":false},{"stop_id":"U1698Z1","name":"Údolíček","arrival_time":"15:46:00","departure_time":"15:46:00","lat":49.206732,"lon":16.644592,"is_passed":false},{"stop_id":"U1002Z1","name":"Akátky","arrival_time":"15:46:00","departure_time":"15:46:00","lat":49.208518,"lon":16.648742,"is_passed":false},{"stop_id":"U1743Z1","name":"Vlčnovská","arrival_time":"15:48:00","departure_time":"15:48:00","lat":49.210995,"lon":16.660327,"is_passed":false},{"stop_id":"U1523Z1","name":"Prušánecká","arrival_time":"15:49:00","departure_time":"15:49:00","lat":49.20827,"lon":16.663465,"is_passed":false},{"stop_id":"U1052Z1","name":"Bzenecká","arrival_time":"15:51:00","departure_time":"15:51:00","lat":49.206117,"lon":16.660595,"is_passed":false},{"stop_id":"U1477Z3","name":"Pálavské náměstí","arrival_time":"15:52:00","departure_time":"15:52:00","lat":49.20612,"lon":16.657683,"is_passed":false},{"stop_id":"U1403Z1","name":"Mutěnická","arrival_time":"15:53:00","departure_time":"15:53:00","lat":49.20299,"lon":16.654796,"is_passed":false},{"stop_id":"U1036Z1","name":"Bořetická","arrival_time":"15:54:00","departure_time":"15:54:00","lat":49.201326,"lon":16.659292,"is_passed":false},{"stop_id":"U1058Z1","name":"Čejkovická","arrival_time":"15:55:00","departure_time":"15:55:00","lat":49.200178,"lon":16.662528,"is_passed":false},{"stop_id":"U1438Z3","name":"Novolíšeňská","arrival_time":"15:57:00","departure_time":"15:57:00","lat":49.201692,"lon":16.670699,"is_passed":false},{"stop_id":"U1012Z1","name":"Bartákova","arrival_time":"15:58:00","departure_time":"15:58:00","lat":49.203714,"lon":16.678742,"is_passed":false},{"stop_id":"U1546Z1","name":"Rotreklova","arrival_time":"15:59:00","departure_time":"15:59:00","lat":49.2066,"lon":16.685331,"is_passed":false},{"stop_id":"U1208Z6","name":"Jírova","arrival_time":"16:01:00","departure_time":"16:18:00","lat":49.209179,"lon":16.688685,"is_passed":false}],"56224":[{"stop_id":"U1208Z3","name":"Jírova","arrival_time":"16:18:00","departure_time":"16:18:00","lat":49.208886,"lon":16.687979,"is_passed":false},{"stop_id":"U1546Z2","name":"Rotreklova","arrival_time":"16:18:00","departure_time":"16:18:00","lat":49.206534,"lon":16.684689,"is_passed":false},{"stop_id":"U1012Z2","name":"Bartákova","arrival_time":"16:19:00","departure_time":"16:19:00","lat":49.204255,"lon":16.679185,"is_passed":false},{"stop_id":"U1438Z4","name":"Novolíšeňská","arrival_time":"16:21:00","departure_time":"16:21:00","lat":49.201792,"lon":16.670352,"is_passed":false},{"stop_id":"U1058Z2","name":"Čejkovická","arrival_time":"16:23:00","departure_time":"16:23:00","lat":49.200493,"lon":16.661793,"is_passed":false},{"stop_id":"U1036Z2","name":"Bořetická","arrival_time":"16:24:00","departure_time":"16:24:00","lat":49.201495,"lon":16.658055,"is_passed":false},{"stop_id":"U1403Z2","name":"Mutěnická","arrival_time":"16:25:00","departure_time":"16:25:00","lat":49.203951,"lon":16.654889,"is_passed":false},{"stop_id":"U1477Z2","name":"Pálavské náměstí","arrival_time":"16:26:00","departure_time":"16:26:00","lat":49.20538,"lon":16.658103,"is_passed":false},{"stop_id":"U1052Z2","name":"Bzenecká","arrival_time":"16:27:00","departure_time":"16:27:00","lat":49.205822,"lon":16.661645,"is_passed":false},{"stop_id":"U1523Z2","name":"Prušánecká","arrival_time":"16:28:00","departure_time":"16:28:00","lat":49.209503,"lon":16.663369,"is_passed":false},{"stop_id":"U1743Z2","name":"Vlčnovská","arrival_time":"16:29:00","departure_time":"16:29:00","lat":49.211166,"lon":16.659638,"is_passed":false},{"stop_id":"U1002Z2","name":"Akátky","arrival_time":"16:30:00","departure_time":"16:30:00","lat":49.208751,"lon":16.648718,"is_passed":false},{"stop_id":"U1698Z2","name":"Údolíček","arrival_time":"16:31:00","departure_time":"16:31:00","lat":49.206553,"lon":16.643865,"is_passed":false},{"stop_id":"U1631Z1","name":"Svatoplukova","arrival_time":"16:33:00","departure_time":"16:33:00","lat":49.2051,"lon":16.641425,"is_passed":false},{"stop_id":"U1611Z3","name":"Stará osada","arrival_time":"16:35:00","departure_time":"16:44:00","lat":49.202353,"lon":16.64196,"is_passed":false}],"56225":[{"stop_id":"U1611Z4","name":"Stará osada","arrival_time":"16:44:00","departure_time":"16:44:00","lat":49.202225,"lon":16.641851,"is_passed":false},{"stop_id":"U1698Z1","name":"Údolíček","arrival_time":"16:46:00","departure_time":"16:46:00","lat":49.206732,"lon":16.644592,"is_passed":false},{"stop_id":"U1002Z1","name":"Akátky","arrival_time":"16:46:00","departure_time":"16:46:00","lat":49.208518,"lon":16.648742,"is_passed":false},{"stop_id":"U1743Z1","name":"Vlčnovská","arrival_time":"16:48:00","departure_time":"16:48:00","lat":49.210995,"lon":16.660327,"is_passed":false},{"stop_id":"U1523Z1","name":"Prušánecká","arrival_time":"16:49:00","departure_time":"16:49:00","lat":49.20827,"lon":16.663465,"is_passed":false},{"stop_id":"U1052Z1","name":"Bzenecká","arrival_time":"16:51:00","departure_time":"16:51:00","lat":49.206117,"lon":16.660595,"is_passed":false},{"stop_id":"U1477Z3","name":"Pálavské náměstí","arrival_time":"16:52:00","departure_time":"16:52:00","lat":49.20612,"lon":16.657683,"is_passed":false},{"stop_id":"U1403Z1","name":"Mutěnická","arrival_time":"16:53:00","departure_time":"16:53:00","lat":49.20299,"lon":16.654796,"is_passed":false},{"stop_id":"U1036Z1","name":"Bořetická","arrival_time":"16:54:00","departure_time":"16:54:00","lat":49.201326,"lon":16.659292,"is_passed":false},{"stop_id":"U1058Z1","name":"Čejkovická","arrival_time":"16:55:00","departure_time":"16:55:00","lat":49.200178,"lon":16.662528,"is_passed":false},{"stop_id":"U1438Z3","name":"Novolíšeňská","arrival_time":"16:57:00","departure_time":"16:57:00","lat":49.201692,"lon":16.670699,"is_passed":false},{"stop_id":"U1012Z1","name":"Bartákova","arrival_time":"16:58:00","departure_time":"16:58:00","lat":49.203714,"lon":16.678742,"is_passed":false},{"stop_id":"U1546Z1","name":"Rotreklova","arrival_time":"16:59:00","departure_time":"16:59:00","lat":49.2066,"lon":16.685331,"is_passed":false},{"stop_id":"U1208Z6","name":"Jírova","arrival_time":"17:01:00","departure_time":"17:18:00","lat":49.209179,"lon":16.688685,"is_passed":false}],"56226":[{"stop_id":"U1208Z3","name":"Jírova","arrival_time":"17:18:00","departure_time":"17:18:00","lat":49.208886,"lon":16.687979,"is_passed":false},{"stop_id":"U1546Z2","name":"Rotreklova","arrival_time":"17:18:00","departure_time":"17:18:00","lat":49.206534,"lon":16.684689,"is_passed":false},{"stop_id":"U1012Z2","name":"Bartákova","arrival_time":"17:19:00","departure_time":"17:19:00","lat":49.204255,"lon":16.679185,"is_passed":false},{"stop_id":"U1438Z4","name":"Novolíšeňská","arrival_time":"17:21:00","departure_time":"17:21:00","lat":49.201792,"lon":16.670352,"is_passed":false},{"stop_id":"U1058Z2","name":"Čejkovická","arrival_time":"17:23:00","departure_time":"17:23:00","lat":49.200493,"lon":16.661793,"is_passed":false},{"stop_id":"U1036Z2","name":"Bořetická","arrival_time":"17:24:00","departure_time":"17:24:00","lat":49.201495,"lon":16.658055,"is_passed":false},{"stop_id":"U1403Z2","name":"Mutěnická","arrival_time":"17:25:00","departure_time":"17:25:00","lat":49.203951,"lon":16.654889,"is_passed":false},{"stop_id":"U1477Z2","name":"Pálavské náměstí","arrival_time":"17:26:00","departure_time":"17:26:00","lat":49.20538,"lon":16.658103,"is_passed":false},{"stop_id":"U1052Z2","name":"Bzenecká","arrival_time":"17:27:00","departure_time":"17:27:00","lat":49.205822,"lon":16.661645,"is_passed":false},{"stop_id":"U1523Z2","name":"Prušánecká","arrival_time":"17:28:00","departure_time":"17:28:00","lat":49.209503,"lon":16.663369,"is_passed":false},{"stop_id":"U1743Z2","name":"Vlčnovská","arrival_time":"17:29:00","departure_time":"17:29:00","lat":49.211166,"lon":16.659638,"is_passed":false},{"stop_id":"U1002Z2","name":"Akátky","arrival_time":"17:30:00","departure_time":"17:30:00","lat":49.208751,"lon":16.648718,"is_passed":false},{"stop_id":"U1698Z2","name":"Údolíček","arrival_time":"17:31:00","departure_time":"17:31:00","lat":49.206553,"lon":16.643865,"is_passed":false},{"stop_id":"U1631Z1","name":"Svatoplukova","arrival_time":"17:33:00","departure_time":"17:33:00","lat":49.2051,"lon":16.641425,"is_passed":false},{"stop_id":"U1611Z3","name":"Stará osada","arrival_time":"17:35:00","departure_time":"17:44:00","lat":49.202353,"lon":16.64196,"is_passed":false}],"56227":[{"stop_id":"U1611Z4","name":"Stará osada","arrival_time":"17:44:00","departure_time":"17:44:00","lat":49.202225,"lon":16.641851,"is_passed":false},{"stop_id":"U1698Z1","name":"Údolíček","arrival_time":"17:46:00","departure_time":"17:46:00","lat":49.206732,"lon":16.644592,"is_passed":false},{"stop_id":"U1002Z1","name":"Akátky","arrival_time":"17:46:00","departure_time":"17:46:00","lat":49.208518,"lon":16.648742,"is_passed":false},{"stop_id":"U1743Z1","name":"Vlčnovská","arrival_time":"17:48:00","departure_time":"17:48:00","lat":49.210995,"lon":16.660327,"is_passed":false},{"stop_id":"U1523Z1","name":"Prušánecká","arrival_time":"17:49:00","departure_time":"17:49:00","lat":49.20827,"lon":16.663465,"is_passed":false},{"stop_id":"U1052Z1","name":"Bzenecká","arrival_time":"17:51:00","departure_time":"17:51:00","lat":49.206117,"lon":16.660595,"is_passed":false},{"stop_id":"U1477Z3","name":"Pálavské náměstí","arrival_time":"17:52:00","departure_time":"17:52:00","lat":49.20612,"lon":16.657683,"is_passed":false},{"stop_id":"U1403Z1","name":"Mutěnická","arrival_time":"17:53:00","departure_time":"17:53:00","lat":49.20299,"lon":16.654796,"is_passed":false},{"stop_id":"U1036Z1","name":"Bořetická","arrival_time":"17:54:00","departure_time":"17:54:00","lat":49.201326,"lon":16.659292,"is_passed":false},{"stop_id":"U1058Z1","name":"Čejkovická","arrival_time":"17:55:00","departure_time":"17:55:00","lat":49.200178,"lon":16.662528,"is_passed":false},{"stop_id":"U1438Z3","name":"Novolíšeňská","arrival_time":"17:57:00","departure_time":"17:57:00","lat":49.201692,"lon":16.670699,"is_passed":false},{"stop_id":"U1012Z1","name":"Bartákova","arrival_time":"17:58:00","departure_time":"17:58:00","lat":49.203714,"lon":16.678742,"is_passed":false},{"stop_id":"U1546Z1","name":"Rotreklova","arrival_time":"17:59:00","departure_time":"17:59:00","lat":49.2066,"lon":16.685331,"is_passed":false},{"stop_id":"U1208Z6","name":"Jírova","arrival_time":"18:01:00","departure_time":"18:04:00","lat":49.209179,"lon":16.688685,"is_passed":false}],"56228":[{"stop_id":"U1208Z3","name":"Jírova","arrival_time":"18:04:00","departure_time":"18:04:00","lat":49.208886,"lon":16.687979,"is_passed":false},{"stop_id":"U1546Z2","name":"Rotreklova","arrival_time":"18:04:00","departure_time":"18:04:00","lat":49.206534,"lon":16.684689,"is_passed":false},{"stop_id":"U1012Z2","name":"Bartákova","arrival_time":"18:05:00","departure_time":"18:05:00","lat":49.204255,"lon":16.679185,"is_passed":false},{"stop_id":"U1438Z4","name":"Novolíšeňská","arrival_time":"18:07:00","departure_time":"18:07:00","lat":49.201792,"lon":16.670352,"is_passed":false},{"stop_id":"U1058Z2","name":"Čejkovická","arrival_time":"18:09:00","departure_time":"18:09:00","lat":49.200493,"lon":16.661793,"is_passed":false},{"stop_id":"U1036Z2","name":"Bořetická","arrival_time":"18:10:00","departure_time":"18:10:00","lat":49.201495,"lon":16.658055,"is_passed":false},{"stop_id":"U1403Z2","name":"Mutěnická","arrival_time":"18:11:00","departure_time":"18:11:00","lat":49.203951,"lon":16.654889,"is_passed":false},{"stop_id":"U1477Z2","name":"Pálavské náměstí","arrival_time":"18:12:00","departure_time":"18:12:00","lat":49.20538,"lon":16.658103,"is_passed":false},{"stop_id":"U1052Z2","name":"Bzenecká","arrival_time":"18:13:00","departure_time":"18:13:00","lat":49.205822,"lon":16.661645,"is_passed":false},{"stop_id":"U1523Z2","name":"Prušánecká","arrival_time":"18:14:00","departure_time":"18:14:00","lat":49.209503,"lon":16.663369,"is_passed":false},{"stop_id":"U1743Z2","name":"Vlčnovská","arrival_time":"18:15:00","departure_time":"18:15:00","lat":49.211166,"lon":16.659638,"is_passed":false},{"stop_id":"U1002Z2","name":"Akátky","arrival_time":"18:16:00","departure_time":"18:16:00","lat":49.208751,"lon":16.648718,"is_passed":false},{"stop_id":"U1698Z2","name":"Údolíček","arrival_time":"18:17:00","departure_time":"18:17:00","lat":49.206553,"lon":16.643865,"is_passed":false},{"stop_id":"U1631Z1","name":"Svatoplukova","arrival_time":"18:18:00","departure_time":"18:18:00","lat":49.2051,"lon":16.641425,"is_passed":false},{"stop_id":"U1611Z9","name":"Stará osada","arrival_time":"18:20:00","departure_time":"18:21:00","lat":49.202037,"lon":16.641659,"is_passed":false}],"56229":[{"stop_id":"U1698Z1","name":"Údolíček","arrival_time":"4:54:00","departure_time":"4:54:00","lat":49.206732,"lon":16.644592,"is_passed":false},{"stop_id":"U1002Z1","name":"Akátky","arrival_time":"4:54:00","departure_time":"4:54:00","lat":49.208518,"lon":16.648742,"is_passed":false},{"stop_id":"U1743Z1","name":"Vlčnovská","arrival_time":"4:56:00","departure_time":"4:56:00","lat":49.210995,"lon":16.660327,"is_passed":false},{"stop_id":"U1523Z1","name":"Prušánecká","arrival_time":"4:57:00","departure_time":"4:57:00","lat":49.20827,"lon":16.663465,"is_passed":false},{"stop_id":"U1052Z1","name":"Bzenecká","arrival_time":"4:59:00","departure_time":"4:59:00","lat":49.206117,"lon":16.660595,"is_passed":false},{"stop_id":"U1477Z3","name":"Pálavské náměstí","arrival_time":"5:00:00","departure_time":"5:00:00","lat":49.20612,"lon":16.657683,"is_passed":false},{"stop_id":"U1403Z1","name":"Mutěnická","arrival_time":"5:01:00","departure_time":"5:01:00","lat":49.20299,"lon":16.654796,"is_passed":false},{"stop_id":"U1036Z1","name":"Bořetická","arrival_time":"5:02:00","departure_time":"5:02:00","lat":49.201326,"lon":16.659292,"is_passed":false},{"stop_id":"U1058Z1","name":"Čejkovická","arrival_time":"5:03:00","departure_time":"5:03:00","lat":49.200178,"lon":16.662528,"is_passed":false},{"stop_id":"U1438Z3","name":"Novolíšeňská","arrival_time":"5:05:00","departure_time":"5:05:00","lat":49.201692,"lon":16.670699,"is_passed":false},{"stop_id":"U1012Z1","name":"Bartákova","arrival_time":"5:06:00","departure_time":"5:06:00","lat":49.203714,"lon":16.678742,"is_passed":false},{"stop_id":"U1546Z1","name":"Rotreklova","arrival_time":"5:07:00","departure_time":"5:07:00","lat":49.2066,"lon":16.685331,"is_passed":false},{"stop_id":"U1208Z6","name":"Jírova","arrival_time":"5:09:00","departure_time":"5:24:00","lat":49.209179,"lon":16.688685,"is_passed":false}],"56230":[{"stop_id":"U1208Z3","name":"Jírova","arrival_time":"5:24:00","departure_time":"5:24:00","lat":49.208886,"lon":16.687979,"is_passed":false},{"stop_id":"U1546Z2","name":"Rotreklova","arrival_time":"5:24:00","departure_time":"5:24:00","lat":49.206534,"lon":16.684689,"is_passed":false},{"stop_id":"U1012Z2","name":"Bartákova","arrival_time":"5:25:00","departure_time":"5:25:00","lat":49.204255,"lon":16.679185,"is_passed":false},{"stop_id":"U1438Z4","name":"Novolíšeňská","arrival_time":"5:27:00","departure_time":"5:27:00","lat":49.201792,"lon":16.670352,"is_passed":false},{"stop_id":"U1058Z2","name":"Čejkovická","arrival_time":"5:29:00","departure_time":"5:29:00","lat":49.200493,"lon":16.661793,"is_passed":false},{"stop_id":"U1036Z2","name":"Bořetická","arrival_time":"5:30:00","departure_time":"5:30:00","lat":49.201495,"lon":16.658055,"is_passed":false},{"stop_id":"U1403Z2","name":"Mutěnická","arrival_time":"5:31:00","departure_time":"5:31:00","lat":49.203951,"lon":16.654889,"is_passed":false},{"stop_id":"U1477Z2","name":"Pálavské náměstí","arrival_time":"5:32:00","departure_time":"5:32:00","lat":49.20538,"lon":16.658103,"is_passed":false},{"stop_id":"U1052Z2","name":"Bzenecká","arrival_time":"5:33:00","departure_time":"5:33:00","lat":49.205822,"lon":16.661645,"is_passed":false},{"stop_id":"U1523Z2","name":"Prušánecká","arrival_time":"5:34:00","departure_time":"5:34:00","lat":49.209503,"lon":16.663369,"is_passed":false},{"stop_id":"U1743Z2","name":"Vlčnovská","arrival_time":"5:35:00","departure_time":"5:35:00","lat":49.211166,"lon":16.659638,"is_passed":false},{"stop_id":"U1002Z2","name":"Akátky","arrival_time":"5:36:00","departure_time":"5:36:00","lat":49.208751,"lon":16.648718,"is_passed":false},{"stop_id":"U1698Z2","name":"Údolíček","arrival_time":"5:37:00","departure_time":"5:37:00","lat":49.206553,"lon":16.643865,"is_passed":false},{"stop_id":"U1631Z1","name":"Svatoplukova","arrival_time":"5:38:00","departure_time":"5:38:00","lat":49.2051,"lon":16.641425,"is_passed":false},{"stop_id":"U1611Z3","name":"Stará osada","arrival_time":"5:40:00","departure_time":"5:52:00","lat":49.202353,"lon":16.64196,"is_passed":false}],"56231":[{"stop_id":"U1611Z4","name":"Stará osada","arrival_time":"5:52:00","departure_time":"5:52:00","lat":49.202225,"lon":16.641851,"is_passed":false},{"stop_id":"U1698Z1","name":"Údolíček","arrival_time":"5:54:00","departure_time":"5:54:00","lat":49.206732,"lon":16.644592,"is_passed":false},{"stop_id":"U1002Z1","name":"Akátky","arrival_time":"5:54:00","departure_time":"5:54:00","lat":49.208518,"lon":16.648742,"is_passed":false},{"stop_id":"U1743Z1","name":"Vlčnovská","arrival_time":"5:56:00","departure_time":"5:56:00","lat":49.210995,"lon":16.660327,"is_passed":false},{"stop_id":"U1523Z1","name":"Prušánecká","arrival_time":"5:57:00","departure_time":"5:57:00","lat":49.20827,"lon":16.663465,"is_passed":false},{"stop_id":"U1052Z1","name":"Bzenecká","arrival_time":"5:59:00","departure_time":"5:59:00","lat":49.206117,"lon":16.660595,"is_passed":false},{"stop_id":"U1477Z3","name":"Pálavské náměstí","arrival_time":"6:00:00","departure_time":"6:00:00","lat":49.20612,"lon":16.657683,"is_passed":false},{"stop_id":"U1403Z1","name":"Mutěnická","arrival_time":"6:01:00","departure_time":"6:01:00","lat":49.20299,"lon":16.654796,"is_passed":false},{"stop_id":"U1036Z1","name":"Bořetická","arrival_time":"6:02:00","departure_time":"6:02:00","lat":49.201326,"lon":16.659292,"is_passed":false},{"stop_id":"U1058Z1","name":"Čejkovická","arrival_time":"6:03:00","departure_time":"6:03:00","lat":49.200178,"lon":16.662528,"is_passed":false},{"stop_id":"U1438Z3","name":"Novolíšeňská","arrival_time":"6:05:00","departure_time":"6:05:00","lat":49.201692,"lon":16.670699,"is_passed":false},{"stop_id":"U1012Z1","name":"Bartákova","arrival_time":"6:06:00","departure_time":"6:06:00","lat":49.203714,"lon":16.678742,"is_passed":false},{"stop_id":"U1546Z1","name":"Rotreklova","arrival_time":"6:07:00","departure_time":"6:07:00","lat":49.2066,"lon":16.685331,"is_passed":false},{"stop_id":"U1208Z6","name":"Jírova","arrival_time":"6:09:00","departure_time":"6:18:00","lat":49.209179,"lon":16.688685,"is_passed":false}],"56232":[{"stop_id":"U1208Z3","name":"Jírova","arrival_time":"6:18:00","departure_time":"6:18:00","lat":49.208886,"lon":16.687979,"is_passed":false},{"stop_id":"U1546Z2","name":"Rotreklova","arrival_time":"6:18:00","departure_time":"6:18:00","lat":49.206534,"lon":16.684689,"is_passed":false},{"stop_id":"U1012Z2","name":"Bartákova","arrival_time":"6:19:00","departure_time":"6:19:00","lat":49.204255,"lon":16.679185,"is_passed":false},{"stop_id":"U1438Z4","name":"Novolíšeňská","arrival_time":"6:21:00","departure_time":"6:21:00","lat":49.201792,"lon":16.670352,"is_passed":false},{"stop_id":"U1058Z2","name":"Čejkovická","arrival_time":"6:23:00","departure_time":"6:23:00","lat":49.200493,"lon":16.661793,"is_passed":false},{"stop_id":"U1036Z2","name":"Bořetická","arrival_time":"6:24:00","departure_time":"6:24:00","lat":49.201495,"lon":16.658055,"is_passed":false},{"stop_id":"U1403Z2","name":"Mutěnická","arrival_time":"6:25:00","departure_time":"6:25:00","lat":49.203951,"lon":16.654889,"is_passed":false},{"stop_id":"U1477Z2","name":"Pálavské náměstí","arrival_time":"6:26:00","departure_time":"6:26:00","lat":49.20538,"lon":16.658103,"is_passed":false},{"stop_id":"U1052Z2","name":"Bzenecká","arrival_time":"6:27:00","departure_time":"6:27:00","lat":49.205822,"lon":16.661645,"is_passed":false},{"stop_id":"U1523Z2","name":"Prušánecká","arrival_time":"6:28:00","departure_time":"6:28:00","lat":49.209503,"lon":16.663369,"is_passed":false},{"stop_id":"U1743Z2","name":"Vlčnovská","arrival_time":"6:29:00","departure_time":"6:29:00","lat":49.211166,"lon":16.659638,"is_passed":false},{"stop_id":"U1002Z2","name":"Akátky","arrival_time":"6:30:00","departure_time":"6:30:00","lat":49.208751,"lon":16.648718,"is_passed":false},{"stop_id":"U1698Z2","name":"Údolíček","arrival_time":"6:31:00","departure_time":"6:31:00","lat":49.206553,"lon":16.643865,"is_passed":false},{"stop_id":"U1631Z1","name":"Svatoplukova","arrival_time":"6:33:00","departure_time":"6:33:00","lat":49.2051,"lon":16.641425,"is_passed":false},{"stop_id":"U1611Z3","name":"Stará osada","arrival_time":"6:35:00","departure_time":"6:39:00","lat":49.202353,"lon":16.64196,"is_passed":false}],"56233":[{"stop_id":"U1611Z4","name":"Stará osada","arrival_time":"6:39:00","departure_time":"6:39:00","lat":49.202225,"lon":16.641851,"is_passed":false},{"stop_id":"U1698Z1","name":"Údolíček","arrival_time":"6:41:00","departure_time":"6:41:00","lat":49.206732,"lon":16.644592,"is_passed":false},{"stop_id":"U1002Z1","name":"Akátky","arrival_time":"6:41:00","departure_time":"6:41:00","lat":49.208518,"lon":16.648742,"is_passed":false},{"stop_id":"U1743Z1","name":"Vlčnovská","arrival_time":"6:43:00","departure_time":"6:43:00","lat":49.210995,"lon":16.660327,"is_passed":false},{"stop_id":"U1523Z1","name":"Prušánecká","arrival_time":"6:44:00","departure_time":"6:44:00","lat":49.20827,"lon":16.663465,"is_passed":false},{"stop_id":"U1052Z1","name":"Bzenecká","arrival_time":"6:46:00","departure_time":"6:46:00","lat":49.206117,"lon":16.660595,"is_passed":false},{"stop_id":"U1477Z1","name":"Pálavské náměstí","arrival_time":"6:47:00","departure_time":"6:58:00","lat":49.20612,"lon":16.657683,"is_passed":false}],"56234":[{"stop_id":"U1477Z2","name":"Pálavské náměstí","arrival_time":"6:58:00","departure_time":"6:58:00","lat":49.20538,"lon":16.658103,"is_passed":false},{"stop_id":"U1052Z2","name":"Bzenecká","arrival_time":"6:59:00","departure_time":"6:59:00","lat":49.205822,"lon":16.661645,"is_passed":false},{"stop_id":"U1523Z2","name":"Prušánecká","arrival_time":"7:00:00","departure_time":"7:00:00","lat":49.209503,"lon":16.663369,"is_passed":false},{"stop_id":"U1743Z2","name":"Vlčnovská","arrival_time":"7:01:00","departure_time":"7:01:00","lat":49.211166,"lon":16.659638,"is_passed":false},{"stop_id":"U1002Z2","name":"Akátky","arrival_time":"7:02:00","departure_time":"7:02:00","lat":49.208751,"lon":16.648718,"is_passed":false},{"stop_id":"U1698Z2","name":"Údolíček","arrival_time":"7:03:00","departure_time":"7:03:00","lat":49.206553,"lon":16.643865,"is_passed":false},{"stop_id":"U1631Z1","name":"Svatoplukova","arrival_time":"7:05:00","departure_time":"7:05:00","lat":49.2051,"lon":16.641425,"is_passed":false},{"stop_id":"U1611Z3","name":"Stará osada","arrival_time":"7:07:00","departure_time":"7:09:00","lat":49.202353,"lon":16.64196,"is_passed":false}],"56235":[{"stop_id":"U1611Z4","name":"Stará osada","arrival_time":"7:09:00","departure_time":"7:09:00","lat":49.202225,"lon":16.641851,"is_passed":false},{"stop_id":"U1698Z1","name":"Údolíček","arrival_time":"7:11:00","departure_time":"7:11:00","lat":49.206732,"lon":16.644592,"is_passed":false},{"stop_id":"U1002Z1","name":"Akátky","arrival_time":"7:11:00","departure_time":"7:11:00","lat":49.208518,"lon":16.648742,"is_passed":false},{"stop_id":"U1743Z1","name":"Vlčnovská","arrival_time":"7:13:00","departure_time":"7:13:00","lat":49.210995,"lon":16.660327,"is_passed":false},{"stop_id":"U1523Z1","name":"Prušánecká","arrival_time":"7:14:00","departure_time":"7:14:00","lat":49.20827,"lon":16.663465,"is_passed":false},{"stop_id":"U1052Z1","name":"Bzenecká","arrival_time":"7:16:00","departure_time":"7:16:00","lat":49.206117,"lon":16.660595,"is_passed":false},{"stop_id":"U1477Z3","name":"Pálavské náměstí","arrival_time":"7:17:00","departure_time":"7:17:00","lat":49.20612,"lon":16.657683,"is_passed":false},{"stop_id":"U1403Z1","name":"Mutěnická","arrival_time":"7:18:00","departure_time":"7:18:00","lat":49.20299,"lon":16.654796,"is_passed":false},{"stop_id":"U1036Z1","name":"Bořetická","arrival_time":"7:19:00","departure_time":"7:19:00","lat":49.201326,"lon":16.659292,"is_passed":false},{"stop_id":"U1058Z1","name":"Čejkovická","arrival_time":"7:20:00","departure_time":"7:20:00","lat":49.200178,"lon":16.662528,"is_passed":false},{"stop_id":"U1438Z3","name":"Novolíšeňská","arrival_time":"7:22:00","departure_time":"7:22:00","lat":49.201692,"lon":16.670699,"is_passed":false},{"stop_id":"U1012Z1","name":"Bartákova","arrival_time":"7:23:00","departure_time":"7:23:00","lat":49.203714,"lon":16.678742,"is_passed":false},{"stop_id":"U1546Z1","name":"Rotreklova","arrival_time":"7:24:00","departure_time":"7:24:00","lat":49.2066,"lon":16.685331,"is_passed":false},{"stop_id":"U1208Z6","name":"Jírova","arrival_time":"7:26:00","departure_time":"7:38:00","lat":49.209179,"lon":16.688685,"is_passed":false}],"56236":[{"stop_id":"U1208Z3","name":"Jírova","arrival_time":"7:38:00","departure_time":"7:38:00","lat":49.208886,"lon":16.687979,"is_passed":false},{"stop_id":"U1546Z2","name":"Rotreklova","arrival_time":"7:38:00","departure_time":"7:38:00","lat":49.206534,"lon":16.684689,"is_passed":false},{"stop_id":"U1012Z2","name":"Bartákova","arrival_time":"7:39:00","departure_time":"7:39:00","lat":49.204255,"lon":16.679185,"is_passed":false},{"stop_id":"U1438Z4","name":"Novolíšeňská","arrival_time":"7:41:00","departure_time":"7:41:00","lat":49.201792,"lon":16.670352,"is_passed":false},{"stop_id":"U1058Z2","name":"Čejkovická","arrival_time":"7:43:00","departure_time":"7:43:00","lat":49.200493,"lon":16.661793,"is_passed":false},{"stop_id":"U1036Z2","name":"Bořetická","arrival_time":"7:44:00","departure_time":"7:44:00","lat":49.201495,"lon":16.658055,"is_passed":false},{"stop_id":"U1403Z2","name":"Mutěnická","arrival_time":"7:45:00","departure_time":"7:45:00","lat":49.203951,"lon":16.654889,"is_passed":false},{"stop_id":"U1477Z2","name":"Pálavské náměstí","arrival_time":"7:46:00","departure_time":"7:46:00","lat":49.20538,"lon":16.658103,"is_passed":false},{"stop_id":"U1052Z2","name":"Bzenecká","arrival_time":"7:47:00","departure_time":"7:47:00","lat":49.205822,"lon":16.661645,"is_passed":false},{"stop_id":"U1523Z2","name":"Prušánecká","arrival_time":"7:48:00","departure_time":"7:48:00","lat":49.209503,"lon":16.663369,"is_passed":false},{"stop_id":"U1743Z2","name":"Vlčnovská","arrival_time":"7:49:00","departure_time":"7:49:00","lat":49.211166,"lon":16.659638,"is_passed":false},{"stop_id":"U1002Z2","name":"Akátky","arrival_time":"7:50:00","departure_time":"7:50:00","lat":49.208751,"lon":16.648718,"is_passed":false},{"stop_id":"U1698Z2","name":"Údolíček","arrival_time":"7:51:00","departure_time":"7:51:00","lat":49.206553,"lon":16.643865,"is_passed":false},{"stop_id":"U1631Z1","name":"Svatoplukova","arrival_time":"7:53:00","departure_time":"7:53:00","lat":49.2051,"lon":16.641425,"is_passed":false},{"stop_id":"U1611Z3","name":"Stará osada","arrival_time":"7:55:00","departure_time":"7:56:00","lat":49.202353,"lon":16.64196,"is_passed":false}],"56237":[{"stop_id":"U1611Z4","name":"Stará osada","arrival_time":"7:56:00","departure_time":"7:56:00","lat":49.202225,"lon":16.641851,"is_passed":false},{"stop_id":"U1698Z1","name":"Údolíček","arrival_time":"7:58:00","departure_time":"7:58:00","lat":49.206732,"lon":16.644592,"is_passed":false},{"stop_id":"U1002Z1","name":"Akátky","arrival_time":"7:58:00","departure_time":"7:58:00","lat":49.208518,"lon":16.648742,"is_passed":false},{"stop_id":"U1743Z1","name":"Vlčnovská","arrival_time":"8:00:00","departure_time":"8:00:00","lat":49.210995,"lon":16.660327,"is_passed":false},{"stop_id":"U1523Z1","name":"Prušánecká","arrival_time":"8:01:00","departure_time":"8:01:00","lat":49.20827,"lon":16.663465,"is_passed":false},{"stop_id":"U1052Z1","name":"Bzenecká","arrival_time":"8:03:00","departure_time":"8:03:00","lat":49.206117,"lon":16.660595,"is_passed":false},{"stop_id":"U1477Z1","name":"Pálavské náměstí","arrival_time":"8:04:00","departure_time":"8:18:00","lat":49.20612,"lon":16.657683,"is_passed":false}],"56238":[{"stop_id":"U1477Z2","name":"Pálavské náměstí","arrival_time":"8:18:00","departure_time":"8:18:00","lat":49.20538,"lon":16.658103,"is_passed":false},{"stop_id":"U1052Z2","name":"Bzenecká","arrival_time":"8:19:00","departure_time":"8:19:00","lat":49.205822,"lon":16.661645,"is_passed":false},{"stop_id":"U1523Z2","name":"Prušánecká","arrival_time":"8:20:00","departure_time":"8:20:00","lat":49.209503,"lon":16.663369,"is_passed":false},{"stop_id":"U1743Z2","name":"Vlčnovská","arrival_time":"8:21:00","departure_time":"8:21:00","lat":49.211166,"lon":16.659638,"is_passed":false},{"stop_id":"U1002Z2","name":"Akátky","arrival_time":"8:22:00","departure_time":"8:22:00","lat":49.208751,"lon":16.648718,"is_passed":false},{"stop_id":"U1698Z2","name":"Údolíček","arrival_time":"8:23:00","departure_time":"8:23:00","lat":49.206553,"lon":16.643865,"is_passed":false},{"stop_id":"U1631Z1","name":"Svatoplukova","arrival_time":"8:25:00","departure_time":"8:25:00","lat":49.2051,"lon":16.641425,"is_passed":false},{"stop_id":"U1611Z9","name":"Stará osada","arrival_time":"8:27:00","departure_time":"8:28:00","lat":49.202037,"lon":16.641659,"is_passed":false}],"56239":[{"stop_id":"U1477Z2","name":"Pálavské náměstí","arrival_time":"14:48:00","departure_time":"14:48:00","lat":49.20538,"lon":16.658103,"is_passed":false},{"stop_id":"U1052Z2","name":"Bzenecká","arrival_time":"14:49:00","departure_time":"14:49:00","lat":49.205822,"lon":16.661645,"is_passed":false},{"stop_id":"U1523Z2","name":"Prušánecká","arrival_time":"14:50:00","departure_time":"14:50:00","lat":49.209503,"lon":16.663369,"is_passed":false},{"stop_id":"U1743Z2","name":"Vlčnovská","arrival_time":"14:51:00","departure_time":"14:51:00","lat":49.211166,"lon":16.659638,"is_passed":false},{"stop_id":"U1002Z2","name":"Akátky","arrival_time":"14:52:00","departure_time":"14:52:00","lat":49.208751,"lon":16.648718,"is_passed":false},{"stop_id":"U1698Z2","name":"Údolíček","arrival_time":"14:53:00","departure_time":"14:53:00","lat":49.206553,"lon":16.643865,"is_passed":false},{"stop_id":"U1631Z1","name":"Svatoplukova","arrival_time":"14:55:00","departure_time":"14:55:00","lat":49.2051,"lon":16.641425,"is_passed":false},{"stop_id":"U1611Z3","name":"Stará osada","arrival_time":"14:57:00","departure_time":"15:03:00","lat":49.202353,"lon":16.64196,"is_passed":false}],"56240":[{"stop_id":"U1611Z4","name":"Stará osada","arrival_time":"15:03:00","departure_time":"15:03:00","lat":49.202225,"lon":16.641851,"is_passed":false},{"stop_id":"U1698Z1","name":"Údolíček","arrival_time":"15:05:00","departure_time":"15:05:00","lat":49.206732,"lon":16.644592,"is_passed":false},{"stop_id":"U1002Z1","name":"Akátky","arrival_time":"15:05:00","departure_time":"15:05:00","lat":49.208518,"lon":16.648742,"is_passed":false},{"stop_id":"U1743Z1","name":"Vlčnovská","arrival_time":"15:07:00","departure_time":"15:07:00","lat":49.210995,"lon":16.660327,"is_passed":false},{"stop_id":"U1523Z1","name":"Prušánecká","arrival_time":"15:08:00","departure_time":"15:08:00","lat":49.20827,"lon":16.663465,"is_passed":false},{"stop_id":"U1052Z1","name":"Bzenecká","arrival_time":"15:10:00","departure_time":"15:10:00","lat":49.206117,"lon":16.660595,"is_passed":false},{"stop_id":"U1477Z3","name":"Pálavské náměstí","arrival_time":"15:11:00","departure_time":"15:11:00","lat":49.20612,"lon":16.657683,"is_passed":false},{"stop_id":"U1403Z1","name":"Mutěnická","arrival_time":"15:12:00","departure_time":"15:12:00","lat":49.20299,"lon":16.654796,"is_passed":false},{"stop_id":"U1036Z1","name":"Bořetická","arrival_time":"15:13:00","departure_time":"15:13:00","lat":49.201326,"lon":16.659292,"is_passed":false},{"stop_id":"U1058Z1","name":"Čejkovická","arrival_time":"15:14:00","departure_time":"15:14:00","lat":49.200178,"lon":16.662528,"is_passed":false},{"stop_id":"U1438Z3","name":"Novolíšeňská","arrival_time":"15:16:00","departure_time":"15:16:00","lat":49.201692,"lon":16.670699,"is_passed":false},{"stop_id":"U1012Z1","name":"Bartákova","arrival_time":"15:17:00","departure_time":"15:17:00","lat":49.203714,"lon":16.678742,"is_passed":false},{"stop_id":"U1546Z1","name":"Rotreklova","arrival_time":"15:18:00","departure_time":"15:18:00","lat":49.2066,"lon":16.685331,"is_passed":false},{"stop_id":"U1208Z6","name":"Jírova","arrival_time":"15:20:00","departure_time":"15:30:00","lat":49.209179,"lon":16.688685,"is_passed":false}],"56241":[{"stop_id":"U1208Z3","name":"Jírova","arrival_time":"15:30:00","departure_time":"15:30:00","lat":49.208886,"lon":16.687979,"is_passed":false},{"stop_id":"U1546Z2","name":"Rotreklova","arrival_time":"15:30:00","departure_time":"15:30:00","lat":49.206534,"lon":16.684689,"is_passed":false},{"stop_id":"U1012Z2","name":"Bartákova","arrival_time":"15:31:00","departure_time":"15:31:00","lat":49.204255,"lon":16.679185,"is_passed":false},{"stop_id":"U1438Z4","name":"Novolíšeňská","arrival_time":"15:33:00","departure_time":"15:33:00","lat":49.201792,"lon":16.670352,"is_passed":false},{"stop_id":"U1058Z2","name":"Čejkovická","arrival_time":"15:35:00","departure_time":"15:35:00","lat":49.200493,"lon":16.661793,"is_passed":false},{"stop_id":"U1036Z2","name":"Bořetická","arrival_time":"15:36:00","departure_time":"15:36:00","lat":49.201495,"lon":16.658055,"is_passed":false},{"stop_id":"U1403Z2","name":"Mutěnická","arrival_time":"15:37:00","departure_time":"15:37:00","lat":49.203951,"lon":16.654889,"is_passed":false},{"stop_id":"U1477Z2","name":"Pálavské náměstí","arrival_time":"15:38:00","departure_time":"15:38:00","lat":49.20538,"lon":16.658103,"is_passed":false},{"stop_id":"U1052Z2","name":"Bzenecká","arrival_time":"15:39:00","departure_time":"15:39:00","lat":49.205822,"lon":16.661645,"is_passed":false},{"stop_id":"U1523Z2","name":"Prušánecká","arrival_time":"15:40:00","departure_time":"15:40:00","lat":49.209503,"lon":16.663369,"is_passed":false},