{"562":[{"stop_id":"U16212Z10","name":"Křenovice, hor. žel. st.","arrival_time":"12:58:00","departure_time":"12:58:00","lat":49.143553,"lon":16.824564,"is_passed":false},{"stop_id":"U26201Z1","name":"Zbýšov","arrival_time":"13:00:00","departure_time":"13:01:00","lat":49.132691,"lon":16.806859,"is_passed":false},{"stop_id":"U26102Z1","name":"Hostěrádky-Rešov","arrival_time":"13:03:00","departure_time":"13:04:00","lat":49.119822,"lon":16.782755,"is_passed":false},{"stop_id":"U26101Z1","name":"Újezd u Brna","arrival_time":"13:07:00","departure_time":"13:07:00","lat":49.107297,"lon":16.745564,"is_passed":false},{"stop_id":"U16149Z10","name":"Sokolnice, železniční stanice","arrival_time":"13:09:00","departure_time":"13:10:00","lat":49.108029,"lon":16.733459,"is_passed":false},{"stop_id":"U1183Z10","name":"Chrlice, nádraží","arrival_time":"13:15:00","departure_time":"13:16:00","lat":49.132031,"lon":16.657232,"is_passed":false},{"stop_id":"U1146Z99","name":"Hlavní nádraží","arrival_time":"13:26:00","departure_time":"13:29:00","lat":49.19035,"lon":16.612342,"is_passed":false},{"stop_id":"U1809Z10","name":"Židenice, nádraží","arrival_time":"13:33:00","departure_time":"13:34:00","lat":49.204282,"lon":16.636042,"is_passed":false},{"stop_id":"U12158Z10","name":"Bílovice nad Svitavou, žel. stanice","arrival_time":"13:39:00","departure_time":"13:40:00","lat":49.242715,"lon":16.673677,"is_passed":false},{"stop_id":"U22101Z1","name":"Babice nad Svitavou","arrival_time":"13:44:00","departure_time":"13:44:00","lat":49.276645,"lon":16.673012,"is_passed":false},{"stop_id":"U12230Z10","name":"Adamov, železniční stanice","arrival_time":"13:47:00","departure_time":"13:48:00","lat":49.295341,"lon":16.663538,"is_passed":false},{"stop_id":"U12231Z10","name":"Adamov, železniční zastávka","arrival_time":"13:50:00","departure_time":"13:50:00","lat":49.300671,"lon":16.650653,"is_passed":false},{"stop_id":"U12342Z30","name":"Blansko, aut. st.","arrival_time":"13:56:00","departure_time":"13:57:00","lat":49.352753,"lon":16.646848,"is_passed":false},{"stop_id":"U22302Z1","name":"Blansko město","arrival_time":"13:59:00","departure_time":"14:00:00","lat":49.360996,"lon":16.639464,"is_passed":false},{"stop_id":"U22301Z1","name":"Dolní Lhota","arrival_time":"14:02:00","departure_time":"14:03:00","lat":49.386917,"lon":16.633978,"is_passed":false},{"stop_id":"U12439Z50","name":"Rájec-Jestřebí, železniční stanice","arrival_time":"14:06:00","departure_time":"14:10:00","lat":49.408206,"lon":16.627711,"is_passed":false},{"stop_id":"U12511Z50","name":"Doubravice, žel.st.","arrival_time":"14:13:00","departure_time":"14:13:00","lat":49.438707,"lon":16.621809,"is_passed":false},{"stop_id":"U12676Z50","name":"Skalice nad Svitavou, žel.st.","arrival_time":"14:19:00","departure_time":"14:35:00","lat":49.480123,"lon":16.609726,"is_passed":false}],"5620":[{"stop_id":"U15165Z2","name":"Měnín, obchodní středisko","arrival_time":"5:52:00","departure_time":"5:52:00","lat":49.079732,"lon":16.693543,"is_passed":false},{"stop_id":"U15128Z2","name":"Měnín, u mlýna","arrival_time":"5:53:00","departure_time":"5:53:00","lat":49.085172,"lon":16.694708,"is_passed":false},{"stop_id":"U15154Z2","name":"Měnín, ZD","arrival_time":"5:54:00","departure_time":"5:54:00","lat":49.091685,"lon":16.689643,"is_passed":false},{"stop_id":"U15133Z2","name":"Otmarov, chaloupka","arrival_time":"5:56:00","departure_time":"5:56:00","lat":49.101007,"lon":16.679762,"is_passed":false},{"stop_id":"U15175Z2","name":"Otmarov","arrival_time":"5:58:00","departure_time":"5:58:00","lat":49.100336,"lon":16.671844,"is_passed":false},{"stop_id":"U15176Z2","name":"Rajhradice, obalovna","arrival_time":"6:00:00","departure_time":"6:00:00","lat":49.096394,"lon":16.651454,"is_passed":false},{"stop_id":"U15144Z2","name":"Rajhradice, váha","arrival_time":"6:02:00","departure_time":"6:02:00","lat":49.09362,"lon":16.635452,"is_passed":false},{"stop_id":"U15145Z2","name":"Rebešovice","arrival_time":"6:04:00","departure_time":"6:04:00","lat":49.105028,"lon":16.638127,"is_passed":false},{"stop_id":"U15146Z2","name":"Rebešovice, Horky","arrival_time":"6:05:00","departure_time":"6:05:00","lat":49.108966,"lon":16.641733,"is_passed":false},{"stop_id":"U1182Z3","name":"Chrlice, smyčka","arrival_time":"6:08:00","departure_time":"6:08:00","lat":49.126855,"lon":16.655081,"is_passed":false},{"stop_id":"U1183Z2","name":"Chrlice, nádraží","arrival_time":"6:09:00","departure_time":"6:09:00","lat":49.132136,"lon":16.656638,"is_passed":false},{"stop_id":"U1187Z2","name":"Chrlické náměstí","arrival_time":"6:10:00","departure_time":"6:21:00","lat":49.13548,"lon":16.653876,"is_passed":false}],"5621":[{"stop_id":"U1187Z1","name":"Chrlické náměstí","arrival_time":"6:21:00","departure_time":"6:21:00","lat":49.135283,"lon":16.653902,"is_passed":false},{"stop_id":"U1183Z1","name":"Chrlice, nádraží","arrival_time":"6:22:00","departure_time":"6:22:00","lat":49.131712,"lon":16.656596,"is_passed":false},{"stop_id":"U1182Z4","name":"Chrlice, smyčka","arrival_time":"6:23:00","departure_time":"6:23:00","lat":49.126443,"lon":16.654784,"is_passed":false},{"stop_id":"U15146Z1","name":"Rebešovice, Horky","arrival_time":"6:26:00","departure_time":"6:26:00","lat":49.108356,"lon":16.64093,"is_passed":false},{"stop_id":"U15145Z1","name":"Rebešovice","arrival_time":"6:27:00","departure_time":"6:27:00","lat":49.10491,"lon":16.637941,"is_passed":false},{"stop_id":"U15144Z1","name":"Rajhradice, váha","arrival_time":"6:29:00","departure_time":"6:30:00","lat":49.093623,"lon":16.63553,"is_passed":false},{"stop_id":"U15176Z1","name":"Rajhradice, obalovna","arrival_time":"6:32:00","departure_time":"6:32:00","lat":49.0964,"lon":16.651802,"is_passed":false},{"stop_id":"U15175Z1","name":"Otmarov","arrival_time":"6:34:00","departure_time":"6:34:00","lat":49.100468,"lon":16.672571,"is_passed":false},{"stop_id":"U15133Z1","name":"Otmarov, chaloupka","arrival_time":"6:35:00","departure_time":"6:35:00","lat":49.09991,"lon":16.681232,"is_passed":false},{"stop_id":"U15154Z1","name":"Měnín, ZD","arrival_time":"6:37:00","departure_time":"6:37:00","lat":49.091455,"lon":16.689825,"is_passed":false},{"stop_id":"U15128Z1","name":"Měnín, u mlýna","arrival_time":"6:38:00","departure_time":"6:38:00","lat":49.084102,"lon":16.694181,"is_passed":false},{"stop_id":"U15165Z1","name":"Měnín, obchodní středisko","arrival_time":"6:40:00","departure_time":"6:52:00","lat":49.079732,"lon":16.693543,"is_passed":false}],"5622":[{"stop_id":"U15165Z2","name":"Měnín, obchodní středisko","arrival_time":"6:52:00","departure_time":"6:52:00","lat":49.079732,"lon":16.693543,"is_passed":false},{"stop_id":"U15128Z2","name":"Měnín, u mlýna","arrival_time":"6:53:00","departure_time":"6:53:00","lat":49.085172,"lon":16.694708,"is_passed":false},{"stop_id":"U15154Z2","name":"Měnín, ZD","arrival_time":"6:54:00","departure_time":"6:54:00","lat":49.091685,"lon":16.689643,"is_passed":false},{"stop_id":"U15133Z2","name":"Otmarov, chaloupka","arrival_time":"6:56:00","departure_time":"6:56:00","lat":49.101007,"lon":16.679762,"is_passed":false},{"stop_id":"U15175Z2","name":"Otmarov","arrival_time":"6:58:00","departure_time":"6:58:00","lat":49.100336,"lon":16.671844,"is_passed":false},{"stop_id":"U15176Z2","name":"Rajhradice, obalovna","arrival_time":"7:00:00","departure_time":"7:00:00","lat":49.096394,"lon":16.651454,"is_passed":false},{"stop_id":"U15144Z2","name":"Rajhradice, váha","arrival_time":"7:02:00","departure_time":"7:02:00","lat":49.09362,"lon":16.635452,"is_passed":false},{"stop_id":"U15145Z2","name":"Rebešovice","arrival_time":"7:04:00","departure_time":"7:04:00","lat":49.105028,"lon":16.638127,"is_passed":false},{"stop_id":"U15146Z2","name":"Rebešovice, Horky","arrival_time":"7:05:00","departure_time":"7:05:00","lat":49.108966,"lon":16.641733,"is_passed":false},{"stop_id":"U1182Z3","name":"Chrlice, smyčka","arrival_time":"7:08:00","departure_time":"7:08:00","lat":49.126855,"lon":16.655081,"is_passed":false},{"stop_id":"U1183Z2","name":"Chrlice, nádraží","arrival_time":"7:09:00","departure_time":"7:09:00","lat":49.132136,"lon":16.656638,"is_passed":false},{"stop_id":"U1187Z2","name":"Chrlické náměstí","arrival_time":"7:10:00","departure_time":"7:21:00","lat":49.13548,"lon":16.653876,"is_passed":false}],"5623":[{"stop_id":"U1187Z1","name":"Chrlické náměstí","arrival_time":"7:21:00","departure_time":"7:21:00","lat":49.135283,"lon":16.653902,"is_passed":false},{"stop_id":"U1183Z1","name":"Chrlice, nádraží","arrival_time":"7:22:00","departure_time":"7:22:00","lat":49.131712,"lon":16.656596,"is_passed":false},{"stop_id":"U1182Z4","name":"Chrlice, smyčka","arrival_time":"7:23:00","departure_time":"7:23:00","lat":49.126443,"lon":16.654784,"is_passed":false},{"stop_id":"U15146Z1","name":"Rebešovice, Horky","arrival_time":"7:26:00","departure_time":"7:26:00","lat":49.108356,"lon":16.64093,"is_passed":false},{"stop_id":"U15145Z1","name":"Rebešovice","arrival_time":"7:27:00","departure_time":"7:27:00","lat":49.10491,"lon":16.637941,"is_passed":false},{"stop_id":"U15144Z1","name":"Rajhradice, váha","arrival_time":"7:30:00","departure_time":"7:30:00","lat":49.093623,"lon":16.63553,"is_passed":false},{"stop_id":"U15176Z1","name":"Rajhradice, obalovna","arrival_time":"7:32:00","departure_time":"7:32:00","lat":49.0964,"lon":16.651802,"is_passed":false},{"stop_id":"U15175Z1","name":"Otmarov","arrival_time":"7:34:00","departure_time":"7:34:00","lat":49.100468,"lon":16.672571,"is_passed":false},{"stop_id":"U15133Z1","name":"Otmarov, chaloupka","arrival_time":"7:35:00","departure_time":"7:35:00","lat":49.09991,"lon":16.681232,"is_passed":false},{"stop_id":"U15154Z1","name":"Měnín, ZD","arrival_time":"7:37:00","departure_time":"7:37:00","lat":49.091455,"lon":16.689825,"is_passed":false},{"stop_id":"U15128Z1","name":"Měnín, u mlýna","arrival_time":"7:38:00","departure_time":"7:38:00","lat":49.084102,"lon":16.694181,"is_passed":false},{"stop_id":"U15165Z1","name":"Měnín, obchodní středisko","arrival_time":"7:40:00","departure_time":"7:52:00","lat":49.079732,"lon":16.693543,"is_passed":false}],"5624":[{"stop_id":"U15165Z2","name":"Měnín, obchodní středisko","arrival_time":"7:52:00","departure_time":"7:52:00","lat":49.079732,"lon":16.693543,"is_passed":false},{"stop_id":"U15128Z2","name":"Měnín, u mlýna","arrival_time":"7:53:00","departure_time":"7:53:00","lat":49.085172,"lon":16.694708,"is_passed":false},{"stop_id":"U15154Z2","name":"Měnín, ZD","arrival_time":"7:54:00","departure_time":"7:54:00","lat":49.091685,"lon":16.689643,"is_passed":false},{"stop_id":"U15133Z2","name":"Otmarov, chaloupka","arrival_time":"7:56:00","departure_time":"7:56:00","lat":49.101007,"lon":16.679762,"is_passed":false},{"stop_id":"U15175Z2","name":"Otmarov","arrival_time":"7:58:00","departure_time":"7:58:00","lat":49.100336,"lon":16.671844,"is_passed":false},{"stop_id":"U15176Z2","name":"Rajhradice, obalovna","arrival_time":"8:00:00","departure_time":"8:00:00","lat":49.096394,"lon":16.651454,"is_passed":false},{"stop_id":"U15144Z2","name":"Rajhradice, váha","arrival_time":"8:02:00","departure_time":"8:02:00","lat":49.09362,"lon":16.635452,"is_passed":false},{"stop_id":"U15145Z2","name":"Rebešovice","arrival_time":"8:04:00","departure_time":"8:04:00","lat":49.105028,"lon":16.638127,"is_passed":false},{"stop_id":"U15146Z2","name":"Rebešovice, Horky","arrival_time":"8:05:00","departure_time":"8:05:00","lat":49.108966,"lon":16.641733,"is_passed":false},{"stop_id":"U1182Z3","name":"Chrlice, smyčka","arrival_time":"8:08:00","departure_time":"8:08:00","lat":49.126855,"lon":16.655081,"is_passed":false},{"stop_id":"U1183Z2","name":"Chrlice, nádraží","arrival_time":"8:09:00","departure_time":"8:09:00","lat":49.132136,"lon":16.656638,"is_passed":false},{"stop_id":"U1187Z2","name":"Chrlické náměstí","arrival_time":"8:10:00","departure_time":"13:51:00","lat":49.13548,"lon":16.653876,"is_passed":false}],"5625":[{"stop_id":"U1187Z1","name":"Chrlické náměstí","arrival_time":"13:51:00","departure_time":"13:51:00","lat":49.135283,"lon":16.653902,"is_passed":false},{"stop_id":"U1183Z1","name":"Chrlice, nádraží","arrival_time":"13:52:00","departure_time":"13:52:00","lat":49.131712,"lon":16.656596,"is_passed":false},{"stop_id":"U1182Z4","name":"Chrlice, smyčka","arrival_time":"13:53:00","departure_time":"13:53:00","lat":49.126443,"lon":16.654784,"is_passed":false},{"stop_id":"U15146Z1","name":"Rebešovice, Horky","arrival_time":"13:56:00","departure_time":"13:56:00","lat":49.108356,"lon":16.64093,"is_passed":false},{"stop_id":"U15145Z1","name":"Rebešovice","arrival_time":"13:57:00","departure_time":"13:57:00","lat":49.10491,"lon":16.637941,"is_passed":false},{"stop_id":"U15144Z1","name":"Rajhradice, váha","arrival_time":"14:00:00","departure_time":"14:32:00","lat":49.093623,"lon":16.63553,"is_passed":false}],"5626":[{"stop_id":"U15144Z2","name":"Rajhradice, váha","arrival_time":"14:32:00","departure_time":"14:32:00","lat":49.09362,"lon":16.635452,"is_passed":false},{"stop_id":"U15145Z2","name":"Rebešovice","arrival_time":"14:34:00","departure_time":"14:34:00","lat":49.105028,"lon":16.638127,"is_passed":false},{"stop_id":"U15146Z2","name":"Rebešovice, Horky","arrival_time":"14:35:00","departure_time":"14:35:00","lat":49.108966,"lon":16.641733,"is_passed":false},{"stop_id":"U1182Z3","name":"Chrlice, smyčka","arrival_time":"14:38:00","departure_time":"14:38:00","lat":49.126855,"lon":16.655081,"is_passed":false},{"stop_id":"U1183Z2","name":"Chrlice, nádraží","arrival_time":"14:39:00","departure_time":"14:39:00","lat":49.132136,"lon":16.656638,"is_passed":false},{"stop_id":"U1187Z2","name":"Chrlické náměstí","arrival_time":"14:40:00","departure_time":"14:51:00","lat":49.13548,"lon":16.653876,"is_passed":false}],"5627":[{"stop_id":"U1187Z1","name":"Chrlické náměstí","arrival_time":"14:51:00","departure_time":"14:51:00","lat":49.135283,"lon":16.653902,"is_passed":false},{"stop_id":"U1183Z1","name":"Chrlice, nádraží","arrival_time":"14:52:00","departure_time":"14:52:00","lat":49.131712,"lon":16.656596,"is_passed":false},{"stop_id":"U1182Z4","name":"Chrlice, smyčka","arrival_time":"14:53:00","departure_time":"14:53:00","lat":49.126443,"lon":16.654784,"is_passed":false},{"stop_id":"U15146Z1","name":"Rebešovice, Horky","arrival_time":"14:56:00","departure_time":"14:56:00","lat":49.108356,"lon":16.64093,"is_passed":false},{"stop_id":"U15145Z1","name":"Rebešovice","arrival_time":"14:57:00","departure_time":"14:57:00","lat":49.10491,"lon":16.637941,"is_passed":false},{"stop_id":"U15144Z1","name":"Rajhradice, váha","arrival_time":"15:00:00","departure_time":"15:00:00","lat":49.093623,"lon":16.63553,"is_passed":false},{"stop_id":"U15176Z1","name":"Rajhradice, obalovna","arrival_time":"15:02:00","departure_time":"15:02:00","lat":49.0964,"lon":16.651802,"is_passed":false},{"stop_id":"U15175Z1","name":"Otmarov","arrival_time":"15:04:00","departure_time":"15:04:00","lat":49.100468,"lon":16.672571,"is_passed":false},{"stop_id":"U15133Z1","name":"Otmarov, chaloupka","arrival_time":"15:05:00","departure_time":"15:05:00","lat":49.09991,"lon":16.681232,"is_passed":false},{"stop_id":"U15154Z1","name":"Měnín, ZD","arrival_time":"15:07:00","departure_time":"15:07:00","lat":49.091455,"lon":16.689825,"is_passed":false},{"stop_id":"U15128Z1","name":"Měnín, u mlýna","arrival_time":"15:08:00","departure_time":"15:08:00","lat":49.084102,"lon":16.694181,"is_passed":false},{"stop_id":"U15165Z1","name":"Měnín, obchodní středisko","arrival_time":"15:10:00","departure_time":"15:22:00","lat":49.079732,"lon":16.693543,"is_passed":false}],"5628":[{"stop_id":"U15165Z2","name":"Měnín, obchodní středisko","arrival_time":"15:22:00","departure_time":"15:22:00","lat":49.079732,"lon":16.693543,"is_passed":false},{"stop_id":"U15128Z2","name":"Měnín, u mlýna","arrival_time":"15:23:00","departure_time":"15:23:00","lat":49.085172,"lon":16.694708,"is_passed":false},{"stop_id":"U15154Z2","name":"Měnín, ZD","arrival_time":"15:24:00","departure_time":"15:24:00","lat":49.091685,"lon":16.689643,"is_passed":false},{"stop_id":"U15133Z2","name":"Otmarov, chaloupka","arrival_time":"15:26:00","departure_time":"15:26:00","lat":49.101007,"lon":16.679762,"is_passed":false},{"stop_id":"U15175Z2","name":"Otmarov","arrival_time":"15:28:00","departure_time":"15:28:00","lat":49.100336,"lon":16.671844,"is_passed":false},{"stop_id":"U15176Z2","name":"Rajhradice, obalovna","arrival_time":"15:30:00","departure_time":"15:30:00","lat":49.096394,"lon":16.651454,"is_passed":false},{"stop_id":"U15144Z2","name":"Rajhradice, váha","arrival_time":"15:32:00","departure_time":"15:32:00","lat":49.09362,"lon":16.635452,"is_passed":false},{"stop_id":"U15145Z2","name":"Rebešovice","arrival_time":"15:34:00","departure_time":"15:34:00","lat":49.105028,"lon":16.638127,"is_passed":false},{"stop_id":"U15146Z2","name":"Rebešovice, Horky","arrival_time":"15:35:00","departure_time":"15:35:00","lat":49.108966,"lon":16.641733,"is_passed":false},{"stop_id":"U1182Z3","name":"Chrlice, smyčka","arrival_time":"15:38:00","departure_time":"15:38:00","lat":49.126855,"lon":16.655081,"is_passed":false},{"stop_id":"U1183Z2","name":"Chrlice, nádraží","arrival_time":"15:39:00","departure_time":"15:39:00","lat":49.132136,"lon":16.656638,"is_passed":false},{"stop_id":"U1187Z2","name":"Chrlické náměstí","arrival_time":"15:40:00","departure_time":"15:51:00","lat":49.13548,"lon":16.653876,"is_passed":false}],"5629":[{"stop_id":"U1187Z1","name":"Chrlické náměstí","arrival_time":"15:51:00","departure_time":"15:51:00","lat":49.135283,"lon":16.653902,"is_passed":false},{"stop_id":"U1183Z1","name":"Chrlice, nádraží","arrival_time":"15:52:00","departure_time":"15:52:00","lat":49.131712,"lon":16.656596,"is_passed":false},{"stop_id":"U1182Z4","name":"Chrlice, smyčka","arrival_time":"15:53:00","departure_time":"15:53:00","lat":49.126443,"lon":16.654784,"is_passed":false},{"stop_id":"U15146Z1","name":"Rebešovice, Horky","arrival_time":"15:56:00","departure_time":"15:56:00","lat":49.108356,"lon":16.64093,"is_passed":false},{"stop_id":"U15145Z1","name":"Rebešovice","arrival_time":"15:57:00","departure_time":"15:57:00","lat":49.10491,"lon":16.637941,"is_passed":false},{"stop_id":"U15144Z1","name":"Rajhradice, váha","arrival_time":"16:00:00","departure_time":"16:00:00","lat":49.093623,"lon":16.63553,"is_passed":false},{"stop_id":"U15176Z1","name":"Rajhradice, obalovna","arrival_time":"16:02:00","departure_time":"16:02:00","lat":49.0964,"lon":16.651802,"is_passed":false},{"stop_id":"U15175Z1","name":"Otmarov","arrival_time":"16:04:00","departure_time":"16:04:00","lat":49.100468,"lon":16.672571,"is_passed":false},{"stop_id":"U15133Z1","name":"Otmarov, chaloupka","arrival_time":"16:05:00","departure_time":"16:05:00","lat":49.09991,"lon":16.681232,"is_passed":false},{"stop_id":"U15154Z1","name":"Měnín, ZD","arrival_time":"16:07:00","departure_time":"16:07:00","lat":49.091455,"lon":16.689825,"is_passed":false},{"stop_id":"U15128Z1","name":"Měnín, u mlýna","arrival_time":"16:08:00","departure_time":"16:08:00","lat":49.084102,"lon":16.694181,"is_passed":false},{"stop_id":"U15165Z1","name":"Měnín, obchodní středisko","arrival_time":"16:10:00","departure_time":"16:22:00","lat":49.079732,"lon":16.693543,"is_passed":false}],"56200":[{"stop_id":"U1257Z2","name":"Komenského náměstí","arrival_time":"12:40:00","departure_time":"12:40:00","lat":49.197135,"lon":16.602612,"is_passed":false},{"stop_id":"U1442Z1","name":"Obilní trh","arrival_time":"12:41:00","departure_time":"12:41:00","lat":49.198221,"lon":16.597478,"is_passed":false},{"stop_id":"U1712Z3","name":"Úvoz","arrival_time":"12:42:00","departure_time":"12:42:00","lat":49.198432,"lon":16.594582,"is_passed":false},{"stop_id":"U1816Z1","name":"Žlutý kopec","arrival_time":"12:44:00","departure_time":"12:44:00","lat":49.19515,"lon":16.587289,"is_passed":false},{"stop_id":"U1723Z1","name":"Vaňkovo náměstí","arrival_time":"12:45:00","departure_time":"12:45:00","lat":49.195052,"lon":16.585013,"is_passed":false},{"stop_id":"U1228Z1","name":"Kampelíkova","arrival_time":"12:46:00","departure_time":"12:46:00","lat":49.197512,"lon":16.581178,"is_passed":false},{"stop_id":"U1597Z1","name":"Soukopova","arrival_time":"12:47:00","departure_time":"12:47:00","lat":49.198956,"lon":16.579053,"is_passed":false},{"stop_id":"U1013Z1","name":"Barvičova","arrival_time":"12:49:00","departure_time":"13:01:00","lat":49.201189,"lon":16.575746,"is_passed":false}],"56201":[{"stop_id":"U1013Z2","name":"Barvičova","arrival_time":"13:01:00","departure_time":"13:01:00","lat":49.201047,"lon":16.575783,"is_passed":false},{"stop_id":"U1597Z2","name":"Soukopova","arrival_time":"13:01:00","departure_time":"13:01:00","lat":49.199132,"lon":16.578726,"is_passed":false},{"stop_id":"U1228Z2","name":"Kampelíkova","arrival_time":"13:02:00","departure_time":"13:02:00","lat":49.197384,"lon":16.581205,"is_passed":false},{"stop_id":"U1723Z2","name":"Vaňkovo náměstí","arrival_time":"13:04:00","departure_time":"13:04:00","lat":49.194962,"lon":16.586678,"is_passed":false},{"stop_id":"U1816Z2","name":"Žlutý kopec","arrival_time":"13:04:00","departure_time":"13:04:00","lat":49.195368,"lon":16.588271,"is_passed":false},{"stop_id":"U1682Z2","name":"Tvrdého","arrival_time":"13:05:00","departure_time":"13:05:00","lat":49.196917,"lon":16.592895,"is_passed":false},{"stop_id":"U1712Z4","name":"Úvoz","arrival_time":"13:06:00","departure_time":"13:06:00","lat":49.198264,"lon":16.59531,"is_passed":false},{"stop_id":"U1442Z2","name":"Obilní trh","arrival_time":"13:07:00","departure_time":"13:07:00","lat":49.198022,"lon":16.598215,"is_passed":false},{"stop_id":"U1257Z3","name":"Komenského náměstí","arrival_time":"13:09:00","departure_time":"13:09:00","lat":49.197026,"lon":16.602057,"is_passed":false}],"56202":[{"stop_id":"U1257Z2","name":"Komenského náměstí","arrival_time":"13:10:00","departure_time":"13:10:00","lat":49.197135,"lon":16.602612,"is_passed":false},{"stop_id":"U1442Z1","name":"Obilní trh","arrival_time":"13:11:00","departure_time":"13:11:00","lat":49.198221,"lon":16.597478,"is_passed":false},{"stop_id":"U1712Z3","name":"Úvoz","arrival_time":"13:12:00","departure_time":"13:12:00","lat":49.198432,"lon":16.594582,"is_passed":false},{"stop_id":"U1816Z1","name":"Žlutý kopec","arrival_time":"13:14:00","departure_time":"13:14:00","lat":49.19515,"lon":16.587289,"is_passed":false},{"stop_id":"U1723Z3","name":"Vaňkovo náměstí","arrival_time":"13:15:00","departure_time":"13:15:00","lat":49.194723,"lon":16.585005,"is_passed":false},{"stop_id":"U1478Z1","name":"Pavlíkova","arrival_time":"13:15:00","departure_time":"13:15:00","lat":49.195012,"lon":16.581894,"is_passed":false},{"stop_id":"U1433Z1","name":"Neumannova","arrival_time":"13:16:00","departure_time":"13:16:00","lat":49.196721,"lon":16.577681,"is_passed":false},{"stop_id":"U1366Z1","name":"Marie Pujmanové","arrival_time":"13:17:00","departure_time":"13:17:00","lat":49.198265,"lon":16.573344,"is_passed":false},{"stop_id":"U1517Z1","name":"Preslova","arrival_time":"13:19:00","departure_time":"13:31:00","lat":49.199128,"lon":16.571114,"is_passed":false}],"56203":[{"stop_id":"U1517Z2","name":"Preslova","arrival_time":"13:31:00","departure_time":"13:31:00","lat":49.199468,"lon":16.570483,"is_passed":false},{"stop_id":"U1366Z2","name":"Marie Pujmanové","arrival_time":"13:31:00","departure_time":"13:31:00","lat":49.198128,"lon":16.573743,"is_passed":false},{"stop_id":"U1433Z2","name":"Neumannova","arrival_time":"13:32:00","departure_time":"13:32:00","lat":49.196459,"lon":16.578249,"is_passed":false},{"stop_id":"U1478Z2","name":"Pavlíkova","arrival_time":"13:33:00","departure_time":"13:33:00","lat":49.194734,"lon":16.582794,"is_passed":false},{"stop_id":"U1723Z2","name":"Vaňkovo náměstí","arrival_time":"13:34:00","departure_time":"13:34:00","lat":49.194962,"lon":16.586678,"is_passed":false},{"stop_id":"U1816Z2","name":"Žlutý kopec","arrival_time":"13:34:00","departure_time":"13:34:00","lat":49.195368,"lon":16.588271,"is_passed":false},{"stop_id":"U1682Z2","name":"Tvrdého","arrival_time":"13:35:00","departure_time":"13:35:00","lat":49.196917,"lon":16.592895,"is_passed":false},{"stop_id":"U1712Z4","name":"Úvoz","arrival_time":"13:36:00","departure_time":"13:36:00","lat":49.198264,"lon":16.59531,"is_passed":false},{"stop_id":"U1442Z2","name":"Obilní trh","arrival_time":"13:37:00","departure_time":"13:37:00","lat":49.198022,"lon":16.598215,"is_passed":false},{"stop_id":"U1257Z3","name":"Komenského náměstí","arrival_time":"13:39:00","departure_time":"13:39:00","lat":49.197026,"lon":16.602057,"is_passed":false}],"56204":[{"stop_id":"U1257Z2","name":"Komenského náměstí","arrival_time":"13:40:00","departure_time":"13:40:00","lat":49.197135,"lon":16.602612,"is_passed":false},{"stop_id":"U1442Z1","name":"Obilní trh","arrival_time":"13:41:00","departure_time":"13:41:00","lat":49.198221,"lon":16.597478,"is_passed":false},{"stop_id":"U1712Z3","name":"Úvoz","arrival_time":"13:42:00","departure_time":"13:42:00","lat":49.198432,"lon":16.594582,"is_passed":false},{"stop_id":"U1816Z1","name":"Žlutý kopec","arrival_time":"13:44:00","departure_time":"13:44:00","lat":49.19515,"lon":16.587289,"is_passed":false},{"stop_id":"U1723Z1","name":"Vaňkovo náměstí","arrival_time":"13:45:00","departure_time":"13:45:00","lat":49.195052,"lon":16.585013,"is_passed":false},{"stop_id":"U1228Z1","name":"Kampelíkova","arrival_time":"13:46:00","departure_time":"13:46:00","lat":49.197512,"lon":16.581178,"is_passed":false},{"stop_id":"U1597Z1","name":"Soukopova","arrival_time":"13:47:00","departure_time":"13:47:00","lat":49.198956,"lon":16.579053,"is_passed":false},{"stop_id":"U1013Z1","name":"Barvičova","arrival_time":"13:49:00","departure_time":"14:01:00","lat":49.201189,"lon":16.575746,"is_passed":false}],"56205":[{"stop_id":"U1013Z2","name":"Barvičova","arrival_time":"14:01:00","departure_time":"14:01:00","lat":49.201047,"lon":16.575783,"is_passed":false},{"stop_id":"U1597Z2","name":"Soukopova","arrival_time":"14:01:00","departure_time":"14:01:00","lat":49.199132,"lon":16.578726,"is_passed":false},{"stop_id":"U1228Z2","name":"Kampelíkova","arrival_time":"14:02:00","departure_time":"14:02:00","lat":49.197384,"lon":16.581205,"is_passed":false},{"stop_id":"U1723Z2","name":"Vaňkovo náměstí","arrival_time":"14:04:00","departure_time":"14:04:00","lat":49.194962,"lon":16.586678,"is_passed":false},{"stop_id":"U1816Z2","name":"Žlutý kopec","arrival_time":"14:04:00","departure_time":"14:04:00","lat":49.195368,"lon":16.588271,"is_passed":false},{"stop_id":"U1682Z2","name":"Tvrdého","arrival_time":"14:05:00","departure_time":"14:05:00","lat":49.196917,"lon":16.592895,"is_passed":false},{"stop_id":"U1712Z4","name":"Úvoz","arrival_time":"14:06:00","departure_time":"14:06:00","lat":49.198264,"lon":16.59531,"is_passed":false},{"stop_id":"U1442Z2","name":"Obilní trh","arrival_time":"14:07:00","departure_time":"14:07:00","lat":49.198022,"lon":16.598215,"is_passed":false},{"stop_id":"U1257Z3","name":"Komenského náměstí","arrival_time":"14:09:00","departure_time":"14:09:00","lat":49.197026,"lon":16.602057,"is_passed":false}],"56206":[{"stop_id":"U1257Z2","name":"Komenského náměstí","arrival_time":"14:10:00","departure_time":"14:10:00","lat":49.197135,"lon":16.602612,"is_passed":false},{"stop_id":"U1442Z1","name":"Obilní trh","arrival_time":"14:11:00","departure_time":"14:11:00","lat":49.198221,"lon":16.597478,"is_passed":false},{"stop_id":"U1712Z3","name":"Úvoz","arrival_time":"14:12:00","departure_time":"14:12:00","lat":49.198432,"lon":16.594582,"is_passed":false},{"stop_id":"U1816Z1","name":"Žlutý kopec","arrival_time":"14:14:00","departure_time":"14:14:00","lat":49.19515,"lon":16.587289,"is_passed":false},{"stop_id":"U1723Z3","name":"Vaňkovo náměstí","arrival_time":"14:15:00","departure_time":"14:15:00","lat":49.194723,"lon":16.585005,"is_passed":false},{"stop_id":"U1478Z1","name":"Pavlíkova","arrival_time":"14:15:00","departure_time":"14:15:00","lat":49.195012,"lon":16.581894,"is_passed":false},{"stop_id":"U1433Z1","name":"Neumannova","arrival_time":"14:16:00","departure_time":"14:16:00","lat":49.196721,"lon":16.577681,"is_passed":false},{"stop_id":"U1366Z1","name":"Marie Pujmanové","arrival_time":"14:17:00","departure_time":"14:17:00","lat":49.198265,"lon":16.573344,"is_passed":false},{"stop_id":"U1517Z1","name":"Preslova","arrival_time":"14:19:00","departure_time":"14:31:00","lat":49.199128,"lon":16.571114,"is_passed":false}],"56207":[{"stop_id":"U1517Z2","name":"Preslova","arrival_time":"14:31:00","departure_time":"14:31:00","lat":49.199468,"lon":16.570483,"is_passed":false},{"stop_id":"U1366Z2","name":"Marie Pujmanové","arrival_time":"14:31:00","departure_time":"14:31:00","lat":49.198128,"lon":16.573743,"is_passed":false},{"stop_id":"U1433Z2","name":"Neumannova","arrival_time":"14:32:00","departure_time":"14:32:00","lat":49.196459,"lon":16.578249,"is_passed":false},{"stop_id":"U1478Z2","name":"Pavlíkova","arrival_time":"14:33:00","departure_time":"14:33:00","lat":49.194734,"lon":16.582794,"is_passed":false},{"stop_id":"U1723Z2","name":"Vaňkovo náměstí","arrival_time":"14:34:00","departure_time":"14:34:00","lat":49.194962,"lon":16.586678,"is_passed":false},{"stop_id":"U1816Z2","name":"Žlutý kopec","arrival_time":"14:34:00","departure_time":"14:34:00","lat":49.195368,"lon":16.588271,"is_passed":false},{"stop_id":"U1682Z2","name":"Tvrdého","arrival_time":"14:35:00","departure_time":"14:35:00","lat":49.196917,"lon":16.592895,"is_passed":false},{"stop_id":"U1712Z4","name":"Úvoz","arrival_time":"14:36:00","departure_time":"14:36:00","lat":49.198264,"lon":16.59531,"is_passed":false},{"stop_id":"U1442Z2","name":"Obilní trh","arrival_time":"14:37:00","departure_time":"14:37:00","lat":49.198022,"lon":16.598215,"is_passed":false},{"stop_id":"U1257Z3","name":"Komenského náměstí","arrival_time":"14:39:00","departure_time":"14:39:00","lat":49.197026,"lon":16.602057,"is_passed":false}],"56208":[{"stop_id":"U1257Z2","name":"Komenského náměstí","arrival_time":"14:40:00","departure_time":"14:40:00","lat":49.197135,"lon":16.602612,"is_passed":false},{"stop_id":"U1442Z1","name":"Obilní trh","arrival_time":"14:41:00","departure_time":"14:41:00","lat":49.198221,"lon":16.597478,"is_passed":false},{"stop_id":"U1712Z3","name":"Úvoz","arrival_time":"14:42:00","departure_time":"14:42:00","lat":49.198432,"lon":16.594582,"is_passed":false},{"stop_id":"U1816Z1","name":"Žlutý kopec","arrival_time":"14:44:00","departure_time":"14:44:00","lat":49.19515,"lon":16.587289,"is_passed":false},{"stop_id":"U1723Z1","name":"Vaňkovo náměstí","arrival_time":"14:45:00","departure_time":"14:45:00","lat":49.195052,"lon":16.585013,"is_passed":false},{"stop_id":"U1228Z1","name":"Kampelíkova","arrival_time":"14:46:00","departure_time":"14:46:00","lat":49.197512,"lon":16.581178,"is_passed":false},{"stop_id":"U1597Z1","name":"Soukopova","arrival_time":"14:47:00","departure_time":"14:47:00","lat":49.198956,"lon":16.579053,"is_passed":false},{"stop_id":"U1013Z1","name":"Barvičova","arrival_time":"14:49:00","departure_time":"15:01:00","lat":49.201189,"lon":16.575746,"is_passed":false}],"56209":[{"stop_id":"U1013Z2","name":"Barvičova","arrival_time":"15:01:00","departure_time":"15:01:00","lat":49.201047,"lon":16.575783,"is_passed":false},{"stop_id":"U1597Z2","name":"Soukopova","arrival_time":"15:01:00","departure_time":"15:01:00","lat":49.199132,"lon":16.578726,"is_passed":false},{"stop_id":"U1228Z2","name":"Kampelíkova","arrival_time":"15:02:00","departure_time":"15:02:00","lat":49.197384,"lon":16.581205,"is_passed":false},{"stop_id":"U1723Z2","name":"Vaňkovo náměstí","arrival_time":"15:04:00","departure_time":"15:04:00","lat":49.194962,"lon":16.586678,"is_passed":false},{"stop_id":"U1816Z2","name":"Žlutý kopec","arrival_time":"15:04:00","departure_time":"15:04:00","lat":49.195368,"lon":16.588271,"is_passed":false},{"stop_id":"U1682Z2","name":"Tvrdého","arrival_time":"15:05:00","departure_time":"15:05:00","lat":49.196917,"lon":16.592895,"is_passed":false},{"stop_id":"U1712Z4","name":"Úvoz","arrival_time":"15:06:00","departure_time":"15:06:00","lat":49.198264,"lon":16.59531,"is_passed":false},{"stop_id":"U1442Z2","name":"Obilní trh","arrival_time":"15:07:00","departure_time":"15:07:00","lat":49.198022,"lon":16.598215,"is_passed":false},{"stop_id":"U1257Z3","name":"Komenského náměstí","arrival_time":"15:09:00","departure_time":"15:09:00","lat":49.197026,"lon":16.602057,"is_passed":false}],"56210":[{"stop_id":"U1257Z2","name":"Komenského náměstí","arrival_time":"15:10:00","departure_time":"15:10:00","lat":49.197135,"lon":16.602612,"is_passed":false},{"stop_id":"U1442Z1","name":"Obilní trh","arrival_time":"15:11:00","departure_time":"15:11:00","lat":49.198221,"lon":16.597478,"is_passed":false},{"stop_id":"U1712Z3","name":"Úvoz","arrival_time":"15:12:00","departure_time":"15:12:00","lat":49.198432,"lon":16.594582,"is_passed":false},{"stop_id":"U1816Z1","name":"Žlutý kopec","arrival_time":"15:14:00","departure_time":"15:14:00","lat":49.19515,"lon":16.587289,"is_passed":false},{"stop_id":"U1723Z3","name":"Vaňkovo náměstí","arrival_time":"15:15:00","departure_time":"15:15:00","lat":49.194723,"lon":16.585005,"is_passed":false},{"stop_id":"U1478Z1","name":"Pavlíkova","arrival_time":"15:15:00","departure_time":"15:15:00","lat":49.195012,"lon":16.581894,"is_passed":false},{"stop_id":"U1433Z1","name":"Neumannova","arrival_time":"15:16:00","departure_time":"15:16:00","lat":49.196721,"lon":16.577681,"is_passed":false},{"stop_id":"U1366Z1","name":"Marie Pujmanové","arrival_time":"15:17:00","departure_time":"15:17:00","lat":49.198265,"lon":16.573344,"is_passed":false},{"stop_id":"U1517Z1","name":"Preslova","arrival_time":"15:19:00","departure_time":"15:31:00","lat":49.199128,"lon":16.571114,"is_passed":false}],"56211":[{"stop_id":"U1517Z2","name":"Preslova","arrival_time":"15:31:00","departure_time":"15:31:00","lat":49.199468,"lon":16.570483,"is_passed":false},{"stop_id":"U1366Z2","name":"Marie Pujmanové","arrival_time":"15:31:00","departure_time":"15:31:00","lat":49.198128,"lon":16.573743,"is_passed":false},{"stop_id":"U1433Z2","name":"Neumannova","arrival_time":"15:32:00","departure_time":"15:32:00","lat":49.196459,"lon":16.578249,"is_passed":false},{"stop_id":"U1478Z2","name":"Pavlíkova","arrival_time":"15:33:00","departure_time":"15:33:00","lat":49.194734,"lon":16.582794,"is_passed":false},{"stop_id":"U1723Z2","name":"Vaňkovo náměstí","arrival_time":"15:34:00","departure_time":"15:34:00","lat":49.194962,"lon":16.586678,"is_passed":false},{"stop_id":"U1816Z2","name":"Žlutý kopec","arrival_time":"15:34:00","departure_time":"15:34:00","lat":49.195368,"lon":16.588271,"is_passed":false},{"stop_id":"U1682Z2","name":"Tvrdého","arrival_time":"15:35:00","departure_time":"15:35:00","lat":49.196917,"lon":16.592895,"is_passed":false},{"stop_id":"U1712Z4","name":"Úvoz","arrival_time":"15:36:00","departure_time":"15:36:00","lat":49.198264,"lon":16.59531,"is_passed":false},{"stop_id":"U1442Z2","name":"Obilní trh","arrival_time":"15:37:00","departure_time":"15:37:00","lat":49.198022,"lon":16.598215,"is_passed":false},{"stop_id":"U1257Z3","name":"Komenského náměstí","arrival_time":"15:39:00","departure_time":"15:39:00","lat":49.197026,"lon":16.602057,"is_passed":false}],"56212":[{"stop_id":"U1257Z2","name":"Komenského náměstí","arrival_time":"15:40:00","departure_time":"15:40:00","lat":49.197135,"lon":16.602612,"is_passed":false},{"stop_id":"U1442Z1","name":"Obilní trh","arrival_time":"15:41:00","departure_time":"15:41:00","lat":49.198221,"lon":16.597478,"is_passed":false},{"stop_id":"U1712Z3","name":"Úvoz","arrival_time":"15:42:00","departure_time":"15:42:00","lat":49.198432,"lon":16.594582,"is_passed":false},{"stop_id":"U1816Z1","name":"Žlutý kopec","arrival_time":"15:44:00","departure_time":"15:44:00","lat":49.19515,"lon":16.587289,"is_passed":false},{"stop_id":"U1723Z1","name":"Vaňkovo náměstí","arrival_time":"15:45:00","departure_time":"15:45:00","lat":49.195052,"lon":16.585013,"is_passed":false},{"stop_id":"U1228Z1","name":"Kampelíkova","arrival_time":"15:46:00","departure_time":"15:46:00","lat":49.197512,"lon":16.581178,"is_passed":false},{"stop_id":"U1597Z1","name":"Soukopova","arrival_time":"15:47:00","departure_time":"15:47:00","lat":49.198956,"lon":16.579053,"is_passed":false},{"stop_id":"U1013Z1","name":"Barvičova","arrival_time":"15:49:00","departure_time":"16:01:00","lat":49.201189,"lon":16.575746,"is_passed":false}],"56213":[{"stop_id":"U1013Z2","name":"Barvičova","arrival_time":"16:01:00","departure_time":"16:01:00","lat":49.201047,"lon":16.575783,"is_passed":false},{"stop_id":"U1597Z2","name":"Soukopova","arrival_time":"16:01:00","departure_time":"16:01:00","lat":49.199132,"lon":16.578726,"is_passed":false},{"stop_id":"U1228Z2","name":"Kampelíkova","arrival_time":"16:02:00","departure_time":"16:02:00","lat":49.197384,"lon":16.581205,"is_passed":false},{"stop_id":"U1723Z2","name":"Vaňkovo náměstí","arrival_time":"16:04:00","departure_time":"16:04:00","lat":49.194962,"lon":16.586678,"is_passed":false},{"stop_id":"U1816Z2","name":"Žlutý kopec","arrival_time":"16:04:00","departure_time":"16:04:00","lat":49.195368,"lon":16.588271,"is_passed":false},{"stop_id":"U1682Z2","name":"Tvrdého","arrival_time":"16:05:00","departure_time":"16:05:00","lat":49.196917,"lon":16.592895,"is_passed":false},{"stop_id":"U1712Z4","name":"Úvoz","arrival_time":"16:06:00","departure_time":"16:06:00","lat":49.198264,"lon":16.59531,"is_passed":false},{"stop_id":"U1442Z2","name":"Obilní trh","arrival_time":"16:07:00","departure_time":"16:07:00","lat":49.198022,"lon":16.598215,"is_passed":false},{"stop_id":"U1257Z3","name":"Komenského náměstí","arrival_time":"16:09:00","departure_time":"16:09:00","lat":49.197026,"lon":16.602057,"is_passed":false}],"56214":[{"stop_id":"U1257Z2","name":"Komenského náměstí","arrival_time":"16:10:00","departure_time":"16:10:00","lat":49.197135,"lon":16.602612,"is_passed":false},{"stop_id":"U1442Z1","name":"Obilní trh","arrival_time":"16:11:00","departure_time":"16:11:00","lat":49.198221,"lon":16.597478,"is_passed":false},{"stop_id":"U1712Z3","name":"Úvoz","arrival_time":"16:12:00","departure_time":"16:12:00","lat":49.198432,"lon":16.594582,"is_passed":false},{"stop_id":"U1816Z1","name":"Žlutý kopec","arrival_time":"16:14:00","departure_time":"16:14:00","lat":49.19515,"lon":16.587289,"is_passed":false},{"stop_id":"U1723Z3","name":"Vaňkovo náměstí","arrival_time":"16:15:00","departure_time":"16:15:00","lat":49.194723,"lon":16.585005,"is_passed":false},{"stop_id":"U1478Z1","name":"Pavlíkova","arrival_time":"16:15:00","departure_time":"16:15:00","lat":49.195012,"lon":16.581894,"is_passed":false},{"stop_id":"U1433Z1","name":"Neumannova","arrival_time":"16:16:00","departure_time":"16:16:00","lat":49.196721,"lon":16.577681,"is_passed":false},{"stop_id":"U1366Z1","name":"Marie Pujmanové","arrival_time":"16:17:00","departure_time":"16:17:00","lat":49.198265,"lon":16.573344,"is_passed":false},{"stop_id":"U1517Z1","name":"Preslova","arrival_time":"16:19:00","departure_time":"16:31:00","lat":49.199128,"lon":16.571114,"is_passed":false}],"56215":[{"stop_id":"U1517Z2","name":"Preslova","arrival_time":"16:31:00","departure_time":"16:31:00","lat":49.199468,"lon":16.570483,"is_passed":false},{"stop_id":"U1366Z2","name":"Marie Pujmanové","arrival_time":"16:31:00","departure_time":"16:31:00","lat":49.198128,"lon":16.573743,"is_passed":false},{"stop_id":"U1433Z2","name":"Neumannova","arrival_time":"16:32:00","departure_time":"16:32:00","lat":49.196459,"lon":16.578249,"is_passed":false},{"stop_id":"U1478Z2","name":"Pavlíkova","arrival_time":"16:33:00","departure_time":"16:33:00","lat":49.194734,"lon":16.582794,"is_passed":false},{"stop_id":"U1723Z2","name":"Vaňkovo náměstí","arrival_time":"16:34:00","departure_time":"16:34:00","lat":49.194962,"lon":16.586678,"is_passed":false},{"stop_id":"U1816Z2","name":"Žlutý kopec","arrival_time":"16:34:00","departure_time":"16:34:00","lat":49.195368,"lon":16.588271,"is_passed":false},{"stop_id":"U1682Z2","name":"Tvrdého","arrival_time":"16:35:00","departure_time":"16:35:00","lat":49.196917,"lon":16.592895,"is_passed":false},{"stop_id":"U1712Z4","name":"Úvoz","arrival_time":"16:36:00","departure_time":"16:36:00","lat":49.198264,"lon":16.59531,"is_passed":false},{"stop_id":"U1442Z2","name":"Obilní trh","arrival_time":"16:37:00","departure_time":"16:37:00","lat":49.198022,"lon":16.598215,"is_passed":false},{"stop_id":"U1257Z3","name":"Komenského náměstí","arrival_time":"16:39:00","departure_time":"16:39:00","lat":49.197026,"lon":16.602057,"is_passed":false}],"56216":[{"stop_id":"U1257Z2","name":"Komenského náměstí","arrival_time":"16:40:00","departure_time":"16:40:00","lat":49.197135,"lon":16.602612,"is_passed":false},{"stop_id":"U1442Z1","name":"Obilní trh","arrival_time":"16:41:00","departure_time":"16:41:00","lat":49.198221,"lon":16.597478,"is_passed":false},{"stop_id":"U1712Z3","name":"Úvoz","arrival_time":"16:42:00","departure_time":"16:42:00","lat":49.198432,"lon":16.594582,"is_passed":false},{"stop_id":"U1816Z1","name":"Žlutý kopec","arrival_time":"16:44:00","departure_time":"16:44:00","lat":49.19515,"lon":16.587289,"is_passed":false},{"stop_id":"U1723Z1","name":"Vaňkovo náměstí","arrival_time":"16:45:00","departure_time":"16:45:00","lat":49.195052,"lon":16.585013,"is_passed":false},{"stop_id":"U1228Z1","name":"Kampelíkova","arrival_time":"16:46:00","departure_time":"16:46:00","lat":49.197512,"lon":16.581178,"is_passed":false},{"stop_id":"U1597Z1","name":"Soukopova","arrival_time":"16:47:00","departure_time":"16:47:00","lat":49.198956,"lon":16.579053,"is_passed":false},{"stop_id":"U1013Z1","name":"Barvičova","arrival_time":"16:49:00","departure_time":"17:01:00","lat":49.201189,"lon":16.575746,"is_passed":false}],"56217":[{"stop_id":"U1013Z2","name":"Barvičova","arrival_time":"17:01:00","departure_time":"17:01:00","lat":49.201047,"lon":16.575783,"is_passed":false},{"stop_id":"U1597Z2","name":"Soukopova","arrival_time":"17:01:00","departure_time":"17:01:00","lat":49.199132,"lon":16.578726,"is_passed":false},{"stop_id":"U1228Z2","name":"Kampelíkova","arrival_time":"17:02:00","departure_time":"17:02:00","lat":49.197384,"lon":16.581205,"is_passed":false},{"stop_id":"U1723Z2","name":"Vaňkovo náměstí","arrival_time":"17:04:00","departure_time":"17:04:00","lat":49.194962,"lon":16.586678,"is_passed":false},{"stop_id":"U1816Z2","name":"Žlutý kopec","arrival_time":"17:04:00","departure_time":"17:04:00","lat":49.195368,"lon":16.588271,"is_passed":false},{"stop_id":"U1682Z2","name":"Tvrdého","arrival_time":"17:05:00","departure_time":"17:05:00","lat":49.196917,"lon":16.592895,"is_passed":false},{"stop_id":"U1712Z4","name":"Úvoz","arrival_time":"17:06:00","departure_time":"17:06:00","lat":49.198264,"lon":16.59531,"is_passed":false},{"stop_id":"U1442Z2","name":"Obilní trh","arrival_time":"17:07:00","departure_time":"17:07:00","lat":49.198022,"lon":16.598215,"is_passed":false},{"stop_id":"U1257Z3","name":"Komenského náměstí","arrival_time":"17:09:00","departure_time":"17:09:00","lat":49.197026,"lon":16.602057,"is_passed":false}],"56218":[{"stop_id":"U1257Z2","name":"Komenského náměstí","arrival_time":"17:10:00","departure_time":"17:10:00","lat":49.197135,"lon":16.602612,"is_passed":false},{"stop_id":"U1442Z1","name":"Obilní trh","arrival_time":"17:11:00","departure_time":"17:11:00","lat":49.198221,"lon":16.597478,"is_passed":false},{"stop_id":"U1712Z3","name":"Úvoz","arrival_time":"17:12:00","departure_time":"17:12:00","lat":49.198432,"lon":16.594582,"is_passed":false},{"stop_id":"U1816Z1","name":"Žlutý kopec","arrival_time":"17:14:00","departure_time":"17:14:00","lat":49.19515,"lon":16.587289,"is_passed":false},{"stop_id":"U1723Z3","name":"Vaňkovo náměstí","arrival_time":"17:15:00","departure_time":"17:15:00","lat":49.194723,"lon":16.585005,"is_passed":false},{"stop_id":"U1478Z1","name":"Pavlíkova","arrival_time":"17:15:00","departure_time":"17:15:00","lat":49.195012,"lon":16.581894,"is_passed":false},{"stop_id":"U1433Z1","name":"Neumannova","arrival_time":"17:16:00","departure_time":"17:16:00","lat":49.196721,"lon":16.577681,"is_passed":false},{"stop_id":"U1366Z1","name":"Marie Pujmanové","arrival_time":"17:17:00","departure_time":"17:17:00","lat":49.198265,"lon":16.573344,"is_passed":false},{"stop_id":"U1517Z1","name":"Preslova","arrival_time":"17:19:00","departure_time":"17:31:00","lat":49.199128,"lon":16.571114,"is_passed":false}],"56219":[{"stop_id":"U1517Z2","name":"Preslova","arrival_time":"17:31:00","departure_time":"17:31:00","lat":49.199468,"lon":16.570483,"is_passed":false},{"stop_id":"U1366Z2","name":"Marie Pujmanové","arrival_time":"17:31:00","departure_time":"17:31:00","lat":49.198128,"lon":16.573743,"is_passed":false},{"stop_id":"U1433Z2","name":"Neumannova","arrival_time":"17:32:00","departure_time":"17:32:00","lat":49.196459,"lon":16.578249,"is_passed":false},{"stop_id":"U1478Z2","name":"Pavlíkova","arrival_time":"17:33:00","departure_time":"17:33:00","lat":49.194734,"lon":16.582794,"is_passed":false},{"stop_id":"U1723Z2","name":"Vaňkovo náměstí","arrival_time":"17:34:00","departure_time":"17:34:00","lat":49.194962,"lon":16.586678,"is_passed":false},{"stop_id":"U1816Z2","name":"Žlutý kopec","arrival_time":"17:34:00","departure_time":"17:34:00","lat":49.195368,"lon":16.588271,"is_passed":false},{"stop_id":"U1682Z2","name":"Tvrdého","arrival_time":"17:35:00","departure_time":"17:35:00","lat":49.196917,"lon":16.592895,"is_passed":false},{"stop_id":"U1712Z4","name":"Úvoz","arrival_time":"17:36:00","departure_time":"17:36:00","lat":49.198264,"lon":16.59531,"is_passed":false},{"stop_id":"U1442Z2","name":"Obilní trh","arrival_time":"17:37:00","departure_time":"17:37:00","lat":49.198022,"lon":16.598215,"is_passed":false},{"stop_id":"U1257Z3","name":"Komenského náměstí","arrival_time":"17:39:00","departure_time":"17:39:00","lat":49.197026,"lon":16.602057,"is_passed":false}],"56220":[{"stop_id":"U1257Z2","name":"Komenského náměstí","arrival_time":"17:40:00","departure_time":"17:40:00","lat":49.197135,"lon":16.602612,"is_passed":false},{"stop_id":"U1442Z1","name":"Obilní trh","arrival_time":"17:41:00","departure_time":"17:41:00","lat":49.198221,"lon":16.597478,"is_passed":false},{"stop_id":"U1712Z3","name":"Úvoz","arrival_time":"17:42:00","departure_time":"17:42:00","lat":49.198432,"lon":16.594582,"is_passed":false},{"stop_id":"U1816Z1","name":"Žlutý kopec","arrival_time":"17:44:00","departure_time":"17:44:00","lat":49.19515,"lon":16.587289,"is_passed":false},{"stop_id":"U1723Z1","name":"Vaňkovo náměstí","arrival_time":"17:45:00","departure_time":"17:45:00","lat":49.195052,"lon":16.585013,"is_passed":false},{"stop_id":"U1228Z1","name":"Kampelíkova","arrival_time":"17:46:00","departure_time":"17:46:00","lat":49.197512,"lon":16.581178,"is_passed":false},{"stop_id":"U1597Z1","name":"Soukopova","arrival_time":"17:47:00","departure_time":"17:47:00","lat":49.198956,"lon":16.579053,"is_passed":false},{"stop_id":"U1013Z1","name":"Barvičova","arrival_time":"17:49:00","departure_time":"18:01:00","lat":49.201189,"lon":16.575746,"is_passed":false}],"56221":[{"stop_id":"U1013Z2","name":"Barvičova","arrival_time":"18:01:00","departure_time":"18:01:00","lat":49.201047,"lon":16.575783,"is_passed":false},{"stop_id":"U1597Z2","name":"Soukopova","arrival_time":"18:01:00","departure_time":"18:01:00","lat":49.199132,"lon":16.578726,"is_passed":false},{"stop_id":"U1228Z2","name":"Kampelíkova","arrival_time":"18:02:00","departure_time":"18:02:00","lat":49.197384,"lon":16.581205,"is_passed":false},{"stop_id":"U1723Z2","name":"Vaňkovo náměstí","arrival_time":"18:04:00","departure_time":"18:04:00","lat":49.194962,"lon":16.586678,"is_passed":false},{"stop_id":"U1816Z2","name":"Žlutý kopec","arrival_time":"18:04:00","departure_time":"18:04:00","lat":49.195368,"lon":16.588271,"is_passed":false},{"stop_id":"U1682Z2","name":"Tvrdého","arrival_time":"18:05:00","departure_time":"18:05:00","lat":49.196917,"lon":16.592895,"is_passed":false},{"stop_id":"U1712Z4","name":"Úvoz","arrival_time":"18:06:00","departure_time":"18:06:00","lat":49.198264,"lon":16.59531,"is_passed":false},{"stop_id":"U1442Z2","name":"Obilní trh","arrival_time":"18:07:00","departure_time":"18:07:00","lat":49.198022,"lon":16.598215,"is_passed":false},{"stop_id":"U1257Z3","name":"Komenského náměstí","arrival_time":"18:09:00","departure_time":"18:09:00","lat":49.197026,"lon":16.602057,"is_passed":false}],"56222":[{"stop_id":"U1257Z2","name":"Komenského náměstí","arrival_time":"18:10:00","departure_time":"18:10:00","lat":49.197135,"lon":16.602612,"is_passed":false},{"stop_id":"U1442Z1","name":"Obilní trh","arrival_time":"18:11:00","departure_time":"18:11:00","lat":49.198221,"lon":16.597478,"is_passed":false},{"stop_id":"U1712Z3","name":"Úvoz","arrival_time":"18:12:00","departure_time":"18:12:00","lat":49.198432,"lon":16.594582,"is_passed":false},{"stop_id":"U1816Z1","name":"Žlutý kopec","arrival_time":"18:14:00","departure_time":"18:14:00","lat":49.19515,"lon":16.587289,"is_passed":false},{"stop_id":"U1723Z3","name":"Vaňkovo náměstí","arrival_time":"18:15:00","departure_time":"18:15:00","lat":49.194723,"lon":16.585005,"is_passed":false},{"stop_id":"U1478Z1","name":"Pavlíkova","arrival_time":"18:15:00","departure_time":"18:15:00","lat":49.195012,"lon":16.581894,"is_passed":false},{"stop_id":"U1433Z1","name":"Neumannova","arrival_time":"18:16:00","departure_time":"18:16:00","lat":49.196721,"lon":16.577681,"is_passed":false},{"stop_id":"U1366Z1","name":"Marie Pujmanové","arrival_time":"18:17:00","departure_time":"18:17:00","lat":49.198265,"lon":16.573344,"is_passed":false},{"stop_id":"U1517Z1","name":"Preslova","arrival_time":"18:19:00","departure_time":"18:51:00","lat":49.199128,"lon":16.571114,"is_passed":false}],"56223":[{"stop_id":"U1517Z2","name":"Preslova","arrival_time":"18:51:00","departure_time":"18:51:00","lat":49.199468,"lon":16.570483,"is_passed":false},{"stop_id":"U1366Z2","name":"Marie Pujmanové","arrival_time":"18:51:00","departure_time":"18:51:00","lat":49.198128,"lon":16.573743,"is_passed":false},{"stop_id":"U1433Z2","name":"Neumannova","arrival_time":"18:52:00","departure_time":"18:52:00","lat":49.196459,"lon":16.578249,"is_passed":false},{"stop_id":"U1478Z2","name":"Pavlíkova","arrival_time":"18:53:00","departure_time":"18:53:00","lat":49.194734,"lon":16.582794,"is_passed":false},{"stop_id":"U1723Z2","name":"Vaňkovo náměstí","arrival_time":"18:54:00","departure_time":"18:54:00","lat":49.194962,"lon":16.586678,"is_passed":false},{"stop_id":"U1816Z2","name":"Žlutý kopec","arrival_time":"18:54:00","departure_time":"18:54:00","lat":49.195368,"lon":16.588271,"is_passed":false},{"stop_id":"U1682Z2","name":"Tvrdého","arrival_time":"18:55:00","departure_time":"18:55:00","lat":49.196917,"lon":16.592895,"is_passed":false},{"stop_id":"U1712Z4","name":"Úvoz","arrival_time":"18:56:00","departure_time":"18:56:00","lat":49.198264,"lon":16.59531,"is_passed":false},{"stop_id":"U1442Z2","name":"Obilní trh","arrival_time":"18:57:00","departure_time":"18:57:00","lat":49.198022,"lon":16.598215,"is_passed":false},{"stop_id":"U1257Z3","name":"Komenského náměstí","arrival_time":"18:59:00","departure_time":"18:59:00","lat":49.197026,"lon":16.602057,"is_passed":false}],"56224":[{"stop_id":"U1257Z2","name":"Komenského náměstí","arrival_time":"19:00:00","departure_time":"19:00:00","lat":49.197135,"lon":16.602612,"is_passed":false},{"stop_id":"U1442Z1","name":"Obilní trh","arrival_time":"19:01:00","departure_time":"19:01:00","lat":49.198221,"lon":16.597478,"is_passed":false},{"stop_id":"U1712Z3","name":"Úvoz","arrival_time":"19:02:00","departure_time":"19:02:00","lat":49.198432,"lon":16.594582,"is_passed":false},{"stop_id":"U1816Z1","name":"Žlutý kopec","arrival_time":"19:04:00","departure_time":"19:04:00","lat":49.19515,"lon":16.587289,"is_passed":false},{"stop_id":"U1723Z1","name":"Vaňkovo náměstí","arrival_time":"19:05:00","departure_time":"19:05:00","lat":49.195052,"lon":16.585013,"is_passed":false},{"stop_id":"U1228Z1","name":"Kampelíkova","arrival_time":"19:06:00","departure_time":"19:06:00","lat":49.197512,"lon":16.581178,"is_passed":false},{"stop_id":"U1597Z1","name":"Soukopova","arrival_time":"19:07:00","departure_time":"19:07:00","lat":49.198956,"lon":16.579053,"is_passed":false},{"stop_id":"U1013Z1","name":"Barvičova","arrival_time":"19:09:00","departure_time":"19:21:00","lat":49.201189,"lon":16.575746,"is_passed":false}],"56225":[{"stop_id":"U1013Z2","name":"Barvičova","arrival_time":"19:21:00","departure_time":"19:21:00","lat":49.201047,"lon":16.575783,"is_passed":false},{"stop_id":"U1597Z2","name":"Soukopova","arrival_time":"19:21:00","departure_time":"19:21:00","lat":49.199132,"lon":16.578726,"is_passed":false},{"stop_id":"U1228Z2","name":"Kampelíkova","arrival_time":"19:22:00","departure_time":"19:22:00","lat":49.197384,"lon":16.581205,"is_passed":false},{"stop_id":"U1723Z2","name":"Vaňkovo náměstí","arrival_time":"19:24:00","departure_time":"19:24:00","lat":49.194962,"lon":16.586678,"is_passed":false},{"stop_id":"U1816Z2","name":"Žlutý kopec","arrival_time":"19:24:00","departure_time":"19:24:00","lat":49.195368,"lon":16.588271,"is_passed":false},{"stop_id":"U1682Z2","name":"Tvrdého","arrival_time":"19:25:00","departure_time":"19:25:00","lat":49.196917,"lon":16.592895,"is_passed":false},{"stop_id":"U1712Z4","name":"Úvoz","arrival_time":"19:26:00","departure_time":"19:26:00","lat":49.198264,"lon":16.59531,"is_passed":false},{"stop_id":"U1442Z2","name":"Obilní trh","arrival_time":"19:27:00","departure_time":"19:27:00","lat":49.198022,"lon":16.598215,"is_passed":false},{"stop_id":"U1257Z3","name":"Komenského náměstí","arrival_time":"19:29:00","departure_time":"19:29:00","lat":49.197026,"lon":16.602057,"is_passed":false}],"56226":[{"stop_id":"U1257Z2","name":"Komenského náměstí","arrival_time":"19:30:00","departure_time":"19:30:00","lat":49.197135,"lon":16.602612,"is_passed":false},{"stop_id":"U1442Z1","name":"Obilní trh","arrival_time":"19:31:00","departure_time":"19:31:00","lat":49.198221,"lon":16.597478,"is_passed":false},{"stop_id":"U1712Z3","name":"Úvoz","arrival_time":"19:32:00","departure_time":"19:32:00","lat":49.198432,"lon":16.594582,"is_passed":false},{"stop_id":"U1816Z1","name":"Žlutý kopec","arrival_time":"19:34:00","departure_time":"19:34:00","lat":49.19515,"lon":16.587289,"is_passed":false},{"stop_id":"U1723Z3","name":"Vaňkovo náměstí","arrival_time":"19:35:00","departure_time":"19:35:00","lat":49.194723,"lon":16.585005,"is_passed":false},{"stop_id":"U1478Z1","name":"Pavlíkova","arrival_time":"19:35:00","departure_time":"19:35:00","lat":49.195012,"lon":16.581894,"is_passed":false},{"stop_id":"U1433Z1","name":"Neumannova","arrival_time":"19:36:00","departure_time":"19:36:00","lat":49.196721,"lon":16.577681,"is_passed":false},{"stop_id":"U1366Z1","name":"Marie Pujmanové","arrival_time":"19:37:00","departure_time":"19:37:00","lat":49.198265,"lon":16.573344,"is_passed":false},{"stop_id":"U1517Z1","name":"Preslova","arrival_time":"19:39:00","departure_time":"19:51:00","lat":49.199128,"lon":16.571114,"is_passed":false}],"56227":[{"stop_id":"U1517Z2","name":"Preslova","arrival_time":"19:51:00","departure_time":"19:51:00","lat":49.199468,"lon":16.570483,"is_passed":false},{"stop_id":"U1366Z2","name":"Marie Pujmanové","arrival_time":"19:51:00","departure_time":"19:51:00","lat":49.198128,"lon":16.573743,"is_passed":false},{"stop_id":"U1433Z2","name":"Neumannova","arrival_time":"19:52:00","departure_time":"19:52:00","lat":49.196459,"lon":16.578249,"is_passed":false},{"stop_id":"U1478Z2","name":"Pavlíkova","arrival_time":"19:53:00","departure_time":"19:53:00","lat":49.194734,"lon":16.582794,"is_passed":false},{"stop_id":"U1723Z2","name":"Vaňkovo náměstí","arrival_time":"19:54:00","departure_time":"19:54:00","lat":49.194962,"lon":16.586678,"is_passed":false},{"stop_id":"U1816Z2","name":"Žlutý kopec","arrival_time":"19:54:00","departure_time":"19:54:00","lat":49.195368,"lon":16.588271,"is_passed":false},{"stop_id":"U1682Z2","name":"Tvrdého","arrival_time":"19:55:00","departure_time":"19:55:00","lat":49.196917,"lon":16.592895,"is_passed":false},{"stop_id":"U1712Z4","name":"Úvoz","arrival_time":"19:56:00","departure_time":"19:56:00","lat":49.198264,"lon":16.59531,"is_passed":false},{"stop_id":"U1442Z2","name":"Obilní trh","arrival_time":"19:57:00","departure_time":"19:57:00","lat":49.198022,"lon":16.598215,"is_passed":false},{"stop_id":"U1257Z3","name":"Komenského náměstí","arrival_time":"19:59:00","departure_time":"19:59:00","lat":49.197026,"lon":16.602057,"is_passed":false}],"56228":[{"stop_id":"U1257Z2","name":"Komenského náměstí","arrival_time":"20:00:00","departure_time":"20:00:00","lat":49.197135,"lon":16.602612,"is_passed":false},{"stop_id":"U1442Z1","name":"Obilní trh","arrival_time":"20:01:00","departure_time":"20:01:00","lat":49.198221,"lon":16.597478,"is_passed":false},{"stop_id":"U1712Z3","name":"Úvoz","arrival_time":"20:02:00","departure_time":"20:02:00","lat":49.198432,"lon":16.594582,"is_passed":false},{"stop_id":"U1816Z1","name":"Žlutý kopec","arrival_time":"20:04:00","departure_time":"20:04:00","lat":49.19515,"lon":16.587289,"is_passed":false},{"stop_id":"U1723Z1","name":"Vaňkovo náměstí","arrival_time":"20:05:00","departure_time":"20:05:00","lat":49.195052,"lon":16.585013,"is_passed":false},{"stop_id":"U1228Z1","name":"Kampelíkova","arrival_time":"20:06:00","departure_time":"20:06:00","lat":49.197512,"lon":16.581178,"is_passed":false},{"stop_id":"U1597Z1","name":"Soukopova","arrival_time":"20:07:00","departure_time":"20:07:00","lat":49.198956,"lon":16.579053,"is_passed":false},{"stop_id":"U1013Z1","name":"Barvičova","arrival_time":"20:09:00","departure_time":"20:17:00","lat":49.201189,"lon":16.575746,"is_passed":false}],"56229":[{"stop_id":"U1013Z2","name":"Barvičova","arrival_time":"20:17:00","departure_time":"20:17:00","lat":49.201047,"lon":16.575783,"is_passed":false},{"stop_id":"U1597Z2","name":"Soukopova","arrival_time":"20:17:00","departure_time":"20:17:00","lat":49.199132,"lon":16.578726,"is_passed":false},{"stop_id":"U1228Z2","name":"Kampelíkova","arrival_time":"20:18:00","departure_time":"20:18:00","lat":49.197384,"lon":16.581205,"is_passed":false},{"stop_id":"U1723Z2","name":"Vaňkovo náměstí","arrival_time":"20:20:00","departure_time":"20:20:00","lat":49.194962,"lon":16.586678,"is_passed":false},{"stop_id":"U1816Z2","name":"Žlutý kopec","arrival_time":"20:20:00","departure_time":"20:20:00","lat":49.195368,"lon":16.588271,"is_passed":false},{"stop_id":"U1682Z2","name":"Tvrdého","arrival_time":"20:21:00","departure_time":"20:21:00","lat":49.196917,"lon":16.592895,"is_passed":false},{"stop_id":"U1712Z4","name":"Úvoz","arrival_time":"20:22:00","departure_time":"20:22:00","lat":49.198264,"lon":16.59531,"is_passed":false},{"stop_id":"U1442Z2","name":"Obilní trh","arrival_time":"20:22:00","departure_time":"20:22:00","lat":49.198022,"lon":16.598215,"is_passed":false},{"stop_id":"U1257Z3","name":"Komenského náměstí","arrival_time":"20:24:00","departure_time":"20:30:00","lat":49.197026,"lon":16.602057,"is_passed":false}],"56230":[{"stop_id":"U1257Z2","name":"Komenského náměstí","arrival_time":"20:30:00","departure_time":"20:30:00","lat":49.197135,"lon":16.602612,"is_passed":false},{"stop_id":"U1442Z1","name":"Obilní trh","arrival_time":"20:31:00","departure_time":"20:31:00","lat":49.198221,"lon":16.597478,"is_passed":false},{"stop_id":"U1712Z3","name":"Úvoz","arrival_time":"20:32:00","departure_time":"20:32:00","lat":49.198432,"lon":16.594582,"is_passed":false},{"stop_id":"U1816Z1","name":"Žlutý kopec","arrival_time":"20:34:00","departure_time":"20:34:00","lat":49.19515,"lon":16.587289,"is_passed":false},{"stop_id":"U1723Z1","name":"Vaňkovo náměstí","arrival_time":"20:35:00","departure_time":"20:35:00","lat":49.195052,"lon":16.585013,"is_passed":false},{"stop_id":"U1228Z1","name":"Kampelíkova","arrival_time":"20:36:00","departure_time":"20:36:00","lat":49.197512,"lon":16.581178,"is_passed":false},{"stop_id":"U1597Z1","name":"Soukopova","arrival_time":"20:37:00","departure_time":"20:37:00","lat":49.198956,"lon":16.579053,"is_passed":false},{"stop_id":"U1013Z1","name":"Barvičova","arrival_time":"20:39:00","departure_time":"20:47:00","lat":49.201189,"lon":16.575746,"is_passed":false}],"56231":[{"stop_id":"U1013Z2","name":"Barvičova","arrival_time":"20:47:00","departure_time":"20:47:00","lat":49.201047,"lon":16.575783,"is_passed":false},{"stop_id":"U1597Z2","name":"Soukopova","arrival_time":"20:47:00","departure_time":"20:47:00","lat":49.199132,"lon":16.578726,"is_passed":false},{"stop_id":"U1228Z2","name":"Kampelíkova","arrival_time":"20:48:00","departure_time":"20:48:00","lat":49.197384,"lon":16.581205,"is_passed":false},{"stop_id":"U1723Z2","name":"Vaňkovo náměstí","arrival_time":"20:50:00","departure_time":"20:50:00","lat":49.194962,"lon":16.586678,"is_passed":false},{"stop_id":"U1816Z2","name":"Žlutý kopec","arrival_time":"20:50:00","departure_time":"20:50:00","lat":49.195368,"lon":16.588271,"is_passed":false},{"stop_id":"U1682Z2","name":"Tvrdého","arrival_time":"20:51:00","departure_time":"20:51:00","lat":49.196917,"lon":16.592895,"is_passed":false},{"stop_id":"U1712Z4","name":"Úvoz","arrival_time":"20:52:00","departure_time":"20:52:00","lat":49.198264,"lon":16.59531,"is_passed":false},{"stop_id":"U1442Z2","name":"Obilní trh","arrival_time":"20:52:00","departure_time":"20:52:00","lat":49.198022,"lon":16.598215,"is_passed":false},{"stop_id":"U1257Z3","name":"Komenského náměstí","arrival_time":"20:54:00","departure_time":"20:55:00","lat":49.197026,"lon":16.602057,"is_passed":false}],"56232":[{"stop_id":"U1257Z2","name":"Komenského náměstí","arrival_time":"20:55:00","departure_time":"20:55:00","lat":49.197135,"lon":16.602612,"is_passed":false},{"stop_id":"U1442Z1","name":"Obilní trh","arrival_time":"20:56:00","departure_time":"20:56:00","lat":49.198221,"lon":16.597478,"is_passed":false},{"stop_id":"U1712Z3","name":"Úvoz","arrival_time":"20:57:00","departure_time":"20:57:00","lat":49.198432,"lon":16.594582,"is_passed":false},{"stop_id":"U1816Z1","name":"Žlutý kopec","arrival_time":"20:59:00","departure_time":"20:59:00","lat":49.19515,"lon":16.587289,"is_passed":false},{"stop_id":"U1723Z1","name":"Vaňkovo náměstí","arrival_time":"21:00:00","departure_time":"21:00:00","lat":49.195052,"lon":16.585013,"is_passed":false},{"stop_id":"U1228Z1","name":"Kampelíkova","arrival_time":"21:01:00","departure_time":"21:01:00","lat":49.197512,"lon":16.581178,"is_passed":false},{"stop_id":"U1597Z1","name":"Soukopova","arrival_time":"21:02:00","departure_time":"21:02:00","lat":49.198956,"lon":16.579053,"is_passed":false},{"stop_id":"U1013Z1","name":"Barvičova","arrival_time":"21:03:00","departure_time":"21:17:00","lat":49.201189,"lon":16.575746,"is_passed":false}],"56233":[{"stop_id":"U1013Z2","name":"Barvičova","arrival_time":"21:17:00","departure_time":"21:17:00","lat":49.201047,"lon":16.575783,"is_passed":false},{"stop_id":"U1597Z2","name":"Soukopova","arrival_time":"21:17:00","departure_time":"21:17:00","lat":49.199132,"lon":16.578726,"is_passed":false},{"stop_id":"U1228Z2","name":"Kampelíkova","arrival_time":"21:18:00","departure_time":"21:18:00","lat":49.197384,"lon":16.581205,"is_passed":false},{"stop_id":"U1723Z2","name":"Vaňkovo náměstí","arrival_time":"21:20:00","departure_time":"21:20:00","lat":49.194962,"lon":16.586678,"is_passed":false},{"stop_id":"U1816Z2","name":"Žlutý kopec","arrival_time":"21:20:00","departure_time":"21:20:00","lat":49.195368,"lon":16.588271,"is_passed":false},{"stop_id":"U1682Z2","name":"Tvrdého","arrival_time":"21:21:00","departure_time":"21:21:00","lat":49.196917,"lon":16.592895,"is_passed":false},{"stop_id":"U1712Z4","name":"Úvoz","arrival_time":"21:22:00","departure_time":"21:22:00","lat":49.198264,"lon":16.59531,"is_passed":false},{"stop_id":"U1442Z2","name":"Obilní trh","arrival_time":"21:22:00","departure_time":"21:22:00","lat":49.198022,"lon":16.598215,"is_passed":false},{"stop_id":"U1257Z3","name":"Komenského náměstí","arrival_time":"21:24:00","departure_time":"21:25:00","lat":49.197026,"lon":16.602057,"is_passed":false}],"56234":[{"stop_id":"U1257Z2","name":"Komenského náměstí","arrival_time":"21:25:00","departure_time":"21:25:00","lat":49.197135,"lon":16.602612,"is_passed":false},{"stop_id":"U1442Z1","name":"Obilní trh","arrival_time":"21:26:00","departure_time":"21:26:00","lat":49.198221,"lon":16.597478,"is_passed":false},{"stop_id":"U1712Z3","name":"Úvoz","arrival_time":"21:27:00","departure_time":"21:27:00","lat":49.198432,"lon":16.594582,"is_passed":false},{"stop_id":"U1816Z1","name":"Žlutý kopec","arrival_time":"21:29:00","departure_time":"21:29:00","lat":49.19515,"lon":16.587289,"is_passed":false},{"stop_id":"U1723Z1","name":"Vaňkovo náměstí","arrival_time":"21:30:00","departure_time":"21:30:00","lat":49.195052,"lon":16.585013,"is_passed":false},{"stop_id":"U1228Z1","name":"Kampelíkova","arrival_time":"21:31:00","departure_time":"21:31:00","lat":49.197512,"lon":16.581178,"is_passed":false},{"stop_id":"U1597Z1","name":"Soukopova","arrival_time":"21:32:00","departure_time":"21:32:00","lat":49.198956,"lon":16.579053,"is_passed":false},{"stop_id":"U1013Z1","name":"Barvičova","arrival_time":"21:33:00","departure_time":"21:47:00","lat":49.201189,"lon":16.575746,"is_passed":false}],"56235":[{"stop_id":"U1013Z2","name":"Barvičova","arrival_time":"21:47:00","departure_time":"21:47:00","lat":49.201047,"lon":16.575783,"is_passed":false},{"stop_id":"U1597Z2","name":"Soukopova","arrival_time":"21:47:00","departure_time":"21:47:00","lat":49.199132,"lon":16.578726,"is_passed":false},{"stop_id":"U1228Z2","name":"Kampelíkova","arrival_time":"21:48:00","departure_time":"21:48:00","lat":49.197384,"lon":16.581205,"is_passed":false},{"stop_id":"U1723Z2","name":"Vaňkovo náměstí","arrival_time":"21:50:00","departure_time":"21:50:00","lat":49.194962,"lon":16.586678,"is_passed":false},{"stop_id":"U1816Z2","name":"Žlutý kopec","arrival_time":"21:50:00","departure_time":"21:50:00","lat":49.195368,"lon":16.588271,"is_passed":false},{"stop_id":"U1682Z2","name":"Tvrdého","arrival_time":"21:51:00","departure_time":"21:51:00","lat":49.196917,"lon":16.592895,"is_passed":false},{"stop_id":"U1712Z4","name":"Úvoz","arrival_time":"21:52:00","departure_time":"21:52:00","lat":49.198264,"lon":16.59531,"is_passed":false},{"stop_id":"U1442Z2","name":"Obilní trh","arrival_time":"21:52:00","departure_time":"21:52:00","lat":49.198022,"lon":16.598215,"is_passed":false},{"stop_id":"U1257Z3","name":"Komenského náměstí","arrival_time":"21:54:00","departure_time":"21:55:00","lat":49.197026,"lon":16.602057,"is_passed":false}],"56236":[{"stop_id":"U1257Z2","name":"Komenského náměstí","arrival_time":"21:55:00","departure_time":"21:55:00","lat":49.197135,"lon":16.602612,"is_passed":false},{"stop_id":"U1442Z1","name":"Obilní trh","arrival_time":"21:56:00","departure_time":"21:56:00","lat":49.198221,"lon":16.597478,"is_passed":false},{"stop_id":"U1712Z3","name":"Úvoz","arrival_time":"21:57:00","departure_time":"21:57:00","lat":49.198432,"lon":16.594582,"is_passed":false},{"stop_id":"U1816Z1","name":"Žlutý kopec","arrival_time":"21:59:00","departure_time":"21:59:00","lat":49.19515,"lon":16.587289,"is_passed":false},{"stop_id":"U1723Z1","name":"Vaňkovo náměstí","arrival_time":"22:00:00","departure_time":"22:00:00","lat":49.195052,"lon":16.585013,"is_passed":false},{"stop_id":"U1228Z1","name":"Kampelíkova","arrival_time":"22:01:00","departure_time":"22:01:00","lat":49.197512,"lon":16.581178,"is_passed":false},{"stop_id":"U1597Z1","name":"Soukopova","arrival_time":"22:02:00","departure_time":"22:02:00","lat":49.198956,"lon":16.579053,"is_passed":false},{"stop_id":"U1013Z1","name":"Barvičova","arrival_time":"22:03:00","departure_time":"22:17:00","lat":49.201189,"lon":16.575746,"is_passed":false}],"56237":[{"stop_id":"U1013Z2","name":"Barvičova","arrival_time":"22:17:00","departure_time":"22:17:00","lat":49.201047,"lon":16.575783,"is_passed":false},{"stop_id":"U1597Z2","name":"Soukopova","arrival_time":"22:17:00","departure_time":"22:17:00","lat":49.199132,"lon":16.578726,"is_passed":false},{"stop_id":"U1228Z2","name":"Kampelíkova","arrival_time":"22:18:00","departure_time":"22:18:00","lat":49.197384,"lon":16.581205,"is_passed":false},{"stop_id":"U1723Z2","name":"Vaňkovo náměstí","arrival_time":"22:20:00","departure_time":"22:20:00","lat":49.194962,"lon":16.586678,"is_passed":false},{"stop_id":"U1816Z2","name":"Žlutý kopec","arrival_time":"22:20:00","departure_time":"22:20:00","lat":49.195368,"lon":16.588271,"is_passed":false},{"stop_id":"U1682Z2","name":"Tvrdého","arrival_time":"22:21:00","departure_time":"22:21:00","lat":49.196917,"lon":16.592895,"is_passed":false},{"stop_id":"U1712Z4","name":"Úvoz","arrival_time":"22:22:00","departure_time":"22:22:00","lat":49.198264,"lon":16.59531,"is_passed":false},{"stop_id":"U1442Z2","name":"Obilní trh","arrival_time":"22:22:00","departure_time":"22:22:00","lat":49.198022,"lon":16.598215,"is_passed":false},{"stop_id":"U1257Z3","name":"Komenského náměstí","arrival_time":"22:24:00","departure_time":"22:25:00","lat":49.197026,"lon":16.602057,"is_passed":false}],"56238":[{"stop_id":"U1257Z2","name":"Komenského náměstí","arrival_time":"22:25:00","departure_time":"22:25:00","lat":49.197135,"lon":16.602612,"is_passed":false},{"stop_id":"U1442Z1","name":"Obilní trh","arrival_time":"22:26:00","departure_time":"22:26:00","lat":49.198221,"lon":16.597478,"is_passed":false},{"stop_id":"U1712Z3","name":"Úvoz","arrival_time":"22:27:00","departure_time":"22:27:00","lat":49.198432,"lon":16.594582,"is_passed":false},{"stop_id":"U1816Z1","name":"Žlutý kopec","arrival_time":"22:29:00","departure_time":"22:29:00","lat":49.19515,"lon":16.587289,"is_passed":false},{"stop_id":"U1723Z1","name":"Vaňkovo náměstí","arrival_time":"22:30:00","departure_time":"22:30:00","lat":49.195052,"lon":16.585013,"is_passed":false},{"stop_id":"U1228Z1","name":"Kampelíkova","arrival_time":"22:31:00","departure_time":"22:31:00","lat":49.197512,"lon":16.581178,"is_passed":false},{"stop_id":"U1597Z1","name":"Soukopova","arrival_time":"22:32:00","departure_time":"22:32:00","lat":49.198956,"lon":16.579053,"is_passed":false},{"stop_id":"U1013Z1","name":"Barvičova","arrival_time":"22:33:00","departure_time":"22:42:00","lat":49.201189,"lon":16.575746,"is_passed":false}],"56239":[{"stop_id":"U1013Z2","name":"Barvičova","arrival_time":"22:42:00","departure_time":"22:42:00","lat":49.201047,"lon":16.575783,"is_passed":false},{"stop_id":"U1597Z2","name":"Soukopova","arrival_time":"22:42:00","departure_time":"22:42:00","lat":49.199132,"lon":16.578726,"is_passed":false},{"stop_id":"U1228Z2","name":"Kampelíkova","arrival_time":"22:43:00","departure_time":"22:43:00","lat":49.197384,"lon":16.581205,"is_passed":false},{"stop_id":"U1723Z2","name":"Vaňkovo náměstí","arrival_time":"22:45:00","departure_time":"22:45:00","lat":49.194962,"lon":16.586678,"is_passed":false},{"stop_id":"U1816Z2","name":"Žlutý kopec","arrival_time":"22:45:00","departure_time":"22:45:00","lat":49.195368,"lon":16.588271,"is_passed":false},{"stop_id":"U1682Z2","name":"Tvrdého","arrival_time":"22:46:00","departure_time":"22:46:00","lat":49.196917,"lon":16.592895,"is_passed":false},{"stop_id":"U1712Z4","name":"Úvoz","arrival_time":"22:47:00","departure_time":"22:47:00","lat":49.198264,"lon":16.59531,"is_passed":false},{"stop_id":"U1442Z2","name":"Obilní trh","arrival_time":"22:47:00","departure_time":"22:47:00","lat":49.198022,"lon":16.598215,"is_passed":false},{"stop_id":"U1257Z3","name":"Komenského náměstí","arrival_time":"22:49:00","departure_time":"22:55:00","lat":49.197026,"lon":16.602057,"is_passed":false}],"56240":[{"stop_id":"U1257Z2","name":"Komenského náměstí","arrival_time":"22:55:00","departure_time":"22:55:00","lat":49.197135,"lon":16.602612,"is_passed":false},{"stop_id":"U1442Z1","name":"Obilní trh","arrival_time":"22:56:00","departure_time":"22:56:00","lat":49.198221,"lon":16.597478,"is_passed":false},{"stop_id":"U1712Z3","name":"Úvoz","arrival_time":"22:57:00","departure_time":"22:57:00","lat":49.198432,"lon":16.594582,"is_passed":false},{"stop_id":"U1816Z1","name":"Žlutý kopec","arrival_time":"22:59:00","departure_time":"22:59:00","lat":49.19515,"lon":16.587289,"is_passed":false},{"stop_id":"U1723Z1","name":"Vaňkovo náměstí","arrival_time":"23:00:00","departure_time":"23:00:00","lat":49.195052,"lon":16.585013,"is_passed":false},{"stop_id":"U1228Z1","name":"Kampelíkova","arrival_time":"23:01:00","departure_time":"23:01:00","lat":49.197512,"lon":16.581178,"is_passed":false},{"stop_id":"U1597Z1","name":"Soukopova","arrival_time":"23:02:00","departure_time":"23:02:00","lat":49.198956,"lon":16.579053,"is_passed":false},{"stop_id":"U1013Z1","name":"Barvičova","arrival_time":"23:03:00","departure_time":"23:12:00","lat":49.201189,"lon":16.575746,"is_passed":false}],"56241":[{"stop_id":"U1013Z2","name":"Barvičova","arrival_time":"23:12:00","departure_time":"23:12:00","lat":49.201047,"lon":16.575783,"is_passed":false},{"stop_id":"U1597Z2","name":"Soukopova","arrival_time":"23:12:00","departure_time":"23:12:00","lat":49.199132,"lon":16.578726,"is_passed":false},{"stop_id":"U1228Z2","name":"Kampelíkova","arrival_time":"23:13:00","departure_time":"23:13:00","lat":49.197384,"lon":16.581205,"is_passed":false},{"stop_id":"U1723Z2","name":"Vaňkovo náměstí","arrival_time":"23:15:00","departure_time":"23:15:00","lat":49.194962,"lon":16.586678,"is_passed":false},{"stop_id":"U1816Z2","name":"Žlutý kopec","arrival_time":"23:15:00","departure_time":"23:15:00","lat":49.195368,"lon":16.588271,"is_passed":false},{"stop_id":"U1682Z2","name":"Tvrdého","arrival_time":"23:16:00","departure_time":"23:16:00","lat":49.196917,"lon":16.592895,"is_passed":false},{"stop_id":"U1378Z9","name":"Mendlovo náměstí","arrival_time":"23:19:00","departure_time":"23:19:00","lat":49.190456,"lon":16.593122,"is_passed":false},{"stop_id":"U1768Z3","name":"Výstaviště - hlavní vstup","arrival_time":"23:20:00","departure_time":"23:20:00","lat":49.18958,"lon":16.586471,"is_passed":false},{"stop_id":"U1343Z3","name":"ARENA BRNO","arrival_time":"23:21:00","departure_time":"23:21:00","lat":49.191696,"lon":16.576091,"is_passed":false},{"stop_id":"U1487Z5","name":"Pisárky","arrival_time":"23:22:00","departure_time":"23:22:00","lat":49.193517,"lon":16.571155,"is_passed":false},{"stop_id":"U1007Z1","name":"Anthropos","arrival_time":"23:24:00","departure_time":"23:24:00","lat":49.193461,"lon":16.565902,"is_passed":false},{"stop_id":"U1490Z1","name":"Pod Jurankou","arrival_time":"23:25:00","departure_time":"23:25:00","lat":49.199371,"lon":16.566405,"is_passed":false},{"stop_id":"U1732Z1","name":"Veslařská","arrival_time":"23:26:00","departure_time":"23:26:00","lat":49.202697,"lon":16.565265,"is_passed":false},{"stop_id":"U1216Z1","name":"Jundrov, hřiště","arrival_time":"23:27:00","departure_time":"23:27:00","lat":49.204651,"lon":16.560232,"is_passed":false},{"stop_id":"U1214Z1","name":"Jundrovský most","arrival_time":"23:28:00","departure_time":"23:28:00","lat":49.209437,"lon":16.556755,"is_passed":false},{"stop_id":"U1217Z4","name":"Vozovna Komín","arrival_time":"23:29:00","departure_time":"23:29:00","lat":49.213659,"lon":16.559498,"is_passed":false}],"56242":[{"stop_id":"U1217Z3","name":"Vozovna Komín","arrival_time":"8:18:00","departure_time":"8:18:00","lat":49.213556,"lon":16.559289,"is_passed":false},{"stop_id":"U1214Z2","name":"Jundrovský most","arrival_time":"8:19:00","departure_time":"8:19:00","lat":49.210699,"lon":16.558163,"is_passed":false},{"stop_id":"U1462Z4","name":"Optátova","arrival_time":"8:20:00","departure_time":"8:20:00","lat":49.208328,"lon":16.555591,"is_passed":false},{"stop_id":"U1216Z2","name":"Jundrov, hřiště","arrival_time":"8:21:00","departure_time":"8:21:00","lat":49.204674,"lon":16.56001,"is_passed":false},{"stop_id":"U1732Z2","name":"Veslařská","arrival_time":"8:21:00","departure_time":"8:21:00","lat":49.20282,"lon":16.564736,"is_passed":false},{"stop_id":"U1490Z2","name":"Pod Jurankou","arrival_time":"8:22:00","departure_time":"8:22:00","lat":49.198955,"lon":16.566182,"is_passed":false},{"stop_id":"U1007Z4","name":"Anthropos","arrival_time":"8:24:00","departure_time":"8:24:00","lat":49.193356,"lon":16.56677,"is_passed":false},{"stop_id":"U1487Z6","name":"Pisárky","arrival_time":"8:25:00","departure_time":"8:25:00","lat":49.193537,"lon":16.570797,"is_passed":false},{"stop_id":"U1343Z4","name":"ARENA BRNO","arrival_time":"8:26:00","departure_time":"8:26:00","lat":49.191574,"lon":16.576353,"is_passed":false},{"stop_id":"U1768Z4","name":"Výstaviště - hlavní vstup","arrival_time":"8:28:00","departure_time":"8:28:00","lat":49.1886,"lon":16.589153,"is_passed":false},{"stop_id":"U1378Z7","name":"Mendlovo náměstí","arrival_time":"8:30:00","departure_time":"8:30:00","lat":49.189919,"lon":16.593687,"is_passed":false},{"stop_id":"U1682Z1","name":"Tvrdého","arrival_time":"8:32:00","departure_time":"8:32:00","lat":49.196349,"lon":16.594363,"is_passed":false},{"stop_id":"U1816Z1","name":"Žlutý kopec","arrival_time":"8:34:00","departure_time":"8:34:00","lat":49.19515,"lon":16.587289,"is_passed":false},{"stop_id":"U1723Z3","name":"Vaňkovo náměstí","arrival_time":"8:35:00","departure_time":"8:35:00","lat":49.194723,"lon":16.585005,"is_passed":false},{"stop_id":"U1478Z1","name":"Pavlíkova","arrival_time":"8:35:00","departure_time":"8:35:00","lat":49.195012,"lon":16.581894,"is_passed":false},{"stop_id":"U1433Z1","name":"Neumannova","arrival_time":"8:36:00","departure_time":"8:36:00","lat":49.196721,"lon":16.577681,"is_passed":false},{"stop_id":"U1366Z1","name":"Marie Pujmanové","arrival_time":"8:37:00","departure_time":"8:37:00","lat":49.198265,"lon":16.573344,"is_passed":false},{"stop_id":"U1517Z1","name":"Preslova","arrival_time":"8:39:00","departure_time":"8:39:00","lat":49.199128,"lon":16.571114,"is_passed":false}],"56243":[{"stop_id":"U1517Z2","name":"Preslova","arrival_time":"8:51:00","departure_time":"8:51:00","lat":49.199468,"lon":16.570483,"is_passed":false},{"stop_id":"U1366Z2","name":"Marie Pujmanové","arrival_time":"8:51:00","departure_time":"8:51:00","lat":49.198128,"lon":16.573743,"is_passed":false},{"stop_id":"U1433Z2","name":"Neumannova","arrival_time":"8:52:00","departure_time":"8:52:00","lat":49.196459,"lon":16.578249,"is_passed":false},{"stop_id":"U1478Z2","name":"Pavlíkova","arrival_time":"8:53:00","departure_time":"8:53:00","lat":49.194734,"lon":16.582794,"is_passed":false},{"stop_id":"U1723Z2","name":"Vaňkovo náměstí","arrival_time":"8:54:00","departure_time":"8:54:00","lat":49.194962,"lon":16.586678,"is_passed":false},{"stop_id":"U1816Z2","name":"Žlutý kopec","arrival_time":"8:54:00","departure_time":"8:54:00","lat":49.195368,"lon":16.588271,"is_passed":false},{"stop_id":"U1682Z2","name":"Tvrdého","arrival_time":"8:55:00","departure_time":"8:55:00","lat":49.196917,"lon":16.592895,"is_passed":false},{"stop_id":"U1712Z4","name":"Úvoz","arrival_time":"8:56:00","departure_time":"8:56:00","lat":49.198264,"lon":16.59531,"is_passed":false},{"stop_id":"U1442Z2","name":"Obilní trh","arrival_time":"8:57:00","departure_time":"8:57:00","lat":49.198022,"lon":16.598215,"is_passed":false},{"stop_id":"U1257Z3","name":"Komenského náměstí","arrival_time":"8:59:00","departure_time":"8:59:00","lat":49.197026,"lon":16.602057,"is_passed":false}],"56244":[{"stop_id":"U1257Z2","name":"Komenského náměstí","arrival_time":"9:00:00","departure_time":"9:00:00","lat":49.197135,"lon":16.602612,"is_passed":false},{"stop_id":"U1442Z1","name":"Obilní trh","arrival_time":"9:01:00","departure_time":"9:01:00","lat":49.198221,"lon":16.597478,"is_passed":false},{"stop_id":"U1712Z3","name":"Úvoz","arrival_time":"9:02:00","departure_time":"9:02:00","lat":49.198432,"lon":16.594582,"is_passed":false},{"stop_id":"U1816Z1","name":"Žlutý kopec","arrival_time":"9:04:00","departure_time":"9:04:00","lat":49.19515,"lon":16.587289,"is_passed":false},{"stop_id":"U1723Z1","name":"Vaňkovo náměstí","arrival_time":"9:05:00","departure_time":"9:05:00","lat":49.195052,"lon":16.585013,"is_passed":false},{"stop_id":"U1228Z1","name":"Kampelíkova","arrival_time":"9:06:00","departure_time":"9:06:00","lat":49.197512,"lon":16.581178,"is_passed":false},{"stop_id":"U1597Z1","name":"Soukopova","arrival_time":"9:07:00","departure_time":"9:07:00","lat":49.198956,"lon":16.579053,"is_passed":false},{"stop_id":"U1013Z1","name":"Barvičova","arrival_time":"9:09:00","departure_time":"9:21:00","lat":49.201189,"lon":16.575746,"is_passed":false}],"56245":[{"stop_id":"U1013Z2","name":"Barvičova","arrival_time":"9:21:00","departure_time":"9:21:00","lat":49.201047,"lon":16.575783,"is_passed":false},{"stop_id":"U1597Z2","name":"Soukopova","arrival_time":"9:21:00","departure_time":"9:21:00","lat":49.199132,"lon":16.578726,"is_passed":false},{"stop_id":"U1228Z2","name":"Kampelíkova","arrival_time":"9:22:00","departure_time":"9:22:00","lat":49.197384,"lon":16.581205,"is_passed":false},{"stop_id":"U1723Z2","name":"Vaňkovo náměstí","arrival_time":"9:24:00","departure_time":"9:24:00","lat":49.194962,"lon":16.586678,"is_passed":false},{"stop_id":"U1816Z2","name":"Žlutý kopec","arrival_time":"9:24:00","departure_time":"9:24:00","lat":49.195368,"lon":16.588271,"is_passed":false},{"stop_id":"U1682Z2","name":"Tvrdého","arrival_time":"9:25:00","departure_time":"9:25:00","lat":49.196917,"lon":16.592895,"is_passed":false},{"stop_id":"U1712Z4","name":"Úvoz","arrival_time":"9:26:00","departure_time":"9:26:00","lat":49.198264,"lon":16.59531,"is_passed":false},{"stop_id":"U1442Z2","name":"Obilní trh","arrival_time":"9:27:00","departure_time":"9:27:00","lat":49.198022,"lon":16.598215,"is_passed":false},{"stop_id":"U1257Z3","name":"Komenského náměstí","arrival_time":"9:29:00","departure_time":"9:29:00","lat":49.197026,"lon":16.602057,"is_passed":false}],"56246":[{"stop_id":"U1257Z2","name":"Komenského náměstí","arrival_time":"9:30:00","departure_time":"9:30:00","lat":49.197135,"lon":16.602612,"is_passed":false},{"stop_id":"U1442Z1","name":"Obilní trh","arrival_time":"9:31:00","departure_time":"9:31:00","lat":49.198221,"lon":16.597478,"is_passed":false},{"stop_id":"U1712Z3","name":"Úvoz","arrival_time":"9:32:00","departure_time":"9:32:00","lat":49.198432,"lon":16.594582,"is_passed":false},{"stop_id":"U1816Z1","name":"Žlutý kopec","arrival_time":"9:34:00","departure_time":"9:34:00","lat":49.19515,"lon":16.587289,"is_passed":false},{"stop_id":"U1723Z3","name":"Vaňkovo náměstí","arrival_time":"9:35:00","departure_time":"9:35:00","lat":49.194723,"lon":16.585005,"is_passed":false},{"stop_id":"U1478Z1","name":"Pavlíkova","arrival_time":"9:35:00","departure_time":"9:35:00","lat":49.195012,"lon":16.581894,"is_passed":false},{"stop_id":"U1433Z1","name":"Neumannova","arrival_time":"9:36:00","departure_time":"9:36:00","lat":49.196721,"lon":16.577681,"is_passed":false},{"stop_id":"U1366Z1","name":"Marie Pujmanové","arrival_time":"9:37:00","departure_time":"9:37:00","lat":49.198265,"lon":16.573344,"is_passed":false},{"stop_id":"U1517Z1","name":"Preslova","arrival_time":"9:39:00","departure_time":"9:51:00","lat":49.199128,"lon":16.571114,"is_passed":false}],"56247":[{"stop_id":"U1517Z2","name":"Preslova","arrival_time":"9:51:00","departure_time":"9:51:00","lat":49.199468,"lon":16.570483,"is_passed":false},{"stop_id":"U1366Z2","name":"Marie Pujmanové","arrival_time":"9:51:00","departure_time":"9:51:00","lat":49.198128,"lon":16.573743,"is_passed":false},{"stop_id":"U1433Z2","name":"Neumannova","arrival_time":"9:52:00","departure_time":"9:52:00","lat":49.196459,"lon":16.578249,"is_passed":false},{"stop_id":"U1478Z2","name":"Pavlíkova","arrival_time":"9:53:00","departure_time":"9:53:00","lat":49.194734,"lon":16.582794,"is_passed":false},{"stop_id":"U1723Z2","name":"Vaňkovo náměstí","arrival_time":"9:54:00","departure_time":"9:54:00","lat":49.194962,"lon":16.586678,"is_passed":false},{"stop_id":"U1816Z2","name":"Žlutý kopec","arrival_time":"9:54:00","departure_time":"9:54:00","lat":49.195368,"lon":16.588271,"is_passed":false},{"stop_id":"U1682Z2","name":"Tvrdého","arrival_time":"9:55:00","departure_time":"9:55:00","lat":49.196917,"lon":16.592895,"is_passed":false},{"stop_id":"U1712Z4","name":"Úvoz","arrival_time":"9:56:00","departure_time":"9:56:00","lat":49.198264,"lon":16.59531,"is_passed":false},{"stop_id":"U1442Z2","name":"Obilní trh","arrival_time":"9:57:00","departure_time":"9:57:00","lat":49.198022,"lon":16.598215,"is_passed":false},{"stop_id":"U1257Z3","name":"Komenského náměstí","arrival_time":"9:59:00","departure_time":"9:59:00","lat":49.197026,"lon":16.602057,"is_passed":false}],"56248":[{"stop_id":"U1257Z2","name":"Komenského náměstí","arrival_time":"10:00:00","departure_time":"10:00:00","lat":49.197135,"lon":16.602612,"is_passed":false},{"stop_id":"U1442Z1","name":"Obilní trh","arrival_time":"10:01:00","departure_time":"10:01:00","lat":49.198221,"lon":16.597478,"is_passed":false},{"stop_id":"U1712Z3","name":"Úvoz","arrival_time":"10:02:00","departure_time":"10:02:00","lat":49.198432,"lon":16.594582,"is_passed":false},{"stop_id":"U1816Z1","name":"Žlutý kopec","arrival_time":"10:04:00","departure_time":"10:04:00","lat":49.19515,"lon":16.587289,"is_passed":false},{"stop_id":"U1723Z1","name":"Vaňkovo náměstí","arrival_time":"10:05:00","departure_time":"10:05:00","lat":49.195052,"lon":16.585013,"is_passed":false},{"stop_id":"U1228Z1","name":"Kampelíkova","arrival_time":"10:06:00","departure_time":"10:06:00","lat":49.197512,"lon":16.581178,"is_passed":false},{"stop_id":"U1597Z1","name":"Soukopova","arrival_time":"10:07:00","departure_time":"10:07:00","lat":49.198956,"lon":16.579053,"is_passed":false},{"stop_id":"U1013Z1","name":"Barvičova","arrival_time":"10:09:00","departure_time":"10:21:00","lat":49.201189,"lon":16.575746,"is_passed":false}],"56249":[{"stop_id":"U1013Z2","name":"Barvičova","arrival_time":"10:21:00","departure_time":"10:21:00","lat":49.201047,"lon":16.575783,"is_passed":false},{"stop_id":"U1597Z2","name":"Soukopova","arrival_time":"10:21:00","departure_time":"10:21:00","lat":49.199132,"lon":16.578726,"is_passed":false},{"stop_id":"U1228Z2","name":"Kampelíkova","arrival_time":"10:22:00","departure_time":"10:22:00","lat":49.197384,"lon":16.581205,"is_passed":false},{"stop_id":"U1723Z2","name":"Vaňkovo náměstí","arrival_time":"10:24:00","departure_time":"10:24:00","lat":49.194962,"lon":16.586678,"is_passed":false},{"stop_id":"U1816Z2","name":"Žlutý kopec","arrival_time":"10:24:00","departure_time":"10:24:00","lat":49.195368,"lon":16.588271,"is_passed":false},{"stop_id":"U1682Z2","name":"Tvrdého","arrival_time":"10:25:00","departure_time":"10:25:00","lat":49.196917,"lon":16.592895,"is_passed":false},{"stop_id":"U1712Z4","name":"Úvoz","arrival_time":"10:26:00","departure_time":"10:26:00","lat":49.198264,"lon":16.59531,"is_passed":false},{"stop_id":"U1442Z2","name":"Obilní trh","arrival_time":"10:27:00","departure_time":"10:27:00","lat":49.198022,"lon":16.598215,"is_passed":false},{"stop_id":"U1257Z3","name":"Komenského náměstí","arrival_time":"10:29:00","departure_time":"10:29:00","lat":49.197026,"lon":16.602057,"is_passed":false}],"56250":[{"stop_id":"U1257Z2","name":"Komenského náměstí","arrival_time":"10:30:00","departure_time":"10:30:00","lat":49.197135,"lon":16.602612,"is_passed":false},{"stop_id":"U1442Z1","name":"Obilní trh","arrival_time":"10:31:00","departure_time":"10:31:00","lat":49.198221,"lon":16.597478,"is_passed":false},{"stop_id":"U1712Z3","name":"Úvoz","arrival_time":"10:32:00","departure_time":"10:32:00","lat":49.198432,"lon":16.594582,"is_passed":false},{"stop_id":"U1816Z1","name":"Žlutý kopec","arrival_time":"10:34:00","departure_time":"10:34:00","lat":49.19515,"lon":16.587289,"is_passed":false},{"stop_id":"U1723Z3","name":"Vaňkovo náměstí","arrival_time":"10:35:00","departure_time":"10:35:00","lat":49.194723,"lon":16.585005,"is_passed":false},{"stop_id":"U1478Z1","name":"Pavlíkova","arrival_time":"10:35:00","departure_time":"10:35:00","lat":49.195012,"lon":16.581894,"is_passed":false},{"stop_id":"U1433Z1","name":"Neumannova","arrival_time":"10:36:00","departure_time":"10:36:00","lat":49.196721,"lon":16.577681,"is_passed":false},{"stop_id":"U1366Z1","name":"Marie Pujmanové","arrival_time":"10:37:00","departure_time":"10:37:00","lat":49.198265,"lon":16.573344,"is_passed":false},{"stop_id":"U1517Z1","name":"Preslova","arrival_time":"10:39:00","departure_time":"11:11:00","lat":49.199128,"lon":16.571114,"is_passed":false}],"56251":[{"stop_id":"U1517Z2","name":"Preslova","arrival_time":"11:11:00","departure_time":"11:11:00","lat":49.199468,"lon":16.570483,"is_passed":false},{"stop_id":"U1366Z2","name":"Marie Pujmanové","arrival_time":"11:11:00","departure_time":"11:11:00","lat":49.198128,"lon":16.573743,"is_passed":false},{"stop_id":"U1433Z2","name":"Neumannova","arrival_time":"11:12:00","departure_time":"11:12:00","lat":49.196459,"lon":16.578249,"is_passed":false},{"stop_id":"U1478Z2","name":"Pavlíkova","arrival_time":"11:13:00","departure_time":"11:13:00","lat":49.194734,"lon":16.582794,"is_passed":false},{"stop_id":"U1723Z2","name":"Vaňkovo náměstí","arrival_time":"11:14:00","departure_time":"11:14:00","lat":49.194962,"lon":16.586678,"is_passed":false},{"stop_id":"U1816Z2","name":"Žlutý kopec","arrival_time":"11:14:00","departure_time":"11:14:00","lat":49.195368,"lon":16.588271,"is_passed":false},{"stop_id":"U1682Z2","name":"Tvrdého","arrival_time":"11:15:00","departure_time":"11:15:00","lat":49.196917,"lon":16.592895,"is_passed":false},{"stop_id":"U1712Z4","name":"Úvoz","arrival_time":"11:16:00","departure_time":"11:16:00","lat":49.198264,"lon":16.59531,"is_passed":false},{"stop_id":"U1442Z2","name":"Obilní trh","arrival_time":"11:17:00","departure_time":"11:17:00","lat":49.198022,"lon":16.598215,"is_passed":false},{"stop_id":"U1257Z3","name":"Komenského náměstí","arrival_time":"11:19:00","departure_time":"11:19:00","lat":49.197026,"lon":16.602057,"is_passed":false}],"56252":[{"stop_id":"U1257Z2","name":"Komenského náměstí","arrival_time":"11:20:00","departure_time":"11:20:00","lat":49.197135,"lon":16.602612,"is_passed":false},{"stop_id":"U1442Z1","name":"Obilní trh","arrival_time":"11:21:00","departure_time":"11:21:00","lat":49.198221,"lon":16.597478,"is_passed":false},{"stop_id":"U1712Z3","name":"Úvoz","arrival_time":"11:22:00","departure_time":"11:22:00","lat":49.198432,"lon":16.594582,"is_passed":false},{"stop_id":"U1816Z1","name":"Žlutý kopec","arrival_time":"11:24:00","departure_time":"11:24:00","lat":49.19515,"lon":16.587289,"is_passed":false},{"stop_id":"U1723Z1","name":"Vaňkovo náměstí","arrival_time":"11:25:00","departure_time":"11:25:00","lat":49.195052,"lon":16.585013,"is_passed":false},{"stop_id":"U1228Z1","name":"Kampelíkova","arrival_time":"11:26:00","departure_time":"11:26:00","lat":49.197512,"lon":16.581178,"is_passed":false},{"stop_id":"U1597Z1","name":"Soukopova","arrival_time":"11:27:00","departure_time":"11:27:00","lat":49.198956,"lon":16.579053,"is_passed":false},{"stop_id":"U1013Z1","name":"Barvičova","arrival_time":"11:29:00","departure_time":"11:41:00","lat":49.201189,"lon":16.575746,"is_passed":false}],"56253":[{"stop_id":"U1013Z2","name":"Barvičova","arrival_time":"11:41:00","departure_time":"11:41:00","lat":49.201047,"lon":16.575783,"is_passed":false},{"stop_id":"U1597Z2","name":"Soukopova","arrival_time":"11:41:00","departure_time":"11:41:00","lat":49.199132,"lon":16.578726,"is_passed":false},{"stop_id":"U1228Z2","name":"Kampelíkova","arrival_time":"11:42:00","departure_time":"11:42:00","lat":49.197384,"lon":16.581205,"is_passed":false},{"stop_id":"U1723Z2","name":"Vaňkovo náměstí","arrival_time":"11:44:00","departure_time":"11:44:00","lat":49.194962,"lon":16.586678,"is_passed":false},{"stop_id":"U1816Z2","name":"Žlutý kopec","arrival_time":"11:44:00","departure_time":"11:44:00","lat":49.195368,"lon":16.588271,"is_passed":false},{"stop_id":"U1682Z2","name":"Tvrdého","arrival_time":"11:45:00","departure_time":"11:45:00","lat":49.196917,"lon":16.592895,"is_passed":false},{"stop_id":"U1712Z4","name":"Úvoz","arrival_time":"11:46:00","departure_time":"11:46:00","lat":49.198264,"lon":16.59531,"is_passed":false},{"stop_id":"U1442Z2","name":"Obilní trh","arrival_time":"11:47:00","departure_time":"11:47:00","lat":49.198022,"lon":16.598215,"is_passed":false},{"stop_id":"U1257Z3","name":"Komenského náměstí","arrival_time":"11:49:00","departure_time":"11:49:00","lat":49.197026,"lon":16.602057,"is_passed":false}],"56254":[{"stop_id":"U1257Z2","name":"Komenského náměstí","arrival_time":"11:50:00","departure_time":"11:50:00","lat":49.197135,"lon":16.602612,"is_passed":false},{"stop_id":"U1442Z1","name":"Obilní trh","arrival_time":"11:51:00","departure_time":"11:51:00","lat":49.198221,"lon":16.597478,"is_passed":false},{"stop_id":"U1712Z3","name":"Úvoz","arrival_time":"11:52:00","departure_time":"11:52:00","lat":49.198432,"lon":16.594582,"is_passed":false},{"stop_id":"U1816Z1","name":"Žlutý kopec","arrival_time":"11:54:00","departure_time":"11:54:00","lat":49.19515,"lon":16.587289,"is_passed":false},{"stop_id":"U1723Z3","name":"Vaňkovo náměstí","arrival_time":"11:55:00","departure_time":"11:55:00","lat":49.194723,"lon":16.585005,"is_passed":false},{"stop_id":"U1478Z1","name":"Pavlíkova","arrival_time":"11:55:00","departure_time":"11:55:00","lat":49.195012,"lon":16.581894,"is_passed":false},{"stop_id":"U1433Z1","name":"Neumannova","arrival_time":"11:56:00","departure_time":"11:56:00","lat":49.196721,"lon":16.577681,"is_passed":false},{"stop_id":"U1366Z1","name":"Marie Pujmanové","arrival_time":"11:57:00","departure_time":"11:57:00","lat":49.198265,"lon":16.573344,"is_passed":false},{"stop_id":"U1517Z1","name":"Preslova","arrival_time":"11:59:00","departure_time":"12:11:00","lat":49.199128,"lon":16.571114,"is_passed":false}],"56255":[{"stop_id":"U1517Z2","name":"Preslova","arrival_time":"12:11:00","departure_time":"12:11:00","lat":49.199468,"lon":16.570483,"is_passed":false},{"stop_id":"U1366Z2","name":"Marie Pujmanové","arrival_time":"12:11:00","departure_time":"12:11:00","lat":49.198128,"lon":16.573743,"is_passed":false},{"stop_id":"U1433Z2","name":"Neumannova","arrival_time":"12:12:00","departure_time":"12:12:00","lat":49.196459,"lon":16.578249,"is_passed":false},{"stop_id":"U1478Z2","name":"Pavlíkova","arrival_time":"12:13:00","departure_time":"12:13:00","lat":49.194734,"lon":16.582794,"is_passed":false},{"stop_id":"U1723Z2","name":"Vaňkovo náměstí","arrival_time":"12:14:00","departure_time":"12:14:00","lat":49.194962,"lon":16.586678,"is_passed":false},{"stop_id":"U1816Z2","name":"Žlutý kopec","arrival_time":"12:14:00","departure_time":"12:14:00","lat":49.195368,"lon":16.588271,"is_passed":false},{"stop_id":"U1682Z2","name":"Tvrdého","arrival_time":"12:15:00","departure_time":"12:15:00","lat":49.196917,"lon":16.592895,"is_passed":false},{"stop_id":"U1712Z4","name":"Úvoz","arrival_time":"12:16:00","departure_time":"12:16:00","lat":49.198264,"lon":16.59531,"is_passed":false},{"stop_id":"U1442Z2","name":"Obilní trh","arrival_time":"12:17:00","departure_time":"12:17:00","lat":49.198022,"lon":16.598215,"is_passed":false},{"stop_id":"U1257Z3","name":"Komenského náměstí","arrival_time":"12:19:00","departure_time":"12:19:00","lat":49.197026,"lon":16.602057,"is_passed":false}],"56256":[{"stop_id":"U1257Z2","name":"Komenského náměstí","arrival_time":"12:20:00","departure_time":"12:20:00","lat":49.197135,"lon":16.602612,"is_passed":false},{"stop_id":"U1442Z1","name":"Obilní trh","arrival_time":"12:21:00","departure_time":"12:21:00","lat":49.198221,"lon":16.597478,"is_passed":false},{"stop_id":"U1712Z3","name":"Úvoz","arrival_time":"12:22:00","departure_time":"12:22:00","lat":49.198432,"lon":16.594582,"is_passed":false},{"stop_id":"U1816Z1","name":"Žlutý kopec","arrival_time":"12:24:00","departure_time":"12:24:00","lat":49.19515,"lon":16.587289,"is_passed":false},{"stop_id":"U1723Z1","name":"Vaňkovo náměstí","arrival_time":"12:25:00","departure_time":"12:25:00","lat":49.195052,"lon":16.585013,"is_passed":false},{"stop_id":"U1228Z1","name":"Kampelíkova","arrival_time":"12:26:00","departure_time":"12:26:00","lat":49.197512,"lon":16.581178,"is_passed":false},{"stop_id":"U1597Z1","name":"Soukopova","arrival_time":"12:27:00","departure_time":"12:27:00","lat":49.198956,"lon":16.579053,"is_passed":false},{"stop_id":"U1013Z1","name":"Barvičova","arrival_time":"12:29:00","departure_time":"12:41:00","lat":49.201189,"lon":16.575746,"is_passed":false}],"56257":[{"stop_id":"U1013Z2","name":"Barvičova","arrival_time":"12:41:00","departure_time":"12:41:00","lat":49.201047,"lon":16.575783,"is_passed":false},{"stop_id":"U1597Z2","name":"Soukopova","arrival_time":"12:41:00","departure_time":"12:41:00","lat":49.199132,"lon":16.578726,"is_passed":false},{"stop_id":"U1228Z2","name":"Kampelíkova","arrival_time":"12:42:00","departure_time":"12:42:00","lat":49.197384,"lon":16.581205,"is_passed":false},{"stop_id":"U1723Z2","name":"Vaňkovo náměstí","arrival_time":"12:44:00","departure_time":"12:44:00","lat":49.194962,"lon":16.586678,"is_passed":false},{"stop_id":"U1816Z2","name":"Žlutý kopec","arrival_time":"12:44:00","departure_time":"12:44:00","lat":49.195368,"lon":16.588271,"is_passed":false},{"stop_id":"U1682Z2","name":"Tvrdého","arrival_time":"12:45:00","departure_time":"12:45:00","lat":49.196917,"lon":16.592895,"is_passed":false},{"stop_id":"U1712Z4","name":"Úvoz","arrival_time":"12:46:00","departure_time":"12:46:00","lat":49.198264,"lon":16.59531,"is_passed":false},{"stop_id":"U1442Z2","name":"Obilní trh","arrival_time":"12:47:00","departure_time":"12:47:00","lat":49.198022,"lon":16.598215,"is_passed":false},{"stop_id":"U1257Z3","name":"Komenského náměstí","arrival_time":"12:49:00","departure_time":"12:49:00","lat":49.197026,"lon":16.602057,"is_passed":false}],"56258":[{"stop_id":"U1257Z2","name":"Komenského náměstí","arrival_time":"12:50:00","departure_time":"12:50:00","lat":49.197135,"lon":16.602612,"is_passed":false},{"stop_id":"U1442Z1","name":"Obilní trh","arrival_time":"12:51:00","departure_time":"12:51:00","lat":49.198221,"lon":16.597478,"is_passed":false},{"stop_id":"U1712Z3","name":"Úvoz","arrival_time":"12:52:00","departure_time":"12:52:00","lat":49.198432,"lon":16.594582,"is_passed":false},{"stop_id":"U1816Z1","name":"Žlutý kopec","arrival_time":"12:54:00","departure_time":"12:54:00","lat":49.19515,"lon":16.587289,"is_passed":false},{"stop_id":"U1723Z3","name":"Vaňkovo náměstí","arrival_time":"12:55:00","departure_time":"12:55:00","lat":49.194723,"lon":16.585005,"is_passed":false},{"stop_id":"U1478Z1","name":"Pavlíkova","arrival_time":"12:55:00","departure_time":"12:55:00","lat":49.195012,"lon":16.581894,"is_passed":false},{"stop_id":"U1433Z1","name":"Neumannova","arrival_time":"12:56:00","departure_time":"12:56:00","lat":49.196721,"lon":16.577681,"is_passed":false},{"stop_id":"U1366Z1","name":"Marie Pujmanové","arrival_time":"12:57:00","departure_time":"12:57:00","lat":49.198265,"lon":16.573344,"is_passed":false},{"stop_id":"U1517Z1","name":"Preslova","arrival_time":"12:59:00","departure_time":"13:11:00","lat":49.199128,"lon":16.571114,"is_passed":false}],"56259":[{"stop_id":"U1517Z2","name":"Preslova","arrival_time":"13:11:00","departure_time":"13:11:00","lat":49.199468,"lon":16.570483,"is_passed":false},{"stop_id":"U1366Z2","name":"Marie Pujmanové","arrival_time":"13:11:00","departure_time":"13:11:00","lat":49.198128,"lon":16.573743,"is_passed":false},{"stop_id":"U1433Z2","name":"Neumannova","arrival_time":"13:12:00","departure_time":"13:12:00","lat":49.196459,"lon":16.578249,"is_passed":false},{"stop_id":"U1478Z2","name":"Pavlíkova","arrival_time":"13:13:00","departure_time":"13:13:00","lat":49.194734,"lon":16.582794,"is_passed":false},{"stop_id":"U1723Z2","name":"Vaňkovo náměstí","arrival_time":"13:14:00","departure_time":"13:14:00","lat":49.194962,"lon":16.586678,"is_passed":false},{"stop_id":"U1816Z2","name":"Žlutý kopec","arrival_time":"13:14:00","departure_time":"13:14:00","lat":49.195368,"lon":16.588271,"is_passed":false},{"stop_id":"U1682Z2","name":"Tvrdého","arrival_time":"13:15:00","departure_time":"13:15:00","lat":49.196917,"lon":16.592895,"is_passed":false},