{"563":[{"stop_id":"U12676Z51","name":"Skalice nad Svitavou, žel.st.","arrival_time":"14:35:00","departure_time":"14:35:00","lat":49.480123,"lon":16.609726,"is_passed":false},{"stop_id":"U12511Z51","name":"Doubravice, žel.st.","arrival_time":"14:40:00","departure_time":"14:40:00","lat":49.438707,"lon":16.621809,"is_passed":false},{"stop_id":"U12439Z51","name":"Rájec-Jestřebí, železniční stanice","arrival_time":"14:43:00","departure_time":"14:44:00","lat":49.408206,"lon":16.627711,"is_passed":false},{"stop_id":"U22301Z2","name":"Dolní Lhota","arrival_time":"14:46:00","departure_time":"14:47:00","lat":49.386917,"lon":16.633978,"is_passed":false},{"stop_id":"U22302Z2","name":"Blansko město","arrival_time":"14:49:00","departure_time":"14:50:00","lat":49.360996,"lon":16.639464,"is_passed":false},{"stop_id":"U12342Z29","name":"Blansko, aut. st.","arrival_time":"14:52:00","departure_time":"15:01:00","lat":49.352753,"lon":16.646848,"is_passed":false},{"stop_id":"U12231Z11","name":"Adamov, železniční zastávka","arrival_time":"15:07:00","departure_time":"15:07:00","lat":49.300671,"lon":16.650653,"is_passed":false},{"stop_id":"U12230Z11","name":"Adamov, železniční stanice","arrival_time":"15:09:00","departure_time":"15:10:00","lat":49.295341,"lon":16.663538,"is_passed":false},{"stop_id":"U22101Z2","name":"Babice nad Svitavou","arrival_time":"15:12:00","departure_time":"15:12:00","lat":49.276645,"lon":16.673012,"is_passed":false},{"stop_id":"U12158Z11","name":"Bílovice nad Svitavou, žel. stanice","arrival_time":"15:17:00","departure_time":"15:18:00","lat":49.242715,"lon":16.673677,"is_passed":false},{"stop_id":"U1809Z11","name":"Židenice, nádraží","arrival_time":"15:23:00","departure_time":"15:23:00","lat":49.204282,"lon":16.636042,"is_passed":false},{"stop_id":"U1146Z98","name":"Hlavní nádraží","arrival_time":"15:29:00","departure_time":"15:35:00","lat":49.19035,"lon":16.612342,"is_passed":false},{"stop_id":"U1183Z11","name":"Chrlice, nádraží","arrival_time":"15:43:00","departure_time":"15:47:00","lat":49.132031,"lon":16.657232,"is_passed":false},{"stop_id":"U16149Z11","name":"Sokolnice, železniční stanice","arrival_time":"15:53:00","departure_time":"16:40:00","lat":49.108029,"lon":16.733459,"is_passed":false}],"5630":[{"stop_id":"U1187Z1","name":"Chrlické náměstí","arrival_time":"17:51:00","departure_time":"17:51:00","lat":49.135283,"lon":16.653902,"is_passed":false},{"stop_id":"U1183Z1","name":"Chrlice, nádraží","arrival_time":"17:52:00","departure_time":"17:52:00","lat":49.131712,"lon":16.656596,"is_passed":false},{"stop_id":"U1182Z4","name":"Chrlice, smyčka","arrival_time":"17:53:00","departure_time":"17:53:00","lat":49.126443,"lon":16.654784,"is_passed":false},{"stop_id":"U15146Z1","name":"Rebešovice, Horky","arrival_time":"17:56:00","departure_time":"17:56:00","lat":49.108356,"lon":16.64093,"is_passed":false},{"stop_id":"U15145Z1","name":"Rebešovice","arrival_time":"17:57:00","departure_time":"17:57:00","lat":49.10491,"lon":16.637941,"is_passed":false},{"stop_id":"U15144Z1","name":"Rajhradice, váha","arrival_time":"18:00:00","departure_time":"18:00:00","lat":49.093623,"lon":16.63553,"is_passed":false},{"stop_id":"U15176Z1","name":"Rajhradice, obalovna","arrival_time":"18:02:00","departure_time":"18:02:00","lat":49.0964,"lon":16.651802,"is_passed":false},{"stop_id":"U15175Z1","name":"Otmarov","arrival_time":"18:04:00","departure_time":"18:04:00","lat":49.100468,"lon":16.672571,"is_passed":false},{"stop_id":"U15133Z1","name":"Otmarov, chaloupka","arrival_time":"18:05:00","departure_time":"18:05:00","lat":49.09991,"lon":16.681232,"is_passed":false},{"stop_id":"U15154Z1","name":"Měnín, ZD","arrival_time":"18:07:00","departure_time":"18:07:00","lat":49.091455,"lon":16.689825,"is_passed":false},{"stop_id":"U15128Z1","name":"Měnín, u mlýna","arrival_time":"18:08:00","departure_time":"18:08:00","lat":49.084102,"lon":16.694181,"is_passed":false},{"stop_id":"U15165Z1","name":"Měnín, obchodní středisko","arrival_time":"18:10:00","departure_time":"18:22:00","lat":49.079732,"lon":16.693543,"is_passed":false}],"5631":[{"stop_id":"U15165Z2","name":"Měnín, obchodní středisko","arrival_time":"18:22:00","departure_time":"18:22:00","lat":49.079732,"lon":16.693543,"is_passed":false},{"stop_id":"U15128Z2","name":"Měnín, u mlýna","arrival_time":"18:23:00","departure_time":"18:23:00","lat":49.085172,"lon":16.694708,"is_passed":false},{"stop_id":"U15154Z2","name":"Měnín, ZD","arrival_time":"18:24:00","departure_time":"18:24:00","lat":49.091685,"lon":16.689643,"is_passed":false},{"stop_id":"U15133Z2","name":"Otmarov, chaloupka","arrival_time":"18:26:00","departure_time":"18:26:00","lat":49.101007,"lon":16.679762,"is_passed":false},{"stop_id":"U15175Z2","name":"Otmarov","arrival_time":"18:28:00","departure_time":"18:28:00","lat":49.100336,"lon":16.671844,"is_passed":false},{"stop_id":"U15176Z2","name":"Rajhradice, obalovna","arrival_time":"18:30:00","departure_time":"18:30:00","lat":49.096394,"lon":16.651454,"is_passed":false},{"stop_id":"U15144Z2","name":"Rajhradice, váha","arrival_time":"18:32:00","departure_time":"18:32:00","lat":49.09362,"lon":16.635452,"is_passed":false},{"stop_id":"U15145Z2","name":"Rebešovice","arrival_time":"18:34:00","departure_time":"18:34:00","lat":49.105028,"lon":16.638127,"is_passed":false},{"stop_id":"U15146Z2","name":"Rebešovice, Horky","arrival_time":"18:35:00","departure_time":"18:35:00","lat":49.108966,"lon":16.641733,"is_passed":false},{"stop_id":"U1182Z3","name":"Chrlice, smyčka","arrival_time":"18:38:00","departure_time":"18:38:00","lat":49.126855,"lon":16.655081,"is_passed":false},{"stop_id":"U1183Z2","name":"Chrlice, nádraží","arrival_time":"18:39:00","departure_time":"18:39:00","lat":49.132136,"lon":16.656638,"is_passed":false},{"stop_id":"U1187Z2","name":"Chrlické náměstí","arrival_time":"18:40:00","departure_time":"18:51:00","lat":49.13548,"lon":16.653876,"is_passed":false}],"5632":[{"stop_id":"U1187Z1","name":"Chrlické náměstí","arrival_time":"18:51:00","departure_time":"18:51:00","lat":49.135283,"lon":16.653902,"is_passed":false},{"stop_id":"U1183Z1","name":"Chrlice, nádraží","arrival_time":"18:52:00","departure_time":"18:52:00","lat":49.131712,"lon":16.656596,"is_passed":false},{"stop_id":"U1182Z4","name":"Chrlice, smyčka","arrival_time":"18:53:00","departure_time":"18:53:00","lat":49.126443,"lon":16.654784,"is_passed":false},{"stop_id":"U15146Z1","name":"Rebešovice, Horky","arrival_time":"18:56:00","departure_time":"18:56:00","lat":49.108356,"lon":16.64093,"is_passed":false},{"stop_id":"U15145Z1","name":"Rebešovice","arrival_time":"18:57:00","departure_time":"18:57:00","lat":49.10491,"lon":16.637941,"is_passed":false},{"stop_id":"U15144Z1","name":"Rajhradice, váha","arrival_time":"19:00:00","departure_time":"19:00:00","lat":49.093623,"lon":16.63553,"is_passed":false},{"stop_id":"U15176Z1","name":"Rajhradice, obalovna","arrival_time":"19:02:00","departure_time":"19:02:00","lat":49.0964,"lon":16.651802,"is_passed":false},{"stop_id":"U15175Z1","name":"Otmarov","arrival_time":"19:04:00","departure_time":"19:04:00","lat":49.100468,"lon":16.672571,"is_passed":false},{"stop_id":"U15133Z1","name":"Otmarov, chaloupka","arrival_time":"19:05:00","departure_time":"19:05:00","lat":49.09991,"lon":16.681232,"is_passed":false},{"stop_id":"U15154Z1","name":"Měnín, ZD","arrival_time":"19:07:00","departure_time":"19:07:00","lat":49.091455,"lon":16.689825,"is_passed":false},{"stop_id":"U15128Z1","name":"Měnín, u mlýna","arrival_time":"19:08:00","departure_time":"19:08:00","lat":49.084102,"lon":16.694181,"is_passed":false},{"stop_id":"U15165Z1","name":"Měnín, obchodní středisko","arrival_time":"19:10:00","departure_time":"19:10:00","lat":49.079732,"lon":16.693543,"is_passed":false}],"5633":[{"stop_id":"U15165Z2","name":"Měnín, obchodní středisko","arrival_time":"13:52:00","departure_time":"13:52:00","lat":49.079732,"lon":16.693543,"is_passed":false},{"stop_id":"U15128Z2","name":"Měnín, u mlýna","arrival_time":"13:53:00","departure_time":"13:53:00","lat":49.085172,"lon":16.694708,"is_passed":false},{"stop_id":"U15154Z2","name":"Měnín, ZD","arrival_time":"13:54:00","departure_time":"13:54:00","lat":49.091685,"lon":16.689643,"is_passed":false},{"stop_id":"U15133Z2","name":"Otmarov, chaloupka","arrival_time":"13:56:00","departure_time":"13:56:00","lat":49.101007,"lon":16.679762,"is_passed":false},{"stop_id":"U15175Z2","name":"Otmarov","arrival_time":"13:58:00","departure_time":"13:58:00","lat":49.100336,"lon":16.671844,"is_passed":false},{"stop_id":"U15176Z2","name":"Rajhradice, obalovna","arrival_time":"14:00:00","departure_time":"14:00:00","lat":49.096394,"lon":16.651454,"is_passed":false},{"stop_id":"U15144Z2","name":"Rajhradice, váha","arrival_time":"14:02:00","departure_time":"14:02:00","lat":49.09362,"lon":16.635452,"is_passed":false},{"stop_id":"U15145Z2","name":"Rebešovice","arrival_time":"14:04:00","departure_time":"14:04:00","lat":49.105028,"lon":16.638127,"is_passed":false},{"stop_id":"U15146Z2","name":"Rebešovice, Horky","arrival_time":"14:05:00","departure_time":"14:05:00","lat":49.108966,"lon":16.641733,"is_passed":false},{"stop_id":"U1182Z3","name":"Chrlice, smyčka","arrival_time":"14:08:00","departure_time":"14:08:00","lat":49.126855,"lon":16.655081,"is_passed":false},{"stop_id":"U1183Z2","name":"Chrlice, nádraží","arrival_time":"14:09:00","departure_time":"14:09:00","lat":49.132136,"lon":16.656638,"is_passed":false},{"stop_id":"U1187Z2","name":"Chrlické náměstí","arrival_time":"14:10:00","departure_time":"14:21:00","lat":49.13548,"lon":16.653876,"is_passed":false}],"5634":[{"stop_id":"U1187Z1","name":"Chrlické náměstí","arrival_time":"14:21:00","departure_time":"14:21:00","lat":49.135283,"lon":16.653902,"is_passed":false},{"stop_id":"U1183Z1","name":"Chrlice, nádraží","arrival_time":"14:22:00","departure_time":"14:22:00","lat":49.131712,"lon":16.656596,"is_passed":false},{"stop_id":"U1182Z4","name":"Chrlice, smyčka","arrival_time":"14:23:00","departure_time":"14:23:00","lat":49.126443,"lon":16.654784,"is_passed":false},{"stop_id":"U15146Z1","name":"Rebešovice, Horky","arrival_time":"14:26:00","departure_time":"14:26:00","lat":49.108356,"lon":16.64093,"is_passed":false},{"stop_id":"U15145Z1","name":"Rebešovice","arrival_time":"14:27:00","departure_time":"14:27:00","lat":49.10491,"lon":16.637941,"is_passed":false},{"stop_id":"U15144Z1","name":"Rajhradice, váha","arrival_time":"14:30:00","departure_time":"14:30:00","lat":49.093623,"lon":16.63553,"is_passed":false},{"stop_id":"U15176Z1","name":"Rajhradice, obalovna","arrival_time":"14:32:00","departure_time":"14:32:00","lat":49.0964,"lon":16.651802,"is_passed":false},{"stop_id":"U15175Z1","name":"Otmarov","arrival_time":"14:34:00","departure_time":"14:34:00","lat":49.100468,"lon":16.672571,"is_passed":false},{"stop_id":"U15133Z1","name":"Otmarov, chaloupka","arrival_time":"14:35:00","departure_time":"14:35:00","lat":49.09991,"lon":16.681232,"is_passed":false},{"stop_id":"U15154Z1","name":"Měnín, ZD","arrival_time":"14:37:00","departure_time":"14:37:00","lat":49.091455,"lon":16.689825,"is_passed":false},{"stop_id":"U15128Z1","name":"Měnín, u mlýna","arrival_time":"14:38:00","departure_time":"14:38:00","lat":49.084102,"lon":16.694181,"is_passed":false},{"stop_id":"U15165Z1","name":"Měnín, obchodní středisko","arrival_time":"14:40:00","departure_time":"14:52:00","lat":49.079732,"lon":16.693543,"is_passed":false}],"5635":[{"stop_id":"U15165Z2","name":"Měnín, obchodní středisko","arrival_time":"14:52:00","departure_time":"14:52:00","lat":49.079732,"lon":16.693543,"is_passed":false},{"stop_id":"U15128Z2","name":"Měnín, u mlýna","arrival_time":"14:53:00","departure_time":"14:53:00","lat":49.085172,"lon":16.694708,"is_passed":false},{"stop_id":"U15154Z2","name":"Měnín, ZD","arrival_time":"14:54:00","departure_time":"14:54:00","lat":49.091685,"lon":16.689643,"is_passed":false},{"stop_id":"U15133Z2","name":"Otmarov, chaloupka","arrival_time":"14:56:00","departure_time":"14:56:00","lat":49.101007,"lon":16.679762,"is_passed":false},{"stop_id":"U15175Z2","name":"Otmarov","arrival_time":"14:58:00","departure_time":"14:58:00","lat":49.100336,"lon":16.671844,"is_passed":false},{"stop_id":"U15176Z2","name":"Rajhradice, obalovna","arrival_time":"15:00:00","departure_time":"15:00:00","lat":49.096394,"lon":16.651454,"is_passed":false},{"stop_id":"U15144Z2","name":"Rajhradice, váha","arrival_time":"15:02:00","departure_time":"15:02:00","lat":49.09362,"lon":16.635452,"is_passed":false},{"stop_id":"U15145Z2","name":"Rebešovice","arrival_time":"15:04:00","departure_time":"15:04:00","lat":49.105028,"lon":16.638127,"is_passed":false},{"stop_id":"U15146Z2","name":"Rebešovice, Horky","arrival_time":"15:05:00","departure_time":"15:05:00","lat":49.108966,"lon":16.641733,"is_passed":false},{"stop_id":"U1182Z3","name":"Chrlice, smyčka","arrival_time":"15:08:00","departure_time":"15:08:00","lat":49.126855,"lon":16.655081,"is_passed":false},{"stop_id":"U1183Z2","name":"Chrlice, nádraží","arrival_time":"15:09:00","departure_time":"15:09:00","lat":49.132136,"lon":16.656638,"is_passed":false},{"stop_id":"U1187Z2","name":"Chrlické náměstí","arrival_time":"15:10:00","departure_time":"15:21:00","lat":49.13548,"lon":16.653876,"is_passed":false}],"5636":[{"stop_id":"U1187Z1","name":"Chrlické náměstí","arrival_time":"15:21:00","departure_time":"15:21:00","lat":49.135283,"lon":16.653902,"is_passed":false},{"stop_id":"U1183Z1","name":"Chrlice, nádraží","arrival_time":"15:22:00","departure_time":"15:22:00","lat":49.131712,"lon":16.656596,"is_passed":false},{"stop_id":"U1182Z4","name":"Chrlice, smyčka","arrival_time":"15:23:00","departure_time":"15:23:00","lat":49.126443,"lon":16.654784,"is_passed":false},{"stop_id":"U15146Z1","name":"Rebešovice, Horky","arrival_time":"15:26:00","departure_time":"15:26:00","lat":49.108356,"lon":16.64093,"is_passed":false},{"stop_id":"U15145Z1","name":"Rebešovice","arrival_time":"15:27:00","departure_time":"15:27:00","lat":49.10491,"lon":16.637941,"is_passed":false},{"stop_id":"U15144Z1","name":"Rajhradice, váha","arrival_time":"15:30:00","departure_time":"15:30:00","lat":49.093623,"lon":16.63553,"is_passed":false},{"stop_id":"U15176Z1","name":"Rajhradice, obalovna","arrival_time":"15:32:00","departure_time":"15:32:00","lat":49.0964,"lon":16.651802,"is_passed":false},{"stop_id":"U15175Z1","name":"Otmarov","arrival_time":"15:34:00","departure_time":"15:34:00","lat":49.100468,"lon":16.672571,"is_passed":false},{"stop_id":"U15133Z1","name":"Otmarov, chaloupka","arrival_time":"15:35:00","departure_time":"15:35:00","lat":49.09991,"lon":16.681232,"is_passed":false},{"stop_id":"U15154Z1","name":"Měnín, ZD","arrival_time":"15:37:00","departure_time":"15:37:00","lat":49.091455,"lon":16.689825,"is_passed":false},{"stop_id":"U15128Z1","name":"Měnín, u mlýna","arrival_time":"15:38:00","departure_time":"15:38:00","lat":49.084102,"lon":16.694181,"is_passed":false},{"stop_id":"U15165Z1","name":"Měnín, obchodní středisko","arrival_time":"15:40:00","departure_time":"15:52:00","lat":49.079732,"lon":16.693543,"is_passed":false}],"5637":[{"stop_id":"U15165Z2","name":"Měnín, obchodní středisko","arrival_time":"15:52:00","departure_time":"15:52:00","lat":49.079732,"lon":16.693543,"is_passed":false},{"stop_id":"U15128Z2","name":"Měnín, u mlýna","arrival_time":"15:53:00","departure_time":"15:53:00","lat":49.085172,"lon":16.694708,"is_passed":false},{"stop_id":"U15154Z2","name":"Měnín, ZD","arrival_time":"15:54:00","departure_time":"15:54:00","lat":49.091685,"lon":16.689643,"is_passed":false},{"stop_id":"U15133Z2","name":"Otmarov, chaloupka","arrival_time":"15:56:00","departure_time":"15:56:00","lat":49.101007,"lon":16.679762,"is_passed":false},{"stop_id":"U15175Z2","name":"Otmarov","arrival_time":"15:58:00","departure_time":"15:58:00","lat":49.100336,"lon":16.671844,"is_passed":false},{"stop_id":"U15176Z2","name":"Rajhradice, obalovna","arrival_time":"16:00:00","departure_time":"16:00:00","lat":49.096394,"lon":16.651454,"is_passed":false},{"stop_id":"U15144Z2","name":"Rajhradice, váha","arrival_time":"16:02:00","departure_time":"16:02:00","lat":49.09362,"lon":16.635452,"is_passed":false},{"stop_id":"U15145Z2","name":"Rebešovice","arrival_time":"16:04:00","departure_time":"16:04:00","lat":49.105028,"lon":16.638127,"is_passed":false},{"stop_id":"U15146Z2","name":"Rebešovice, Horky","arrival_time":"16:05:00","departure_time":"16:05:00","lat":49.108966,"lon":16.641733,"is_passed":false},{"stop_id":"U1182Z3","name":"Chrlice, smyčka","arrival_time":"16:08:00","departure_time":"16:08:00","lat":49.126855,"lon":16.655081,"is_passed":false},{"stop_id":"U1183Z2","name":"Chrlice, nádraží","arrival_time":"16:09:00","departure_time":"16:09:00","lat":49.132136,"lon":16.656638,"is_passed":false},{"stop_id":"U1187Z2","name":"Chrlické náměstí","arrival_time":"16:10:00","departure_time":"16:21:00","lat":49.13548,"lon":16.653876,"is_passed":false}],"5638":[{"stop_id":"U1187Z1","name":"Chrlické náměstí","arrival_time":"16:21:00","departure_time":"16:21:00","lat":49.135283,"lon":16.653902,"is_passed":false},{"stop_id":"U1183Z1","name":"Chrlice, nádraží","arrival_time":"16:22:00","departure_time":"16:22:00","lat":49.131712,"lon":16.656596,"is_passed":false},{"stop_id":"U1182Z4","name":"Chrlice, smyčka","arrival_time":"16:23:00","departure_time":"16:23:00","lat":49.126443,"lon":16.654784,"is_passed":false},{"stop_id":"U15146Z1","name":"Rebešovice, Horky","arrival_time":"16:26:00","departure_time":"16:26:00","lat":49.108356,"lon":16.64093,"is_passed":false},{"stop_id":"U15145Z1","name":"Rebešovice","arrival_time":"16:27:00","departure_time":"16:27:00","lat":49.10491,"lon":16.637941,"is_passed":false},{"stop_id":"U15144Z1","name":"Rajhradice, váha","arrival_time":"16:30:00","departure_time":"16:30:00","lat":49.093623,"lon":16.63553,"is_passed":false},{"stop_id":"U15176Z1","name":"Rajhradice, obalovna","arrival_time":"16:32:00","departure_time":"16:32:00","lat":49.0964,"lon":16.651802,"is_passed":false},{"stop_id":"U15175Z1","name":"Otmarov","arrival_time":"16:34:00","departure_time":"16:34:00","lat":49.100468,"lon":16.672571,"is_passed":false},{"stop_id":"U15133Z1","name":"Otmarov, chaloupka","arrival_time":"16:35:00","departure_time":"16:35:00","lat":49.09991,"lon":16.681232,"is_passed":false},{"stop_id":"U15154Z1","name":"Měnín, ZD","arrival_time":"16:37:00","departure_time":"16:37:00","lat":49.091455,"lon":16.689825,"is_passed":false},{"stop_id":"U15128Z1","name":"Měnín, u mlýna","arrival_time":"16:38:00","departure_time":"16:38:00","lat":49.084102,"lon":16.694181,"is_passed":false},{"stop_id":"U15165Z1","name":"Měnín, obchodní středisko","arrival_time":"16:40:00","departure_time":"16:52:00","lat":49.079732,"lon":16.693543,"is_passed":false}],"5639":[{"stop_id":"U15165Z2","name":"Měnín, obchodní středisko","arrival_time":"16:52:00","departure_time":"16:52:00","lat":49.079732,"lon":16.693543,"is_passed":false},{"stop_id":"U15128Z2","name":"Měnín, u mlýna","arrival_time":"16:53:00","departure_time":"16:53:00","lat":49.085172,"lon":16.694708,"is_passed":false},{"stop_id":"U15154Z2","name":"Měnín, ZD","arrival_time":"16:54:00","departure_time":"16:54:00","lat":49.091685,"lon":16.689643,"is_passed":false},{"stop_id":"U15133Z2","name":"Otmarov, chaloupka","arrival_time":"16:56:00","departure_time":"16:56:00","lat":49.101007,"lon":16.679762,"is_passed":false},{"stop_id":"U15175Z2","name":"Otmarov","arrival_time":"16:58:00","departure_time":"16:58:00","lat":49.100336,"lon":16.671844,"is_passed":false},{"stop_id":"U15176Z2","name":"Rajhradice, obalovna","arrival_time":"17:00:00","departure_time":"17:00:00","lat":49.096394,"lon":16.651454,"is_passed":false},{"stop_id":"U15144Z2","name":"Rajhradice, váha","arrival_time":"17:02:00","departure_time":"17:02:00","lat":49.09362,"lon":16.635452,"is_passed":false},{"stop_id":"U15145Z2","name":"Rebešovice","arrival_time":"17:04:00","departure_time":"17:04:00","lat":49.105028,"lon":16.638127,"is_passed":false},{"stop_id":"U15146Z2","name":"Rebešovice, Horky","arrival_time":"17:05:00","departure_time":"17:05:00","lat":49.108966,"lon":16.641733,"is_passed":false},{"stop_id":"U1182Z3","name":"Chrlice, smyčka","arrival_time":"17:08:00","departure_time":"17:08:00","lat":49.126855,"lon":16.655081,"is_passed":false},{"stop_id":"U1183Z2","name":"Chrlice, nádraží","arrival_time":"17:09:00","departure_time":"17:09:00","lat":49.132136,"lon":16.656638,"is_passed":false},{"stop_id":"U1187Z2","name":"Chrlické náměstí","arrival_time":"17:10:00","departure_time":"17:21:00","lat":49.13548,"lon":16.653876,"is_passed":false}],"56300":[{"stop_id":"U1062Z2","name":"Černého","arrival_time":"15:20:00","departure_time":"15:20:00","lat":49.213885,"lon":16.523087,"is_passed":false},{"stop_id":"U1107Z2","name":"Filipova","arrival_time":"15:21:00","departure_time":"15:21:00","lat":49.217593,"lon":16.525217,"is_passed":false},{"stop_id":"U1326Z4","name":"Laštůvkova","arrival_time":"15:22:00","departure_time":"15:22:00","lat":49.220549,"lon":16.526237,"is_passed":false},{"stop_id":"U1752Z2","name":"Vondrákova","arrival_time":"15:23:00","departure_time":"15:23:00","lat":49.221445,"lon":16.528853,"is_passed":false},{"stop_id":"U1417Z2","name":"Náměstí 28. dubna","arrival_time":"15:24:00","departure_time":"15:24:00","lat":49.226314,"lon":16.53213,"is_passed":false},{"stop_id":"U1226Z4","name":"Kamenolom","arrival_time":"15:26:00","departure_time":"15:26:00","lat":49.221655,"lon":16.536983,"is_passed":false},{"stop_id":"U1493Z4","name":"Podlesí","arrival_time":"15:27:00","departure_time":"15:27:00","lat":49.218759,"lon":16.542623,"is_passed":false},{"stop_id":"U1345Z2","name":"Lísky","arrival_time":"15:28:00","departure_time":"15:28:00","lat":49.219967,"lon":16.549281,"is_passed":false},{"stop_id":"U1633Z4","name":"Svratecká","arrival_time":"15:30:00","departure_time":"15:30:00","lat":49.218696,"lon":16.554399,"is_passed":false},{"stop_id":"U1502Z2","name":"Podveská","arrival_time":"15:32:00","departure_time":"15:32:00","lat":49.217607,"lon":16.558178,"is_passed":false},{"stop_id":"U1651Z2","name":"Štursova","arrival_time":"15:33:00","departure_time":"15:33:00","lat":49.215854,"lon":16.564522,"is_passed":false},{"stop_id":"U1758Z2","name":"Vrázova","arrival_time":"15:34:00","departure_time":"15:34:00","lat":49.216977,"lon":16.568646,"is_passed":false},{"stop_id":"U1528Z4","name":"Přívrat","arrival_time":"15:36:00","departure_time":"15:36:00","lat":49.218647,"lon":16.574085,"is_passed":false},{"stop_id":"U1777Z2","name":"Záhřebská","arrival_time":"15:37:00","departure_time":"15:37:00","lat":49.219845,"lon":16.580415,"is_passed":false},{"stop_id":"U1567Z6","name":"Skácelova","arrival_time":"15:39:00","departure_time":"15:39:00","lat":49.22163,"lon":16.585935,"is_passed":false},{"stop_id":"U1586Z4","name":"Slovanské náměstí","arrival_time":"15:40:00","departure_time":"15:40:00","lat":49.222774,"lon":16.591332,"is_passed":false},{"stop_id":"U1171Z3","name":"Husitská","arrival_time":"15:41:00","departure_time":"15:41:00","lat":49.223851,"lon":16.594116,"is_passed":false},{"stop_id":"U1566Z4","name":"Semilasso","arrival_time":"15:43:00","departure_time":"15:43:00","lat":49.228055,"lon":16.593438,"is_passed":false},{"stop_id":"U1286Z3","name":"Královo Pole, nádraží","arrival_time":"15:44:00","departure_time":"15:44:00","lat":49.229218,"lon":16.596271,"is_passed":false},{"stop_id":"U1388Z2","name":"Mojmírovo náměstí","arrival_time":"15:45:00","departure_time":"15:45:00","lat":49.226499,"lon":16.598423,"is_passed":false},{"stop_id":"U1150Z1","name":"Högrova","arrival_time":"15:47:00","departure_time":"15:47:00","lat":49.228296,"lon":16.604528,"is_passed":false},{"stop_id":"U1195Z1","name":"Jarmily Kurandové","arrival_time":"15:47:00","departure_time":"15:47:00","lat":49.230235,"lon":16.604438,"is_passed":false},{"stop_id":"U1399Z1","name":"Moskalykova","arrival_time":"15:48:00","departure_time":"15:48:00","lat":49.231252,"lon":16.607921,"is_passed":false},{"stop_id":"U1564Z1","name":"Sadová","arrival_time":"15:50:00","departure_time":"15:50:00","lat":49.234166,"lon":16.603978,"is_passed":false},{"stop_id":"U1130Z2","name":"Hamerláky","arrival_time":"15:51:00","departure_time":"15:51:00","lat":49.237225,"lon":16.60407,"is_passed":false},{"stop_id":"U1407Z1","name":"Myslivecký stadion","arrival_time":"15:52:00","departure_time":"15:52:00","lat":49.241317,"lon":16.609929,"is_passed":false},{"stop_id":"U1711Z1","name":"Útěchovská","arrival_time":"15:54:00","departure_time":"15:54:00","lat":49.2475,"lon":16.616402,"is_passed":false},{"stop_id":"U1091Z1","name":"Dohnalova","arrival_time":"15:55:00","departure_time":"15:55:00","lat":49.251124,"lon":16.618901,"is_passed":false},{"stop_id":"U1412Z1","name":"Na kovárně","arrival_time":"15:56:00","departure_time":"15:56:00","lat":49.253213,"lon":16.620275,"is_passed":false},{"stop_id":"U1548Z1","name":"Rozárka","arrival_time":"15:57:00","departure_time":"15:57:00","lat":49.254486,"lon":16.622791,"is_passed":false},{"stop_id":"U1235Z3","name":"Klarisky","arrival_time":"15:59:00","departure_time":"16:01:00","lat":49.256942,"lon":16.622725,"is_passed":false}],"56301":[{"stop_id":"U1235Z4","name":"Klarisky","arrival_time":"16:01:00","departure_time":"16:01:00","lat":49.257063,"lon":16.622604,"is_passed":false},{"stop_id":"U1412Z2","name":"Na kovárně","arrival_time":"16:02:00","departure_time":"16:02:00","lat":49.254426,"lon":16.620777,"is_passed":false},{"stop_id":"U1091Z2","name":"Dohnalova","arrival_time":"16:03:00","departure_time":"16:03:00","lat":49.249657,"lon":16.617775,"is_passed":false},{"stop_id":"U1711Z2","name":"Útěchovská","arrival_time":"16:04:00","departure_time":"16:04:00","lat":49.246974,"lon":16.61581,"is_passed":false},{"stop_id":"U1407Z2","name":"Myslivecký stadion","arrival_time":"16:05:00","departure_time":"16:05:00","lat":49.241075,"lon":16.609359,"is_passed":false},{"stop_id":"U1130Z1","name":"Hamerláky","arrival_time":"16:06:00","departure_time":"16:06:00","lat":49.237082,"lon":16.603873,"is_passed":false},{"stop_id":"U1564Z2","name":"Sadová","arrival_time":"16:07:00","departure_time":"16:07:00","lat":49.233904,"lon":16.604679,"is_passed":false},{"stop_id":"U1399Z2","name":"Moskalykova","arrival_time":"16:08:00","departure_time":"16:08:00","lat":49.23163,"lon":16.608178,"is_passed":false},{"stop_id":"U1150Z2","name":"Högrova","arrival_time":"16:10:00","departure_time":"16:10:00","lat":49.229128,"lon":16.604259,"is_passed":false},{"stop_id":"U1388Z1","name":"Mojmírovo náměstí","arrival_time":"16:12:00","departure_time":"16:12:00","lat":49.226134,"lon":16.597399,"is_passed":false},{"stop_id":"U1286Z5","name":"Královo Pole, nádraží","arrival_time":"16:15:00","departure_time":"16:15:00","lat":49.229633,"lon":16.595447,"is_passed":false},{"stop_id":"U1566Z6","name":"Semilasso","arrival_time":"16:16:00","departure_time":"16:16:00","lat":49.228248,"lon":16.593466,"is_passed":false},{"stop_id":"U1171Z4","name":"Husitská","arrival_time":"16:18:00","departure_time":"16:18:00","lat":49.224063,"lon":16.593994,"is_passed":false},{"stop_id":"U1586Z3","name":"Slovanské náměstí","arrival_time":"16:19:00","departure_time":"16:19:00","lat":49.223525,"lon":16.591009,"is_passed":false},{"stop_id":"U1567Z5","name":"Skácelova","arrival_time":"16:20:00","departure_time":"16:20:00","lat":49.221353,"lon":16.584711,"is_passed":false},{"stop_id":"U1777Z1","name":"Záhřebská","arrival_time":"16:22:00","departure_time":"16:22:00","lat":49.219602,"lon":16.579157,"is_passed":false},{"stop_id":"U1528Z3","name":"Přívrat","arrival_time":"16:23:00","departure_time":"16:23:00","lat":49.218788,"lon":16.574147,"is_passed":false},{"stop_id":"U1758Z1","name":"Vrázova","arrival_time":"16:24:00","departure_time":"16:24:00","lat":49.216968,"lon":16.568321,"is_passed":false},{"stop_id":"U1651Z1","name":"Štursova","arrival_time":"16:25:00","departure_time":"16:25:00","lat":49.216462,"lon":16.563614,"is_passed":false},{"stop_id":"U1502Z1","name":"Podveská","arrival_time":"16:26:00","departure_time":"16:26:00","lat":49.217623,"lon":16.559017,"is_passed":false},{"stop_id":"U1633Z3","name":"Svratecká","arrival_time":"16:27:00","departure_time":"16:27:00","lat":49.219008,"lon":16.554451,"is_passed":false},{"stop_id":"U1345Z1","name":"Lísky","arrival_time":"16:29:00","departure_time":"16:29:00","lat":49.219825,"lon":16.548868,"is_passed":false},{"stop_id":"U1493Z3","name":"Podlesí","arrival_time":"16:30:00","departure_time":"16:30:00","lat":49.218861,"lon":16.542049,"is_passed":false},{"stop_id":"U1226Z3","name":"Kamenolom","arrival_time":"16:31:00","departure_time":"16:31:00","lat":49.222506,"lon":16.537085,"is_passed":false},{"stop_id":"U1796Z7","name":"Zoologická zahrada","arrival_time":"16:35:00","departure_time":"16:35:00","lat":49.227823,"lon":16.531364,"is_passed":false},{"stop_id":"U1417Z1","name":"Náměstí 28. dubna","arrival_time":"16:36:00","departure_time":"16:36:00","lat":49.225188,"lon":16.531132,"is_passed":false},{"stop_id":"U1752Z1","name":"Vondrákova","arrival_time":"16:37:00","departure_time":"16:37:00","lat":49.221303,"lon":16.528376,"is_passed":false},{"stop_id":"U1326Z1","name":"Laštůvkova","arrival_time":"16:38:00","departure_time":"16:38:00","lat":49.220185,"lon":16.525212,"is_passed":false},{"stop_id":"U1107Z1","name":"Filipova","arrival_time":"16:39:00","departure_time":"16:39:00","lat":49.217684,"lon":16.525123,"is_passed":false},{"stop_id":"U1062Z1","name":"Černého","arrival_time":"16:41:00","departure_time":"17:10:00","lat":49.214083,"lon":16.522812,"is_passed":false}],"56302":[{"stop_id":"U1062Z2","name":"Černého","arrival_time":"17:10:00","departure_time":"17:10:00","lat":49.213885,"lon":16.523087,"is_passed":false},{"stop_id":"U1107Z2","name":"Filipova","arrival_time":"17:11:00","departure_time":"17:11:00","lat":49.217593,"lon":16.525217,"is_passed":false},{"stop_id":"U1326Z4","name":"Laštůvkova","arrival_time":"17:12:00","departure_time":"17:12:00","lat":49.220549,"lon":16.526237,"is_passed":false},{"stop_id":"U1752Z2","name":"Vondrákova","arrival_time":"17:13:00","departure_time":"17:13:00","lat":49.221445,"lon":16.528853,"is_passed":false},{"stop_id":"U1417Z2","name":"Náměstí 28. dubna","arrival_time":"17:14:00","departure_time":"17:14:00","lat":49.226314,"lon":16.53213,"is_passed":false},{"stop_id":"U1226Z4","name":"Kamenolom","arrival_time":"17:16:00","departure_time":"17:16:00","lat":49.221655,"lon":16.536983,"is_passed":false},{"stop_id":"U1493Z4","name":"Podlesí","arrival_time":"17:17:00","departure_time":"17:17:00","lat":49.218759,"lon":16.542623,"is_passed":false},{"stop_id":"U1345Z2","name":"Lísky","arrival_time":"17:18:00","departure_time":"17:18:00","lat":49.219967,"lon":16.549281,"is_passed":false},{"stop_id":"U1633Z4","name":"Svratecká","arrival_time":"17:20:00","departure_time":"17:20:00","lat":49.218696,"lon":16.554399,"is_passed":false},{"stop_id":"U1502Z2","name":"Podveská","arrival_time":"17:22:00","departure_time":"17:22:00","lat":49.217607,"lon":16.558178,"is_passed":false},{"stop_id":"U1651Z2","name":"Štursova","arrival_time":"17:23:00","departure_time":"17:23:00","lat":49.215854,"lon":16.564522,"is_passed":false},{"stop_id":"U1758Z2","name":"Vrázova","arrival_time":"17:24:00","departure_time":"17:24:00","lat":49.216977,"lon":16.568646,"is_passed":false},{"stop_id":"U1528Z4","name":"Přívrat","arrival_time":"17:26:00","departure_time":"17:26:00","lat":49.218647,"lon":16.574085,"is_passed":false},{"stop_id":"U1777Z2","name":"Záhřebská","arrival_time":"17:27:00","departure_time":"17:27:00","lat":49.219845,"lon":16.580415,"is_passed":false},{"stop_id":"U1567Z6","name":"Skácelova","arrival_time":"17:29:00","departure_time":"17:29:00","lat":49.22163,"lon":16.585935,"is_passed":false},{"stop_id":"U1586Z4","name":"Slovanské náměstí","arrival_time":"17:30:00","departure_time":"17:30:00","lat":49.222774,"lon":16.591332,"is_passed":false},{"stop_id":"U1171Z3","name":"Husitská","arrival_time":"17:31:00","departure_time":"17:31:00","lat":49.223851,"lon":16.594116,"is_passed":false},{"stop_id":"U1566Z4","name":"Semilasso","arrival_time":"17:33:00","departure_time":"17:33:00","lat":49.228055,"lon":16.593438,"is_passed":false},{"stop_id":"U1286Z3","name":"Královo Pole, nádraží","arrival_time":"17:34:00","departure_time":"17:34:00","lat":49.229218,"lon":16.596271,"is_passed":false},{"stop_id":"U1388Z2","name":"Mojmírovo náměstí","arrival_time":"17:35:00","departure_time":"17:35:00","lat":49.226499,"lon":16.598423,"is_passed":false},{"stop_id":"U1150Z1","name":"Högrova","arrival_time":"17:37:00","departure_time":"17:37:00","lat":49.228296,"lon":16.604528,"is_passed":false},{"stop_id":"U1195Z1","name":"Jarmily Kurandové","arrival_time":"17:37:00","departure_time":"17:37:00","lat":49.230235,"lon":16.604438,"is_passed":false},{"stop_id":"U1399Z1","name":"Moskalykova","arrival_time":"17:38:00","departure_time":"17:38:00","lat":49.231252,"lon":16.607921,"is_passed":false},{"stop_id":"U1564Z1","name":"Sadová","arrival_time":"17:40:00","departure_time":"17:40:00","lat":49.234166,"lon":16.603978,"is_passed":false},{"stop_id":"U1130Z2","name":"Hamerláky","arrival_time":"17:41:00","departure_time":"17:41:00","lat":49.237225,"lon":16.60407,"is_passed":false},{"stop_id":"U1407Z1","name":"Myslivecký stadion","arrival_time":"17:42:00","departure_time":"17:42:00","lat":49.241317,"lon":16.609929,"is_passed":false},{"stop_id":"U1711Z1","name":"Útěchovská","arrival_time":"17:44:00","departure_time":"17:44:00","lat":49.2475,"lon":16.616402,"is_passed":false},{"stop_id":"U1091Z1","name":"Dohnalova","arrival_time":"17:45:00","departure_time":"17:45:00","lat":49.251124,"lon":16.618901,"is_passed":false},{"stop_id":"U1412Z1","name":"Na kovárně","arrival_time":"17:46:00","departure_time":"17:46:00","lat":49.253213,"lon":16.620275,"is_passed":false},{"stop_id":"U1548Z1","name":"Rozárka","arrival_time":"17:47:00","departure_time":"17:47:00","lat":49.254486,"lon":16.622791,"is_passed":false},{"stop_id":"U1235Z3","name":"Klarisky","arrival_time":"17:49:00","departure_time":"17:56:00","lat":49.256942,"lon":16.622725,"is_passed":false}],"56303":[{"stop_id":"U1235Z4","name":"Klarisky","arrival_time":"17:56:00","departure_time":"17:56:00","lat":49.257063,"lon":16.622604,"is_passed":false},{"stop_id":"U1412Z2","name":"Na kovárně","arrival_time":"17:57:00","departure_time":"17:57:00","lat":49.254426,"lon":16.620777,"is_passed":false},{"stop_id":"U1091Z2","name":"Dohnalova","arrival_time":"17:58:00","departure_time":"17:58:00","lat":49.249657,"lon":16.617775,"is_passed":false},{"stop_id":"U1711Z2","name":"Útěchovská","arrival_time":"17:59:00","departure_time":"17:59:00","lat":49.246974,"lon":16.61581,"is_passed":false},{"stop_id":"U1407Z2","name":"Myslivecký stadion","arrival_time":"18:00:00","departure_time":"18:00:00","lat":49.241075,"lon":16.609359,"is_passed":false},{"stop_id":"U1130Z1","name":"Hamerláky","arrival_time":"18:01:00","departure_time":"18:01:00","lat":49.237082,"lon":16.603873,"is_passed":false},{"stop_id":"U1564Z2","name":"Sadová","arrival_time":"18:02:00","departure_time":"18:02:00","lat":49.233904,"lon":16.604679,"is_passed":false},{"stop_id":"U1399Z2","name":"Moskalykova","arrival_time":"18:03:00","departure_time":"18:03:00","lat":49.23163,"lon":16.608178,"is_passed":false},{"stop_id":"U1150Z2","name":"Högrova","arrival_time":"18:04:00","departure_time":"18:04:00","lat":49.229128,"lon":16.604259,"is_passed":false},{"stop_id":"U1388Z1","name":"Mojmírovo náměstí","arrival_time":"18:06:00","departure_time":"18:06:00","lat":49.226134,"lon":16.597399,"is_passed":false},{"stop_id":"U1286Z5","name":"Královo Pole, nádraží","arrival_time":"18:09:00","departure_time":"18:09:00","lat":49.229633,"lon":16.595447,"is_passed":false},{"stop_id":"U1566Z6","name":"Semilasso","arrival_time":"18:10:00","departure_time":"18:10:00","lat":49.228248,"lon":16.593466,"is_passed":false},{"stop_id":"U1171Z4","name":"Husitská","arrival_time":"18:12:00","departure_time":"18:12:00","lat":49.224063,"lon":16.593994,"is_passed":false},{"stop_id":"U1586Z3","name":"Slovanské náměstí","arrival_time":"18:13:00","departure_time":"18:13:00","lat":49.223525,"lon":16.591009,"is_passed":false},{"stop_id":"U1567Z5","name":"Skácelova","arrival_time":"18:14:00","departure_time":"18:14:00","lat":49.221353,"lon":16.584711,"is_passed":false},{"stop_id":"U1777Z1","name":"Záhřebská","arrival_time":"18:16:00","departure_time":"18:16:00","lat":49.219602,"lon":16.579157,"is_passed":false},{"stop_id":"U1528Z3","name":"Přívrat","arrival_time":"18:17:00","departure_time":"18:17:00","lat":49.218788,"lon":16.574147,"is_passed":false},{"stop_id":"U1758Z1","name":"Vrázova","arrival_time":"18:18:00","departure_time":"18:18:00","lat":49.216968,"lon":16.568321,"is_passed":false},{"stop_id":"U1651Z1","name":"Štursova","arrival_time":"18:19:00","departure_time":"18:19:00","lat":49.216462,"lon":16.563614,"is_passed":false},{"stop_id":"U1502Z1","name":"Podveská","arrival_time":"18:20:00","departure_time":"18:20:00","lat":49.217623,"lon":16.559017,"is_passed":false},{"stop_id":"U1633Z3","name":"Svratecká","arrival_time":"18:21:00","departure_time":"18:21:00","lat":49.219008,"lon":16.554451,"is_passed":false},{"stop_id":"U1345Z1","name":"Lísky","arrival_time":"18:22:00","departure_time":"18:22:00","lat":49.219825,"lon":16.548868,"is_passed":false},{"stop_id":"U1493Z3","name":"Podlesí","arrival_time":"18:23:00","departure_time":"18:23:00","lat":49.218861,"lon":16.542049,"is_passed":false},{"stop_id":"U1226Z3","name":"Kamenolom","arrival_time":"18:24:00","departure_time":"18:24:00","lat":49.222506,"lon":16.537085,"is_passed":false},{"stop_id":"U1796Z7","name":"Zoologická zahrada","arrival_time":"18:28:00","departure_time":"18:28:00","lat":49.227823,"lon":16.531364,"is_passed":false},{"stop_id":"U1417Z1","name":"Náměstí 28. dubna","arrival_time":"18:29:00","departure_time":"18:29:00","lat":49.225188,"lon":16.531132,"is_passed":false},{"stop_id":"U1752Z1","name":"Vondrákova","arrival_time":"18:30:00","departure_time":"18:30:00","lat":49.221303,"lon":16.528376,"is_passed":false},{"stop_id":"U1326Z1","name":"Laštůvkova","arrival_time":"18:31:00","departure_time":"18:31:00","lat":49.220185,"lon":16.525212,"is_passed":false},{"stop_id":"U1107Z1","name":"Filipova","arrival_time":"18:32:00","departure_time":"18:32:00","lat":49.217684,"lon":16.525123,"is_passed":false},{"stop_id":"U1062Z1","name":"Černého","arrival_time":"18:34:00","departure_time":"18:36:00","lat":49.214083,"lon":16.522812,"is_passed":false}],"56304":[{"stop_id":"U1062Z2","name":"Černého","arrival_time":"5:01:00","departure_time":"5:01:00","lat":49.213885,"lon":16.523087,"is_passed":false},{"stop_id":"U1107Z2","name":"Filipova","arrival_time":"5:02:00","departure_time":"5:02:00","lat":49.217593,"lon":16.525217,"is_passed":false},{"stop_id":"U1326Z4","name":"Laštůvkova","arrival_time":"5:03:00","departure_time":"5:03:00","lat":49.220549,"lon":16.526237,"is_passed":false},{"stop_id":"U1752Z2","name":"Vondrákova","arrival_time":"5:04:00","departure_time":"5:04:00","lat":49.221445,"lon":16.528853,"is_passed":false},{"stop_id":"U1417Z2","name":"Náměstí 28. dubna","arrival_time":"5:05:00","departure_time":"5:05:00","lat":49.226314,"lon":16.53213,"is_passed":false},{"stop_id":"U1226Z4","name":"Kamenolom","arrival_time":"5:07:00","departure_time":"5:07:00","lat":49.221655,"lon":16.536983,"is_passed":false},{"stop_id":"U1493Z4","name":"Podlesí","arrival_time":"5:08:00","departure_time":"5:08:00","lat":49.218759,"lon":16.542623,"is_passed":false},{"stop_id":"U1345Z2","name":"Lísky","arrival_time":"5:09:00","departure_time":"5:09:00","lat":49.219967,"lon":16.549281,"is_passed":false},{"stop_id":"U1633Z4","name":"Svratecká","arrival_time":"5:11:00","departure_time":"5:11:00","lat":49.218696,"lon":16.554399,"is_passed":false},{"stop_id":"U1502Z2","name":"Podveská","arrival_time":"5:12:00","departure_time":"5:12:00","lat":49.217607,"lon":16.558178,"is_passed":false},{"stop_id":"U1651Z2","name":"Štursova","arrival_time":"5:13:00","departure_time":"5:13:00","lat":49.215854,"lon":16.564522,"is_passed":false},{"stop_id":"U1758Z2","name":"Vrázova","arrival_time":"5:14:00","departure_time":"5:14:00","lat":49.216977,"lon":16.568646,"is_passed":false},{"stop_id":"U1528Z4","name":"Přívrat","arrival_time":"5:16:00","departure_time":"5:16:00","lat":49.218647,"lon":16.574085,"is_passed":false},{"stop_id":"U1777Z2","name":"Záhřebská","arrival_time":"5:17:00","departure_time":"5:17:00","lat":49.219845,"lon":16.580415,"is_passed":false},{"stop_id":"U1567Z6","name":"Skácelova","arrival_time":"5:19:00","departure_time":"5:19:00","lat":49.22163,"lon":16.585935,"is_passed":false},{"stop_id":"U1586Z4","name":"Slovanské náměstí","arrival_time":"5:20:00","departure_time":"5:20:00","lat":49.222774,"lon":16.591332,"is_passed":false},{"stop_id":"U1171Z3","name":"Husitská","arrival_time":"5:21:00","departure_time":"5:21:00","lat":49.223851,"lon":16.594116,"is_passed":false},{"stop_id":"U1566Z4","name":"Semilasso","arrival_time":"5:23:00","departure_time":"5:23:00","lat":49.228055,"lon":16.593438,"is_passed":false},{"stop_id":"U1286Z3","name":"Královo Pole, nádraží","arrival_time":"5:24:00","departure_time":"5:24:00","lat":49.229218,"lon":16.596271,"is_passed":false},{"stop_id":"U1388Z2","name":"Mojmírovo náměstí","arrival_time":"5:25:00","departure_time":"5:25:00","lat":49.226499,"lon":16.598423,"is_passed":false},{"stop_id":"U1150Z1","name":"Högrova","arrival_time":"5:27:00","departure_time":"5:27:00","lat":49.228296,"lon":16.604528,"is_passed":false},{"stop_id":"U1195Z1","name":"Jarmily Kurandové","arrival_time":"5:27:00","departure_time":"5:27:00","lat":49.230235,"lon":16.604438,"is_passed":false},{"stop_id":"U1399Z1","name":"Moskalykova","arrival_time":"5:28:00","departure_time":"5:28:00","lat":49.231252,"lon":16.607921,"is_passed":false},{"stop_id":"U1564Z1","name":"Sadová","arrival_time":"5:29:00","departure_time":"5:29:00","lat":49.234166,"lon":16.603978,"is_passed":false},{"stop_id":"U1130Z2","name":"Hamerláky","arrival_time":"5:30:00","departure_time":"5:30:00","lat":49.237225,"lon":16.60407,"is_passed":false},{"stop_id":"U1407Z1","name":"Myslivecký stadion","arrival_time":"5:31:00","departure_time":"5:31:00","lat":49.241317,"lon":16.609929,"is_passed":false},{"stop_id":"U1711Z1","name":"Útěchovská","arrival_time":"5:32:00","departure_time":"5:32:00","lat":49.2475,"lon":16.616402,"is_passed":false},{"stop_id":"U1091Z1","name":"Dohnalova","arrival_time":"5:33:00","departure_time":"5:33:00","lat":49.251124,"lon":16.618901,"is_passed":false},{"stop_id":"U1412Z1","name":"Na kovárně","arrival_time":"5:34:00","departure_time":"5:34:00","lat":49.253213,"lon":16.620275,"is_passed":false},{"stop_id":"U1548Z1","name":"Rozárka","arrival_time":"5:35:00","departure_time":"5:35:00","lat":49.254486,"lon":16.622791,"is_passed":false},{"stop_id":"U1235Z3","name":"Klarisky","arrival_time":"5:37:00","departure_time":"5:41:00","lat":49.256942,"lon":16.622725,"is_passed":false}],"56305":[{"stop_id":"U1235Z4","name":"Klarisky","arrival_time":"5:41:00","departure_time":"5:41:00","lat":49.257063,"lon":16.622604,"is_passed":false},{"stop_id":"U1412Z2","name":"Na kovárně","arrival_time":"5:42:00","departure_time":"5:42:00","lat":49.254426,"lon":16.620777,"is_passed":false},{"stop_id":"U1091Z2","name":"Dohnalova","arrival_time":"5:43:00","departure_time":"5:43:00","lat":49.249657,"lon":16.617775,"is_passed":false},{"stop_id":"U1711Z2","name":"Útěchovská","arrival_time":"5:44:00","departure_time":"5:44:00","lat":49.246974,"lon":16.61581,"is_passed":false},{"stop_id":"U1407Z2","name":"Myslivecký stadion","arrival_time":"5:45:00","departure_time":"5:45:00","lat":49.241075,"lon":16.609359,"is_passed":false},{"stop_id":"U1130Z1","name":"Hamerláky","arrival_time":"5:46:00","departure_time":"5:46:00","lat":49.237082,"lon":16.603873,"is_passed":false},{"stop_id":"U1564Z2","name":"Sadová","arrival_time":"5:47:00","departure_time":"5:47:00","lat":49.233904,"lon":16.604679,"is_passed":false},{"stop_id":"U1399Z2","name":"Moskalykova","arrival_time":"5:48:00","departure_time":"5:48:00","lat":49.23163,"lon":16.608178,"is_passed":false},{"stop_id":"U1150Z2","name":"Högrova","arrival_time":"5:49:00","departure_time":"5:49:00","lat":49.229128,"lon":16.604259,"is_passed":false},{"stop_id":"U1388Z1","name":"Mojmírovo náměstí","arrival_time":"5:51:00","departure_time":"5:51:00","lat":49.226134,"lon":16.597399,"is_passed":false},{"stop_id":"U1286Z5","name":"Královo Pole, nádraží","arrival_time":"5:54:00","departure_time":"5:54:00","lat":49.229633,"lon":16.595447,"is_passed":false},{"stop_id":"U1566Z6","name":"Semilasso","arrival_time":"5:55:00","departure_time":"5:55:00","lat":49.228248,"lon":16.593466,"is_passed":false},{"stop_id":"U1171Z4","name":"Husitská","arrival_time":"5:57:00","departure_time":"5:57:00","lat":49.224063,"lon":16.593994,"is_passed":false},{"stop_id":"U1586Z3","name":"Slovanské náměstí","arrival_time":"5:58:00","departure_time":"5:58:00","lat":49.223525,"lon":16.591009,"is_passed":false},{"stop_id":"U1567Z5","name":"Skácelova","arrival_time":"5:59:00","departure_time":"5:59:00","lat":49.221353,"lon":16.584711,"is_passed":false},{"stop_id":"U1777Z1","name":"Záhřebská","arrival_time":"6:01:00","departure_time":"6:01:00","lat":49.219602,"lon":16.579157,"is_passed":false},{"stop_id":"U1528Z3","name":"Přívrat","arrival_time":"6:02:00","departure_time":"6:02:00","lat":49.218788,"lon":16.574147,"is_passed":false},{"stop_id":"U1758Z1","name":"Vrázova","arrival_time":"6:03:00","departure_time":"6:03:00","lat":49.216968,"lon":16.568321,"is_passed":false},{"stop_id":"U1651Z1","name":"Štursova","arrival_time":"6:04:00","departure_time":"6:04:00","lat":49.216462,"lon":16.563614,"is_passed":false},{"stop_id":"U1502Z1","name":"Podveská","arrival_time":"6:05:00","departure_time":"6:05:00","lat":49.217623,"lon":16.559017,"is_passed":false},{"stop_id":"U1633Z3","name":"Svratecká","arrival_time":"6:06:00","departure_time":"6:06:00","lat":49.219008,"lon":16.554451,"is_passed":false},{"stop_id":"U1345Z1","name":"Lísky","arrival_time":"6:07:00","departure_time":"6:07:00","lat":49.219825,"lon":16.548868,"is_passed":false},{"stop_id":"U1493Z3","name":"Podlesí","arrival_time":"6:08:00","departure_time":"6:08:00","lat":49.218861,"lon":16.542049,"is_passed":false},{"stop_id":"U1226Z3","name":"Kamenolom","arrival_time":"6:09:00","departure_time":"6:09:00","lat":49.222506,"lon":16.537085,"is_passed":false},{"stop_id":"U1796Z7","name":"Zoologická zahrada","arrival_time":"6:13:00","departure_time":"6:13:00","lat":49.227823,"lon":16.531364,"is_passed":false},{"stop_id":"U1417Z1","name":"Náměstí 28. dubna","arrival_time":"6:14:00","departure_time":"6:14:00","lat":49.225188,"lon":16.531132,"is_passed":false},{"stop_id":"U1752Z1","name":"Vondrákova","arrival_time":"6:15:00","departure_time":"6:15:00","lat":49.221303,"lon":16.528376,"is_passed":false},{"stop_id":"U1326Z1","name":"Laštůvkova","arrival_time":"6:16:00","departure_time":"6:16:00","lat":49.220185,"lon":16.525212,"is_passed":false},{"stop_id":"U1107Z1","name":"Filipova","arrival_time":"6:17:00","departure_time":"6:17:00","lat":49.217684,"lon":16.525123,"is_passed":false},{"stop_id":"U1062Z1","name":"Černého","arrival_time":"6:19:00","departure_time":"6:40:00","lat":49.214083,"lon":16.522812,"is_passed":false}],"56306":[{"stop_id":"U1062Z2","name":"Černého","arrival_time":"6:40:00","departure_time":"6:40:00","lat":49.213885,"lon":16.523087,"is_passed":false},{"stop_id":"U1107Z2","name":"Filipova","arrival_time":"6:41:00","departure_time":"6:41:00","lat":49.217593,"lon":16.525217,"is_passed":false},{"stop_id":"U1326Z4","name":"Laštůvkova","arrival_time":"6:42:00","departure_time":"6:42:00","lat":49.220549,"lon":16.526237,"is_passed":false},{"stop_id":"U1752Z2","name":"Vondrákova","arrival_time":"6:43:00","departure_time":"6:43:00","lat":49.221445,"lon":16.528853,"is_passed":false},{"stop_id":"U1417Z2","name":"Náměstí 28. dubna","arrival_time":"6:44:00","departure_time":"6:44:00","lat":49.226314,"lon":16.53213,"is_passed":false},{"stop_id":"U1226Z4","name":"Kamenolom","arrival_time":"6:46:00","departure_time":"6:46:00","lat":49.221655,"lon":16.536983,"is_passed":false},{"stop_id":"U1493Z4","name":"Podlesí","arrival_time":"6:47:00","departure_time":"6:47:00","lat":49.218759,"lon":16.542623,"is_passed":false},{"stop_id":"U1345Z2","name":"Lísky","arrival_time":"6:48:00","departure_time":"6:48:00","lat":49.219967,"lon":16.549281,"is_passed":false},{"stop_id":"U1633Z4","name":"Svratecká","arrival_time":"6:50:00","departure_time":"6:50:00","lat":49.218696,"lon":16.554399,"is_passed":false},{"stop_id":"U1502Z2","name":"Podveská","arrival_time":"6:52:00","departure_time":"6:52:00","lat":49.217607,"lon":16.558178,"is_passed":false},{"stop_id":"U1651Z2","name":"Štursova","arrival_time":"6:53:00","departure_time":"6:53:00","lat":49.215854,"lon":16.564522,"is_passed":false},{"stop_id":"U1758Z2","name":"Vrázova","arrival_time":"6:54:00","departure_time":"6:54:00","lat":49.216977,"lon":16.568646,"is_passed":false},{"stop_id":"U1528Z4","name":"Přívrat","arrival_time":"6:56:00","departure_time":"6:56:00","lat":49.218647,"lon":16.574085,"is_passed":false},{"stop_id":"U1777Z2","name":"Záhřebská","arrival_time":"6:57:00","departure_time":"6:57:00","lat":49.219845,"lon":16.580415,"is_passed":false},{"stop_id":"U1567Z6","name":"Skácelova","arrival_time":"6:59:00","departure_time":"6:59:00","lat":49.22163,"lon":16.585935,"is_passed":false},{"stop_id":"U1586Z4","name":"Slovanské náměstí","arrival_time":"7:00:00","departure_time":"7:00:00","lat":49.222774,"lon":16.591332,"is_passed":false},{"stop_id":"U1171Z3","name":"Husitská","arrival_time":"7:01:00","departure_time":"7:01:00","lat":49.223851,"lon":16.594116,"is_passed":false},{"stop_id":"U1566Z4","name":"Semilasso","arrival_time":"7:03:00","departure_time":"7:03:00","lat":49.228055,"lon":16.593438,"is_passed":false},{"stop_id":"U1286Z3","name":"Královo Pole, nádraží","arrival_time":"7:04:00","departure_time":"7:04:00","lat":49.229218,"lon":16.596271,"is_passed":false},{"stop_id":"U1388Z2","name":"Mojmírovo náměstí","arrival_time":"7:05:00","departure_time":"7:05:00","lat":49.226499,"lon":16.598423,"is_passed":false},{"stop_id":"U1150Z1","name":"Högrova","arrival_time":"7:07:00","departure_time":"7:07:00","lat":49.228296,"lon":16.604528,"is_passed":false},{"stop_id":"U1195Z1","name":"Jarmily Kurandové","arrival_time":"7:07:00","departure_time":"7:07:00","lat":49.230235,"lon":16.604438,"is_passed":false},{"stop_id":"U1399Z1","name":"Moskalykova","arrival_time":"7:08:00","departure_time":"7:08:00","lat":49.231252,"lon":16.607921,"is_passed":false},{"stop_id":"U1564Z1","name":"Sadová","arrival_time":"7:10:00","departure_time":"7:10:00","lat":49.234166,"lon":16.603978,"is_passed":false},{"stop_id":"U1130Z2","name":"Hamerláky","arrival_time":"7:11:00","departure_time":"7:11:00","lat":49.237225,"lon":16.60407,"is_passed":false},{"stop_id":"U1407Z1","name":"Myslivecký stadion","arrival_time":"7:12:00","departure_time":"7:12:00","lat":49.241317,"lon":16.609929,"is_passed":false},{"stop_id":"U1711Z1","name":"Útěchovská","arrival_time":"7:14:00","departure_time":"7:14:00","lat":49.2475,"lon":16.616402,"is_passed":false},{"stop_id":"U1091Z1","name":"Dohnalova","arrival_time":"7:15:00","departure_time":"7:15:00","lat":49.251124,"lon":16.618901,"is_passed":false},{"stop_id":"U1412Z1","name":"Na kovárně","arrival_time":"7:16:00","departure_time":"7:16:00","lat":49.253213,"lon":16.620275,"is_passed":false},{"stop_id":"U1548Z1","name":"Rozárka","arrival_time":"7:17:00","departure_time":"7:17:00","lat":49.254486,"lon":16.622791,"is_passed":false},{"stop_id":"U1235Z3","name":"Klarisky","arrival_time":"7:19:00","departure_time":"7:21:00","lat":49.256942,"lon":16.622725,"is_passed":false}],"56307":[{"stop_id":"U1235Z4","name":"Klarisky","arrival_time":"7:21:00","departure_time":"7:21:00","lat":49.257063,"lon":16.622604,"is_passed":false},{"stop_id":"U1412Z2","name":"Na kovárně","arrival_time":"7:22:00","departure_time":"7:22:00","lat":49.254426,"lon":16.620777,"is_passed":false},{"stop_id":"U1091Z2","name":"Dohnalova","arrival_time":"7:23:00","departure_time":"7:23:00","lat":49.249657,"lon":16.617775,"is_passed":false},{"stop_id":"U1711Z2","name":"Útěchovská","arrival_time":"7:24:00","departure_time":"7:24:00","lat":49.246974,"lon":16.61581,"is_passed":false},{"stop_id":"U1407Z2","name":"Myslivecký stadion","arrival_time":"7:25:00","departure_time":"7:25:00","lat":49.241075,"lon":16.609359,"is_passed":false},{"stop_id":"U1130Z1","name":"Hamerláky","arrival_time":"7:26:00","departure_time":"7:26:00","lat":49.237082,"lon":16.603873,"is_passed":false},{"stop_id":"U1564Z2","name":"Sadová","arrival_time":"7:27:00","departure_time":"7:27:00","lat":49.233904,"lon":16.604679,"is_passed":false},{"stop_id":"U1399Z2","name":"Moskalykova","arrival_time":"7:28:00","departure_time":"7:28:00","lat":49.23163,"lon":16.608178,"is_passed":false},{"stop_id":"U1150Z2","name":"Högrova","arrival_time":"7:30:00","departure_time":"7:30:00","lat":49.229128,"lon":16.604259,"is_passed":false},{"stop_id":"U1388Z1","name":"Mojmírovo náměstí","arrival_time":"7:32:00","departure_time":"7:32:00","lat":49.226134,"lon":16.597399,"is_passed":false},{"stop_id":"U1286Z5","name":"Královo Pole, nádraží","arrival_time":"7:35:00","departure_time":"7:35:00","lat":49.229633,"lon":16.595447,"is_passed":false},{"stop_id":"U1566Z6","name":"Semilasso","arrival_time":"7:36:00","departure_time":"7:36:00","lat":49.228248,"lon":16.593466,"is_passed":false},{"stop_id":"U1171Z4","name":"Husitská","arrival_time":"7:38:00","departure_time":"7:38:00","lat":49.224063,"lon":16.593994,"is_passed":false},{"stop_id":"U1586Z3","name":"Slovanské náměstí","arrival_time":"7:39:00","departure_time":"7:39:00","lat":49.223525,"lon":16.591009,"is_passed":false},{"stop_id":"U1567Z5","name":"Skácelova","arrival_time":"7:40:00","departure_time":"7:40:00","lat":49.221353,"lon":16.584711,"is_passed":false},{"stop_id":"U1777Z1","name":"Záhřebská","arrival_time":"7:42:00","departure_time":"7:42:00","lat":49.219602,"lon":16.579157,"is_passed":false},{"stop_id":"U1528Z3","name":"Přívrat","arrival_time":"7:43:00","departure_time":"7:43:00","lat":49.218788,"lon":16.574147,"is_passed":false},{"stop_id":"U1758Z1","name":"Vrázova","arrival_time":"7:44:00","departure_time":"7:44:00","lat":49.216968,"lon":16.568321,"is_passed":false},{"stop_id":"U1651Z1","name":"Štursova","arrival_time":"7:45:00","departure_time":"7:45:00","lat":49.216462,"lon":16.563614,"is_passed":false},{"stop_id":"U1502Z1","name":"Podveská","arrival_time":"7:46:00","departure_time":"7:46:00","lat":49.217623,"lon":16.559017,"is_passed":false},{"stop_id":"U1633Z3","name":"Svratecká","arrival_time":"7:47:00","departure_time":"7:47:00","lat":49.219008,"lon":16.554451,"is_passed":false},{"stop_id":"U1345Z1","name":"Lísky","arrival_time":"7:49:00","departure_time":"7:49:00","lat":49.219825,"lon":16.548868,"is_passed":false},{"stop_id":"U1493Z3","name":"Podlesí","arrival_time":"7:50:00","departure_time":"7:50:00","lat":49.218861,"lon":16.542049,"is_passed":false},{"stop_id":"U1226Z3","name":"Kamenolom","arrival_time":"7:51:00","departure_time":"7:51:00","lat":49.222506,"lon":16.537085,"is_passed":false},{"stop_id":"U1796Z7","name":"Zoologická zahrada","arrival_time":"7:55:00","departure_time":"7:55:00","lat":49.227823,"lon":16.531364,"is_passed":false},{"stop_id":"U1417Z1","name":"Náměstí 28. dubna","arrival_time":"7:56:00","departure_time":"7:56:00","lat":49.225188,"lon":16.531132,"is_passed":false},{"stop_id":"U1752Z1","name":"Vondrákova","arrival_time":"7:57:00","departure_time":"7:57:00","lat":49.221303,"lon":16.528376,"is_passed":false},{"stop_id":"U1326Z1","name":"Laštůvkova","arrival_time":"7:58:00","departure_time":"7:58:00","lat":49.220185,"lon":16.525212,"is_passed":false},{"stop_id":"U1107Z1","name":"Filipova","arrival_time":"7:59:00","departure_time":"7:59:00","lat":49.217684,"lon":16.525123,"is_passed":false},{"stop_id":"U1062Z1","name":"Černého","arrival_time":"8:01:00","departure_time":"8:20:00","lat":49.214083,"lon":16.522812,"is_passed":false}],"56308":[{"stop_id":"U1062Z2","name":"Černého","arrival_time":"8:20:00","departure_time":"8:20:00","lat":49.213885,"lon":16.523087,"is_passed":false},{"stop_id":"U1107Z2","name":"Filipova","arrival_time":"8:21:00","departure_time":"8:21:00","lat":49.217593,"lon":16.525217,"is_passed":false},{"stop_id":"U1326Z4","name":"Laštůvkova","arrival_time":"8:22:00","departure_time":"8:22:00","lat":49.220549,"lon":16.526237,"is_passed":false},{"stop_id":"U1752Z2","name":"Vondrákova","arrival_time":"8:23:00","departure_time":"8:23:00","lat":49.221445,"lon":16.528853,"is_passed":false},{"stop_id":"U1417Z2","name":"Náměstí 28. dubna","arrival_time":"8:24:00","departure_time":"8:24:00","lat":49.226314,"lon":16.53213,"is_passed":false},{"stop_id":"U1226Z4","name":"Kamenolom","arrival_time":"8:26:00","departure_time":"8:26:00","lat":49.221655,"lon":16.536983,"is_passed":false},{"stop_id":"U1493Z4","name":"Podlesí","arrival_time":"8:27:00","departure_time":"8:27:00","lat":49.218759,"lon":16.542623,"is_passed":false},{"stop_id":"U1345Z2","name":"Lísky","arrival_time":"8:28:00","departure_time":"8:28:00","lat":49.219967,"lon":16.549281,"is_passed":false},{"stop_id":"U1633Z4","name":"Svratecká","arrival_time":"8:30:00","departure_time":"8:30:00","lat":49.218696,"lon":16.554399,"is_passed":false},{"stop_id":"U1502Z2","name":"Podveská","arrival_time":"8:32:00","departure_time":"8:32:00","lat":49.217607,"lon":16.558178,"is_passed":false},{"stop_id":"U1651Z2","name":"Štursova","arrival_time":"8:33:00","departure_time":"8:33:00","lat":49.215854,"lon":16.564522,"is_passed":false},{"stop_id":"U1758Z2","name":"Vrázova","arrival_time":"8:34:00","departure_time":"8:34:00","lat":49.216977,"lon":16.568646,"is_passed":false},{"stop_id":"U1528Z4","name":"Přívrat","arrival_time":"8:36:00","departure_time":"8:36:00","lat":49.218647,"lon":16.574085,"is_passed":false},{"stop_id":"U1777Z2","name":"Záhřebská","arrival_time":"8:37:00","departure_time":"8:37:00","lat":49.219845,"lon":16.580415,"is_passed":false},{"stop_id":"U1567Z6","name":"Skácelova","arrival_time":"8:39:00","departure_time":"8:39:00","lat":49.22163,"lon":16.585935,"is_passed":false},{"stop_id":"U1586Z4","name":"Slovanské náměstí","arrival_time":"8:40:00","departure_time":"8:40:00","lat":49.222774,"lon":16.591332,"is_passed":false},{"stop_id":"U1171Z3","name":"Husitská","arrival_time":"8:41:00","departure_time":"8:41:00","lat":49.223851,"lon":16.594116,"is_passed":false},{"stop_id":"U1566Z4","name":"Semilasso","arrival_time":"8:43:00","departure_time":"8:43:00","lat":49.228055,"lon":16.593438,"is_passed":false},{"stop_id":"U1286Z3","name":"Královo Pole, nádraží","arrival_time":"8:44:00","departure_time":"8:44:00","lat":49.229218,"lon":16.596271,"is_passed":false},{"stop_id":"U1388Z2","name":"Mojmírovo náměstí","arrival_time":"8:45:00","departure_time":"8:45:00","lat":49.226499,"lon":16.598423,"is_passed":false},{"stop_id":"U1150Z1","name":"Högrova","arrival_time":"8:47:00","departure_time":"8:47:00","lat":49.228296,"lon":16.604528,"is_passed":false},{"stop_id":"U1195Z1","name":"Jarmily Kurandové","arrival_time":"8:47:00","departure_time":"8:47:00","lat":49.230235,"lon":16.604438,"is_passed":false},{"stop_id":"U1399Z1","name":"Moskalykova","arrival_time":"8:48:00","departure_time":"8:48:00","lat":49.231252,"lon":16.607921,"is_passed":false},{"stop_id":"U1564Z1","name":"Sadová","arrival_time":"8:50:00","departure_time":"8:50:00","lat":49.234166,"lon":16.603978,"is_passed":false},{"stop_id":"U1130Z2","name":"Hamerláky","arrival_time":"8:51:00","departure_time":"8:51:00","lat":49.237225,"lon":16.60407,"is_passed":false},{"stop_id":"U1407Z1","name":"Myslivecký stadion","arrival_time":"8:52:00","departure_time":"8:52:00","lat":49.241317,"lon":16.609929,"is_passed":false},{"stop_id":"U1711Z1","name":"Útěchovská","arrival_time":"8:54:00","departure_time":"8:54:00","lat":49.2475,"lon":16.616402,"is_passed":false},{"stop_id":"U1091Z1","name":"Dohnalova","arrival_time":"8:55:00","departure_time":"8:55:00","lat":49.251124,"lon":16.618901,"is_passed":false},{"stop_id":"U1412Z1","name":"Na kovárně","arrival_time":"8:56:00","departure_time":"8:56:00","lat":49.253213,"lon":16.620275,"is_passed":false},{"stop_id":"U1548Z1","name":"Rozárka","arrival_time":"8:57:00","departure_time":"8:57:00","lat":49.254486,"lon":16.622791,"is_passed":false},{"stop_id":"U1235Z3","name":"Klarisky","arrival_time":"8:59:00","departure_time":"9:01:00","lat":49.256942,"lon":16.622725,"is_passed":false}],"56309":[{"stop_id":"U1235Z4","name":"Klarisky","arrival_time":"9:01:00","departure_time":"9:01:00","lat":49.257063,"lon":16.622604,"is_passed":false},{"stop_id":"U1412Z2","name":"Na kovárně","arrival_time":"9:02:00","departure_time":"9:02:00","lat":49.254426,"lon":16.620777,"is_passed":false},{"stop_id":"U1091Z2","name":"Dohnalova","arrival_time":"9:03:00","departure_time":"9:03:00","lat":49.249657,"lon":16.617775,"is_passed":false},{"stop_id":"U1711Z2","name":"Útěchovská","arrival_time":"9:04:00","departure_time":"9:04:00","lat":49.246974,"lon":16.61581,"is_passed":false},{"stop_id":"U1407Z2","name":"Myslivecký stadion","arrival_time":"9:05:00","departure_time":"9:05:00","lat":49.241075,"lon":16.609359,"is_passed":false},{"stop_id":"U1130Z1","name":"Hamerláky","arrival_time":"9:06:00","departure_time":"9:06:00","lat":49.237082,"lon":16.603873,"is_passed":false},{"stop_id":"U1564Z2","name":"Sadová","arrival_time":"9:07:00","departure_time":"9:07:00","lat":49.233904,"lon":16.604679,"is_passed":false},{"stop_id":"U1399Z2","name":"Moskalykova","arrival_time":"9:08:00","departure_time":"9:08:00","lat":49.23163,"lon":16.608178,"is_passed":false},{"stop_id":"U1150Z2","name":"Högrova","arrival_time":"9:10:00","departure_time":"9:10:00","lat":49.229128,"lon":16.604259,"is_passed":false},{"stop_id":"U1388Z1","name":"Mojmírovo náměstí","arrival_time":"9:12:00","departure_time":"9:12:00","lat":49.226134,"lon":16.597399,"is_passed":false},{"stop_id":"U1286Z5","name":"Královo Pole, nádraží","arrival_time":"9:15:00","departure_time":"9:15:00","lat":49.229633,"lon":16.595447,"is_passed":false},{"stop_id":"U1566Z6","name":"Semilasso","arrival_time":"9:16:00","departure_time":"9:16:00","lat":49.228248,"lon":16.593466,"is_passed":false},{"stop_id":"U1171Z4","name":"Husitská","arrival_time":"9:18:00","departure_time":"9:18:00","lat":49.224063,"lon":16.593994,"is_passed":false},{"stop_id":"U1586Z3","name":"Slovanské náměstí","arrival_time":"9:19:00","departure_time":"9:19:00","lat":49.223525,"lon":16.591009,"is_passed":false},{"stop_id":"U1567Z5","name":"Skácelova","arrival_time":"9:20:00","departure_time":"9:20:00","lat":49.221353,"lon":16.584711,"is_passed":false},{"stop_id":"U1777Z1","name":"Záhřebská","arrival_time":"9:22:00","departure_time":"9:22:00","lat":49.219602,"lon":16.579157,"is_passed":false},{"stop_id":"U1528Z3","name":"Přívrat","arrival_time":"9:23:00","departure_time":"9:23:00","lat":49.218788,"lon":16.574147,"is_passed":false},{"stop_id":"U1758Z1","name":"Vrázova","arrival_time":"9:24:00","departure_time":"9:24:00","lat":49.216968,"lon":16.568321,"is_passed":false},{"stop_id":"U1651Z1","name":"Štursova","arrival_time":"9:25:00","departure_time":"9:25:00","lat":49.216462,"lon":16.563614,"is_passed":false},{"stop_id":"U1502Z1","name":"Podveská","arrival_time":"9:26:00","departure_time":"9:26:00","lat":49.217623,"lon":16.559017,"is_passed":false},{"stop_id":"U1633Z3","name":"Svratecká","arrival_time":"9:27:00","departure_time":"9:27:00","lat":49.219008,"lon":16.554451,"is_passed":false},{"stop_id":"U1345Z1","name":"Lísky","arrival_time":"9:29:00","departure_time":"9:29:00","lat":49.219825,"lon":16.548868,"is_passed":false},{"stop_id":"U1493Z3","name":"Podlesí","arrival_time":"9:30:00","departure_time":"9:30:00","lat":49.218861,"lon":16.542049,"is_passed":false},{"stop_id":"U1226Z3","name":"Kamenolom","arrival_time":"9:31:00","departure_time":"9:31:00","lat":49.222506,"lon":16.537085,"is_passed":false},{"stop_id":"U1796Z7","name":"Zoologická zahrada","arrival_time":"9:35:00","departure_time":"9:35:00","lat":49.227823,"lon":16.531364,"is_passed":false},{"stop_id":"U1417Z1","name":"Náměstí 28. dubna","arrival_time":"9:36:00","departure_time":"9:36:00","lat":49.225188,"lon":16.531132,"is_passed":false},{"stop_id":"U1752Z1","name":"Vondrákova","arrival_time":"9:37:00","departure_time":"9:37:00","lat":49.221303,"lon":16.528376,"is_passed":false},{"stop_id":"U1326Z1","name":"Laštůvkova","arrival_time":"9:38:00","departure_time":"9:38:00","lat":49.220185,"lon":16.525212,"is_passed":false},{"stop_id":"U1107Z1","name":"Filipova","arrival_time":"9:39:00","departure_time":"9:39:00","lat":49.217684,"lon":16.525123,"is_passed":false},{"stop_id":"U1062Z1","name":"Černého","arrival_time":"9:41:00","departure_time":"10:20:00","lat":49.214083,"lon":16.522812,"is_passed":false}],"56310":[{"stop_id":"U1062Z2","name":"Černého","arrival_time":"10:20:00","departure_time":"10:20:00","lat":49.213885,"lon":16.523087,"is_passed":false},{"stop_id":"U1107Z2","name":"Filipova","arrival_time":"10:21:00","departure_time":"10:21:00","lat":49.217593,"lon":16.525217,"is_passed":false},{"stop_id":"U1326Z4","name":"Laštůvkova","arrival_time":"10:22:00","departure_time":"10:22:00","lat":49.220549,"lon":16.526237,"is_passed":false},{"stop_id":"U1752Z2","name":"Vondrákova","arrival_time":"10:23:00","departure_time":"10:23:00","lat":49.221445,"lon":16.528853,"is_passed":false},{"stop_id":"U1417Z2","name":"Náměstí 28. dubna","arrival_time":"10:24:00","departure_time":"10:24:00","lat":49.226314,"lon":16.53213,"is_passed":false},{"stop_id":"U1226Z4","name":"Kamenolom","arrival_time":"10:26:00","departure_time":"10:26:00","lat":49.221655,"lon":16.536983,"is_passed":false},{"stop_id":"U1493Z4","name":"Podlesí","arrival_time":"10:27:00","departure_time":"10:27:00","lat":49.218759,"lon":16.542623,"is_passed":false},{"stop_id":"U1345Z2","name":"Lísky","arrival_time":"10:28:00","departure_time":"10:28:00","lat":49.219967,"lon":16.549281,"is_passed":false},{"stop_id":"U1633Z4","name":"Svratecká","arrival_time":"10:30:00","departure_time":"10:30:00","lat":49.218696,"lon":16.554399,"is_passed":false},{"stop_id":"U1502Z2","name":"Podveská","arrival_time":"10:32:00","departure_time":"10:32:00","lat":49.217607,"lon":16.558178,"is_passed":false},{"stop_id":"U1651Z2","name":"Štursova","arrival_time":"10:33:00","departure_time":"10:33:00","lat":49.215854,"lon":16.564522,"is_passed":false},{"stop_id":"U1758Z2","name":"Vrázova","arrival_time":"10:34:00","departure_time":"10:34:00","lat":49.216977,"lon":16.568646,"is_passed":false},{"stop_id":"U1528Z4","name":"Přívrat","arrival_time":"10:36:00","departure_time":"10:36:00","lat":49.218647,"lon":16.574085,"is_passed":false},{"stop_id":"U1777Z2","name":"Záhřebská","arrival_time":"10:37:00","departure_time":"10:37:00","lat":49.219845,"lon":16.580415,"is_passed":false},{"stop_id":"U1567Z6","name":"Skácelova","arrival_time":"10:39:00","departure_time":"10:39:00","lat":49.22163,"lon":16.585935,"is_passed":false},{"stop_id":"U1586Z4","name":"Slovanské náměstí","arrival_time":"10:40:00","departure_time":"10:40:00","lat":49.222774,"lon":16.591332,"is_passed":false},{"stop_id":"U1171Z3","name":"Husitská","arrival_time":"10:41:00","departure_time":"10:41:00","lat":49.223851,"lon":16.594116,"is_passed":false},{"stop_id":"U1566Z4","name":"Semilasso","arrival_time":"10:43:00","departure_time":"10:43:00","lat":49.228055,"lon":16.593438,"is_passed":false},{"stop_id":"U1286Z3","name":"Královo Pole, nádraží","arrival_time":"10:44:00","departure_time":"10:44:00","lat":49.229218,"lon":16.596271,"is_passed":false},{"stop_id":"U1388Z2","name":"Mojmírovo náměstí","arrival_time":"10:45:00","departure_time":"10:45:00","lat":49.226499,"lon":16.598423,"is_passed":false},{"stop_id":"U1150Z1","name":"Högrova","arrival_time":"10:47:00","departure_time":"10:47:00","lat":49.228296,"lon":16.604528,"is_passed":false},{"stop_id":"U1195Z1","name":"Jarmily Kurandové","arrival_time":"10:47:00","departure_time":"10:47:00","lat":49.230235,"lon":16.604438,"is_passed":false},{"stop_id":"U1399Z1","name":"Moskalykova","arrival_time":"10:48:00","departure_time":"10:48:00","lat":49.231252,"lon":16.607921,"is_passed":false},{"stop_id":"U1564Z1","name":"Sadová","arrival_time":"10:50:00","departure_time":"10:50:00","lat":49.234166,"lon":16.603978,"is_passed":false},{"stop_id":"U1130Z2","name":"Hamerláky","arrival_time":"10:51:00","departure_time":"10:51:00","lat":49.237225,"lon":16.60407,"is_passed":false},{"stop_id":"U1407Z1","name":"Myslivecký stadion","arrival_time":"10:52:00","departure_time":"10:52:00","lat":49.241317,"lon":16.609929,"is_passed":false},{"stop_id":"U1711Z1","name":"Útěchovská","arrival_time":"10:54:00","departure_time":"10:54:00","lat":49.2475,"lon":16.616402,"is_passed":false},{"stop_id":"U1091Z1","name":"Dohnalova","arrival_time":"10:55:00","departure_time":"10:55:00","lat":49.251124,"lon":16.618901,"is_passed":false},{"stop_id":"U1412Z1","name":"Na kovárně","arrival_time":"10:56:00","departure_time":"10:56:00","lat":49.253213,"lon":16.620275,"is_passed":false},{"stop_id":"U1548Z1","name":"Rozárka","arrival_time":"10:57:00","departure_time":"10:57:00","lat":49.254486,"lon":16.622791,"is_passed":false},{"stop_id":"U1235Z3","name":"Klarisky","arrival_time":"10:59:00","departure_time":"11:01:00","lat":49.256942,"lon":16.622725,"is_passed":false}],"56311":[{"stop_id":"U1235Z4","name":"Klarisky","arrival_time":"11:01:00","departure_time":"11:01:00","lat":49.257063,"lon":16.622604,"is_passed":false},{"stop_id":"U1412Z2","name":"Na kovárně","arrival_time":"11:02:00","departure_time":"11:02:00","lat":49.254426,"lon":16.620777,"is_passed":false},{"stop_id":"U1091Z2","name":"Dohnalova","arrival_time":"11:03:00","departure_time":"11:03:00","lat":49.249657,"lon":16.617775,"is_passed":false},{"stop_id":"U1711Z2","name":"Útěchovská","arrival_time":"11:04:00","departure_time":"11:04:00","lat":49.246974,"lon":16.61581,"is_passed":false},{"stop_id":"U1407Z2","name":"Myslivecký stadion","arrival_time":"11:05:00","departure_time":"11:05:00","lat":49.241075,"lon":16.609359,"is_passed":false},{"stop_id":"U1130Z1","name":"Hamerláky","arrival_time":"11:06:00","departure_time":"11:06:00","lat":49.237082,"lon":16.603873,"is_passed":false},{"stop_id":"U1564Z2","name":"Sadová","arrival_time":"11:07:00","departure_time":"11:07:00","lat":49.233904,"lon":16.604679,"is_passed":false},{"stop_id":"U1399Z2","name":"Moskalykova","arrival_time":"11:08:00","departure_time":"11:08:00","lat":49.23163,"lon":16.608178,"is_passed":false},{"stop_id":"U1150Z2","name":"Högrova","arrival_time":"11:10:00","departure_time":"11:10:00","lat":49.229128,"lon":16.604259,"is_passed":false},{"stop_id":"U1388Z1","name":"Mojmírovo náměstí","arrival_time":"11:12:00","departure_time":"11:12:00","lat":49.226134,"lon":16.597399,"is_passed":false},{"stop_id":"U1286Z5","name":"Královo Pole, nádraží","arrival_time":"11:15:00","departure_time":"11:15:00","lat":49.229633,"lon":16.595447,"is_passed":false},{"stop_id":"U1566Z6","name":"Semilasso","arrival_time":"11:16:00","departure_time":"11:16:00","lat":49.228248,"lon":16.593466,"is_passed":false},{"stop_id":"U1171Z4","name":"Husitská","arrival_time":"11:18:00","departure_time":"11:18:00","lat":49.224063,"lon":16.593994,"is_passed":false},{"stop_id":"U1586Z3","name":"Slovanské náměstí","arrival_time":"11:19:00","departure_time":"11:19:00","lat":49.223525,"lon":16.591009,"is_passed":false},{"stop_id":"U1567Z5","name":"Skácelova","arrival_time":"11:20:00","departure_time":"11:20:00","lat":49.221353,"lon":16.584711,"is_passed":false},{"stop_id":"U1777Z1","name":"Záhřebská","arrival_time":"11:22:00","departure_time":"11:22:00","lat":49.219602,"lon":16.579157,"is_passed":false},{"stop_id":"U1528Z3","name":"Přívrat","arrival_time":"11:23:00","departure_time":"11:23:00","lat":49.218788,"lon":16.574147,"is_passed":false},{"stop_id":"U1758Z1","name":"Vrázova","arrival_time":"11:24:00","departure_time":"11:24:00","lat":49.216968,"lon":16.568321,"is_passed":false},{"stop_id":"U1651Z1","name":"Štursova","arrival_time":"11:25:00","departure_time":"11:25:00","lat":49.216462,"lon":16.563614,"is_passed":false},{"stop_id":"U1502Z1","name":"Podveská","arrival_time":"11:26:00","departure_time":"11:26:00","lat":49.217623,"lon":16.559017,"is_passed":false},{"stop_id":"U1633Z3","name":"Svratecká","arrival_time":"11:27:00","departure_time":"11:27:00","lat":49.219008,"lon":16.554451,"is_passed":false},{"stop_id":"U1345Z1","name":"Lísky","arrival_time":"11:29:00","departure_time":"11:29:00","lat":49.219825,"lon":16.548868,"is_passed":false},{"stop_id":"U1493Z3","name":"Podlesí","arrival_time":"11:30:00","departure_time":"11:30:00","lat":49.218861,"lon":16.542049,"is_passed":false},{"stop_id":"U1226Z3","name":"Kamenolom","arrival_time":"11:31:00","departure_time":"11:31:00","lat":49.222506,"lon":16.537085,"is_passed":false},{"stop_id":"U1796Z7","name":"Zoologická zahrada","arrival_time":"11:35:00","departure_time":"11:35:00","lat":49.227823,"lon":16.531364,"is_passed":false},{"stop_id":"U1417Z1","name":"Náměstí 28. dubna","arrival_time":"11:36:00","departure_time":"11:36:00","lat":49.225188,"lon":16.531132,"is_passed":false},{"stop_id":"U1752Z1","name":"Vondrákova","arrival_time":"11:37:00","departure_time":"11:37:00","lat":49.221303,"lon":16.528376,"is_passed":false},{"stop_id":"U1326Z1","name":"Laštůvkova","arrival_time":"11:38:00","departure_time":"11:38:00","lat":49.220185,"lon":16.525212,"is_passed":false},{"stop_id":"U1107Z1","name":"Filipova","arrival_time":"11:39:00","departure_time":"11:39:00","lat":49.217684,"lon":16.525123,"is_passed":false},{"stop_id":"U1062Z1","name":"Černého","arrival_time":"11:41:00","departure_time":"12:05:00","lat":49.214083,"lon":16.522812,"is_passed":false}],"56312":[{"stop_id":"U1062Z2","name":"Černého","arrival_time":"12:05:00","departure_time":"12:05:00","lat":49.213885,"lon":16.523087,"is_passed":false},{"stop_id":"U1107Z2","name":"Filipova","arrival_time":"12:06:00","departure_time":"12:06:00","lat":49.217593,"lon":16.525217,"is_passed":false},{"stop_id":"U1326Z4","name":"Laštůvkova","arrival_time":"12:07:00","departure_time":"12:07:00","lat":49.220549,"lon":16.526237,"is_passed":false},{"stop_id":"U1752Z2","name":"Vondrákova","arrival_time":"12:08:00","departure_time":"12:08:00","lat":49.221445,"lon":16.528853,"is_passed":false},{"stop_id":"U1417Z2","name":"Náměstí 28. dubna","arrival_time":"12:09:00","departure_time":"12:09:00","lat":49.226314,"lon":16.53213,"is_passed":false},{"stop_id":"U1226Z4","name":"Kamenolom","arrival_time":"12:11:00","departure_time":"12:11:00","lat":49.221655,"lon":16.536983,"is_passed":false},{"stop_id":"U1493Z4","name":"Podlesí","arrival_time":"12:12:00","departure_time":"12:12:00","lat":49.218759,"lon":16.542623,"is_passed":false},{"stop_id":"U1345Z2","name":"Lísky","arrival_time":"12:13:00","departure_time":"12:13:00","lat":49.219967,"lon":16.549281,"is_passed":false},{"stop_id":"U1633Z4","name":"Svratecká","arrival_time":"12:15:00","departure_time":"12:15:00","lat":49.218696,"lon":16.554399,"is_passed":false},{"stop_id":"U1502Z2","name":"Podveská","arrival_time":"12:17:00","departure_time":"12:17:00","lat":49.217607,"lon":16.558178,"is_passed":false},{"stop_id":"U1651Z2","name":"Štursova","arrival_time":"12:18:00","departure_time":"12:18:00","lat":49.215854,"lon":16.564522,"is_passed":false},{"stop_id":"U1758Z2","name":"Vrázova","arrival_time":"12:19:00","departure_time":"12:19:00","lat":49.216977,"lon":16.568646,"is_passed":false},{"stop_id":"U1528Z4","name":"Přívrat","arrival_time":"12:21:00","departure_time":"12:21:00","lat":49.218647,"lon":16.574085,"is_passed":false},{"stop_id":"U1777Z2","name":"Záhřebská","arrival_time":"12:22:00","departure_time":"12:22:00","lat":49.219845,"lon":16.580415,"is_passed":false},{"stop_id":"U1567Z6","name":"Skácelova","arrival_time":"12:24:00","departure_time":"12:24:00","lat":49.22163,"lon":16.585935,"is_passed":false},{"stop_id":"U1586Z4","name":"Slovanské náměstí","arrival_time":"12:25:00","departure_time":"12:25:00","lat":49.222774,"lon":16.591332,"is_passed":false},{"stop_id":"U1171Z3","name":"Husitská","arrival_time":"12:26:00","departure_time":"12:26:00","lat":49.223851,"lon":16.594116,"is_passed":false},{"stop_id":"U1566Z4","name":"Semilasso","arrival_time":"12:28:00","departure_time":"12:28:00","lat":49.228055,"lon":16.593438,"is_passed":false},{"stop_id":"U1286Z3","name":"Královo Pole, nádraží","arrival_time":"12:29:00","departure_time":"12:29:00","lat":49.229218,"lon":16.596271,"is_passed":false},{"stop_id":"U1388Z2","name":"Mojmírovo náměstí","arrival_time":"12:30:00","departure_time":"12:30:00","lat":49.226499,"lon":16.598423,"is_passed":false},{"stop_id":"U1150Z1","name":"Högrova","arrival_time":"12:32:00","departure_time":"12:32:00","lat":49.228296,"lon":16.604528,"is_passed":false},{"stop_id":"U1195Z1","name":"Jarmily Kurandové","arrival_time":"12:32:00","departure_time":"12:32:00","lat":49.230235,"lon":16.604438,"is_passed":false},{"stop_id":"U1399Z1","name":"Moskalykova","arrival_time":"12:33:00","departure_time":"12:33:00","lat":49.231252,"lon":16.607921,"is_passed":false},{"stop_id":"U1564Z1","name":"Sadová","arrival_time":"12:35:00","departure_time":"12:35:00","lat":49.234166,"lon":16.603978,"is_passed":false},{"stop_id":"U1130Z2","name":"Hamerláky","arrival_time":"12:36:00","departure_time":"12:36:00","lat":49.237225,"lon":16.60407,"is_passed":false},{"stop_id":"U1407Z1","name":"Myslivecký stadion","arrival_time":"12:37:00","departure_time":"12:37:00","lat":49.241317,"lon":16.609929,"is_passed":false},{"stop_id":"U1711Z1","name":"Útěchovská","arrival_time":"12:39:00","departure_time":"12:39:00","lat":49.2475,"lon":16.616402,"is_passed":false},{"stop_id":"U1091Z1","name":"Dohnalova","arrival_time":"12:40:00","departure_time":"12:40:00","lat":49.251124,"lon":16.618901,"is_passed":false},{"stop_id":"U1412Z1","name":"Na kovárně","arrival_time":"12:41:00","departure_time":"12:41:00","lat":49.253213,"lon":16.620275,"is_passed":false},{"stop_id":"U1548Z1","name":"Rozárka","arrival_time":"12:42:00","departure_time":"12:42:00","lat":49.254486,"lon":16.622791,"is_passed":false},{"stop_id":"U1235Z3","name":"Klarisky","arrival_time":"12:44:00","departure_time":"12:46:00","lat":49.256942,"lon":16.622725,"is_passed":false}],"56313":[{"stop_id":"U1235Z4","name":"Klarisky","arrival_time":"12:46:00","departure_time":"12:46:00","lat":49.257063,"lon":16.622604,"is_passed":false},{"stop_id":"U1412Z2","name":"Na kovárně","arrival_time":"12:47:00","departure_time":"12:47:00","lat":49.254426,"lon":16.620777,"is_passed":false},{"stop_id":"U1091Z2","name":"Dohnalova","arrival_time":"12:48:00","departure_time":"12:48:00","lat":49.249657,"lon":16.617775,"is_passed":false},{"stop_id":"U1711Z2","name":"Útěchovská","arrival_time":"12:49:00","departure_time":"12:49:00","lat":49.246974,"lon":16.61581,"is_passed":false},{"stop_id":"U1407Z2","name":"Myslivecký stadion","arrival_time":"12:50:00","departure_time":"12:50:00","lat":49.241075,"lon":16.609359,"is_passed":false},{"stop_id":"U1130Z1","name":"Hamerláky","arrival_time":"12:51:00","departure_time":"12:51:00","lat":49.237082,"lon":16.603873,"is_passed":false},{"stop_id":"U1564Z2","name":"Sadová","arrival_time":"12:52:00","departure_time":"12:52:00","lat":49.233904,"lon":16.604679,"is_passed":false},{"stop_id":"U1399Z2","name":"Moskalykova","arrival_time":"12:53:00","departure_time":"12:53:00","lat":49.23163,"lon":16.608178,"is_passed":false},{"stop_id":"U1150Z2","name":"Högrova","arrival_time":"12:55:00","departure_time":"12:55:00","lat":49.229128,"lon":16.604259,"is_passed":false},{"stop_id":"U1388Z1","name":"Mojmírovo náměstí","arrival_time":"12:57:00","departure_time":"12:57:00","lat":49.226134,"lon":16.597399,"is_passed":false},{"stop_id":"U1286Z5","name":"Královo Pole, nádraží","arrival_time":"13:00:00","departure_time":"13:00:00","lat":49.229633,"lon":16.595447,"is_passed":false},{"stop_id":"U1566Z6","name":"Semilasso","arrival_time":"13:01:00","departure_time":"13:01:00","lat":49.228248,"lon":16.593466,"is_passed":false},{"stop_id":"U1171Z4","name":"Husitská","arrival_time":"13:03:00","departure_time":"13:03:00","lat":49.224063,"lon":16.593994,"is_passed":false},{"stop_id":"U1586Z3","name":"Slovanské náměstí","arrival_time":"13:04:00","departure_time":"13:04:00","lat":49.223525,"lon":16.591009,"is_passed":false},{"stop_id":"U1567Z5","name":"Skácelova","arrival_time":"13:05:00","departure_time":"13:05:00","lat":49.221353,"lon":16.584711,"is_passed":false},{"stop_id":"U1777Z1","name":"Záhřebská","arrival_time":"13:07:00","departure_time":"13:07:00","lat":49.219602,"lon":16.579157,"is_passed":false},{"stop_id":"U1528Z3","name":"Přívrat","arrival_time":"13:08:00","departure_time":"13:08:00","lat":49.218788,"lon":16.574147,"is_passed":false},{"stop_id":"U1758Z1","name":"Vrázova","arrival_time":"13:09:00","departure_time":"13:09:00","lat":49.216968,"lon":16.568321,"is_passed":false},{"stop_id":"U1651Z1","name":"Štursova","arrival_time":"13:10:00","departure_time":"13:10:00","lat":49.216462,"lon":16.563614,"is_passed":false},{"stop_id":"U1502Z1","name":"Podveská","arrival_time":"13:11:00","departure_time":"13:11:00","lat":49.217623,"lon":16.559017,"is_passed":false},{"stop_id":"U1633Z3","name":"Svratecká","arrival_time":"13:12:00","departure_time":"13:12:00","lat":49.219008,"lon":16.554451,"is_passed":false},{"stop_id":"U1345Z1","name":"Lísky","arrival_time":"13:14:00","departure_time":"13:14:00","lat":49.219825,"lon":16.548868,"is_passed":false},{"stop_id":"U1493Z3","name":"Podlesí","arrival_time":"13:15:00","departure_time":"13:15:00","lat":49.218861,"lon":16.542049,"is_passed":false},{"stop_id":"U1226Z3","name":"Kamenolom","arrival_time":"13:16:00","departure_time":"13:16:00","lat":49.222506,"lon":16.537085,"is_passed":false},{"stop_id":"U1796Z7","name":"Zoologická zahrada","arrival_time":"13:20:00","departure_time":"13:20:00","lat":49.227823,"lon":16.531364,"is_passed":false},{"stop_id":"U1417Z1","name":"Náměstí 28. dubna","arrival_time":"13:21:00","departure_time":"13:21:00","lat":49.225188,"lon":16.531132,"is_passed":false},{"stop_id":"U1752Z1","name":"Vondrákova","arrival_time":"13:22:00","departure_time":"13:22:00","lat":49.221303,"lon":16.528376,"is_passed":false},{"stop_id":"U1326Z1","name":"Laštůvkova","arrival_time":"13:23:00","departure_time":"13:23:00","lat":49.220185,"lon":16.525212,"is_passed":false},{"stop_id":"U1107Z1","name":"Filipova","arrival_time":"13:24:00","departure_time":"13:24:00","lat":49.217684,"lon":16.525123,"is_passed":false},{"stop_id":"U1062Z1","name":"Černého","arrival_time":"13:26:00","departure_time":"13:50:00","lat":49.214083,"lon":16.522812,"is_passed":false}],"56314":[{"stop_id":"U1062Z2","name":"Černého","arrival_time":"13:50:00","departure_time":"13:50:00","lat":49.213885,"lon":16.523087,"is_passed":false},{"stop_id":"U1107Z2","name":"Filipova","arrival_time":"13:51:00","departure_time":"13:51:00","lat":49.217593,"lon":16.525217,"is_passed":false},{"stop_id":"U1326Z4","name":"Laštůvkova","arrival_time":"13:52:00","departure_time":"13:52:00","lat":49.220549,"lon":16.526237,"is_passed":false},{"stop_id":"U1752Z2","name":"Vondrákova","arrival_time":"13:53:00","departure_time":"13:53:00","lat":49.221445,"lon":16.528853,"is_passed":false},{"stop_id":"U1417Z2","name":"Náměstí 28. dubna","arrival_time":"13:54:00","departure_time":"13:54:00","lat":49.226314,"lon":16.53213,"is_passed":false},{"stop_id":"U1226Z4","name":"Kamenolom","arrival_time":"13:56:00","departure_time":"13:56:00","lat":49.221655,"lon":16.536983,"is_passed":false},{"stop_id":"U1493Z4","name":"Podlesí","arrival_time":"13:57:00","departure_time":"13:57:00","lat":49.218759,"lon":16.542623,"is_passed":false},{"stop_id":"U1345Z2","name":"Lísky","arrival_time":"13:58:00","departure_time":"13:58:00","lat":49.219967,"lon":16.549281,"is_passed":false},{"stop_id":"U1633Z4","name":"Svratecká","arrival_time":"14:00:00","departure_time":"14:00:00","lat":49.218696,"lon":16.554399,"is_passed":false},{"stop_id":"U1502Z2","name":"Podveská","arrival_time":"14:02:00","departure_time":"14:02:00","lat":49.217607,"lon":16.558178,"is_passed":false},{"stop_id":"U1651Z2","name":"Štursova","arrival_time":"14:03:00","departure_time":"14:03:00","lat":49.215854,"lon":16.564522,"is_passed":false},{"stop_id":"U1758Z2","name":"Vrázova","arrival_time":"14:04:00","departure_time":"14:04:00","lat":49.216977,"lon":16.568646,"is_passed":false},{"stop_id":"U1528Z4","name":"Přívrat","arrival_time":"14:06:00","departure_time":"14:06:00","lat":49.218647,"lon":16.574085,"is_passed":false},{"stop_id":"U1777Z2","name":"Záhřebská","arrival_time":"14:07:00","departure_time":"14:07:00","lat":49.219845,"lon":16.580415,"is_passed":false},{"stop_id":"U1567Z6","name":"Skácelova","arrival_time":"14:09:00","departure_time":"14:09:00","lat":49.22163,"lon":16.585935,"is_passed":false},{"stop_id":"U1586Z4","name":"Slovanské náměstí","arrival_time":"14:10:00","departure_time":"14:10:00","lat":49.222774,"lon":16.591332,"is_passed":false},{"stop_id":"U1171Z3","name":"Husitská","arrival_time":"14:11:00","departure_time":"14:11:00","lat":49.223851,"lon":16.594116,"is_passed":false},{"stop_id":"U1566Z4","name":"Semilasso","arrival_time":"14:13:00","departure_time":"14:13:00","lat":49.228055,"lon":16.593438,"is_passed":false},{"stop_id":"U1286Z3","name":"Královo Pole, nádraží","arrival_time":"14:14:00","departure_time":"14:14:00","lat":49.229218,"lon":16.596271,"is_passed":false},{"stop_id":"U1388Z2","name":"Mojmírovo náměstí","arrival_time":"14:15:00","departure_time":"14:15:00","lat":49.226499,"lon":16.598423,"is_passed":false},{"stop_id":"U1150Z1","name":"Högrova","arrival_time":"14:17:00","departure_time":"14:17:00","lat":49.228296,"lon":16.604528,"is_passed":false},{"stop_id":"U1195Z1","name":"Jarmily Kurandové","arrival_time":"14:17:00","departure_time":"14:17:00","lat":49.230235,"lon":16.604438,"is_passed":false},{"stop_id":"U1399Z1","name":"Moskalykova","arrival_time":"14:18:00","departure_time":"14:18:00","lat":49.231252,"lon":16.607921,"is_passed":false},{"stop_id":"U1564Z1","name":"Sadová","arrival_time":"14:20:00","departure_time":"14:20:00","lat":49.234166,"lon":16.603978,"is_passed":false},{"stop_id":"U1130Z2","name":"Hamerláky","arrival_time":"14:21:00","departure_time":"14:21:00","lat":49.237225,"lon":16.60407,"is_passed":false},{"stop_id":"U1407Z1","name":"Myslivecký stadion","arrival_time":"14:22:00","departure_time":"14:22:00","lat":49.241317,"lon":16.609929,"is_passed":false},{"stop_id":"U1711Z1","name":"Útěchovská","arrival_time":"14:24:00","departure_time":"14:24:00","lat":49.2475,"lon":16.616402,"is_passed":false},{"stop_id":"U1091Z1","name":"Dohnalova","arrival_time":"14:25:00","departure_time":"14:25:00","lat":49.251124,"lon":16.618901,"is_passed":false},{"stop_id":"U1412Z1","name":"Na kovárně","arrival_time":"14:26:00","departure_time":"14:26:00","lat":49.253213,"lon":16.620275,"is_passed":false},{"stop_id":"U1548Z1","name":"Rozárka","arrival_time":"14:27:00","departure_time":"14:27:00","lat":49.254486,"lon":16.622791,"is_passed":false},{"stop_id":"U1235Z3","name":"Klarisky","arrival_time":"14:29:00","departure_time":"14:31:00","lat":49.256942,"lon":16.622725,"is_passed":false}],"56315":[{"stop_id":"U1235Z4","name":"Klarisky","arrival_time":"14:31:00","departure_time":"14:31:00","lat":49.257063,"lon":16.622604,"is_passed":false},{"stop_id":"U1412Z2","name":"Na kovárně","arrival_time":"14:32:00","departure_time":"14:32:00","lat":49.254426,"lon":16.620777,"is_passed":false},{"stop_id":"U1091Z2","name":"Dohnalova","arrival_time":"14:33:00","departure_time":"14:33:00","lat":49.249657,"lon":16.617775,"is_passed":false},{"stop_id":"U1711Z2","name":"Útěchovská","arrival_time":"14:34:00","departure_time":"14:34:00","lat":49.246974,"lon":16.61581,"is_passed":false},{"stop_id":"U1407Z2","name":"Myslivecký stadion","arrival_time":"14:35:00","departure_time":"14:35:00","lat":49.241075,"lon":16.609359,"is_passed":false},{"stop_id":"U1130Z1","name":"Hamerláky","arrival_time":"14:36:00","departure_time":"14:36:00","lat":49.237082,"lon":16.603873,"is_passed":false},{"stop_id":"U1564Z2","name":"Sadová","arrival_time":"14:37:00","departure_time":"14:37:00","lat":49.233904,"lon":16.604679,"is_passed":false},{"stop_id":"U1399Z2","name":"Moskalykova","arrival_time":"14:38:00","departure_time":"14:38:00","lat":49.23163,"lon":16.608178,"is_passed":false},{"stop_id":"U1150Z2","name":"Högrova","arrival_time":"14:40:00","departure_time":"14:40:00","lat":49.229128,"lon":16.604259,"is_passed":false},{"stop_id":"U1388Z1","name":"Mojmírovo náměstí","arrival_time":"14:42:00","departure_time":"14:42:00","lat":49.226134,"lon":16.597399,"is_passed":false},{"stop_id":"U1286Z5","name":"Královo Pole, nádraží","arrival_time":"14:45:00","departure_time":"14:45:00","lat":49.229633,"lon":16.595447,"is_passed":false},{"stop_id":"U1566Z6","name":"Semilasso","arrival_time":"14:46:00","departure_time":"14:46:00","lat":49.228248,"lon":16.593466,"is_passed":false},{"stop_id":"U1171Z4","name":"Husitská","arrival_time":"14:48:00","departure_time":"14:48:00","lat":49.224063,"lon":16.593994,"is_passed":false},{"stop_id":"U1586Z3","name":"Slovanské náměstí","arrival_time":"14:49:00","departure_time":"14:49:00","lat":49.223525,"lon":16.591009,"is_passed":false},{"stop_id":"U1567Z5","name":"Skácelova","arrival_time":"14:50:00","departure_time":"14:50:00","lat":49.221353,"lon":16.584711,"is_passed":false},{"stop_id":"U1777Z1","name":"Záhřebská","arrival_time":"14:52:00","departure_time":"14:52:00","lat":49.219602,"lon":16.579157,"is_passed":false},{"stop_id":"U1528Z3","name":"Přívrat","arrival_time":"14:53:00","departure_time":"14:53:00","lat":49.218788,"lon":16.574147,"is_passed":false},{"stop_id":"U1758Z1","name":"Vrázova","arrival_time":"14:54:00","departure_time":"14:54:00","lat":49.216968,"lon":16.568321,"is_passed":false},{"stop_id":"U1651Z1","name":"Štursova","arrival_time":"14:55:00","departure_time":"14:55:00","lat":49.216462,"lon":16.563614,"is_passed":false},{"stop_id":"U1502Z1","name":"Podveská","arrival_time":"14:56:00","departure_time":"14:56:00","lat":49.217623,"lon":16.559017,"is_passed":false},{"stop_id":"U1633Z3","name":"Svratecká","arrival_time":"14:57:00","departure_time":"14:57:00","lat":49.219008,"lon":16.554451,"is_passed":false},{"stop_id":"U1345Z1","name":"Lísky","arrival_time":"14:59:00","departure_time":"14:59:00","lat":49.219825,"lon":16.548868,"is_passed":false},{"stop_id":"U1493Z3","name":"Podlesí","arrival_time":"15:00:00","departure_time":"15:00:00","lat":49.218861,"lon":16.542049,"is_passed":false},{"stop_id":"U1226Z3","name":"Kamenolom","arrival_time":"15:01:00","departure_time":"15:01:00","lat":49.222506,"lon":16.537085,"is_passed":false},{"stop_id":"U1796Z7","name":"Zoologická zahrada","arrival_time":"15:05:00","departure_time":"15:05:00","lat":49.227823,"lon":16.531364,"is_passed":false},{"stop_id":"U1417Z1","name":"Náměstí 28. dubna","arrival_time":"15:06:00","departure_time":"15:06:00","lat":49.225188,"lon":16.531132,"is_passed":false},{"stop_id":"U1752Z1","name":"Vondrákova","arrival_time":"15:07:00","departure_time":"15:07:00","lat":49.221303,"lon":16.528376,"is_passed":false},{"stop_id":"U1326Z1","name":"Laštůvkova","arrival_time":"15:08:00","departure_time":"15:08:00","lat":49.220185,"lon":16.525212,"is_passed":false},{"stop_id":"U1107Z1","name":"Filipova","arrival_time":"15:09:00","departure_time":"15:09:00","lat":49.217684,"lon":16.525123,"is_passed":false},{"stop_id":"U1062Z1","name":"Černého","arrival_time":"15:11:00","departure_time":"15:30:00","lat":49.214083,"lon":16.522812,"is_passed":false}],"56316":[{"stop_id":"U1062Z2","name":"Černého","arrival_time":"15:30:00","departure_time":"15:30:00","lat":49.213885,"lon":16.523087,"is_passed":false},{"stop_id":"U1107Z2","name":"Filipova","arrival_time":"15:31:00","departure_time":"15:31:00","lat":49.217593,"lon":16.525217,"is_passed":false},{"stop_id":"U1326Z4","name":"Laštůvkova","arrival_time":"15:32:00","departure_time":"15:32:00","lat":49.220549,"lon":16.526237,"is_passed":false},{"stop_id":"U1752Z2","name":"Vondrákova","arrival_time":"15:33:00","departure_time":"15:33:00","lat":49.221445,"lon":16.528853,"is_passed":false},{"stop_id":"U1417Z2","name":"Náměstí 28. dubna","arrival_time":"15:34:00","departure_time":"15:34:00","lat":49.226314,"lon":16.53213,"is_passed":false},{"stop_id":"U1226Z4","name":"Kamenolom","arrival_time":"15:36:00","departure_time":"15:36:00","lat":49.221655,"lon":16.536983,"is_passed":false},{"stop_id":"U1493Z4","name":"Podlesí","arrival_time":"15:37:00","departure_time":"15:37:00","lat":49.218759,"lon":16.542623,"is_passed":false},{"stop_id":"U1345Z2","name":"Lísky","arrival_time":"15:38:00","departure_time":"15:38:00","lat":49.219967,"lon":16.549281,"is_passed":false},{"stop_id":"U1633Z4","name":"Svratecká","arrival_time":"15:40:00","departure_time":"15:40:00","lat":49.218696,"lon":16.554399,"is_passed":false},{"stop_id":"U1502Z2","name":"Podveská","arrival_time":"15:42:00","departure_time":"15:42:00","lat":49.217607,"lon":16.558178,"is_passed":false},{"stop_id":"U1651Z2","name":"Štursova","arrival_time":"15:43:00","departure_time":"15:43:00","lat":49.215854,"lon":16.564522,"is_passed":false},{"stop_id":"U1758Z2","name":"Vrázova","arrival_time":"15:44:00","departure_time":"15:44:00","lat":49.216977,"lon":16.568646,"is_passed":false},{"stop_id":"U1528Z4","name":"Přívrat","arrival_time":"15:46:00","departure_time":"15:46:00","lat":49.218647,"lon":16.574085,"is_passed":false},{"stop_id":"U1777Z2","name":"Záhřebská","arrival_time":"15:47:00","departure_time":"15:47:00","lat":49.219845,"lon":16.580415,"is_passed":false},{"stop_id":"U1567Z6","name":"Skácelova","arrival_time":"15:49:00","departure_time":"15:49:00","lat":49.22163,"lon":16.585935,"is_passed":false},{"stop_id":"U1586Z4","name":"Slovanské náměstí","arrival_time":"15:50:00","departure_time":"15:50:00","lat":49.222774,"lon":16.591332,"is_passed":false},{"stop_id":"U1171Z3","name":"Husitská","arrival_time":"15:51:00","departure_time":"15:51:00","lat":49.223851,"lon":16.594116,"is_passed":false},{"stop_id":"U1566Z4","name":"Semilasso","arrival_time":"15:53:00","departure_time":"15:53:00","lat":49.228055,"lon":16.593438,"is_passed":false},{"stop_id":"U1286Z9","name":"Královo Pole, nádraží","arrival_time":"15:55:00","departure_time":"15:55:00","lat":49.229881,"lon":16.595274,"is_passed":false}],"56317":[{"stop_id":"U1286Z5","name":"Královo Pole, nádraží","arrival_time":"15:55:00","departure_time":"15:55:00","lat":49.229633,"lon":16.595447,"is_passed":false},{"stop_id":"U1566Z6","name":"Semilasso","arrival_time":"15:56:00","departure_time":"15:56:00","lat":49.228248,"lon":16.593466,"is_passed":false},{"stop_id":"U1171Z4","name":"Husitská","arrival_time":"15:58:00","departure_time":"15:58:00","lat":49.224063,"lon":16.593994,"is_passed":false},{"stop_id":"U1586Z3","name":"Slovanské náměstí","arrival_time":"15:59:00","departure_time":"15:59:00","lat":49.223525,"lon":16.591009,"is_passed":false},{"stop_id":"U1567Z5","name":"Skácelova","arrival_time":"16:00:00","departure_time":"16:00:00","lat":49.221353,"lon":16.584711,"is_passed":false},{"stop_id":"U1777Z1","name":"Záhřebská","arrival_time":"16:02:00","departure_time":"16:02:00","lat":49.219602,"lon":16.579157,"is_passed":false},{"stop_id":"U1528Z3","name":"Přívrat","arrival_time":"16:03:00","departure_time":"16:03:00","lat":49.218788,"lon":16.574147,"is_passed":false},{"stop_id":"U1758Z1","name":"Vrázova","arrival_time":"16:04:00","departure_time":"16:04:00","lat":49.216968,"lon":16.568321,"is_passed":false},{"stop_id":"U1651Z1","name":"Štursova","arrival_time":"16:05:00","departure_time":"16:05:00","lat":49.216462,"lon":16.563614,"is_passed":false},{"stop_id":"U1502Z1","name":"Podveská","arrival_time":"16:06:00","departure_time":"16:06:00","lat":49.217623,"lon":16.559017,"is_passed":false},{"stop_id":"U1633Z3","name":"Svratecká","arrival_time":"16:07:00","departure_time":"16:07:00","lat":49.219008,"lon":16.554451,"is_passed":false},{"stop_id":"U1345Z1","name":"Lísky","arrival_time":"16:09:00","departure_time":"16:09:00","lat":49.219825,"lon":16.548868,"is_passed":false},{"stop_id":"U1493Z3","name":"Podlesí","arrival_time":"16:10:00","departure_time":"16:10:00","lat":49.218861,"lon":16.542049,"is_passed":false},{"stop_id":"U1226Z3","name":"Kamenolom","arrival_time":"16:11:00","departure_time":"16:11:00","lat":49.222506,"lon":16.537085,"is_passed":false},{"stop_id":"U1796Z7","name":"Zoologická zahrada","arrival_time":"16:15:00","departure_time":"16:15:00","lat":49.227823,"lon":16.531364,"is_passed":false},{"stop_id":"U1417Z1","name":"Náměstí 28. dubna","arrival_time":"16:16:00","departure_time":"16:16:00","lat":49.225188,"lon":16.531132,"is_passed":false},{"stop_id":"U1752Z1","name":"Vondrákova","arrival_time":"16:17:00","departure_time":"16:17:00","lat":49.221303,"lon":16.528376,"is_passed":false},{"stop_id":"U1326Z1","name":"Laštůvkova","arrival_time":"16:18:00","departure_time":"16:18:00","lat":49.220185,"lon":16.525212,"is_passed":false},{"stop_id":"U1107Z1","name":"Filipova","arrival_time":"16:19:00","departure_time":"16:19:00","lat":49.217684,"lon":16.525123,"is_passed":false},{"stop_id":"U1062Z1","name":"Černého","arrival_time":"16:21:00","departure_time":"16:50:00","lat":49.214083,"lon":16.522812,"is_passed":false}],"56318":[{"stop_id":"U1062Z2","name":"Černého","arrival_time":"16:50:00","departure_time":"16:50:00","lat":49.213885,"lon":16.523087,"is_passed":false},{"stop_id":"U1107Z2","name":"Filipova","arrival_time":"16:51:00","departure_time":"16:51:00","lat":49.217593,"lon":16.525217,"is_passed":false},{"stop_id":"U1326Z4","name":"Laštůvkova","arrival_time":"16:52:00","departure_time":"16:52:00","lat":49.220549,"lon":16.526237,"is_passed":false},{"stop_id":"U1752Z2","name":"Vondrákova","arrival_time":"16:53:00","departure_time":"16:53:00","lat":49.221445,"lon":16.528853,"is_passed":false},{"stop_id":"U1417Z2","name":"Náměstí 28. dubna","arrival_time":"16:54:00","departure_time":"16:54:00","lat":49.226314,"lon":16.53213,"is_passed":false},{"stop_id":"U1226Z4","name":"Kamenolom","arrival_time":"16:56:00","departure_time":"16:56:00","lat":49.221655,"lon":16.536983,"is_passed":false},{"stop_id":"U1493Z4","name":"Podlesí","arrival_time":"16:57:00","departure_time":"16:57:00","lat":49.218759,"lon":16.542623,"is_passed":false},{"stop_id":"U1345Z2","name":"Lísky","arrival_time":"16:58:00","departure_time":"16:58:00","lat":49.219967,"lon":16.549281,"is_passed":false},{"stop_id":"U1633Z4","name":"Svratecká","arrival_time":"17:00:00","departure_time":"17:00:00","lat":49.218696,"lon":16.554399,"is_passed":false},{"stop_id":"U1502Z2","name":"Podveská","arrival_time":"17:02:00","departure_time":"17:02:00","lat":49.217607,"lon":16.558178,"is_passed":false},{"stop_id":"U1651Z2","name":"Štursova","arrival_time":"17:03:00","departure_time":"17:03:00","lat":49.215854,"lon":16.564522,"is_passed":false},{"stop_id":"U1758Z2","name":"Vrázova","arrival_time":"17:04:00","departure_time":"17:04:00","lat":49.216977,"lon":16.568646,"is_passed":false},{"stop_id":"U1528Z4","name":"Přívrat","arrival_time":"17:06:00","departure_time":"17:06:00","lat":49.218647,"lon":16.574085,"is_passed":false},{"stop_id":"U1777Z2","name":"Záhřebská","arrival_time":"17:07:00","departure_time":"17:07:00","lat":49.219845,"lon":16.580415,"is_passed":false},{"stop_id":"U1567Z6","name":"Skácelova","arrival_time":"17:09:00","departure_time":"17:09:00","lat":49.22163,"lon":16.585935,"is_passed":false},{"stop_id":"U1586Z4","name":"Slovanské náměstí","arrival_time":"17:10:00","departure_time":"17:10:00","lat":49.222774,"lon":16.591332,"is_passed":false},{"stop_id":"U1171Z3","name":"Husitská","arrival_time":"17:11:00","departure_time":"17:11:00","lat":49.223851,"lon":16.594116,"is_passed":false},{"stop_id":"U1566Z4","name":"Semilasso","arrival_time":"17:13:00","departure_time":"17:13:00","lat":49.228055,"lon":16.593438,"is_passed":false},