{"563":[{"stop_id":"U12676Z51","name":"Skalice nad Svitavou, žel.st.","arrival_time":"14:35:00","departure_time":"14:35:00","lat":49.480123,"lon":16.609726,"is_passed":false},{"stop_id":"U12511Z51","name":"Doubravice, žel.st.","arrival_time":"14:40:00","departure_time":"14:40:00","lat":49.438707,"lon":16.621809,"is_passed":false},{"stop_id":"U12439Z51","name":"Rájec-Jestřebí, železniční stanice","arrival_time":"14:43:00","departure_time":"14:44:00","lat":49.408206,"lon":16.627711,"is_passed":false},{"stop_id":"U22301Z2","name":"Dolní Lhota","arrival_time":"14:46:00","departure_time":"14:47:00","lat":49.386917,"lon":16.633978,"is_passed":false},{"stop_id":"U22302Z2","name":"Blansko město","arrival_time":"14:49:00","departure_time":"14:50:00","lat":49.360996,"lon":16.639464,"is_passed":false},{"stop_id":"U12342Z29","name":"Blansko, aut. st.","arrival_time":"14:52:00","departure_time":"15:01:00","lat":49.352753,"lon":16.646848,"is_passed":false},{"stop_id":"U12231Z11","name":"Adamov, železniční zastávka","arrival_time":"15:07:00","departure_time":"15:07:00","lat":49.300671,"lon":16.650653,"is_passed":false},{"stop_id":"U12230Z11","name":"Adamov, železniční stanice","arrival_time":"15:09:00","departure_time":"15:10:00","lat":49.295341,"lon":16.663538,"is_passed":false},{"stop_id":"U22101Z2","name":"Babice nad Svitavou","arrival_time":"15:12:00","departure_time":"15:12:00","lat":49.276645,"lon":16.673012,"is_passed":false},{"stop_id":"U12158Z11","name":"Bílovice nad Svitavou, žel. stanice","arrival_time":"15:17:00","departure_time":"15:18:00","lat":49.242715,"lon":16.673677,"is_passed":false},{"stop_id":"U1809Z11","name":"Židenice, nádraží","arrival_time":"15:23:00","departure_time":"15:23:00","lat":49.204282,"lon":16.636042,"is_passed":false},{"stop_id":"U1146Z98","name":"Hlavní nádraží","arrival_time":"15:29:00","departure_time":"15:35:00","lat":49.19035,"lon":16.612342,"is_passed":false},{"stop_id":"U1183Z11","name":"Chrlice, nádraží","arrival_time":"15:43:00","departure_time":"15:47:00","lat":49.132031,"lon":16.657232,"is_passed":false},{"stop_id":"U16149Z11","name":"Sokolnice, železniční stanice","arrival_time":"15:53:00","departure_time":"16:40:00","lat":49.108029,"lon":16.733459,"is_passed":false}],"5630":[{"stop_id":"U15165Z2","name":"Měnín, obchodní středisko","arrival_time":"16:22:00","departure_time":"16:22:00","lat":49.079732,"lon":16.693543,"is_passed":false},{"stop_id":"U15128Z2","name":"Měnín, u mlýna","arrival_time":"16:23:00","departure_time":"16:23:00","lat":49.085172,"lon":16.694708,"is_passed":false},{"stop_id":"U15154Z2","name":"Měnín, ZD","arrival_time":"16:24:00","departure_time":"16:24:00","lat":49.091685,"lon":16.689643,"is_passed":false},{"stop_id":"U15133Z2","name":"Otmarov, chaloupka","arrival_time":"16:26:00","departure_time":"16:26:00","lat":49.101007,"lon":16.679762,"is_passed":false},{"stop_id":"U15175Z2","name":"Otmarov","arrival_time":"16:28:00","departure_time":"16:28:00","lat":49.100336,"lon":16.671844,"is_passed":false},{"stop_id":"U15176Z2","name":"Rajhradice, obalovna","arrival_time":"16:30:00","departure_time":"16:30:00","lat":49.096394,"lon":16.651454,"is_passed":false},{"stop_id":"U15144Z2","name":"Rajhradice, váha","arrival_time":"16:32:00","departure_time":"16:32:00","lat":49.09362,"lon":16.635452,"is_passed":false},{"stop_id":"U15145Z2","name":"Rebešovice","arrival_time":"16:34:00","departure_time":"16:34:00","lat":49.105028,"lon":16.638127,"is_passed":false},{"stop_id":"U15146Z2","name":"Rebešovice, Horky","arrival_time":"16:35:00","departure_time":"16:35:00","lat":49.108966,"lon":16.641733,"is_passed":false},{"stop_id":"U1182Z3","name":"Chrlice, smyčka","arrival_time":"16:38:00","departure_time":"16:38:00","lat":49.126855,"lon":16.655081,"is_passed":false},{"stop_id":"U1183Z2","name":"Chrlice, nádraží","arrival_time":"16:39:00","departure_time":"16:39:00","lat":49.132136,"lon":16.656638,"is_passed":false},{"stop_id":"U1187Z2","name":"Chrlické náměstí","arrival_time":"16:40:00","departure_time":"16:51:00","lat":49.13548,"lon":16.653876,"is_passed":false}],"5631":[{"stop_id":"U1187Z1","name":"Chrlické náměstí","arrival_time":"16:51:00","departure_time":"16:51:00","lat":49.135283,"lon":16.653902,"is_passed":false},{"stop_id":"U1183Z1","name":"Chrlice, nádraží","arrival_time":"16:52:00","departure_time":"16:52:00","lat":49.131712,"lon":16.656596,"is_passed":false},{"stop_id":"U1182Z4","name":"Chrlice, smyčka","arrival_time":"16:53:00","departure_time":"16:53:00","lat":49.126443,"lon":16.654784,"is_passed":false},{"stop_id":"U15146Z1","name":"Rebešovice, Horky","arrival_time":"16:56:00","departure_time":"16:56:00","lat":49.108356,"lon":16.64093,"is_passed":false},{"stop_id":"U15145Z1","name":"Rebešovice","arrival_time":"16:57:00","departure_time":"16:57:00","lat":49.10491,"lon":16.637941,"is_passed":false},{"stop_id":"U15144Z1","name":"Rajhradice, váha","arrival_time":"17:00:00","departure_time":"17:00:00","lat":49.093623,"lon":16.63553,"is_passed":false},{"stop_id":"U15176Z1","name":"Rajhradice, obalovna","arrival_time":"17:02:00","departure_time":"17:02:00","lat":49.0964,"lon":16.651802,"is_passed":false},{"stop_id":"U15175Z1","name":"Otmarov","arrival_time":"17:04:00","departure_time":"17:04:00","lat":49.100468,"lon":16.672571,"is_passed":false},{"stop_id":"U15133Z1","name":"Otmarov, chaloupka","arrival_time":"17:05:00","departure_time":"17:05:00","lat":49.09991,"lon":16.681232,"is_passed":false},{"stop_id":"U15154Z1","name":"Měnín, ZD","arrival_time":"17:07:00","departure_time":"17:07:00","lat":49.091455,"lon":16.689825,"is_passed":false},{"stop_id":"U15128Z1","name":"Měnín, u mlýna","arrival_time":"17:08:00","departure_time":"17:08:00","lat":49.084102,"lon":16.694181,"is_passed":false},{"stop_id":"U15165Z1","name":"Měnín, obchodní středisko","arrival_time":"17:10:00","departure_time":"17:22:00","lat":49.079732,"lon":16.693543,"is_passed":false}],"5632":[{"stop_id":"U15165Z2","name":"Měnín, obchodní středisko","arrival_time":"17:22:00","departure_time":"17:22:00","lat":49.079732,"lon":16.693543,"is_passed":false},{"stop_id":"U15128Z2","name":"Měnín, u mlýna","arrival_time":"17:23:00","departure_time":"17:23:00","lat":49.085172,"lon":16.694708,"is_passed":false},{"stop_id":"U15154Z2","name":"Měnín, ZD","arrival_time":"17:24:00","departure_time":"17:24:00","lat":49.091685,"lon":16.689643,"is_passed":false},{"stop_id":"U15133Z2","name":"Otmarov, chaloupka","arrival_time":"17:26:00","departure_time":"17:26:00","lat":49.101007,"lon":16.679762,"is_passed":false},{"stop_id":"U15175Z2","name":"Otmarov","arrival_time":"17:28:00","departure_time":"17:28:00","lat":49.100336,"lon":16.671844,"is_passed":false},{"stop_id":"U15176Z2","name":"Rajhradice, obalovna","arrival_time":"17:30:00","departure_time":"17:30:00","lat":49.096394,"lon":16.651454,"is_passed":false},{"stop_id":"U15144Z2","name":"Rajhradice, váha","arrival_time":"17:32:00","departure_time":"17:32:00","lat":49.09362,"lon":16.635452,"is_passed":false},{"stop_id":"U15145Z2","name":"Rebešovice","arrival_time":"17:34:00","departure_time":"17:34:00","lat":49.105028,"lon":16.638127,"is_passed":false},{"stop_id":"U15146Z2","name":"Rebešovice, Horky","arrival_time":"17:35:00","departure_time":"17:35:00","lat":49.108966,"lon":16.641733,"is_passed":false},{"stop_id":"U1182Z3","name":"Chrlice, smyčka","arrival_time":"17:38:00","departure_time":"17:38:00","lat":49.126855,"lon":16.655081,"is_passed":false},{"stop_id":"U1183Z2","name":"Chrlice, nádraží","arrival_time":"17:39:00","departure_time":"17:39:00","lat":49.132136,"lon":16.656638,"is_passed":false},{"stop_id":"U1187Z2","name":"Chrlické náměstí","arrival_time":"17:40:00","departure_time":"17:51:00","lat":49.13548,"lon":16.653876,"is_passed":false}],"5633":[{"stop_id":"U1187Z1","name":"Chrlické náměstí","arrival_time":"17:51:00","departure_time":"17:51:00","lat":49.135283,"lon":16.653902,"is_passed":false},{"stop_id":"U1183Z1","name":"Chrlice, nádraží","arrival_time":"17:52:00","departure_time":"17:52:00","lat":49.131712,"lon":16.656596,"is_passed":false},{"stop_id":"U1182Z4","name":"Chrlice, smyčka","arrival_time":"17:53:00","departure_time":"17:53:00","lat":49.126443,"lon":16.654784,"is_passed":false},{"stop_id":"U15146Z1","name":"Rebešovice, Horky","arrival_time":"17:56:00","departure_time":"17:56:00","lat":49.108356,"lon":16.64093,"is_passed":false},{"stop_id":"U15145Z1","name":"Rebešovice","arrival_time":"17:57:00","departure_time":"17:57:00","lat":49.10491,"lon":16.637941,"is_passed":false},{"stop_id":"U15144Z1","name":"Rajhradice, váha","arrival_time":"18:00:00","departure_time":"18:00:00","lat":49.093623,"lon":16.63553,"is_passed":false},{"stop_id":"U15176Z1","name":"Rajhradice, obalovna","arrival_time":"18:02:00","departure_time":"18:02:00","lat":49.0964,"lon":16.651802,"is_passed":false},{"stop_id":"U15175Z1","name":"Otmarov","arrival_time":"18:04:00","departure_time":"18:04:00","lat":49.100468,"lon":16.672571,"is_passed":false},{"stop_id":"U15133Z1","name":"Otmarov, chaloupka","arrival_time":"18:05:00","departure_time":"18:05:00","lat":49.09991,"lon":16.681232,"is_passed":false},{"stop_id":"U15154Z1","name":"Měnín, ZD","arrival_time":"18:07:00","departure_time":"18:07:00","lat":49.091455,"lon":16.689825,"is_passed":false},{"stop_id":"U15128Z1","name":"Měnín, u mlýna","arrival_time":"18:08:00","departure_time":"18:08:00","lat":49.084102,"lon":16.694181,"is_passed":false},{"stop_id":"U15165Z1","name":"Měnín, obchodní středisko","arrival_time":"18:10:00","departure_time":"18:22:00","lat":49.079732,"lon":16.693543,"is_passed":false}],"5634":[{"stop_id":"U15165Z2","name":"Měnín, obchodní středisko","arrival_time":"18:22:00","departure_time":"18:22:00","lat":49.079732,"lon":16.693543,"is_passed":false},{"stop_id":"U15128Z2","name":"Měnín, u mlýna","arrival_time":"18:23:00","departure_time":"18:23:00","lat":49.085172,"lon":16.694708,"is_passed":false},{"stop_id":"U15154Z2","name":"Měnín, ZD","arrival_time":"18:24:00","departure_time":"18:24:00","lat":49.091685,"lon":16.689643,"is_passed":false},{"stop_id":"U15133Z2","name":"Otmarov, chaloupka","arrival_time":"18:26:00","departure_time":"18:26:00","lat":49.101007,"lon":16.679762,"is_passed":false},{"stop_id":"U15175Z2","name":"Otmarov","arrival_time":"18:28:00","departure_time":"18:28:00","lat":49.100336,"lon":16.671844,"is_passed":false},{"stop_id":"U15176Z2","name":"Rajhradice, obalovna","arrival_time":"18:30:00","departure_time":"18:30:00","lat":49.096394,"lon":16.651454,"is_passed":false},{"stop_id":"U15144Z2","name":"Rajhradice, váha","arrival_time":"18:32:00","departure_time":"18:32:00","lat":49.09362,"lon":16.635452,"is_passed":false},{"stop_id":"U15145Z2","name":"Rebešovice","arrival_time":"18:34:00","departure_time":"18:34:00","lat":49.105028,"lon":16.638127,"is_passed":false},{"stop_id":"U15146Z2","name":"Rebešovice, Horky","arrival_time":"18:35:00","departure_time":"18:35:00","lat":49.108966,"lon":16.641733,"is_passed":false},{"stop_id":"U1182Z3","name":"Chrlice, smyčka","arrival_time":"18:38:00","departure_time":"18:38:00","lat":49.126855,"lon":16.655081,"is_passed":false},{"stop_id":"U1183Z2","name":"Chrlice, nádraží","arrival_time":"18:39:00","departure_time":"18:39:00","lat":49.132136,"lon":16.656638,"is_passed":false},{"stop_id":"U1187Z2","name":"Chrlické náměstí","arrival_time":"18:40:00","departure_time":"18:51:00","lat":49.13548,"lon":16.653876,"is_passed":false}],"5635":[{"stop_id":"U1187Z1","name":"Chrlické náměstí","arrival_time":"18:51:00","departure_time":"18:51:00","lat":49.135283,"lon":16.653902,"is_passed":false},{"stop_id":"U1183Z1","name":"Chrlice, nádraží","arrival_time":"18:52:00","departure_time":"18:52:00","lat":49.131712,"lon":16.656596,"is_passed":false},{"stop_id":"U1182Z4","name":"Chrlice, smyčka","arrival_time":"18:53:00","departure_time":"18:53:00","lat":49.126443,"lon":16.654784,"is_passed":false},{"stop_id":"U15146Z1","name":"Rebešovice, Horky","arrival_time":"18:56:00","departure_time":"18:56:00","lat":49.108356,"lon":16.64093,"is_passed":false},{"stop_id":"U15145Z1","name":"Rebešovice","arrival_time":"18:57:00","departure_time":"18:57:00","lat":49.10491,"lon":16.637941,"is_passed":false},{"stop_id":"U15144Z1","name":"Rajhradice, váha","arrival_time":"19:00:00","departure_time":"19:00:00","lat":49.093623,"lon":16.63553,"is_passed":false},{"stop_id":"U15176Z1","name":"Rajhradice, obalovna","arrival_time":"19:02:00","departure_time":"19:02:00","lat":49.0964,"lon":16.651802,"is_passed":false},{"stop_id":"U15175Z1","name":"Otmarov","arrival_time":"19:04:00","departure_time":"19:04:00","lat":49.100468,"lon":16.672571,"is_passed":false},{"stop_id":"U15133Z1","name":"Otmarov, chaloupka","arrival_time":"19:05:00","departure_time":"19:05:00","lat":49.09991,"lon":16.681232,"is_passed":false},{"stop_id":"U15154Z1","name":"Měnín, ZD","arrival_time":"19:07:00","departure_time":"19:07:00","lat":49.091455,"lon":16.689825,"is_passed":false},{"stop_id":"U15128Z1","name":"Měnín, u mlýna","arrival_time":"19:08:00","departure_time":"19:08:00","lat":49.084102,"lon":16.694181,"is_passed":false},{"stop_id":"U15165Z1","name":"Měnín, obchodní středisko","arrival_time":"19:10:00","departure_time":"19:10:00","lat":49.079732,"lon":16.693543,"is_passed":false}],"5636":[{"stop_id":"U15165Z2","name":"Měnín, obchodní středisko","arrival_time":"13:52:00","departure_time":"13:52:00","lat":49.079732,"lon":16.693543,"is_passed":false},{"stop_id":"U15128Z2","name":"Měnín, u mlýna","arrival_time":"13:53:00","departure_time":"13:53:00","lat":49.085172,"lon":16.694708,"is_passed":false},{"stop_id":"U15154Z2","name":"Měnín, ZD","arrival_time":"13:54:00","departure_time":"13:54:00","lat":49.091685,"lon":16.689643,"is_passed":false},{"stop_id":"U15133Z2","name":"Otmarov, chaloupka","arrival_time":"13:56:00","departure_time":"13:56:00","lat":49.101007,"lon":16.679762,"is_passed":false},{"stop_id":"U15175Z2","name":"Otmarov","arrival_time":"13:58:00","departure_time":"13:58:00","lat":49.100336,"lon":16.671844,"is_passed":false},{"stop_id":"U15176Z2","name":"Rajhradice, obalovna","arrival_time":"14:00:00","departure_time":"14:00:00","lat":49.096394,"lon":16.651454,"is_passed":false},{"stop_id":"U15144Z2","name":"Rajhradice, váha","arrival_time":"14:02:00","departure_time":"14:02:00","lat":49.09362,"lon":16.635452,"is_passed":false},{"stop_id":"U15145Z2","name":"Rebešovice","arrival_time":"14:04:00","departure_time":"14:04:00","lat":49.105028,"lon":16.638127,"is_passed":false},{"stop_id":"U15146Z2","name":"Rebešovice, Horky","arrival_time":"14:05:00","departure_time":"14:05:00","lat":49.108966,"lon":16.641733,"is_passed":false},{"stop_id":"U1182Z3","name":"Chrlice, smyčka","arrival_time":"14:08:00","departure_time":"14:08:00","lat":49.126855,"lon":16.655081,"is_passed":false},{"stop_id":"U1183Z2","name":"Chrlice, nádraží","arrival_time":"14:09:00","departure_time":"14:09:00","lat":49.132136,"lon":16.656638,"is_passed":false},{"stop_id":"U1187Z2","name":"Chrlické náměstí","arrival_time":"14:10:00","departure_time":"14:21:00","lat":49.13548,"lon":16.653876,"is_passed":false}],"5637":[{"stop_id":"U1187Z1","name":"Chrlické náměstí","arrival_time":"14:21:00","departure_time":"14:21:00","lat":49.135283,"lon":16.653902,"is_passed":false},{"stop_id":"U1183Z1","name":"Chrlice, nádraží","arrival_time":"14:22:00","departure_time":"14:22:00","lat":49.131712,"lon":16.656596,"is_passed":false},{"stop_id":"U1182Z4","name":"Chrlice, smyčka","arrival_time":"14:23:00","departure_time":"14:23:00","lat":49.126443,"lon":16.654784,"is_passed":false},{"stop_id":"U15146Z1","name":"Rebešovice, Horky","arrival_time":"14:26:00","departure_time":"14:26:00","lat":49.108356,"lon":16.64093,"is_passed":false},{"stop_id":"U15145Z1","name":"Rebešovice","arrival_time":"14:27:00","departure_time":"14:27:00","lat":49.10491,"lon":16.637941,"is_passed":false},{"stop_id":"U15144Z1","name":"Rajhradice, váha","arrival_time":"14:30:00","departure_time":"14:30:00","lat":49.093623,"lon":16.63553,"is_passed":false},{"stop_id":"U15176Z1","name":"Rajhradice, obalovna","arrival_time":"14:32:00","departure_time":"14:32:00","lat":49.0964,"lon":16.651802,"is_passed":false},{"stop_id":"U15175Z1","name":"Otmarov","arrival_time":"14:34:00","departure_time":"14:34:00","lat":49.100468,"lon":16.672571,"is_passed":false},{"stop_id":"U15133Z1","name":"Otmarov, chaloupka","arrival_time":"14:35:00","departure_time":"14:35:00","lat":49.09991,"lon":16.681232,"is_passed":false},{"stop_id":"U15154Z1","name":"Měnín, ZD","arrival_time":"14:37:00","departure_time":"14:37:00","lat":49.091455,"lon":16.689825,"is_passed":false},{"stop_id":"U15128Z1","name":"Měnín, u mlýna","arrival_time":"14:38:00","departure_time":"14:38:00","lat":49.084102,"lon":16.694181,"is_passed":false},{"stop_id":"U15165Z1","name":"Měnín, obchodní středisko","arrival_time":"14:40:00","departure_time":"14:52:00","lat":49.079732,"lon":16.693543,"is_passed":false}],"5638":[{"stop_id":"U15165Z2","name":"Měnín, obchodní středisko","arrival_time":"14:52:00","departure_time":"14:52:00","lat":49.079732,"lon":16.693543,"is_passed":false},{"stop_id":"U15128Z2","name":"Měnín, u mlýna","arrival_time":"14:53:00","departure_time":"14:53:00","lat":49.085172,"lon":16.694708,"is_passed":false},{"stop_id":"U15154Z2","name":"Měnín, ZD","arrival_time":"14:54:00","departure_time":"14:54:00","lat":49.091685,"lon":16.689643,"is_passed":false},{"stop_id":"U15133Z2","name":"Otmarov, chaloupka","arrival_time":"14:56:00","departure_time":"14:56:00","lat":49.101007,"lon":16.679762,"is_passed":false},{"stop_id":"U15175Z2","name":"Otmarov","arrival_time":"14:58:00","departure_time":"14:58:00","lat":49.100336,"lon":16.671844,"is_passed":false},{"stop_id":"U15176Z2","name":"Rajhradice, obalovna","arrival_time":"15:00:00","departure_time":"15:00:00","lat":49.096394,"lon":16.651454,"is_passed":false},{"stop_id":"U15144Z2","name":"Rajhradice, váha","arrival_time":"15:02:00","departure_time":"15:02:00","lat":49.09362,"lon":16.635452,"is_passed":false},{"stop_id":"U15145Z2","name":"Rebešovice","arrival_time":"15:04:00","departure_time":"15:04:00","lat":49.105028,"lon":16.638127,"is_passed":false},{"stop_id":"U15146Z2","name":"Rebešovice, Horky","arrival_time":"15:05:00","departure_time":"15:05:00","lat":49.108966,"lon":16.641733,"is_passed":false},{"stop_id":"U1182Z3","name":"Chrlice, smyčka","arrival_time":"15:08:00","departure_time":"15:08:00","lat":49.126855,"lon":16.655081,"is_passed":false},{"stop_id":"U1183Z2","name":"Chrlice, nádraží","arrival_time":"15:09:00","departure_time":"15:09:00","lat":49.132136,"lon":16.656638,"is_passed":false},{"stop_id":"U1187Z2","name":"Chrlické náměstí","arrival_time":"15:10:00","departure_time":"15:21:00","lat":49.13548,"lon":16.653876,"is_passed":false}],"5639":[{"stop_id":"U1187Z1","name":"Chrlické náměstí","arrival_time":"15:21:00","departure_time":"15:21:00","lat":49.135283,"lon":16.653902,"is_passed":false},{"stop_id":"U1183Z1","name":"Chrlice, nádraží","arrival_time":"15:22:00","departure_time":"15:22:00","lat":49.131712,"lon":16.656596,"is_passed":false},{"stop_id":"U1182Z4","name":"Chrlice, smyčka","arrival_time":"15:23:00","departure_time":"15:23:00","lat":49.126443,"lon":16.654784,"is_passed":false},{"stop_id":"U15146Z1","name":"Rebešovice, Horky","arrival_time":"15:26:00","departure_time":"15:26:00","lat":49.108356,"lon":16.64093,"is_passed":false},{"stop_id":"U15145Z1","name":"Rebešovice","arrival_time":"15:27:00","departure_time":"15:27:00","lat":49.10491,"lon":16.637941,"is_passed":false},{"stop_id":"U15144Z1","name":"Rajhradice, váha","arrival_time":"15:30:00","departure_time":"15:30:00","lat":49.093623,"lon":16.63553,"is_passed":false},{"stop_id":"U15176Z1","name":"Rajhradice, obalovna","arrival_time":"15:32:00","departure_time":"15:32:00","lat":49.0964,"lon":16.651802,"is_passed":false},{"stop_id":"U15175Z1","name":"Otmarov","arrival_time":"15:34:00","departure_time":"15:34:00","lat":49.100468,"lon":16.672571,"is_passed":false},{"stop_id":"U15133Z1","name":"Otmarov, chaloupka","arrival_time":"15:35:00","departure_time":"15:35:00","lat":49.09991,"lon":16.681232,"is_passed":false},{"stop_id":"U15154Z1","name":"Měnín, ZD","arrival_time":"15:37:00","departure_time":"15:37:00","lat":49.091455,"lon":16.689825,"is_passed":false},{"stop_id":"U15128Z1","name":"Měnín, u mlýna","arrival_time":"15:38:00","departure_time":"15:38:00","lat":49.084102,"lon":16.694181,"is_passed":false},{"stop_id":"U15165Z1","name":"Měnín, obchodní středisko","arrival_time":"15:40:00","departure_time":"15:52:00","lat":49.079732,"lon":16.693543,"is_passed":false}],"56300":[{"stop_id":"U1257Z2","name":"Komenského náměstí","arrival_time":"6:40:00","departure_time":"6:40:00","lat":49.197135,"lon":16.602612,"is_passed":false},{"stop_id":"U1442Z1","name":"Obilní trh","arrival_time":"6:41:00","departure_time":"6:41:00","lat":49.198221,"lon":16.597478,"is_passed":false},{"stop_id":"U1712Z3","name":"Úvoz","arrival_time":"6:42:00","departure_time":"6:42:00","lat":49.198432,"lon":16.594582,"is_passed":false},{"stop_id":"U1816Z1","name":"Žlutý kopec","arrival_time":"6:44:00","departure_time":"6:44:00","lat":49.19515,"lon":16.587289,"is_passed":false},{"stop_id":"U1723Z3","name":"Vaňkovo náměstí","arrival_time":"6:45:00","departure_time":"6:45:00","lat":49.194723,"lon":16.585005,"is_passed":false},{"stop_id":"U1478Z1","name":"Pavlíkova","arrival_time":"6:45:00","departure_time":"6:45:00","lat":49.195012,"lon":16.581894,"is_passed":false},{"stop_id":"U1433Z1","name":"Neumannova","arrival_time":"6:46:00","departure_time":"6:46:00","lat":49.196721,"lon":16.577681,"is_passed":false},{"stop_id":"U1366Z1","name":"Marie Pujmanové","arrival_time":"6:47:00","departure_time":"6:47:00","lat":49.198265,"lon":16.573344,"is_passed":false},{"stop_id":"U1517Z1","name":"Preslova","arrival_time":"6:48:00","departure_time":"7:02:00","lat":49.199128,"lon":16.571114,"is_passed":false}],"56301":[{"stop_id":"U1517Z2","name":"Preslova","arrival_time":"7:02:00","departure_time":"7:02:00","lat":49.199468,"lon":16.570483,"is_passed":false},{"stop_id":"U1366Z2","name":"Marie Pujmanové","arrival_time":"7:02:00","departure_time":"7:02:00","lat":49.198128,"lon":16.573743,"is_passed":false},{"stop_id":"U1433Z2","name":"Neumannova","arrival_time":"7:03:00","departure_time":"7:03:00","lat":49.196459,"lon":16.578249,"is_passed":false},{"stop_id":"U1478Z2","name":"Pavlíkova","arrival_time":"7:04:00","departure_time":"7:04:00","lat":49.194734,"lon":16.582794,"is_passed":false},{"stop_id":"U1723Z2","name":"Vaňkovo náměstí","arrival_time":"7:05:00","departure_time":"7:05:00","lat":49.194962,"lon":16.586678,"is_passed":false},{"stop_id":"U1816Z2","name":"Žlutý kopec","arrival_time":"7:05:00","departure_time":"7:05:00","lat":49.195368,"lon":16.588271,"is_passed":false},{"stop_id":"U1682Z2","name":"Tvrdého","arrival_time":"7:06:00","departure_time":"7:06:00","lat":49.196917,"lon":16.592895,"is_passed":false},{"stop_id":"U1712Z4","name":"Úvoz","arrival_time":"7:07:00","departure_time":"7:07:00","lat":49.198264,"lon":16.59531,"is_passed":false},{"stop_id":"U1442Z2","name":"Obilní trh","arrival_time":"7:07:00","departure_time":"7:07:00","lat":49.198022,"lon":16.598215,"is_passed":false},{"stop_id":"U1257Z3","name":"Komenského náměstí","arrival_time":"7:09:00","departure_time":"7:10:00","lat":49.197026,"lon":16.602057,"is_passed":false}],"56302":[{"stop_id":"U1257Z2","name":"Komenského náměstí","arrival_time":"7:10:00","departure_time":"7:10:00","lat":49.197135,"lon":16.602612,"is_passed":false},{"stop_id":"U1442Z1","name":"Obilní trh","arrival_time":"7:11:00","departure_time":"7:11:00","lat":49.198221,"lon":16.597478,"is_passed":false},{"stop_id":"U1712Z3","name":"Úvoz","arrival_time":"7:12:00","departure_time":"7:12:00","lat":49.198432,"lon":16.594582,"is_passed":false},{"stop_id":"U1816Z1","name":"Žlutý kopec","arrival_time":"7:14:00","departure_time":"7:14:00","lat":49.19515,"lon":16.587289,"is_passed":false},{"stop_id":"U1723Z3","name":"Vaňkovo náměstí","arrival_time":"7:15:00","departure_time":"7:15:00","lat":49.194723,"lon":16.585005,"is_passed":false},{"stop_id":"U1478Z1","name":"Pavlíkova","arrival_time":"7:15:00","departure_time":"7:15:00","lat":49.195012,"lon":16.581894,"is_passed":false},{"stop_id":"U1433Z1","name":"Neumannova","arrival_time":"7:16:00","departure_time":"7:16:00","lat":49.196721,"lon":16.577681,"is_passed":false},{"stop_id":"U1366Z1","name":"Marie Pujmanové","arrival_time":"7:17:00","departure_time":"7:17:00","lat":49.198265,"lon":16.573344,"is_passed":false},{"stop_id":"U1517Z1","name":"Preslova","arrival_time":"7:18:00","departure_time":"7:32:00","lat":49.199128,"lon":16.571114,"is_passed":false}],"56303":[{"stop_id":"U1517Z2","name":"Preslova","arrival_time":"7:32:00","departure_time":"7:32:00","lat":49.199468,"lon":16.570483,"is_passed":false},{"stop_id":"U1366Z2","name":"Marie Pujmanové","arrival_time":"7:32:00","departure_time":"7:32:00","lat":49.198128,"lon":16.573743,"is_passed":false},{"stop_id":"U1433Z2","name":"Neumannova","arrival_time":"7:33:00","departure_time":"7:33:00","lat":49.196459,"lon":16.578249,"is_passed":false},{"stop_id":"U1478Z2","name":"Pavlíkova","arrival_time":"7:34:00","departure_time":"7:34:00","lat":49.194734,"lon":16.582794,"is_passed":false},{"stop_id":"U1723Z2","name":"Vaňkovo náměstí","arrival_time":"7:35:00","departure_time":"7:35:00","lat":49.194962,"lon":16.586678,"is_passed":false},{"stop_id":"U1816Z2","name":"Žlutý kopec","arrival_time":"7:35:00","departure_time":"7:35:00","lat":49.195368,"lon":16.588271,"is_passed":false},{"stop_id":"U1682Z2","name":"Tvrdého","arrival_time":"7:36:00","departure_time":"7:36:00","lat":49.196917,"lon":16.592895,"is_passed":false},{"stop_id":"U1712Z4","name":"Úvoz","arrival_time":"7:37:00","departure_time":"7:37:00","lat":49.198264,"lon":16.59531,"is_passed":false},{"stop_id":"U1442Z2","name":"Obilní trh","arrival_time":"7:37:00","departure_time":"7:37:00","lat":49.198022,"lon":16.598215,"is_passed":false},{"stop_id":"U1257Z3","name":"Komenského náměstí","arrival_time":"7:39:00","departure_time":"7:40:00","lat":49.197026,"lon":16.602057,"is_passed":false}],"56304":[{"stop_id":"U1257Z2","name":"Komenského náměstí","arrival_time":"7:40:00","departure_time":"7:40:00","lat":49.197135,"lon":16.602612,"is_passed":false},{"stop_id":"U1442Z1","name":"Obilní trh","arrival_time":"7:41:00","departure_time":"7:41:00","lat":49.198221,"lon":16.597478,"is_passed":false},{"stop_id":"U1712Z3","name":"Úvoz","arrival_time":"7:42:00","departure_time":"7:42:00","lat":49.198432,"lon":16.594582,"is_passed":false},{"stop_id":"U1816Z1","name":"Žlutý kopec","arrival_time":"7:44:00","departure_time":"7:44:00","lat":49.19515,"lon":16.587289,"is_passed":false},{"stop_id":"U1723Z3","name":"Vaňkovo náměstí","arrival_time":"7:45:00","departure_time":"7:45:00","lat":49.194723,"lon":16.585005,"is_passed":false},{"stop_id":"U1478Z1","name":"Pavlíkova","arrival_time":"7:45:00","departure_time":"7:45:00","lat":49.195012,"lon":16.581894,"is_passed":false},{"stop_id":"U1433Z1","name":"Neumannova","arrival_time":"7:46:00","departure_time":"7:46:00","lat":49.196721,"lon":16.577681,"is_passed":false},{"stop_id":"U1366Z1","name":"Marie Pujmanové","arrival_time":"7:47:00","departure_time":"7:47:00","lat":49.198265,"lon":16.573344,"is_passed":false},{"stop_id":"U1517Z1","name":"Preslova","arrival_time":"7:48:00","departure_time":"8:02:00","lat":49.199128,"lon":16.571114,"is_passed":false}],"56305":[{"stop_id":"U1517Z2","name":"Preslova","arrival_time":"8:02:00","departure_time":"8:02:00","lat":49.199468,"lon":16.570483,"is_passed":false},{"stop_id":"U1366Z2","name":"Marie Pujmanové","arrival_time":"8:02:00","departure_time":"8:02:00","lat":49.198128,"lon":16.573743,"is_passed":false},{"stop_id":"U1433Z2","name":"Neumannova","arrival_time":"8:03:00","departure_time":"8:03:00","lat":49.196459,"lon":16.578249,"is_passed":false},{"stop_id":"U1478Z2","name":"Pavlíkova","arrival_time":"8:04:00","departure_time":"8:04:00","lat":49.194734,"lon":16.582794,"is_passed":false},{"stop_id":"U1723Z2","name":"Vaňkovo náměstí","arrival_time":"8:05:00","departure_time":"8:05:00","lat":49.194962,"lon":16.586678,"is_passed":false},{"stop_id":"U1816Z2","name":"Žlutý kopec","arrival_time":"8:05:00","departure_time":"8:05:00","lat":49.195368,"lon":16.588271,"is_passed":false},{"stop_id":"U1682Z2","name":"Tvrdého","arrival_time":"8:06:00","departure_time":"8:06:00","lat":49.196917,"lon":16.592895,"is_passed":false},{"stop_id":"U1712Z4","name":"Úvoz","arrival_time":"8:07:00","departure_time":"8:07:00","lat":49.198264,"lon":16.59531,"is_passed":false},{"stop_id":"U1442Z2","name":"Obilní trh","arrival_time":"8:07:00","departure_time":"8:07:00","lat":49.198022,"lon":16.598215,"is_passed":false},{"stop_id":"U1257Z3","name":"Komenského náměstí","arrival_time":"8:09:00","departure_time":"8:10:00","lat":49.197026,"lon":16.602057,"is_passed":false}],"56306":[{"stop_id":"U1257Z2","name":"Komenského náměstí","arrival_time":"8:10:00","departure_time":"8:10:00","lat":49.197135,"lon":16.602612,"is_passed":false},{"stop_id":"U1442Z1","name":"Obilní trh","arrival_time":"8:11:00","departure_time":"8:11:00","lat":49.198221,"lon":16.597478,"is_passed":false},{"stop_id":"U1712Z3","name":"Úvoz","arrival_time":"8:12:00","departure_time":"8:12:00","lat":49.198432,"lon":16.594582,"is_passed":false},{"stop_id":"U1816Z1","name":"Žlutý kopec","arrival_time":"8:14:00","departure_time":"8:14:00","lat":49.19515,"lon":16.587289,"is_passed":false},{"stop_id":"U1723Z3","name":"Vaňkovo náměstí","arrival_time":"8:15:00","departure_time":"8:15:00","lat":49.194723,"lon":16.585005,"is_passed":false},{"stop_id":"U1478Z1","name":"Pavlíkova","arrival_time":"8:15:00","departure_time":"8:15:00","lat":49.195012,"lon":16.581894,"is_passed":false},{"stop_id":"U1433Z1","name":"Neumannova","arrival_time":"8:16:00","departure_time":"8:16:00","lat":49.196721,"lon":16.577681,"is_passed":false},{"stop_id":"U1366Z1","name":"Marie Pujmanové","arrival_time":"8:17:00","departure_time":"8:17:00","lat":49.198265,"lon":16.573344,"is_passed":false},{"stop_id":"U1517Z1","name":"Preslova","arrival_time":"8:18:00","departure_time":"8:31:00","lat":49.199128,"lon":16.571114,"is_passed":false}],"56307":[{"stop_id":"U1517Z2","name":"Preslova","arrival_time":"8:31:00","departure_time":"8:31:00","lat":49.199468,"lon":16.570483,"is_passed":false},{"stop_id":"U1366Z2","name":"Marie Pujmanové","arrival_time":"8:31:00","departure_time":"8:31:00","lat":49.198128,"lon":16.573743,"is_passed":false},{"stop_id":"U1433Z2","name":"Neumannova","arrival_time":"8:32:00","departure_time":"8:32:00","lat":49.196459,"lon":16.578249,"is_passed":false},{"stop_id":"U1478Z2","name":"Pavlíkova","arrival_time":"8:33:00","departure_time":"8:33:00","lat":49.194734,"lon":16.582794,"is_passed":false},{"stop_id":"U1723Z2","name":"Vaňkovo náměstí","arrival_time":"8:34:00","departure_time":"8:34:00","lat":49.194962,"lon":16.586678,"is_passed":false},{"stop_id":"U1816Z2","name":"Žlutý kopec","arrival_time":"8:34:00","departure_time":"8:34:00","lat":49.195368,"lon":16.588271,"is_passed":false},{"stop_id":"U1682Z2","name":"Tvrdého","arrival_time":"8:35:00","departure_time":"8:35:00","lat":49.196917,"lon":16.592895,"is_passed":false},{"stop_id":"U1712Z4","name":"Úvoz","arrival_time":"8:36:00","departure_time":"8:36:00","lat":49.198264,"lon":16.59531,"is_passed":false},{"stop_id":"U1442Z2","name":"Obilní trh","arrival_time":"8:37:00","departure_time":"8:37:00","lat":49.198022,"lon":16.598215,"is_passed":false},{"stop_id":"U1257Z3","name":"Komenského náměstí","arrival_time":"8:39:00","departure_time":"8:39:00","lat":49.197026,"lon":16.602057,"is_passed":false}],"56308":[{"stop_id":"U1257Z2","name":"Komenského náměstí","arrival_time":"8:40:00","departure_time":"8:40:00","lat":49.197135,"lon":16.602612,"is_passed":false},{"stop_id":"U1442Z1","name":"Obilní trh","arrival_time":"8:41:00","departure_time":"8:41:00","lat":49.198221,"lon":16.597478,"is_passed":false},{"stop_id":"U1712Z3","name":"Úvoz","arrival_time":"8:42:00","departure_time":"8:42:00","lat":49.198432,"lon":16.594582,"is_passed":false},{"stop_id":"U1816Z1","name":"Žlutý kopec","arrival_time":"8:44:00","departure_time":"8:44:00","lat":49.19515,"lon":16.587289,"is_passed":false},{"stop_id":"U1723Z1","name":"Vaňkovo náměstí","arrival_time":"8:45:00","departure_time":"8:45:00","lat":49.195052,"lon":16.585013,"is_passed":false},{"stop_id":"U1228Z1","name":"Kampelíkova","arrival_time":"8:46:00","departure_time":"8:46:00","lat":49.197512,"lon":16.581178,"is_passed":false},{"stop_id":"U1597Z1","name":"Soukopova","arrival_time":"8:47:00","departure_time":"8:47:00","lat":49.198956,"lon":16.579053,"is_passed":false},{"stop_id":"U1013Z1","name":"Barvičova","arrival_time":"8:49:00","departure_time":"9:01:00","lat":49.201189,"lon":16.575746,"is_passed":false}],"56309":[{"stop_id":"U1013Z2","name":"Barvičova","arrival_time":"9:01:00","departure_time":"9:01:00","lat":49.201047,"lon":16.575783,"is_passed":false},{"stop_id":"U1597Z2","name":"Soukopova","arrival_time":"9:01:00","departure_time":"9:01:00","lat":49.199132,"lon":16.578726,"is_passed":false},{"stop_id":"U1228Z2","name":"Kampelíkova","arrival_time":"9:02:00","departure_time":"9:02:00","lat":49.197384,"lon":16.581205,"is_passed":false},{"stop_id":"U1723Z2","name":"Vaňkovo náměstí","arrival_time":"9:04:00","departure_time":"9:04:00","lat":49.194962,"lon":16.586678,"is_passed":false},{"stop_id":"U1816Z2","name":"Žlutý kopec","arrival_time":"9:04:00","departure_time":"9:04:00","lat":49.195368,"lon":16.588271,"is_passed":false},{"stop_id":"U1682Z2","name":"Tvrdého","arrival_time":"9:05:00","departure_time":"9:05:00","lat":49.196917,"lon":16.592895,"is_passed":false},{"stop_id":"U1712Z4","name":"Úvoz","arrival_time":"9:06:00","departure_time":"9:06:00","lat":49.198264,"lon":16.59531,"is_passed":false},{"stop_id":"U1442Z2","name":"Obilní trh","arrival_time":"9:07:00","departure_time":"9:07:00","lat":49.198022,"lon":16.598215,"is_passed":false},{"stop_id":"U1257Z3","name":"Komenského náměstí","arrival_time":"9:09:00","departure_time":"9:09:00","lat":49.197026,"lon":16.602057,"is_passed":false}],"56310":[{"stop_id":"U1257Z2","name":"Komenského náměstí","arrival_time":"9:10:00","departure_time":"9:10:00","lat":49.197135,"lon":16.602612,"is_passed":false},{"stop_id":"U1442Z1","name":"Obilní trh","arrival_time":"9:11:00","departure_time":"9:11:00","lat":49.198221,"lon":16.597478,"is_passed":false},{"stop_id":"U1712Z3","name":"Úvoz","arrival_time":"9:12:00","departure_time":"9:12:00","lat":49.198432,"lon":16.594582,"is_passed":false},{"stop_id":"U1816Z1","name":"Žlutý kopec","arrival_time":"9:14:00","departure_time":"9:14:00","lat":49.19515,"lon":16.587289,"is_passed":false},{"stop_id":"U1723Z3","name":"Vaňkovo náměstí","arrival_time":"9:15:00","departure_time":"9:15:00","lat":49.194723,"lon":16.585005,"is_passed":false},{"stop_id":"U1478Z1","name":"Pavlíkova","arrival_time":"9:15:00","departure_time":"9:15:00","lat":49.195012,"lon":16.581894,"is_passed":false},{"stop_id":"U1433Z1","name":"Neumannova","arrival_time":"9:16:00","departure_time":"9:16:00","lat":49.196721,"lon":16.577681,"is_passed":false},{"stop_id":"U1366Z1","name":"Marie Pujmanové","arrival_time":"9:17:00","departure_time":"9:17:00","lat":49.198265,"lon":16.573344,"is_passed":false},{"stop_id":"U1517Z1","name":"Preslova","arrival_time":"9:19:00","departure_time":"9:31:00","lat":49.199128,"lon":16.571114,"is_passed":false}],"56311":[{"stop_id":"U1517Z2","name":"Preslova","arrival_time":"9:31:00","departure_time":"9:31:00","lat":49.199468,"lon":16.570483,"is_passed":false},{"stop_id":"U1366Z2","name":"Marie Pujmanové","arrival_time":"9:31:00","departure_time":"9:31:00","lat":49.198128,"lon":16.573743,"is_passed":false},{"stop_id":"U1433Z2","name":"Neumannova","arrival_time":"9:32:00","departure_time":"9:32:00","lat":49.196459,"lon":16.578249,"is_passed":false},{"stop_id":"U1478Z2","name":"Pavlíkova","arrival_time":"9:33:00","departure_time":"9:33:00","lat":49.194734,"lon":16.582794,"is_passed":false},{"stop_id":"U1723Z2","name":"Vaňkovo náměstí","arrival_time":"9:34:00","departure_time":"9:34:00","lat":49.194962,"lon":16.586678,"is_passed":false},{"stop_id":"U1816Z2","name":"Žlutý kopec","arrival_time":"9:34:00","departure_time":"9:34:00","lat":49.195368,"lon":16.588271,"is_passed":false},{"stop_id":"U1682Z2","name":"Tvrdého","arrival_time":"9:35:00","departure_time":"9:35:00","lat":49.196917,"lon":16.592895,"is_passed":false},{"stop_id":"U1712Z4","name":"Úvoz","arrival_time":"9:36:00","departure_time":"9:36:00","lat":49.198264,"lon":16.59531,"is_passed":false},{"stop_id":"U1442Z2","name":"Obilní trh","arrival_time":"9:37:00","departure_time":"9:37:00","lat":49.198022,"lon":16.598215,"is_passed":false},{"stop_id":"U1257Z3","name":"Komenského náměstí","arrival_time":"9:39:00","departure_time":"9:39:00","lat":49.197026,"lon":16.602057,"is_passed":false}],"56312":[{"stop_id":"U1257Z2","name":"Komenského náměstí","arrival_time":"9:40:00","departure_time":"9:40:00","lat":49.197135,"lon":16.602612,"is_passed":false},{"stop_id":"U1442Z1","name":"Obilní trh","arrival_time":"9:41:00","departure_time":"9:41:00","lat":49.198221,"lon":16.597478,"is_passed":false},{"stop_id":"U1712Z3","name":"Úvoz","arrival_time":"9:42:00","departure_time":"9:42:00","lat":49.198432,"lon":16.594582,"is_passed":false},{"stop_id":"U1816Z1","name":"Žlutý kopec","arrival_time":"9:44:00","departure_time":"9:44:00","lat":49.19515,"lon":16.587289,"is_passed":false},{"stop_id":"U1723Z1","name":"Vaňkovo náměstí","arrival_time":"9:45:00","departure_time":"9:45:00","lat":49.195052,"lon":16.585013,"is_passed":false},{"stop_id":"U1228Z1","name":"Kampelíkova","arrival_time":"9:46:00","departure_time":"9:46:00","lat":49.197512,"lon":16.581178,"is_passed":false},{"stop_id":"U1597Z1","name":"Soukopova","arrival_time":"9:47:00","departure_time":"9:47:00","lat":49.198956,"lon":16.579053,"is_passed":false},{"stop_id":"U1013Z1","name":"Barvičova","arrival_time":"9:49:00","departure_time":"10:01:00","lat":49.201189,"lon":16.575746,"is_passed":false}],"56313":[{"stop_id":"U1013Z2","name":"Barvičova","arrival_time":"10:01:00","departure_time":"10:01:00","lat":49.201047,"lon":16.575783,"is_passed":false},{"stop_id":"U1597Z2","name":"Soukopova","arrival_time":"10:01:00","departure_time":"10:01:00","lat":49.199132,"lon":16.578726,"is_passed":false},{"stop_id":"U1228Z2","name":"Kampelíkova","arrival_time":"10:02:00","departure_time":"10:02:00","lat":49.197384,"lon":16.581205,"is_passed":false},{"stop_id":"U1723Z2","name":"Vaňkovo náměstí","arrival_time":"10:04:00","departure_time":"10:04:00","lat":49.194962,"lon":16.586678,"is_passed":false},{"stop_id":"U1816Z2","name":"Žlutý kopec","arrival_time":"10:04:00","departure_time":"10:04:00","lat":49.195368,"lon":16.588271,"is_passed":false},{"stop_id":"U1682Z2","name":"Tvrdého","arrival_time":"10:05:00","departure_time":"10:05:00","lat":49.196917,"lon":16.592895,"is_passed":false},{"stop_id":"U1712Z4","name":"Úvoz","arrival_time":"10:06:00","departure_time":"10:06:00","lat":49.198264,"lon":16.59531,"is_passed":false},{"stop_id":"U1442Z2","name":"Obilní trh","arrival_time":"10:07:00","departure_time":"10:07:00","lat":49.198022,"lon":16.598215,"is_passed":false},{"stop_id":"U1257Z3","name":"Komenského náměstí","arrival_time":"10:09:00","departure_time":"10:09:00","lat":49.197026,"lon":16.602057,"is_passed":false}],"56314":[{"stop_id":"U1257Z2","name":"Komenského náměstí","arrival_time":"10:10:00","departure_time":"10:10:00","lat":49.197135,"lon":16.602612,"is_passed":false},{"stop_id":"U1442Z1","name":"Obilní trh","arrival_time":"10:11:00","departure_time":"10:11:00","lat":49.198221,"lon":16.597478,"is_passed":false},{"stop_id":"U1712Z3","name":"Úvoz","arrival_time":"10:12:00","departure_time":"10:12:00","lat":49.198432,"lon":16.594582,"is_passed":false},{"stop_id":"U1816Z1","name":"Žlutý kopec","arrival_time":"10:14:00","departure_time":"10:14:00","lat":49.19515,"lon":16.587289,"is_passed":false},{"stop_id":"U1723Z3","name":"Vaňkovo náměstí","arrival_time":"10:15:00","departure_time":"10:15:00","lat":49.194723,"lon":16.585005,"is_passed":false},{"stop_id":"U1478Z1","name":"Pavlíkova","arrival_time":"10:15:00","departure_time":"10:15:00","lat":49.195012,"lon":16.581894,"is_passed":false},{"stop_id":"U1433Z1","name":"Neumannova","arrival_time":"10:16:00","departure_time":"10:16:00","lat":49.196721,"lon":16.577681,"is_passed":false},{"stop_id":"U1366Z1","name":"Marie Pujmanové","arrival_time":"10:17:00","departure_time":"10:17:00","lat":49.198265,"lon":16.573344,"is_passed":false},{"stop_id":"U1517Z1","name":"Preslova","arrival_time":"10:19:00","departure_time":"10:51:00","lat":49.199128,"lon":16.571114,"is_passed":false}],"56315":[{"stop_id":"U1517Z2","name":"Preslova","arrival_time":"10:51:00","departure_time":"10:51:00","lat":49.199468,"lon":16.570483,"is_passed":false},{"stop_id":"U1366Z2","name":"Marie Pujmanové","arrival_time":"10:51:00","departure_time":"10:51:00","lat":49.198128,"lon":16.573743,"is_passed":false},{"stop_id":"U1433Z2","name":"Neumannova","arrival_time":"10:52:00","departure_time":"10:52:00","lat":49.196459,"lon":16.578249,"is_passed":false},{"stop_id":"U1478Z2","name":"Pavlíkova","arrival_time":"10:53:00","departure_time":"10:53:00","lat":49.194734,"lon":16.582794,"is_passed":false},{"stop_id":"U1723Z2","name":"Vaňkovo náměstí","arrival_time":"10:54:00","departure_time":"10:54:00","lat":49.194962,"lon":16.586678,"is_passed":false},{"stop_id":"U1816Z2","name":"Žlutý kopec","arrival_time":"10:54:00","departure_time":"10:54:00","lat":49.195368,"lon":16.588271,"is_passed":false},{"stop_id":"U1682Z2","name":"Tvrdého","arrival_time":"10:55:00","departure_time":"10:55:00","lat":49.196917,"lon":16.592895,"is_passed":false},{"stop_id":"U1712Z4","name":"Úvoz","arrival_time":"10:56:00","departure_time":"10:56:00","lat":49.198264,"lon":16.59531,"is_passed":false},{"stop_id":"U1442Z2","name":"Obilní trh","arrival_time":"10:57:00","departure_time":"10:57:00","lat":49.198022,"lon":16.598215,"is_passed":false},{"stop_id":"U1257Z3","name":"Komenského náměstí","arrival_time":"10:59:00","departure_time":"10:59:00","lat":49.197026,"lon":16.602057,"is_passed":false}],"56316":[{"stop_id":"U1257Z2","name":"Komenského náměstí","arrival_time":"11:00:00","departure_time":"11:00:00","lat":49.197135,"lon":16.602612,"is_passed":false},{"stop_id":"U1442Z1","name":"Obilní trh","arrival_time":"11:01:00","departure_time":"11:01:00","lat":49.198221,"lon":16.597478,"is_passed":false},{"stop_id":"U1712Z3","name":"Úvoz","arrival_time":"11:02:00","departure_time":"11:02:00","lat":49.198432,"lon":16.594582,"is_passed":false},{"stop_id":"U1816Z1","name":"Žlutý kopec","arrival_time":"11:04:00","departure_time":"11:04:00","lat":49.19515,"lon":16.587289,"is_passed":false},{"stop_id":"U1723Z1","name":"Vaňkovo náměstí","arrival_time":"11:05:00","departure_time":"11:05:00","lat":49.195052,"lon":16.585013,"is_passed":false},{"stop_id":"U1228Z1","name":"Kampelíkova","arrival_time":"11:06:00","departure_time":"11:06:00","lat":49.197512,"lon":16.581178,"is_passed":false},{"stop_id":"U1597Z1","name":"Soukopova","arrival_time":"11:07:00","departure_time":"11:07:00","lat":49.198956,"lon":16.579053,"is_passed":false},{"stop_id":"U1013Z1","name":"Barvičova","arrival_time":"11:09:00","departure_time":"11:21:00","lat":49.201189,"lon":16.575746,"is_passed":false}],"56317":[{"stop_id":"U1013Z2","name":"Barvičova","arrival_time":"11:21:00","departure_time":"11:21:00","lat":49.201047,"lon":16.575783,"is_passed":false},{"stop_id":"U1597Z2","name":"Soukopova","arrival_time":"11:21:00","departure_time":"11:21:00","lat":49.199132,"lon":16.578726,"is_passed":false},{"stop_id":"U1228Z2","name":"Kampelíkova","arrival_time":"11:22:00","departure_time":"11:22:00","lat":49.197384,"lon":16.581205,"is_passed":false},{"stop_id":"U1723Z2","name":"Vaňkovo náměstí","arrival_time":"11:24:00","departure_time":"11:24:00","lat":49.194962,"lon":16.586678,"is_passed":false},{"stop_id":"U1816Z2","name":"Žlutý kopec","arrival_time":"11:24:00","departure_time":"11:24:00","lat":49.195368,"lon":16.588271,"is_passed":false},{"stop_id":"U1682Z2","name":"Tvrdého","arrival_time":"11:25:00","departure_time":"11:25:00","lat":49.196917,"lon":16.592895,"is_passed":false},{"stop_id":"U1712Z4","name":"Úvoz","arrival_time":"11:26:00","departure_time":"11:26:00","lat":49.198264,"lon":16.59531,"is_passed":false},{"stop_id":"U1442Z2","name":"Obilní trh","arrival_time":"11:27:00","departure_time":"11:27:00","lat":49.198022,"lon":16.598215,"is_passed":false},{"stop_id":"U1257Z3","name":"Komenského náměstí","arrival_time":"11:29:00","departure_time":"11:29:00","lat":49.197026,"lon":16.602057,"is_passed":false}],"56318":[{"stop_id":"U1257Z2","name":"Komenského náměstí","arrival_time":"11:30:00","departure_time":"11:30:00","lat":49.197135,"lon":16.602612,"is_passed":false},{"stop_id":"U1442Z1","name":"Obilní trh","arrival_time":"11:31:00","departure_time":"11:31:00","lat":49.198221,"lon":16.597478,"is_passed":false},{"stop_id":"U1712Z3","name":"Úvoz","arrival_time":"11:32:00","departure_time":"11:32:00","lat":49.198432,"lon":16.594582,"is_passed":false},{"stop_id":"U1816Z1","name":"Žlutý kopec","arrival_time":"11:34:00","departure_time":"11:34:00","lat":49.19515,"lon":16.587289,"is_passed":false},{"stop_id":"U1723Z3","name":"Vaňkovo náměstí","arrival_time":"11:35:00","departure_time":"11:35:00","lat":49.194723,"lon":16.585005,"is_passed":false},{"stop_id":"U1478Z1","name":"Pavlíkova","arrival_time":"11:35:00","departure_time":"11:35:00","lat":49.195012,"lon":16.581894,"is_passed":false},{"stop_id":"U1433Z1","name":"Neumannova","arrival_time":"11:36:00","departure_time":"11:36:00","lat":49.196721,"lon":16.577681,"is_passed":false},{"stop_id":"U1366Z1","name":"Marie Pujmanové","arrival_time":"11:37:00","departure_time":"11:37:00","lat":49.198265,"lon":16.573344,"is_passed":false},{"stop_id":"U1517Z1","name":"Preslova","arrival_time":"11:39:00","departure_time":"11:51:00","lat":49.199128,"lon":16.571114,"is_passed":false}],"56319":[{"stop_id":"U1517Z2","name":"Preslova","arrival_time":"11:51:00","departure_time":"11:51:00","lat":49.199468,"lon":16.570483,"is_passed":false},{"stop_id":"U1366Z2","name":"Marie Pujmanové","arrival_time":"11:51:00","departure_time":"11:51:00","lat":49.198128,"lon":16.573743,"is_passed":false},{"stop_id":"U1433Z2","name":"Neumannova","arrival_time":"11:52:00","departure_time":"11:52:00","lat":49.196459,"lon":16.578249,"is_passed":false},{"stop_id":"U1478Z2","name":"Pavlíkova","arrival_time":"11:53:00","departure_time":"11:53:00","lat":49.194734,"lon":16.582794,"is_passed":false},{"stop_id":"U1723Z2","name":"Vaňkovo náměstí","arrival_time":"11:54:00","departure_time":"11:54:00","lat":49.194962,"lon":16.586678,"is_passed":false},{"stop_id":"U1816Z2","name":"Žlutý kopec","arrival_time":"11:54:00","departure_time":"11:54:00","lat":49.195368,"lon":16.588271,"is_passed":false},{"stop_id":"U1682Z2","name":"Tvrdého","arrival_time":"11:55:00","departure_time":"11:55:00","lat":49.196917,"lon":16.592895,"is_passed":false},{"stop_id":"U1712Z4","name":"Úvoz","arrival_time":"11:56:00","departure_time":"11:56:00","lat":49.198264,"lon":16.59531,"is_passed":false},{"stop_id":"U1442Z2","name":"Obilní trh","arrival_time":"11:57:00","departure_time":"11:57:00","lat":49.198022,"lon":16.598215,"is_passed":false},{"stop_id":"U1257Z3","name":"Komenského náměstí","arrival_time":"11:59:00","departure_time":"11:59:00","lat":49.197026,"lon":16.602057,"is_passed":false}],"56320":[{"stop_id":"U1257Z2","name":"Komenského náměstí","arrival_time":"12:00:00","departure_time":"12:00:00","lat":49.197135,"lon":16.602612,"is_passed":false},{"stop_id":"U1442Z1","name":"Obilní trh","arrival_time":"12:01:00","departure_time":"12:01:00","lat":49.198221,"lon":16.597478,"is_passed":false},{"stop_id":"U1712Z3","name":"Úvoz","arrival_time":"12:02:00","departure_time":"12:02:00","lat":49.198432,"lon":16.594582,"is_passed":false},{"stop_id":"U1816Z1","name":"Žlutý kopec","arrival_time":"12:04:00","departure_time":"12:04:00","lat":49.19515,"lon":16.587289,"is_passed":false},{"stop_id":"U1723Z1","name":"Vaňkovo náměstí","arrival_time":"12:05:00","departure_time":"12:05:00","lat":49.195052,"lon":16.585013,"is_passed":false},{"stop_id":"U1228Z1","name":"Kampelíkova","arrival_time":"12:06:00","departure_time":"12:06:00","lat":49.197512,"lon":16.581178,"is_passed":false},{"stop_id":"U1597Z1","name":"Soukopova","arrival_time":"12:07:00","departure_time":"12:07:00","lat":49.198956,"lon":16.579053,"is_passed":false},{"stop_id":"U1013Z1","name":"Barvičova","arrival_time":"12:09:00","departure_time":"12:21:00","lat":49.201189,"lon":16.575746,"is_passed":false}],"56321":[{"stop_id":"U1013Z2","name":"Barvičova","arrival_time":"12:21:00","departure_time":"12:21:00","lat":49.201047,"lon":16.575783,"is_passed":false},{"stop_id":"U1597Z2","name":"Soukopova","arrival_time":"12:21:00","departure_time":"12:21:00","lat":49.199132,"lon":16.578726,"is_passed":false},{"stop_id":"U1228Z2","name":"Kampelíkova","arrival_time":"12:22:00","departure_time":"12:22:00","lat":49.197384,"lon":16.581205,"is_passed":false},{"stop_id":"U1723Z2","name":"Vaňkovo náměstí","arrival_time":"12:24:00","departure_time":"12:24:00","lat":49.194962,"lon":16.586678,"is_passed":false},{"stop_id":"U1816Z2","name":"Žlutý kopec","arrival_time":"12:24:00","departure_time":"12:24:00","lat":49.195368,"lon":16.588271,"is_passed":false},{"stop_id":"U1682Z2","name":"Tvrdého","arrival_time":"12:25:00","departure_time":"12:25:00","lat":49.196917,"lon":16.592895,"is_passed":false},{"stop_id":"U1712Z4","name":"Úvoz","arrival_time":"12:26:00","departure_time":"12:26:00","lat":49.198264,"lon":16.59531,"is_passed":false},{"stop_id":"U1442Z2","name":"Obilní trh","arrival_time":"12:27:00","departure_time":"12:27:00","lat":49.198022,"lon":16.598215,"is_passed":false},{"stop_id":"U1257Z3","name":"Komenského náměstí","arrival_time":"12:29:00","departure_time":"12:29:00","lat":49.197026,"lon":16.602057,"is_passed":false}],"56322":[{"stop_id":"U1257Z2","name":"Komenského náměstí","arrival_time":"12:30:00","departure_time":"12:30:00","lat":49.197135,"lon":16.602612,"is_passed":false},{"stop_id":"U1442Z1","name":"Obilní trh","arrival_time":"12:31:00","departure_time":"12:31:00","lat":49.198221,"lon":16.597478,"is_passed":false},{"stop_id":"U1712Z3","name":"Úvoz","arrival_time":"12:32:00","departure_time":"12:32:00","lat":49.198432,"lon":16.594582,"is_passed":false},{"stop_id":"U1816Z1","name":"Žlutý kopec","arrival_time":"12:34:00","departure_time":"12:34:00","lat":49.19515,"lon":16.587289,"is_passed":false},{"stop_id":"U1723Z3","name":"Vaňkovo náměstí","arrival_time":"12:35:00","departure_time":"12:35:00","lat":49.194723,"lon":16.585005,"is_passed":false},{"stop_id":"U1478Z1","name":"Pavlíkova","arrival_time":"12:35:00","departure_time":"12:35:00","lat":49.195012,"lon":16.581894,"is_passed":false},{"stop_id":"U1433Z1","name":"Neumannova","arrival_time":"12:36:00","departure_time":"12:36:00","lat":49.196721,"lon":16.577681,"is_passed":false},{"stop_id":"U1366Z1","name":"Marie Pujmanové","arrival_time":"12:37:00","departure_time":"12:37:00","lat":49.198265,"lon":16.573344,"is_passed":false},{"stop_id":"U1517Z1","name":"Preslova","arrival_time":"12:39:00","departure_time":"12:51:00","lat":49.199128,"lon":16.571114,"is_passed":false}],"56323":[{"stop_id":"U1517Z2","name":"Preslova","arrival_time":"12:51:00","departure_time":"12:51:00","lat":49.199468,"lon":16.570483,"is_passed":false},{"stop_id":"U1366Z2","name":"Marie Pujmanové","arrival_time":"12:51:00","departure_time":"12:51:00","lat":49.198128,"lon":16.573743,"is_passed":false},{"stop_id":"U1433Z2","name":"Neumannova","arrival_time":"12:52:00","departure_time":"12:52:00","lat":49.196459,"lon":16.578249,"is_passed":false},{"stop_id":"U1478Z2","name":"Pavlíkova","arrival_time":"12:53:00","departure_time":"12:53:00","lat":49.194734,"lon":16.582794,"is_passed":false},{"stop_id":"U1723Z2","name":"Vaňkovo náměstí","arrival_time":"12:54:00","departure_time":"12:54:00","lat":49.194962,"lon":16.586678,"is_passed":false},{"stop_id":"U1816Z2","name":"Žlutý kopec","arrival_time":"12:54:00","departure_time":"12:54:00","lat":49.195368,"lon":16.588271,"is_passed":false},{"stop_id":"U1682Z2","name":"Tvrdého","arrival_time":"12:55:00","departure_time":"12:55:00","lat":49.196917,"lon":16.592895,"is_passed":false},{"stop_id":"U1712Z4","name":"Úvoz","arrival_time":"12:56:00","departure_time":"12:56:00","lat":49.198264,"lon":16.59531,"is_passed":false},{"stop_id":"U1442Z2","name":"Obilní trh","arrival_time":"12:57:00","departure_time":"12:57:00","lat":49.198022,"lon":16.598215,"is_passed":false},{"stop_id":"U1257Z3","name":"Komenského náměstí","arrival_time":"12:59:00","departure_time":"12:59:00","lat":49.197026,"lon":16.602057,"is_passed":false}],"56324":[{"stop_id":"U1257Z2","name":"Komenského náměstí","arrival_time":"13:00:00","departure_time":"13:00:00","lat":49.197135,"lon":16.602612,"is_passed":false},{"stop_id":"U1442Z1","name":"Obilní trh","arrival_time":"13:01:00","departure_time":"13:01:00","lat":49.198221,"lon":16.597478,"is_passed":false},{"stop_id":"U1712Z3","name":"Úvoz","arrival_time":"13:02:00","departure_time":"13:02:00","lat":49.198432,"lon":16.594582,"is_passed":false},{"stop_id":"U1816Z1","name":"Žlutý kopec","arrival_time":"13:04:00","departure_time":"13:04:00","lat":49.19515,"lon":16.587289,"is_passed":false},{"stop_id":"U1723Z1","name":"Vaňkovo náměstí","arrival_time":"13:05:00","departure_time":"13:05:00","lat":49.195052,"lon":16.585013,"is_passed":false},{"stop_id":"U1228Z1","name":"Kampelíkova","arrival_time":"13:06:00","departure_time":"13:06:00","lat":49.197512,"lon":16.581178,"is_passed":false},{"stop_id":"U1597Z1","name":"Soukopova","arrival_time":"13:07:00","departure_time":"13:07:00","lat":49.198956,"lon":16.579053,"is_passed":false},{"stop_id":"U1013Z1","name":"Barvičova","arrival_time":"13:09:00","departure_time":"13:21:00","lat":49.201189,"lon":16.575746,"is_passed":false}],"56325":[{"stop_id":"U1013Z2","name":"Barvičova","arrival_time":"13:21:00","departure_time":"13:21:00","lat":49.201047,"lon":16.575783,"is_passed":false},{"stop_id":"U1597Z2","name":"Soukopova","arrival_time":"13:21:00","departure_time":"13:21:00","lat":49.199132,"lon":16.578726,"is_passed":false},{"stop_id":"U1228Z2","name":"Kampelíkova","arrival_time":"13:22:00","departure_time":"13:22:00","lat":49.197384,"lon":16.581205,"is_passed":false},{"stop_id":"U1723Z2","name":"Vaňkovo náměstí","arrival_time":"13:24:00","departure_time":"13:24:00","lat":49.194962,"lon":16.586678,"is_passed":false},{"stop_id":"U1816Z2","name":"Žlutý kopec","arrival_time":"13:24:00","departure_time":"13:24:00","lat":49.195368,"lon":16.588271,"is_passed":false},{"stop_id":"U1682Z2","name":"Tvrdého","arrival_time":"13:25:00","departure_time":"13:25:00","lat":49.196917,"lon":16.592895,"is_passed":false},{"stop_id":"U1712Z4","name":"Úvoz","arrival_time":"13:26:00","departure_time":"13:26:00","lat":49.198264,"lon":16.59531,"is_passed":false},{"stop_id":"U1442Z2","name":"Obilní trh","arrival_time":"13:27:00","departure_time":"13:27:00","lat":49.198022,"lon":16.598215,"is_passed":false},{"stop_id":"U1257Z3","name":"Komenského náměstí","arrival_time":"13:29:00","departure_time":"13:29:00","lat":49.197026,"lon":16.602057,"is_passed":false}],"56326":[{"stop_id":"U1257Z2","name":"Komenského náměstí","arrival_time":"13:30:00","departure_time":"13:30:00","lat":49.197135,"lon":16.602612,"is_passed":false},{"stop_id":"U1442Z1","name":"Obilní trh","arrival_time":"13:31:00","departure_time":"13:31:00","lat":49.198221,"lon":16.597478,"is_passed":false},{"stop_id":"U1712Z3","name":"Úvoz","arrival_time":"13:32:00","departure_time":"13:32:00","lat":49.198432,"lon":16.594582,"is_passed":false},{"stop_id":"U1816Z1","name":"Žlutý kopec","arrival_time":"13:34:00","departure_time":"13:34:00","lat":49.19515,"lon":16.587289,"is_passed":false},{"stop_id":"U1723Z3","name":"Vaňkovo náměstí","arrival_time":"13:35:00","departure_time":"13:35:00","lat":49.194723,"lon":16.585005,"is_passed":false},{"stop_id":"U1478Z1","name":"Pavlíkova","arrival_time":"13:35:00","departure_time":"13:35:00","lat":49.195012,"lon":16.581894,"is_passed":false},{"stop_id":"U1433Z1","name":"Neumannova","arrival_time":"13:36:00","departure_time":"13:36:00","lat":49.196721,"lon":16.577681,"is_passed":false},{"stop_id":"U1366Z1","name":"Marie Pujmanové","arrival_time":"13:37:00","departure_time":"13:37:00","lat":49.198265,"lon":16.573344,"is_passed":false},{"stop_id":"U1517Z1","name":"Preslova","arrival_time":"13:39:00","departure_time":"13:51:00","lat":49.199128,"lon":16.571114,"is_passed":false}],"56327":[{"stop_id":"U1517Z2","name":"Preslova","arrival_time":"13:51:00","departure_time":"13:51:00","lat":49.199468,"lon":16.570483,"is_passed":false},{"stop_id":"U1366Z2","name":"Marie Pujmanové","arrival_time":"13:51:00","departure_time":"13:51:00","lat":49.198128,"lon":16.573743,"is_passed":false},{"stop_id":"U1433Z2","name":"Neumannova","arrival_time":"13:52:00","departure_time":"13:52:00","lat":49.196459,"lon":16.578249,"is_passed":false},{"stop_id":"U1478Z2","name":"Pavlíkova","arrival_time":"13:53:00","departure_time":"13:53:00","lat":49.194734,"lon":16.582794,"is_passed":false},{"stop_id":"U1723Z2","name":"Vaňkovo náměstí","arrival_time":"13:54:00","departure_time":"13:54:00","lat":49.194962,"lon":16.586678,"is_passed":false},{"stop_id":"U1816Z2","name":"Žlutý kopec","arrival_time":"13:54:00","departure_time":"13:54:00","lat":49.195368,"lon":16.588271,"is_passed":false},{"stop_id":"U1682Z2","name":"Tvrdého","arrival_time":"13:55:00","departure_time":"13:55:00","lat":49.196917,"lon":16.592895,"is_passed":false},{"stop_id":"U1712Z4","name":"Úvoz","arrival_time":"13:56:00","departure_time":"13:56:00","lat":49.198264,"lon":16.59531,"is_passed":false},{"stop_id":"U1442Z2","name":"Obilní trh","arrival_time":"13:57:00","departure_time":"13:57:00","lat":49.198022,"lon":16.598215,"is_passed":false},{"stop_id":"U1257Z3","name":"Komenského náměstí","arrival_time":"13:59:00","departure_time":"13:59:00","lat":49.197026,"lon":16.602057,"is_passed":false}],"56328":[{"stop_id":"U1257Z2","name":"Komenského náměstí","arrival_time":"14:00:00","departure_time":"14:00:00","lat":49.197135,"lon":16.602612,"is_passed":false},{"stop_id":"U1442Z1","name":"Obilní trh","arrival_time":"14:01:00","departure_time":"14:01:00","lat":49.198221,"lon":16.597478,"is_passed":false},{"stop_id":"U1712Z3","name":"Úvoz","arrival_time":"14:02:00","departure_time":"14:02:00","lat":49.198432,"lon":16.594582,"is_passed":false},{"stop_id":"U1816Z1","name":"Žlutý kopec","arrival_time":"14:04:00","departure_time":"14:04:00","lat":49.19515,"lon":16.587289,"is_passed":false},{"stop_id":"U1723Z1","name":"Vaňkovo náměstí","arrival_time":"14:05:00","departure_time":"14:05:00","lat":49.195052,"lon":16.585013,"is_passed":false},{"stop_id":"U1228Z1","name":"Kampelíkova","arrival_time":"14:06:00","departure_time":"14:06:00","lat":49.197512,"lon":16.581178,"is_passed":false},{"stop_id":"U1597Z1","name":"Soukopova","arrival_time":"14:07:00","departure_time":"14:07:00","lat":49.198956,"lon":16.579053,"is_passed":false},{"stop_id":"U1013Z1","name":"Barvičova","arrival_time":"14:09:00","departure_time":"14:21:00","lat":49.201189,"lon":16.575746,"is_passed":false}],"56329":[{"stop_id":"U1013Z2","name":"Barvičova","arrival_time":"14:21:00","departure_time":"14:21:00","lat":49.201047,"lon":16.575783,"is_passed":false},{"stop_id":"U1597Z2","name":"Soukopova","arrival_time":"14:21:00","departure_time":"14:21:00","lat":49.199132,"lon":16.578726,"is_passed":false},{"stop_id":"U1228Z2","name":"Kampelíkova","arrival_time":"14:22:00","departure_time":"14:22:00","lat":49.197384,"lon":16.581205,"is_passed":false},{"stop_id":"U1723Z2","name":"Vaňkovo náměstí","arrival_time":"14:24:00","departure_time":"14:24:00","lat":49.194962,"lon":16.586678,"is_passed":false},{"stop_id":"U1816Z2","name":"Žlutý kopec","arrival_time":"14:24:00","departure_time":"14:24:00","lat":49.195368,"lon":16.588271,"is_passed":false},{"stop_id":"U1682Z2","name":"Tvrdého","arrival_time":"14:25:00","departure_time":"14:25:00","lat":49.196917,"lon":16.592895,"is_passed":false},{"stop_id":"U1712Z4","name":"Úvoz","arrival_time":"14:26:00","departure_time":"14:26:00","lat":49.198264,"lon":16.59531,"is_passed":false},{"stop_id":"U1442Z2","name":"Obilní trh","arrival_time":"14:27:00","departure_time":"14:27:00","lat":49.198022,"lon":16.598215,"is_passed":false},{"stop_id":"U1257Z3","name":"Komenského náměstí","arrival_time":"14:29:00","departure_time":"14:29:00","lat":49.197026,"lon":16.602057,"is_passed":false}],"56330":[{"stop_id":"U1257Z2","name":"Komenského náměstí","arrival_time":"14:30:00","departure_time":"14:30:00","lat":49.197135,"lon":16.602612,"is_passed":false},{"stop_id":"U1442Z1","name":"Obilní trh","arrival_time":"14:31:00","departure_time":"14:31:00","lat":49.198221,"lon":16.597478,"is_passed":false},{"stop_id":"U1712Z3","name":"Úvoz","arrival_time":"14:32:00","departure_time":"14:32:00","lat":49.198432,"lon":16.594582,"is_passed":false},{"stop_id":"U1816Z1","name":"Žlutý kopec","arrival_time":"14:34:00","departure_time":"14:34:00","lat":49.19515,"lon":16.587289,"is_passed":false},{"stop_id":"U1723Z3","name":"Vaňkovo náměstí","arrival_time":"14:35:00","departure_time":"14:35:00","lat":49.194723,"lon":16.585005,"is_passed":false},{"stop_id":"U1478Z1","name":"Pavlíkova","arrival_time":"14:35:00","departure_time":"14:35:00","lat":49.195012,"lon":16.581894,"is_passed":false},{"stop_id":"U1433Z1","name":"Neumannova","arrival_time":"14:36:00","departure_time":"14:36:00","lat":49.196721,"lon":16.577681,"is_passed":false},{"stop_id":"U1366Z1","name":"Marie Pujmanové","arrival_time":"14:37:00","departure_time":"14:37:00","lat":49.198265,"lon":16.573344,"is_passed":false},{"stop_id":"U1517Z1","name":"Preslova","arrival_time":"14:39:00","departure_time":"14:51:00","lat":49.199128,"lon":16.571114,"is_passed":false}],"56331":[{"stop_id":"U1517Z2","name":"Preslova","arrival_time":"14:51:00","departure_time":"14:51:00","lat":49.199468,"lon":16.570483,"is_passed":false},{"stop_id":"U1366Z2","name":"Marie Pujmanové","arrival_time":"14:51:00","departure_time":"14:51:00","lat":49.198128,"lon":16.573743,"is_passed":false},{"stop_id":"U1433Z2","name":"Neumannova","arrival_time":"14:52:00","departure_time":"14:52:00","lat":49.196459,"lon":16.578249,"is_passed":false},{"stop_id":"U1478Z2","name":"Pavlíkova","arrival_time":"14:53:00","departure_time":"14:53:00","lat":49.194734,"lon":16.582794,"is_passed":false},{"stop_id":"U1723Z2","name":"Vaňkovo náměstí","arrival_time":"14:54:00","departure_time":"14:54:00","lat":49.194962,"lon":16.586678,"is_passed":false},{"stop_id":"U1816Z2","name":"Žlutý kopec","arrival_time":"14:54:00","departure_time":"14:54:00","lat":49.195368,"lon":16.588271,"is_passed":false},{"stop_id":"U1682Z2","name":"Tvrdého","arrival_time":"14:55:00","departure_time":"14:55:00","lat":49.196917,"lon":16.592895,"is_passed":false},{"stop_id":"U1712Z4","name":"Úvoz","arrival_time":"14:56:00","departure_time":"14:56:00","lat":49.198264,"lon":16.59531,"is_passed":false},{"stop_id":"U1442Z2","name":"Obilní trh","arrival_time":"14:57:00","departure_time":"14:57:00","lat":49.198022,"lon":16.598215,"is_passed":false},{"stop_id":"U1257Z3","name":"Komenského náměstí","arrival_time":"14:59:00","departure_time":"14:59:00","lat":49.197026,"lon":16.602057,"is_passed":false}],"56332":[{"stop_id":"U1257Z2","name":"Komenského náměstí","arrival_time":"15:00:00","departure_time":"15:00:00","lat":49.197135,"lon":16.602612,"is_passed":false},{"stop_id":"U1442Z1","name":"Obilní trh","arrival_time":"15:01:00","departure_time":"15:01:00","lat":49.198221,"lon":16.597478,"is_passed":false},{"stop_id":"U1712Z3","name":"Úvoz","arrival_time":"15:02:00","departure_time":"15:02:00","lat":49.198432,"lon":16.594582,"is_passed":false},{"stop_id":"U1816Z1","name":"Žlutý kopec","arrival_time":"15:04:00","departure_time":"15:04:00","lat":49.19515,"lon":16.587289,"is_passed":false},{"stop_id":"U1723Z1","name":"Vaňkovo náměstí","arrival_time":"15:05:00","departure_time":"15:05:00","lat":49.195052,"lon":16.585013,"is_passed":false},{"stop_id":"U1228Z1","name":"Kampelíkova","arrival_time":"15:06:00","departure_time":"15:06:00","lat":49.197512,"lon":16.581178,"is_passed":false},{"stop_id":"U1597Z1","name":"Soukopova","arrival_time":"15:07:00","departure_time":"15:07:00","lat":49.198956,"lon":16.579053,"is_passed":false},{"stop_id":"U1013Z1","name":"Barvičova","arrival_time":"15:09:00","departure_time":"15:21:00","lat":49.201189,"lon":16.575746,"is_passed":false}],"56333":[{"stop_id":"U1013Z2","name":"Barvičova","arrival_time":"15:21:00","departure_time":"15:21:00","lat":49.201047,"lon":16.575783,"is_passed":false},{"stop_id":"U1597Z2","name":"Soukopova","arrival_time":"15:21:00","departure_time":"15:21:00","lat":49.199132,"lon":16.578726,"is_passed":false},{"stop_id":"U1228Z2","name":"Kampelíkova","arrival_time":"15:22:00","departure_time":"15:22:00","lat":49.197384,"lon":16.581205,"is_passed":false},{"stop_id":"U1723Z2","name":"Vaňkovo náměstí","arrival_time":"15:24:00","departure_time":"15:24:00","lat":49.194962,"lon":16.586678,"is_passed":false},{"stop_id":"U1816Z2","name":"Žlutý kopec","arrival_time":"15:24:00","departure_time":"15:24:00","lat":49.195368,"lon":16.588271,"is_passed":false},{"stop_id":"U1682Z2","name":"Tvrdého","arrival_time":"15:25:00","departure_time":"15:25:00","lat":49.196917,"lon":16.592895,"is_passed":false},{"stop_id":"U1712Z4","name":"Úvoz","arrival_time":"15:26:00","departure_time":"15:26:00","lat":49.198264,"lon":16.59531,"is_passed":false},{"stop_id":"U1442Z2","name":"Obilní trh","arrival_time":"15:27:00","departure_time":"15:27:00","lat":49.198022,"lon":16.598215,"is_passed":false},{"stop_id":"U1257Z3","name":"Komenského náměstí","arrival_time":"15:29:00","departure_time":"15:29:00","lat":49.197026,"lon":16.602057,"is_passed":false}],"56334":[{"stop_id":"U1257Z2","name":"Komenského náměstí","arrival_time":"15:30:00","departure_time":"15:30:00","lat":49.197135,"lon":16.602612,"is_passed":false},{"stop_id":"U1442Z1","name":"Obilní trh","arrival_time":"15:31:00","departure_time":"15:31:00","lat":49.198221,"lon":16.597478,"is_passed":false},{"stop_id":"U1712Z3","name":"Úvoz","arrival_time":"15:32:00","departure_time":"15:32:00","lat":49.198432,"lon":16.594582,"is_passed":false},{"stop_id":"U1816Z1","name":"Žlutý kopec","arrival_time":"15:34:00","departure_time":"15:34:00","lat":49.19515,"lon":16.587289,"is_passed":false},{"stop_id":"U1723Z3","name":"Vaňkovo náměstí","arrival_time":"15:35:00","departure_time":"15:35:00","lat":49.194723,"lon":16.585005,"is_passed":false},{"stop_id":"U1478Z1","name":"Pavlíkova","arrival_time":"15:35:00","departure_time":"15:35:00","lat":49.195012,"lon":16.581894,"is_passed":false},{"stop_id":"U1433Z1","name":"Neumannova","arrival_time":"15:36:00","departure_time":"15:36:00","lat":49.196721,"lon":16.577681,"is_passed":false},{"stop_id":"U1366Z1","name":"Marie Pujmanové","arrival_time":"15:37:00","departure_time":"15:37:00","lat":49.198265,"lon":16.573344,"is_passed":false},{"stop_id":"U1517Z1","name":"Preslova","arrival_time":"15:39:00","departure_time":"15:51:00","lat":49.199128,"lon":16.571114,"is_passed":false}],"56335":[{"stop_id":"U1517Z2","name":"Preslova","arrival_time":"15:51:00","departure_time":"15:51:00","lat":49.199468,"lon":16.570483,"is_passed":false},{"stop_id":"U1366Z2","name":"Marie Pujmanové","arrival_time":"15:51:00","departure_time":"15:51:00","lat":49.198128,"lon":16.573743,"is_passed":false},{"stop_id":"U1433Z2","name":"Neumannova","arrival_time":"15:52:00","departure_time":"15:52:00","lat":49.196459,"lon":16.578249,"is_passed":false},{"stop_id":"U1478Z2","name":"Pavlíkova","arrival_time":"15:53:00","departure_time":"15:53:00","lat":49.194734,"lon":16.582794,"is_passed":false},{"stop_id":"U1723Z2","name":"Vaňkovo náměstí","arrival_time":"15:54:00","departure_time":"15:54:00","lat":49.194962,"lon":16.586678,"is_passed":false},{"stop_id":"U1816Z2","name":"Žlutý kopec","arrival_time":"15:54:00","departure_time":"15:54:00","lat":49.195368,"lon":16.588271,"is_passed":false},{"stop_id":"U1682Z2","name":"Tvrdého","arrival_time":"15:55:00","departure_time":"15:55:00","lat":49.196917,"lon":16.592895,"is_passed":false},{"stop_id":"U1712Z4","name":"Úvoz","arrival_time":"15:56:00","departure_time":"15:56:00","lat":49.198264,"lon":16.59531,"is_passed":false},{"stop_id":"U1442Z2","name":"Obilní trh","arrival_time":"15:57:00","departure_time":"15:57:00","lat":49.198022,"lon":16.598215,"is_passed":false},{"stop_id":"U1257Z3","name":"Komenského náměstí","arrival_time":"15:59:00","departure_time":"15:59:00","lat":49.197026,"lon":16.602057,"is_passed":false}],"56336":[{"stop_id":"U1257Z2","name":"Komenského náměstí","arrival_time":"16:00:00","departure_time":"16:00:00","lat":49.197135,"lon":16.602612,"is_passed":false},{"stop_id":"U1442Z1","name":"Obilní trh","arrival_time":"16:01:00","departure_time":"16:01:00","lat":49.198221,"lon":16.597478,"is_passed":false},{"stop_id":"U1712Z3","name":"Úvoz","arrival_time":"16:02:00","departure_time":"16:02:00","lat":49.198432,"lon":16.594582,"is_passed":false},{"stop_id":"U1816Z1","name":"Žlutý kopec","arrival_time":"16:04:00","departure_time":"16:04:00","lat":49.19515,"lon":16.587289,"is_passed":false},{"stop_id":"U1723Z1","name":"Vaňkovo náměstí","arrival_time":"16:05:00","departure_time":"16:05:00","lat":49.195052,"lon":16.585013,"is_passed":false},{"stop_id":"U1228Z1","name":"Kampelíkova","arrival_time":"16:06:00","departure_time":"16:06:00","lat":49.197512,"lon":16.581178,"is_passed":false},{"stop_id":"U1597Z1","name":"Soukopova","arrival_time":"16:07:00","departure_time":"16:07:00","lat":49.198956,"lon":16.579053,"is_passed":false},{"stop_id":"U1013Z1","name":"Barvičova","arrival_time":"16:09:00","departure_time":"16:21:00","lat":49.201189,"lon":16.575746,"is_passed":false}],"56337":[{"stop_id":"U1013Z2","name":"Barvičova","arrival_time":"16:21:00","departure_time":"16:21:00","lat":49.201047,"lon":16.575783,"is_passed":false},{"stop_id":"U1597Z2","name":"Soukopova","arrival_time":"16:21:00","departure_time":"16:21:00","lat":49.199132,"lon":16.578726,"is_passed":false},{"stop_id":"U1228Z2","name":"Kampelíkova","arrival_time":"16:22:00","departure_time":"16:22:00","lat":49.197384,"lon":16.581205,"is_passed":false},{"stop_id":"U1723Z2","name":"Vaňkovo náměstí","arrival_time":"16:24:00","departure_time":"16:24:00","lat":49.194962,"lon":16.586678,"is_passed":false},{"stop_id":"U1816Z2","name":"Žlutý kopec","arrival_time":"16:24:00","departure_time":"16:24:00","lat":49.195368,"lon":16.588271,"is_passed":false},{"stop_id":"U1682Z2","name":"Tvrdého","arrival_time":"16:25:00","departure_time":"16:25:00","lat":49.196917,"lon":16.592895,"is_passed":false},{"stop_id":"U1712Z4","name":"Úvoz","arrival_time":"16:26:00","departure_time":"16:26:00","lat":49.198264,"lon":16.59531,"is_passed":false},{"stop_id":"U1442Z2","name":"Obilní trh","arrival_time":"16:27:00","departure_time":"16:27:00","lat":49.198022,"lon":16.598215,"is_passed":false},{"stop_id":"U1257Z3","name":"Komenského náměstí","arrival_time":"16:29:00","departure_time":"16:29:00","lat":49.197026,"lon":16.602057,"is_passed":false}],"56338":[{"stop_id":"U1257Z2","name":"Komenského náměstí","arrival_time":"16:30:00","departure_time":"16:30:00","lat":49.197135,"lon":16.602612,"is_passed":false},{"stop_id":"U1442Z1","name":"Obilní trh","arrival_time":"16:31:00","departure_time":"16:31:00","lat":49.198221,"lon":16.597478,"is_passed":false},{"stop_id":"U1712Z3","name":"Úvoz","arrival_time":"16:32:00","departure_time":"16:32:00","lat":49.198432,"lon":16.594582,"is_passed":false},{"stop_id":"U1816Z1","name":"Žlutý kopec","arrival_time":"16:34:00","departure_time":"16:34:00","lat":49.19515,"lon":16.587289,"is_passed":false},{"stop_id":"U1723Z3","name":"Vaňkovo náměstí","arrival_time":"16:35:00","departure_time":"16:35:00","lat":49.194723,"lon":16.585005,"is_passed":false},{"stop_id":"U1478Z1","name":"Pavlíkova","arrival_time":"16:35:00","departure_time":"16:35:00","lat":49.195012,"lon":16.581894,"is_passed":false},{"stop_id":"U1433Z1","name":"Neumannova","arrival_time":"16:36:00","departure_time":"16:36:00","lat":49.196721,"lon":16.577681,"is_passed":false},{"stop_id":"U1366Z1","name":"Marie Pujmanové","arrival_time":"16:37:00","departure_time":"16:37:00","lat":49.198265,"lon":16.573344,"is_passed":false},{"stop_id":"U1517Z1","name":"Preslova","arrival_time":"16:39:00","departure_time":"16:51:00","lat":49.199128,"lon":16.571114,"is_passed":false}],"56339":[{"stop_id":"U1517Z2","name":"Preslova","arrival_time":"16:51:00","departure_time":"16:51:00","lat":49.199468,"lon":16.570483,"is_passed":false},{"stop_id":"U1366Z2","name":"Marie Pujmanové","arrival_time":"16:51:00","departure_time":"16:51:00","lat":49.198128,"lon":16.573743,"is_passed":false},{"stop_id":"U1433Z2","name":"Neumannova","arrival_time":"16:52:00","departure_time":"16:52:00","lat":49.196459,"lon":16.578249,"is_passed":false},{"stop_id":"U1478Z2","name":"Pavlíkova","arrival_time":"16:53:00","departure_time":"16:53:00","lat":49.194734,"lon":16.582794,"is_passed":false},{"stop_id":"U1723Z2","name":"Vaňkovo náměstí","arrival_time":"16:54:00","departure_time":"16:54:00","lat":49.194962,"lon":16.586678,"is_passed":false},{"stop_id":"U1816Z2","name":"Žlutý kopec","arrival_time":"16:54:00","departure_time":"16:54:00","lat":49.195368,"lon":16.588271,"is_passed":false},{"stop_id":"U1682Z2","name":"Tvrdého","arrival_time":"16:55:00","departure_time":"16:55:00","lat":49.196917,"lon":16.592895,"is_passed":false},{"stop_id":"U1712Z4","name":"Úvoz","arrival_time":"16:56:00","departure_time":"16:56:00","lat":49.198264,"lon":16.59531,"is_passed":false},{"stop_id":"U1442Z2","name":"Obilní trh","arrival_time":"16:57:00","departure_time":"16:57:00","lat":49.198022,"lon":16.598215,"is_passed":false},{"stop_id":"U1257Z3","name":"Komenského náměstí","arrival_time":"16:59:00","departure_time":"16:59:00","lat":49.197026,"lon":16.602057,"is_passed":false}],"56340":[{"stop_id":"U1257Z2","name":"Komenského náměstí","arrival_time":"17:00:00","departure_time":"17:00:00","lat":49.197135,"lon":16.602612,"is_passed":false},{"stop_id":"U1442Z1","name":"Obilní trh","arrival_time":"17:01:00","departure_time":"17:01:00","lat":49.198221,"lon":16.597478,"is_passed":false},{"stop_id":"U1712Z3","name":"Úvoz","arrival_time":"17:02:00","departure_time":"17:02:00","lat":49.198432,"lon":16.594582,"is_passed":false},{"stop_id":"U1816Z1","name":"Žlutý kopec","arrival_time":"17:04:00","departure_time":"17:04:00","lat":49.19515,"lon":16.587289,"is_passed":false},{"stop_id":"U1723Z1","name":"Vaňkovo náměstí","arrival_time":"17:05:00","departure_time":"17:05:00","lat":49.195052,"lon":16.585013,"is_passed":false},{"stop_id":"U1228Z1","name":"Kampelíkova","arrival_time":"17:06:00","departure_time":"17:06:00","lat":49.197512,"lon":16.581178,"is_passed":false},{"stop_id":"U1597Z1","name":"Soukopova","arrival_time":"17:07:00","departure_time":"17:07:00","lat":49.198956,"lon":16.579053,"is_passed":false},{"stop_id":"U1013Z1","name":"Barvičova","arrival_time":"17:09:00","departure_time":"17:21:00","lat":49.201189,"lon":16.575746,"is_passed":false}],"56341":[{"stop_id":"U1013Z2","name":"Barvičova","arrival_time":"17:21:00","departure_time":"17:21:00","lat":49.201047,"lon":16.575783,"is_passed":false},{"stop_id":"U1597Z2","name":"Soukopova","arrival_time":"17:21:00","departure_time":"17:21:00","lat":49.199132,"lon":16.578726,"is_passed":false},{"stop_id":"U1228Z2","name":"Kampelíkova","arrival_time":"17:22:00","departure_time":"17:22:00","lat":49.197384,"lon":16.581205,"is_passed":false},{"stop_id":"U1723Z2","name":"Vaňkovo náměstí","arrival_time":"17:24:00","departure_time":"17:24:00","lat":49.194962,"lon":16.586678,"is_passed":false},{"stop_id":"U1816Z2","name":"Žlutý kopec","arrival_time":"17:24:00","departure_time":"17:24:00","lat":49.195368,"lon":16.588271,"is_passed":false},{"stop_id":"U1682Z2","name":"Tvrdého","arrival_time":"17:25:00","departure_time":"17:25:00","lat":49.196917,"lon":16.592895,"is_passed":false},{"stop_id":"U1712Z4","name":"Úvoz","arrival_time":"17:26:00","departure_time":"17:26:00","lat":49.198264,"lon":16.59531,"is_passed":false},{"stop_id":"U1442Z2","name":"Obilní trh","arrival_time":"17:27:00","departure_time":"17:27:00","lat":49.198022,"lon":16.598215,"is_passed":false},{"stop_id":"U1257Z3","name":"Komenského náměstí","arrival_time":"17:29:00","departure_time":"17:29:00","lat":49.197026,"lon":16.602057,"is_passed":false}],"56342":[{"stop_id":"U1257Z2","name":"Komenského náměstí","arrival_time":"17:30:00","departure_time":"17:30:00","lat":49.197135,"lon":16.602612,"is_passed":false},{"stop_id":"U1442Z1","name":"Obilní trh","arrival_time":"17:31:00","departure_time":"17:31:00","lat":49.198221,"lon":16.597478,"is_passed":false},{"stop_id":"U1712Z3","name":"Úvoz","arrival_time":"17:32:00","departure_time":"17:32:00","lat":49.198432,"lon":16.594582,"is_passed":false},{"stop_id":"U1816Z1","name":"Žlutý kopec","arrival_time":"17:34:00","departure_time":"17:34:00","lat":49.19515,"lon":16.587289,"is_passed":false},{"stop_id":"U1723Z3","name":"Vaňkovo náměstí","arrival_time":"17:35:00","departure_time":"17:35:00","lat":49.194723,"lon":16.585005,"is_passed":false},{"stop_id":"U1478Z1","name":"Pavlíkova","arrival_time":"17:35:00","departure_time":"17:35:00","lat":49.195012,"lon":16.581894,"is_passed":false},{"stop_id":"U1433Z1","name":"Neumannova","arrival_time":"17:36:00","departure_time":"17:36:00","lat":49.196721,"lon":16.577681,"is_passed":false},{"stop_id":"U1366Z1","name":"Marie Pujmanové","arrival_time":"17:37:00","departure_time":"17:37:00","lat":49.198265,"lon":16.573344,"is_passed":false},{"stop_id":"U1517Z1","name":"Preslova","arrival_time":"17:39:00","departure_time":"18:11:00","lat":49.199128,"lon":16.571114,"is_passed":false}],"56343":[{"stop_id":"U1517Z2","name":"Preslova","arrival_time":"18:11:00","departure_time":"18:11:00","lat":49.199468,"lon":16.570483,"is_passed":false},{"stop_id":"U1366Z2","name":"Marie Pujmanové","arrival_time":"18:11:00","departure_time":"18:11:00","lat":49.198128,"lon":16.573743,"is_passed":false},{"stop_id":"U1433Z2","name":"Neumannova","arrival_time":"18:12:00","departure_time":"18:12:00","lat":49.196459,"lon":16.578249,"is_passed":false},{"stop_id":"U1478Z2","name":"Pavlíkova","arrival_time":"18:13:00","departure_time":"18:13:00","lat":49.194734,"lon":16.582794,"is_passed":false},{"stop_id":"U1723Z2","name":"Vaňkovo náměstí","arrival_time":"18:14:00","departure_time":"18:14:00","lat":49.194962,"lon":16.586678,"is_passed":false},{"stop_id":"U1816Z2","name":"Žlutý kopec","arrival_time":"18:14:00","departure_time":"18:14:00","lat":49.195368,"lon":16.588271,"is_passed":false},{"stop_id":"U1682Z2","name":"Tvrdého","arrival_time":"18:15:00","departure_time":"18:15:00","lat":49.196917,"lon":16.592895,"is_passed":false},{"stop_id":"U1712Z4","name":"Úvoz","arrival_time":"18:16:00","departure_time":"18:16:00","lat":49.198264,"lon":16.59531,"is_passed":false},{"stop_id":"U1442Z2","name":"Obilní trh","arrival_time":"18:17:00","departure_time":"18:17:00","lat":49.198022,"lon":16.598215,"is_passed":false},{"stop_id":"U1257Z3","name":"Komenského náměstí","arrival_time":"18:19:00","departure_time":"18:19:00","lat":49.197026,"lon":16.602057,"is_passed":false}],"56344":[{"stop_id":"U1257Z2","name":"Komenského náměstí","arrival_time":"18:20:00","departure_time":"18:20:00","lat":49.197135,"lon":16.602612,"is_passed":false},{"stop_id":"U1442Z1","name":"Obilní trh","arrival_time":"18:21:00","departure_time":"18:21:00","lat":49.198221,"lon":16.597478,"is_passed":false},{"stop_id":"U1712Z3","name":"Úvoz","arrival_time":"18:22:00","departure_time":"18:22:00","lat":49.198432,"lon":16.594582,"is_passed":false},{"stop_id":"U1816Z1","name":"Žlutý kopec","arrival_time":"18:24:00","departure_time":"18:24:00","lat":49.19515,"lon":16.587289,"is_passed":false},{"stop_id":"U1723Z1","name":"Vaňkovo náměstí","arrival_time":"18:25:00","departure_time":"18:25:00","lat":49.195052,"lon":16.585013,"is_passed":false},{"stop_id":"U1228Z1","name":"Kampelíkova","arrival_time":"18:26:00","departure_time":"18:26:00","lat":49.197512,"lon":16.581178,"is_passed":false},{"stop_id":"U1597Z1","name":"Soukopova","arrival_time":"18:27:00","departure_time":"18:27:00","lat":49.198956,"lon":16.579053,"is_passed":false},{"stop_id":"U1013Z1","name":"Barvičova","arrival_time":"18:29:00","departure_time":"18:41:00","lat":49.201189,"lon":16.575746,"is_passed":false}],"56345":[{"stop_id":"U1013Z2","name":"Barvičova","arrival_time":"18:41:00","departure_time":"18:41:00","lat":49.201047,"lon":16.575783,"is_passed":false},{"stop_id":"U1597Z2","name":"Soukopova","arrival_time":"18:41:00","departure_time":"18:41:00","lat":49.199132,"lon":16.578726,"is_passed":false},{"stop_id":"U1228Z2","name":"Kampelíkova","arrival_time":"18:42:00","departure_time":"18:42:00","lat":49.197384,"lon":16.581205,"is_passed":false},{"stop_id":"U1723Z2","name":"Vaňkovo náměstí","arrival_time":"18:44:00","departure_time":"18:44:00","lat":49.194962,"lon":16.586678,"is_passed":false},{"stop_id":"U1816Z2","name":"Žlutý kopec","arrival_time":"18:44:00","departure_time":"18:44:00","lat":49.195368,"lon":16.588271,"is_passed":false},{"stop_id":"U1682Z2","name":"Tvrdého","arrival_time":"18:45:00","departure_time":"18:45:00","lat":49.196917,"lon":16.592895,"is_passed":false},{"stop_id":"U1712Z4","name":"Úvoz","arrival_time":"18:46:00","departure_time":"18:46:00","lat":49.198264,"lon":16.59531,"is_passed":false},{"stop_id":"U1442Z2","name":"Obilní trh","arrival_time":"18:47:00","departure_time":"18:47:00","lat":49.198022,"lon":16.598215,"is_passed":false},{"stop_id":"U1257Z3","name":"Komenského náměstí","arrival_time":"18:49:00","departure_time":"18:49:00","lat":49.197026,"lon":16.602057,"is_passed":false}],"56346":[{"stop_id":"U1257Z2","name":"Komenského náměstí","arrival_time":"18:50:00","departure_time":"18:50:00","lat":49.197135,"lon":16.602612,"is_passed":false},{"stop_id":"U1442Z1","name":"Obilní trh","arrival_time":"18:51:00","departure_time":"18:51:00","lat":49.198221,"lon":16.597478,"is_passed":false},{"stop_id":"U1712Z3","name":"Úvoz","arrival_time":"18:52:00","departure_time":"18:52:00","lat":49.198432,"lon":16.594582,"is_passed":false},{"stop_id":"U1816Z1","name":"Žlutý kopec","arrival_time":"18:54:00","departure_time":"18:54:00","lat":49.19515,"lon":16.587289,"is_passed":false},{"stop_id":"U1723Z3","name":"Vaňkovo náměstí","arrival_time":"18:55:00","departure_time":"18:55:00","lat":49.194723,"lon":16.585005,"is_passed":false},{"stop_id":"U1478Z1","name":"Pavlíkova","arrival_time":"18:55:00","departure_time":"18:55:00","lat":49.195012,"lon":16.581894,"is_passed":false},{"stop_id":"U1433Z1","name":"Neumannova","arrival_time":"18:56:00","departure_time":"18:56:00","lat":49.196721,"lon":16.577681,"is_passed":false},{"stop_id":"U1366Z1","name":"Marie Pujmanové","arrival_time":"18:57:00","departure_time":"18:57:00","lat":49.198265,"lon":16.573344,"is_passed":false},{"stop_id":"U1517Z1","name":"Preslova","arrival_time":"18:59:00","departure_time":"19:11:00","lat":49.199128,"lon":16.571114,"is_passed":false}],"56347":[{"stop_id":"U1517Z2","name":"Preslova","arrival_time":"19:11:00","departure_time":"19:11:00","lat":49.199468,"lon":16.570483,"is_passed":false},{"stop_id":"U1366Z2","name":"Marie Pujmanové","arrival_time":"19:11:00","departure_time":"19:11:00","lat":49.198128,"lon":16.573743,"is_passed":false},{"stop_id":"U1433Z2","name":"Neumannova","arrival_time":"19:12:00","departure_time":"19:12:00","lat":49.196459,"lon":16.578249,"is_passed":false},{"stop_id":"U1478Z2","name":"Pavlíkova","arrival_time":"19:13:00","departure_time":"19:13:00","lat":49.194734,"lon":16.582794,"is_passed":false},{"stop_id":"U1723Z2","name":"Vaňkovo náměstí","arrival_time":"19:14:00","departure_time":"19:14:00","lat":49.194962,"lon":16.586678,"is_passed":false},{"stop_id":"U1816Z2","name":"Žlutý kopec","arrival_time":"19:14:00","departure_time":"19:14:00","lat":49.195368,"lon":16.588271,"is_passed":false},{"stop_id":"U1682Z2","name":"Tvrdého","arrival_time":"19:15:00","departure_time":"19:15:00","lat":49.196917,"lon":16.592895,"is_passed":false},{"stop_id":"U1712Z4","name":"Úvoz","arrival_time":"19:16:00","departure_time":"19:16:00","lat":49.198264,"lon":16.59531,"is_passed":false},{"stop_id":"U1442Z2","name":"Obilní trh","arrival_time":"19:17:00","departure_time":"19:17:00","lat":49.198022,"lon":16.598215,"is_passed":false},{"stop_id":"U1257Z3","name":"Komenského náměstí","arrival_time":"19:19:00","departure_time":"19:19:00","lat":49.197026,"lon":16.602057,"is_passed":false}],"56348":[{"stop_id":"U1257Z2","name":"Komenského náměstí","arrival_time":"19:20:00","departure_time":"19:20:00","lat":49.197135,"lon":16.602612,"is_passed":false},{"stop_id":"U1442Z1","name":"Obilní trh","arrival_time":"19:21:00","departure_time":"19:21:00","lat":49.198221,"lon":16.597478,"is_passed":false},{"stop_id":"U1712Z3","name":"Úvoz","arrival_time":"19:22:00","departure_time":"19:22:00","lat":49.198432,"lon":16.594582,"is_passed":false},{"stop_id":"U1816Z1","name":"Žlutý kopec","arrival_time":"19:24:00","departure_time":"19:24:00","lat":49.19515,"lon":16.587289,"is_passed":false},{"stop_id":"U1723Z1","name":"Vaňkovo náměstí","arrival_time":"19:25:00","departure_time":"19:25:00","lat":49.195052,"lon":16.585013,"is_passed":false},{"stop_id":"U1228Z1","name":"Kampelíkova","arrival_time":"19:26:00","departure_time":"19:26:00","lat":49.197512,"lon":16.581178,"is_passed":false},{"stop_id":"U1597Z1","name":"Soukopova","arrival_time":"19:27:00","departure_time":"19:27:00","lat":49.198956,"lon":16.579053,"is_passed":false},{"stop_id":"U1013Z1","name":"Barvičova","arrival_time":"19:29:00","departure_time":"19:41:00","lat":49.201189,"lon":16.575746,"is_passed":false}],"56349":[{"stop_id":"U1013Z2","name":"Barvičova","arrival_time":"19:41:00","departure_time":"19:41:00","lat":49.201047,"lon":16.575783,"is_passed":false},{"stop_id":"U1597Z2","name":"Soukopova","arrival_time":"19:41:00","departure_time":"19:41:00","lat":49.199132,"lon":16.578726,"is_passed":false},{"stop_id":"U1228Z2","name":"Kampelíkova","arrival_time":"19:42:00","departure_time":"19:42:00","lat":49.197384,"lon":16.581205,"is_passed":false},{"stop_id":"U1723Z2","name":"Vaňkovo náměstí","arrival_time":"19:44:00","departure_time":"19:44:00","lat":49.194962,"lon":16.586678,"is_passed":false},{"stop_id":"U1816Z2","name":"Žlutý kopec","arrival_time":"19:44:00","departure_time":"19:44:00","lat":49.195368,"lon":16.588271,"is_passed":false},{"stop_id":"U1682Z2","name":"Tvrdého","arrival_time":"19:45:00","departure_time":"19:45:00","lat":49.196917,"lon":16.592895,"is_passed":false},{"stop_id":"U1712Z4","name":"Úvoz","arrival_time":"19:46:00","departure_time":"19:46:00","lat":49.198264,"lon":16.59531,"is_passed":false},{"stop_id":"U1442Z2","name":"Obilní trh","arrival_time":"19:47:00","departure_time":"19:47:00","lat":49.198022,"lon":16.598215,"is_passed":false},{"stop_id":"U1257Z3","name":"Komenského náměstí","arrival_time":"19:49:00","departure_time":"19:49:00","lat":49.197026,"lon":16.602057,"is_passed":false}],"56350":[{"stop_id":"U1257Z2","name":"Komenského náměstí","arrival_time":"19:50:00","departure_time":"19:50:00","lat":49.197135,"lon":16.602612,"is_passed":false},{"stop_id":"U1442Z1","name":"Obilní trh","arrival_time":"19:51:00","departure_time":"19:51:00","lat":49.198221,"lon":16.597478,"is_passed":false},{"stop_id":"U1712Z3","name":"Úvoz","arrival_time":"19:52:00","departure_time":"19:52:00","lat":49.198432,"lon":16.594582,"is_passed":false},{"stop_id":"U1816Z1","name":"Žlutý kopec","arrival_time":"19:54:00","departure_time":"19:54:00","lat":49.19515,"lon":16.587289,"is_passed":false},{"stop_id":"U1723Z3","name":"Vaňkovo náměstí","arrival_time":"19:55:00","departure_time":"19:55:00","lat":49.194723,"lon":16.585005,"is_passed":false},{"stop_id":"U1478Z1","name":"Pavlíkova","arrival_time":"19:55:00","departure_time":"19:55:00","lat":49.195012,"lon":16.581894,"is_passed":false},{"stop_id":"U1433Z1","name":"Neumannova","arrival_time":"19:56:00","departure_time":"19:56:00","lat":49.196721,"lon":16.577681,"is_passed":false},{"stop_id":"U1366Z1","name":"Marie Pujmanové","arrival_time":"19:57:00","departure_time":"19:57:00","lat":49.198265,"lon":16.573344,"is_passed":false},{"stop_id":"U1517Z1","name":"Preslova","arrival_time":"19:59:00","departure_time":"20:11:00","lat":49.199128,"lon":16.571114,"is_passed":false}],"56351":[{"stop_id":"U1517Z2","name":"Preslova","arrival_time":"20:11:00","departure_time":"20:11:00","lat":49.199468,"lon":16.570483,"is_passed":false},{"stop_id":"U1366Z2","name":"Marie Pujmanové","arrival_time":"20:11:00","departure_time":"20:11:00","lat":49.198128,"lon":16.573743,"is_passed":false},{"stop_id":"U1433Z2","name":"Neumannova","arrival_time":"20:12:00","departure_time":"20:12:00","lat":49.196459,"lon":16.578249,"is_passed":false},{"stop_id":"U1478Z2","name":"Pavlíkova","arrival_time":"20:13:00","departure_time":"20:13:00","lat":49.194734,"lon":16.582794,"is_passed":false},{"stop_id":"U1723Z2","name":"Vaňkovo náměstí","arrival_time":"20:14:00","departure_time":"20:14:00","lat":49.194962,"lon":16.586678,"is_passed":false},{"stop_id":"U1816Z2","name":"Žlutý kopec","arrival_time":"20:14:00","departure_time":"20:14:00","lat":49.195368,"lon":16.588271,"is_passed":false},{"stop_id":"U1682Z2","name":"Tvrdého","arrival_time":"20:15:00","departure_time":"20:15:00","lat":49.196917,"lon":16.592895,"is_passed":false},{"stop_id":"U1712Z4","name":"Úvoz","arrival_time":"20:16:00","departure_time":"20:16:00","lat":49.198264,"lon":16.59531,"is_passed":false},{"stop_id":"U1442Z2","name":"Obilní trh","arrival_time":"20:17:00","departure_time":"20:17:00","lat":49.198022,"lon":16.598215,"is_passed":false},{"stop_id":"U1257Z3","name":"Komenského náměstí","arrival_time":"20:19:00","departure_time":"20:19:00","lat":49.197026,"lon":16.602057,"is_passed":false}],"56352":[{"stop_id":"U1257Z2","name":"Komenského náměstí","arrival_time":"20:20:00","departure_time":"20:20:00","lat":49.197135,"lon":16.602612,"is_passed":false},{"stop_id":"U1442Z1","name":"Obilní trh","arrival_time":"20:21:00","departure_time":"20:21:00","lat":49.198221,"lon":16.597478,"is_passed":false},{"stop_id":"U1712Z3","name":"Úvoz","arrival_time":"20:22:00","departure_time":"20:22:00","lat":49.198432,"lon":16.594582,"is_passed":false},{"stop_id":"U1816Z1","name":"Žlutý kopec","arrival_time":"20:24:00","departure_time":"20:24:00","lat":49.19515,"lon":16.587289,"is_passed":false},{"stop_id":"U1723Z1","name":"Vaňkovo náměstí","arrival_time":"20:25:00","departure_time":"20:25:00","lat":49.195052,"lon":16.585013,"is_passed":false},{"stop_id":"U1228Z1","name":"Kampelíkova","arrival_time":"20:26:00","departure_time":"20:26:00","lat":49.197512,"lon":16.581178,"is_passed":false},{"stop_id":"U1597Z1","name":"Soukopova","arrival_time":"20:27:00","departure_time":"20:27:00","lat":49.198956,"lon":16.579053,"is_passed":false},{"stop_id":"U1013Z1","name":"Barvičova","arrival_time":"20:29:00","departure_time":"20:32:00","lat":49.201189,"lon":16.575746,"is_passed":false}],"56353":[{"stop_id":"U1013Z2","name":"Barvičova","arrival_time":"20:32:00","departure_time":"20:32:00","lat":49.201047,"lon":16.575783,"is_passed":false},{"stop_id":"U1597Z2","name":"Soukopova","arrival_time":"20:32:00","departure_time":"20:32:00","lat":49.199132,"lon":16.578726,"is_passed":false},{"stop_id":"U1228Z2","name":"Kampelíkova","arrival_time":"20:33:00","departure_time":"20:33:00","lat":49.197384,"lon":16.581205,"is_passed":false},{"stop_id":"U1723Z2","name":"Vaňkovo náměstí","arrival_time":"20:35:00","departure_time":"20:35:00","lat":49.194962,"lon":16.586678,"is_passed":false},{"stop_id":"U1816Z2","name":"Žlutý kopec","arrival_time":"20:35:00","departure_time":"20:35:00","lat":49.195368,"lon":16.588271,"is_passed":false},{"stop_id":"U1682Z2","name":"Tvrdého","arrival_time":"20:36:00","departure_time":"20:36:00","lat":49.196917,"lon":16.592895,"is_passed":false},{"stop_id":"U1378Z9","name":"Mendlovo náměstí","arrival_time":"20:39:00","departure_time":"20:39:00","lat":49.190456,"lon":16.593122,"is_passed":false},{"stop_id":"U1768Z3","name":"Výstaviště - hlavní vstup","arrival_time":"20:40:00","departure_time":"20:40:00","lat":49.18958,"lon":16.586471,"is_passed":false},{"stop_id":"U1343Z3","name":"ARENA BRNO","arrival_time":"20:41:00","departure_time":"20:41:00","lat":49.191696,"lon":16.576091,"is_passed":false},{"stop_id":"U1487Z5","name":"Pisárky","arrival_time":"20:42:00","departure_time":"20:42:00","lat":49.193517,"lon":16.571155,"is_passed":false},{"stop_id":"U1007Z1","name":"Anthropos","arrival_time":"20:44:00","departure_time":"20:44:00","lat":49.193461,"lon":16.565902,"is_passed":false},{"stop_id":"U1490Z1","name":"Pod Jurankou","arrival_time":"20:45:00","departure_time":"20:45:00","lat":49.199371,"lon":16.566405,"is_passed":false},{"stop_id":"U1732Z1","name":"Veslařská","arrival_time":"20:46:00","departure_time":"20:46:00","lat":49.202697,"lon":16.565265,"is_passed":false},{"stop_id":"U1216Z1","name":"Jundrov, hřiště","arrival_time":"20:47:00","departure_time":"20:47:00","lat":49.204651,"lon":16.560232,"is_passed":false},{"stop_id":"U1214Z1","name":"Jundrovský most","arrival_time":"20:48:00","departure_time":"20:48:00","lat":49.209437,"lon":16.556755,"is_passed":false},{"stop_id":"U1217Z4","name":"Vozovna Komín","arrival_time":"20:49:00","departure_time":"20:49:00","lat":49.213659,"lon":16.559498,"is_passed":false}],"56354":[{"stop_id":"U1703Z7","name":"Ústřední hřbitov","arrival_time":"5:25:00","departure_time":"5:25:00","lat":49.170741,"lon":16.597834,"is_passed":false},{"stop_id":"U1293Z5","name":"Krematorium","arrival_time":"5:26:00","departure_time":"5:26:00","lat":49.172914,"lon":16.590082,"is_passed":false},{"stop_id":"U1714Z3","name":"Uzbecká","arrival_time":"5:27:00","departure_time":"5:27:00","lat":49.173362,"lon":16.581961,"is_passed":false},{"stop_id":"U1610Z1","name":"Stará nemocnice","arrival_time":"5:28:00","departure_time":"5:28:00","lat":49.173643,"lon":16.577115,"is_passed":false},{"stop_id":"U1429Z4","name":"Nemocnice Bohunice","arrival_time":"5:30:00","departure_time":"5:32:00","lat":49.176125,"lon":16.567246,"is_passed":false}],"56355":[{"stop_id":"U1213Z2","name":"Jundrov","arrival_time":"5:58:00","departure_time":"5:58:00","lat":49.211666,"lon":16.550607,"is_passed":false},{"stop_id":"U1462Z2","name":"Optátova","arrival_time":"5:59:00","departure_time":"5:59:00","lat":49.208867,"lon":16.555614,"is_passed":false},{"stop_id":"U1214Z1","name":"Jundrovský most","arrival_time":"5:59:00","departure_time":"5:59:00","lat":49.209437,"lon":16.556755,"is_passed":false},{"stop_id":"U1217Z4","name":"Vozovna Komín","arrival_time":"6:00:00","departure_time":"6:00:00","lat":49.213659,"lon":16.559498,"is_passed":false},{"stop_id":"U1143Z2","name":"Hlavní","arrival_time":"6:01:00","departure_time":"6:01:00","lat":49.21715,"lon":16.560506,"is_passed":false},{"stop_id":"U1651Z2","name":"Štursova","arrival_time":"6:02:00","departure_time":"6:02:00","lat":49.215854,"lon":16.564522,"is_passed":false},{"stop_id":"U1544Z4","name":"Rosického náměstí","arrival_time":"6:03:00","departure_time":"6:03:00","lat":49.214881,"lon":16.568314,"is_passed":false},{"stop_id":"U1528Z4","name":"Přívrat","arrival_time":"6:04:00","departure_time":"6:04:00","lat":49.218647,"lon":16.574085,"is_passed":false},{"stop_id":"U1777Z2","name":"Záhřebská","arrival_time":"6:05:00","departure_time":"6:05:00","lat":49.219845,"lon":16.580415,"is_passed":false},{"stop_id":"U1567Z6","name":"Skácelova","arrival_time":"6:07:00","departure_time":"6:07:00","lat":49.22163,"lon":16.585935,"is_passed":false},{"stop_id":"U1586Z4","name":"Slovanské náměstí","arrival_time":"6:08:00","departure_time":"6:08:00","lat":49.222774,"lon":16.591332,"is_passed":false},{"stop_id":"U1181Z2","name":"Charvatská","arrival_time":"6:09:00","departure_time":"6:09:00","lat":49.219543,"lon":16.592241,"is_passed":false},{"stop_id":"U1643Z2","name":"Štefánikova","arrival_time":"6:11:00","departure_time":"6:11:00","lat":49.21528,"lon":16.599053,"is_passed":false},{"stop_id":"U1535Z2","name":"Reissigova","arrival_time":"6:12:00","departure_time":"6:12:00","lat":49.215925,"lon":16.604659,"is_passed":false},{"stop_id":"U1602Z2","name":"Sportovní","arrival_time":"6:13:00","departure_time":"6:13:00","lat":49.212001,"lon":16.607125,"is_passed":false},{"stop_id":"U1793Z4","name":"Za Lužánkami","arrival_time":"6:14:00","departure_time":"6:14:00","lat":49.208864,"lon":16.609536,"is_passed":false},{"stop_id":"U1177Z2","name":"Schodová","arrival_time":"6:15:00","departure_time":"6:15:00","lat":49.206474,"lon":16.612255,"is_passed":false},{"stop_id":"U1418Z4","name":"Náměstí 28. října","arrival_time":"6:16:00","departure_time":"6:16:00","lat":49.202201,"lon":16.613634,"is_passed":false},{"stop_id":"U1397Z4","name":"Moravské náměstí","arrival_time":"6:18:00","departure_time":"6:18:00","lat":49.199159,"lon":16.608704,"is_passed":false},{"stop_id":"U1193Z4","name":"Janáčkovo divadlo","arrival_time":"6:18:00","departure_time":"6:18:00","lat":49.197997,"lon":16.610307,"is_passed":false},{"stop_id":"U1357Z4","name":"Malinovského náměstí","arrival_time":"6:20:00","departure_time":"6:20:00","lat":49.195612,"lon":16.613248,"is_passed":false},{"stop_id":"U1146Z7","name":"Hlavní nádraží","arrival_time":"6:22:00","departure_time":"6:24:00","lat":49.19213,"lon":16.613467,"is_passed":false}],"56356":[{"stop_id":"U1681Z2","name":"Tuřany, smyčka","arrival_time":"6:57:00","departure_time":"6:57:00","lat":49.141757,"lon":16.666878,"is_passed":false},{"stop_id":"U1186Z2","name":"Chrlická","arrival_time":"6:58:00","departure_time":"6:58:00","lat":49.143983,"lon":16.665097,"is_passed":false},{"stop_id":"U1131Z2","name":"Hanácká","arrival_time":"6:59:00","departure_time":"6:59:00","lat":49.146706,"lon":16.667371,"is_passed":false},{"stop_id":"U1538Z2","name":"Revoluční","arrival_time":"7:00:00","departure_time":"7:00:00","lat":49.150097,"lon":16.661811,"is_passed":false},{"stop_id":"U1118Z2","name":"Glocova","arrival_time":"7:01:00","departure_time":"7:01:00","lat":49.151351,"lon":16.659085,"is_passed":false},{"stop_id":"U1191Z2","name":"Ivanovické náměstí","arrival_time":"7:02:00","departure_time":"7:02:00","lat":49.153629,"lon":16.653755,"is_passed":false},{"stop_id":"U1511Z2","name":"Popelova","arrival_time":"7:03:00","departure_time":"7:03:00","lat":49.156919,"lon":16.646204,"is_passed":false},{"stop_id":"U1533Z2","name":"Ráječek","arrival_time":"7:04:00","departure_time":"7:04:00","lat":49.161397,"lon":16.637387,"is_passed":false},{"stop_id":"U1148Z2","name":"Hněvkovského","arrival_time":"7:06:00","departure_time":"7:06:00","lat":49.169618,"lon":16.626335,"is_passed":false},{"stop_id":"U1565Z2","name":"Sazenice","arrival_time":"7:06:00","departure_time":"7:06:00","lat":49.172877,"lon":16.623824,"is_passed":false},{"stop_id":"U1361Z4","name":"Mariánské náměstí","arrival_time":"7:07:00","departure_time":"7:07:00","lat":49.177094,"lon":16.621935,"is_passed":false},{"stop_id":"U1266Z4","name":"Konopná","arrival_time":"7:08:00","departure_time":"7:08:00","lat":49.179332,"lon":16.621811,"is_passed":false},{"stop_id":"U1807Z2","name":"Železniční","arrival_time":"7:09:00","departure_time":"7:09:00","lat":49.183322,"lon":16.619338,"is_passed":false},{"stop_id":"U1696Z14","name":"ÚAN Zvonařka","arrival_time":"7:10:00","departure_time":"7:10:00","lat":49.185364,"lon":16.616151,"is_passed":false},{"stop_id":"U1716Z7","name":"Úzká","arrival_time":"7:13:00","departure_time":"7:23:00","lat":49.188863,"lon":16.613326,"is_passed":false}],"56357":[{"stop_id":"U1716Z8","name":"Úzká","arrival_time":"7:23:00","departure_time":"7:23:00","lat":49.189068,"lon":16.613933,"is_passed":false},