{"567":[{"stop_id":"U12736Z51","name":"Letovice, železniční stanice","arrival_time":"8:57:00","departure_time":"8:57:00","lat":49.555973,"lon":16.570906,"is_passed":false},{"stop_id":"U22702Z2","name":"Letovice zastávka","arrival_time":"8:59:00","departure_time":"9:00:00","lat":49.536152,"lon":16.576186,"is_passed":false},{"stop_id":"U22701Z2","name":"Zboněk","arrival_time":"9:02:00","departure_time":"9:02:00","lat":49.520482,"lon":16.584439,"is_passed":false},{"stop_id":"U22602Z2","name":"Svitávka","arrival_time":"9:05:00","departure_time":"9:05:00","lat":49.499434,"lon":16.599208,"is_passed":false},{"stop_id":"U12676Z51","name":"Skalice nad Svitavou, žel.st.","arrival_time":"9:08:00","departure_time":"9:13:00","lat":49.480123,"lon":16.609726,"is_passed":false},{"stop_id":"U12511Z51","name":"Doubravice, žel.st.","arrival_time":"9:18:00","departure_time":"9:18:00","lat":49.438707,"lon":16.621809,"is_passed":false},{"stop_id":"U12439Z51","name":"Rájec-Jestřebí, železniční stanice","arrival_time":"9:21:00","departure_time":"9:22:00","lat":49.408206,"lon":16.627711,"is_passed":false},{"stop_id":"U22301Z2","name":"Dolní Lhota","arrival_time":"9:24:00","departure_time":"9:25:00","lat":49.386917,"lon":16.633978,"is_passed":false},{"stop_id":"U22302Z2","name":"Blansko město","arrival_time":"9:27:00","departure_time":"9:28:00","lat":49.360996,"lon":16.639464,"is_passed":false},{"stop_id":"U12342Z29","name":"Blansko, aut. st.","arrival_time":"9:30:00","departure_time":"9:31:00","lat":49.352753,"lon":16.646848,"is_passed":false},{"stop_id":"U12231Z11","name":"Adamov, železniční zastávka","arrival_time":"9:36:00","departure_time":"9:37:00","lat":49.300671,"lon":16.650653,"is_passed":false},{"stop_id":"U12230Z11","name":"Adamov, železniční stanice","arrival_time":"9:38:00","departure_time":"9:39:00","lat":49.295341,"lon":16.663538,"is_passed":false},{"stop_id":"U22101Z2","name":"Babice nad Svitavou","arrival_time":"9:42:00","departure_time":"9:42:00","lat":49.276645,"lon":16.673012,"is_passed":false},{"stop_id":"U12158Z11","name":"Bílovice nad Svitavou, žel. stanice","arrival_time":"9:46:00","departure_time":"9:47:00","lat":49.242715,"lon":16.673677,"is_passed":false},{"stop_id":"U1809Z11","name":"Židenice, nádraží","arrival_time":"9:52:00","departure_time":"9:52:00","lat":49.204282,"lon":16.636042,"is_passed":false},{"stop_id":"U1146Z98","name":"Hlavní nádraží","arrival_time":"9:59:00","departure_time":"10:06:00","lat":49.19035,"lon":16.612342,"is_passed":false},{"stop_id":"U1183Z11","name":"Chrlice, nádraží","arrival_time":"10:14:00","departure_time":"10:17:00","lat":49.132031,"lon":16.657232,"is_passed":false},{"stop_id":"U16149Z11","name":"Sokolnice, železniční stanice","arrival_time":"10:23:00","departure_time":"10:24:00","lat":49.108029,"lon":16.733459,"is_passed":false},{"stop_id":"U26101Z2","name":"Újezd u Brna","arrival_time":"10:25:00","departure_time":"10:26:00","lat":49.107297,"lon":16.745564,"is_passed":false},{"stop_id":"U26102Z2","name":"Hostěrádky-Rešov","arrival_time":"10:29:00","departure_time":"10:29:00","lat":49.119822,"lon":16.782755,"is_passed":false},{"stop_id":"U26201Z2","name":"Zbýšov","arrival_time":"10:32:00","departure_time":"10:32:00","lat":49.132691,"lon":16.806859,"is_passed":false},{"stop_id":"U16212Z11","name":"Křenovice, hor. žel. st.","arrival_time":"10:35:00","departure_time":"10:58:00","lat":49.143553,"lon":16.824564,"is_passed":false}],"5670":[{"stop_id":"U15105Z1","name":"Modřice, CTP DHL","arrival_time":"7:15:00","departure_time":"7:15:00","lat":49.111496,"lon":16.602914,"is_passed":false},{"stop_id":"U15103Z2","name":"Modřice, CTP Inventec","arrival_time":"7:16:00","departure_time":"7:16:00","lat":49.115131,"lon":16.600629,"is_passed":false},{"stop_id":"U15134Z1","name":"Modřice, smyčka","arrival_time":"7:20:00","departure_time":"7:20:00","lat":49.127138,"lon":16.604706,"is_passed":false},{"stop_id":"U15122Z2","name":"Modřice, Brněnská","arrival_time":"7:20:00","departure_time":"7:20:00","lat":49.129392,"lon":16.604987,"is_passed":false},{"stop_id":"U15140Z3","name":"Modřice, železniční stanice","arrival_time":"7:23:00","departure_time":"7:23:00","lat":49.133518,"lon":16.606731,"is_passed":false},{"stop_id":"U15126Z2","name":"Modřice, Husova","arrival_time":"7:24:00","departure_time":"7:24:00","lat":49.132153,"lon":16.612307,"is_passed":false},{"stop_id":"U15127Z1","name":"Modřice, Masarykova","arrival_time":"7:25:00","departure_time":"7:25:00","lat":49.130994,"lon":16.614563,"is_passed":false},{"stop_id":"U15129Z1","name":"Modřice, náměstí","arrival_time":"7:27:00","departure_time":"7:27:00","lat":49.127673,"lon":16.615841,"is_passed":false},{"stop_id":"U15139Z1","name":"Modřice, Za mlýnem","arrival_time":"7:28:00","departure_time":"7:28:00","lat":49.130699,"lon":16.624761,"is_passed":false},{"stop_id":"U15124Z1","name":"Modřice, Drůbežářské závody","arrival_time":"7:29:00","departure_time":"7:29:00","lat":49.133319,"lon":16.63039,"is_passed":false},{"stop_id":"U1781Z2","name":"Zámecká","arrival_time":"7:32:00","departure_time":"7:32:00","lat":49.132518,"lon":16.642875,"is_passed":false},{"stop_id":"U1644Z2","name":"Šromova","arrival_time":"7:33:00","departure_time":"7:33:00","lat":49.13398,"lon":16.651446,"is_passed":false},{"stop_id":"U1183Z1","name":"Chrlice, nádraží","arrival_time":"7:35:00","departure_time":"7:35:00","lat":49.131712,"lon":16.656596,"is_passed":false},{"stop_id":"U1182Z4","name":"Chrlice, smyčka","arrival_time":"7:36:00","departure_time":"7:36:00","lat":49.126443,"lon":16.654784,"is_passed":false},{"stop_id":"U15146Z1","name":"Rebešovice, Horky","arrival_time":"7:39:00","departure_time":"7:39:00","lat":49.108356,"lon":16.64093,"is_passed":false},{"stop_id":"U15145Z1","name":"Rebešovice","arrival_time":"7:40:00","departure_time":"7:40:00","lat":49.10491,"lon":16.637941,"is_passed":false},{"stop_id":"U15144Z1","name":"Rajhradice, váha","arrival_time":"7:43:00","departure_time":"7:45:00","lat":49.093623,"lon":16.63553,"is_passed":false}],"5671":[{"stop_id":"U15144Z2","name":"Rajhradice, váha","arrival_time":"7:45:00","departure_time":"7:45:00","lat":49.09362,"lon":16.635452,"is_passed":false},{"stop_id":"U15145Z2","name":"Rebešovice","arrival_time":"7:47:00","departure_time":"7:47:00","lat":49.105028,"lon":16.638127,"is_passed":false},{"stop_id":"U15146Z2","name":"Rebešovice, Horky","arrival_time":"7:48:00","departure_time":"7:48:00","lat":49.108966,"lon":16.641733,"is_passed":false},{"stop_id":"U1182Z3","name":"Chrlice, smyčka","arrival_time":"7:51:00","departure_time":"7:51:00","lat":49.126855,"lon":16.655081,"is_passed":false},{"stop_id":"U1183Z2","name":"Chrlice, nádraží","arrival_time":"7:52:00","departure_time":"7:52:00","lat":49.132136,"lon":16.656638,"is_passed":false},{"stop_id":"U1644Z1","name":"Šromova","arrival_time":"7:53:00","departure_time":"7:53:00","lat":49.13376,"lon":16.650299,"is_passed":false},{"stop_id":"U1781Z1","name":"Zámecká","arrival_time":"7:54:00","departure_time":"7:54:00","lat":49.132776,"lon":16.642479,"is_passed":false},{"stop_id":"U15124Z2","name":"Modřice, Drůbežářské závody","arrival_time":"7:57:00","departure_time":"7:57:00","lat":49.13409,"lon":16.631493,"is_passed":false},{"stop_id":"U15129Z2","name":"Modřice, náměstí","arrival_time":"7:59:00","departure_time":"7:59:00","lat":49.127756,"lon":16.616081,"is_passed":false},{"stop_id":"U15127Z2","name":"Modřice, Masarykova","arrival_time":"8:01:00","departure_time":"8:01:00","lat":49.131296,"lon":16.614624,"is_passed":false},{"stop_id":"U15126Z1","name":"Modřice, Husova","arrival_time":"8:02:00","departure_time":"8:02:00","lat":49.132247,"lon":16.61201,"is_passed":false},{"stop_id":"U15140Z4","name":"Modřice, železniční stanice","arrival_time":"8:04:00","departure_time":"8:05:00","lat":49.133918,"lon":16.606723,"is_passed":false},{"stop_id":"U15137Z4","name":"Modřice, Tyršova","arrival_time":"8:07:00","departure_time":"8:07:00","lat":49.129402,"lon":16.603203,"is_passed":false},{"stop_id":"U15103Z1","name":"Modřice, CTP Inventec","arrival_time":"8:10:00","departure_time":"8:10:00","lat":49.115717,"lon":16.600581,"is_passed":false},{"stop_id":"U15105Z1","name":"Modřice, CTP DHL","arrival_time":"8:11:00","departure_time":"8:45:00","lat":49.111496,"lon":16.602914,"is_passed":false}],"5672":[{"stop_id":"U15105Z1","name":"Modřice, CTP DHL","arrival_time":"8:45:00","departure_time":"8:45:00","lat":49.111496,"lon":16.602914,"is_passed":false},{"stop_id":"U15103Z2","name":"Modřice, CTP Inventec","arrival_time":"8:46:00","departure_time":"8:46:00","lat":49.115131,"lon":16.600629,"is_passed":false},{"stop_id":"U15134Z1","name":"Modřice, smyčka","arrival_time":"8:50:00","departure_time":"8:50:00","lat":49.127138,"lon":16.604706,"is_passed":false},{"stop_id":"U15122Z2","name":"Modřice, Brněnská","arrival_time":"8:50:00","departure_time":"8:50:00","lat":49.129392,"lon":16.604987,"is_passed":false},{"stop_id":"U15140Z3","name":"Modřice, železniční stanice","arrival_time":"8:53:00","departure_time":"8:53:00","lat":49.133518,"lon":16.606731,"is_passed":false},{"stop_id":"U15126Z2","name":"Modřice, Husova","arrival_time":"8:54:00","departure_time":"8:54:00","lat":49.132153,"lon":16.612307,"is_passed":false},{"stop_id":"U15127Z1","name":"Modřice, Masarykova","arrival_time":"8:55:00","departure_time":"8:55:00","lat":49.130994,"lon":16.614563,"is_passed":false},{"stop_id":"U15129Z1","name":"Modřice, náměstí","arrival_time":"8:57:00","departure_time":"8:57:00","lat":49.127673,"lon":16.615841,"is_passed":false},{"stop_id":"U15139Z1","name":"Modřice, Za mlýnem","arrival_time":"8:58:00","departure_time":"8:58:00","lat":49.130699,"lon":16.624761,"is_passed":false},{"stop_id":"U15124Z1","name":"Modřice, Drůbežářské závody","arrival_time":"8:59:00","departure_time":"8:59:00","lat":49.133319,"lon":16.63039,"is_passed":false},{"stop_id":"U1781Z2","name":"Zámecká","arrival_time":"9:02:00","departure_time":"9:02:00","lat":49.132518,"lon":16.642875,"is_passed":false},{"stop_id":"U1644Z2","name":"Šromova","arrival_time":"9:03:00","departure_time":"9:03:00","lat":49.13398,"lon":16.651446,"is_passed":false},{"stop_id":"U1183Z1","name":"Chrlice, nádraží","arrival_time":"9:05:00","departure_time":"9:05:00","lat":49.131712,"lon":16.656596,"is_passed":false},{"stop_id":"U1182Z4","name":"Chrlice, smyčka","arrival_time":"9:06:00","departure_time":"12:51:00","lat":49.126443,"lon":16.654784,"is_passed":false}],"5673":[{"stop_id":"U1182Z3","name":"Chrlice, smyčka","arrival_time":"12:51:00","departure_time":"12:51:00","lat":49.126855,"lon":16.655081,"is_passed":false},{"stop_id":"U1183Z2","name":"Chrlice, nádraží","arrival_time":"12:52:00","departure_time":"12:52:00","lat":49.132136,"lon":16.656638,"is_passed":false},{"stop_id":"U1644Z1","name":"Šromova","arrival_time":"12:53:00","departure_time":"12:53:00","lat":49.13376,"lon":16.650299,"is_passed":false},{"stop_id":"U1781Z1","name":"Zámecká","arrival_time":"12:54:00","departure_time":"12:54:00","lat":49.132776,"lon":16.642479,"is_passed":false},{"stop_id":"U15124Z2","name":"Modřice, Drůbežářské závody","arrival_time":"12:57:00","departure_time":"12:57:00","lat":49.13409,"lon":16.631493,"is_passed":false},{"stop_id":"U15129Z2","name":"Modřice, náměstí","arrival_time":"12:59:00","departure_time":"12:59:00","lat":49.127756,"lon":16.616081,"is_passed":false},{"stop_id":"U15127Z2","name":"Modřice, Masarykova","arrival_time":"13:01:00","departure_time":"13:01:00","lat":49.131296,"lon":16.614624,"is_passed":false},{"stop_id":"U15126Z1","name":"Modřice, Husova","arrival_time":"13:02:00","departure_time":"13:02:00","lat":49.132247,"lon":16.61201,"is_passed":false},{"stop_id":"U15140Z4","name":"Modřice, železniční stanice","arrival_time":"13:04:00","departure_time":"13:05:00","lat":49.133918,"lon":16.606723,"is_passed":false},{"stop_id":"U15137Z4","name":"Modřice, Tyršova","arrival_time":"13:07:00","departure_time":"13:07:00","lat":49.129402,"lon":16.603203,"is_passed":false},{"stop_id":"U15103Z1","name":"Modřice, CTP Inventec","arrival_time":"13:10:00","departure_time":"13:10:00","lat":49.115717,"lon":16.600581,"is_passed":false},{"stop_id":"U15105Z1","name":"Modřice, CTP DHL","arrival_time":"13:11:00","departure_time":"13:40:00","lat":49.111496,"lon":16.602914,"is_passed":false}],"5674":[{"stop_id":"U15105Z1","name":"Modřice, CTP DHL","arrival_time":"13:40:00","departure_time":"13:40:00","lat":49.111496,"lon":16.602914,"is_passed":false},{"stop_id":"U15103Z2","name":"Modřice, CTP Inventec","arrival_time":"13:41:00","departure_time":"13:41:00","lat":49.115131,"lon":16.600629,"is_passed":false},{"stop_id":"U15134Z1","name":"Modřice, smyčka","arrival_time":"13:45:00","departure_time":"13:45:00","lat":49.127138,"lon":16.604706,"is_passed":false},{"stop_id":"U15122Z2","name":"Modřice, Brněnská","arrival_time":"13:45:00","departure_time":"13:45:00","lat":49.129392,"lon":16.604987,"is_passed":false},{"stop_id":"U15140Z3","name":"Modřice, železniční stanice","arrival_time":"13:48:00","departure_time":"13:50:00","lat":49.133518,"lon":16.606731,"is_passed":false},{"stop_id":"U15126Z2","name":"Modřice, Husova","arrival_time":"13:51:00","departure_time":"13:51:00","lat":49.132153,"lon":16.612307,"is_passed":false},{"stop_id":"U15127Z1","name":"Modřice, Masarykova","arrival_time":"13:52:00","departure_time":"13:52:00","lat":49.130994,"lon":16.614563,"is_passed":false},{"stop_id":"U15129Z1","name":"Modřice, náměstí","arrival_time":"13:54:00","departure_time":"13:54:00","lat":49.127673,"lon":16.615841,"is_passed":false},{"stop_id":"U15139Z1","name":"Modřice, Za mlýnem","arrival_time":"13:55:00","departure_time":"13:55:00","lat":49.130699,"lon":16.624761,"is_passed":false},{"stop_id":"U15124Z1","name":"Modřice, Drůbežářské závody","arrival_time":"13:56:00","departure_time":"13:56:00","lat":49.133319,"lon":16.63039,"is_passed":false},{"stop_id":"U1781Z2","name":"Zámecká","arrival_time":"13:59:00","departure_time":"13:59:00","lat":49.132518,"lon":16.642875,"is_passed":false},{"stop_id":"U1644Z2","name":"Šromova","arrival_time":"14:00:00","departure_time":"14:00:00","lat":49.13398,"lon":16.651446,"is_passed":false},{"stop_id":"U1183Z1","name":"Chrlice, nádraží","arrival_time":"14:02:00","departure_time":"14:05:00","lat":49.131712,"lon":16.656596,"is_passed":false},{"stop_id":"U1182Z4","name":"Chrlice, smyčka","arrival_time":"14:06:00","departure_time":"14:06:00","lat":49.126443,"lon":16.654784,"is_passed":false},{"stop_id":"U15146Z1","name":"Rebešovice, Horky","arrival_time":"14:09:00","departure_time":"14:09:00","lat":49.108356,"lon":16.64093,"is_passed":false},{"stop_id":"U15145Z1","name":"Rebešovice","arrival_time":"14:10:00","departure_time":"14:10:00","lat":49.10491,"lon":16.637941,"is_passed":false},{"stop_id":"U15144Z1","name":"Rajhradice, váha","arrival_time":"14:13:00","departure_time":"14:15:00","lat":49.093623,"lon":16.63553,"is_passed":false}],"5675":[{"stop_id":"U15144Z2","name":"Rajhradice, váha","arrival_time":"14:15:00","departure_time":"14:15:00","lat":49.09362,"lon":16.635452,"is_passed":false},{"stop_id":"U15145Z2","name":"Rebešovice","arrival_time":"14:17:00","departure_time":"14:17:00","lat":49.105028,"lon":16.638127,"is_passed":false},{"stop_id":"U15146Z2","name":"Rebešovice, Horky","arrival_time":"14:18:00","departure_time":"14:18:00","lat":49.108966,"lon":16.641733,"is_passed":false},{"stop_id":"U1182Z3","name":"Chrlice, smyčka","arrival_time":"14:21:00","departure_time":"14:21:00","lat":49.126855,"lon":16.655081,"is_passed":false},{"stop_id":"U1183Z2","name":"Chrlice, nádraží","arrival_time":"14:22:00","departure_time":"14:22:00","lat":49.132136,"lon":16.656638,"is_passed":false},{"stop_id":"U1644Z1","name":"Šromova","arrival_time":"14:23:00","departure_time":"14:23:00","lat":49.13376,"lon":16.650299,"is_passed":false},{"stop_id":"U1781Z1","name":"Zámecká","arrival_time":"14:24:00","departure_time":"14:24:00","lat":49.132776,"lon":16.642479,"is_passed":false},{"stop_id":"U15129Z2","name":"Modřice, náměstí","arrival_time":"14:28:00","departure_time":"14:28:00","lat":49.127756,"lon":16.616081,"is_passed":false},{"stop_id":"U15127Z2","name":"Modřice, Masarykova","arrival_time":"14:30:00","departure_time":"14:30:00","lat":49.131296,"lon":16.614624,"is_passed":false},{"stop_id":"U15126Z1","name":"Modřice, Husova","arrival_time":"14:31:00","departure_time":"14:31:00","lat":49.132247,"lon":16.61201,"is_passed":false},{"stop_id":"U15140Z4","name":"Modřice, železniční stanice","arrival_time":"14:33:00","departure_time":"14:33:00","lat":49.133918,"lon":16.606723,"is_passed":false},{"stop_id":"U15137Z4","name":"Modřice, Tyršova","arrival_time":"14:35:00","departure_time":"14:35:00","lat":49.129402,"lon":16.603203,"is_passed":false},{"stop_id":"U15103Z1","name":"Modřice, CTP Inventec","arrival_time":"14:38:00","departure_time":"14:38:00","lat":49.115717,"lon":16.600581,"is_passed":false},{"stop_id":"U15105Z1","name":"Modřice, CTP DHL","arrival_time":"14:39:00","departure_time":"15:10:00","lat":49.111496,"lon":16.602914,"is_passed":false}],"5676":[{"stop_id":"U15105Z1","name":"Modřice, CTP DHL","arrival_time":"15:10:00","departure_time":"15:10:00","lat":49.111496,"lon":16.602914,"is_passed":false},{"stop_id":"U15103Z2","name":"Modřice, CTP Inventec","arrival_time":"15:11:00","departure_time":"15:11:00","lat":49.115131,"lon":16.600629,"is_passed":false},{"stop_id":"U15134Z1","name":"Modřice, smyčka","arrival_time":"15:15:00","departure_time":"15:15:00","lat":49.127138,"lon":16.604706,"is_passed":false},{"stop_id":"U15122Z2","name":"Modřice, Brněnská","arrival_time":"15:15:00","departure_time":"15:15:00","lat":49.129392,"lon":16.604987,"is_passed":false},{"stop_id":"U15140Z3","name":"Modřice, železniční stanice","arrival_time":"15:18:00","departure_time":"15:20:00","lat":49.133518,"lon":16.606731,"is_passed":false},{"stop_id":"U15126Z2","name":"Modřice, Husova","arrival_time":"15:21:00","departure_time":"15:21:00","lat":49.132153,"lon":16.612307,"is_passed":false},{"stop_id":"U15127Z1","name":"Modřice, Masarykova","arrival_time":"15:22:00","departure_time":"15:22:00","lat":49.130994,"lon":16.614563,"is_passed":false},{"stop_id":"U15129Z1","name":"Modřice, náměstí","arrival_time":"15:24:00","departure_time":"15:24:00","lat":49.127673,"lon":16.615841,"is_passed":false},{"stop_id":"U15139Z1","name":"Modřice, Za mlýnem","arrival_time":"15:25:00","departure_time":"15:25:00","lat":49.130699,"lon":16.624761,"is_passed":false},{"stop_id":"U15124Z1","name":"Modřice, Drůbežářské závody","arrival_time":"15:26:00","departure_time":"15:26:00","lat":49.133319,"lon":16.63039,"is_passed":false},{"stop_id":"U1781Z2","name":"Zámecká","arrival_time":"15:29:00","departure_time":"15:29:00","lat":49.132518,"lon":16.642875,"is_passed":false},{"stop_id":"U1644Z2","name":"Šromova","arrival_time":"15:30:00","departure_time":"15:30:00","lat":49.13398,"lon":16.651446,"is_passed":false},{"stop_id":"U1183Z1","name":"Chrlice, nádraží","arrival_time":"15:32:00","departure_time":"15:35:00","lat":49.131712,"lon":16.656596,"is_passed":false},{"stop_id":"U1182Z4","name":"Chrlice, smyčka","arrival_time":"15:36:00","departure_time":"15:36:00","lat":49.126443,"lon":16.654784,"is_passed":false},{"stop_id":"U15146Z1","name":"Rebešovice, Horky","arrival_time":"15:39:00","departure_time":"15:39:00","lat":49.108356,"lon":16.64093,"is_passed":false},{"stop_id":"U15145Z1","name":"Rebešovice","arrival_time":"15:40:00","departure_time":"15:40:00","lat":49.10491,"lon":16.637941,"is_passed":false},{"stop_id":"U15144Z1","name":"Rajhradice, váha","arrival_time":"15:43:00","departure_time":"16:15:00","lat":49.093623,"lon":16.63553,"is_passed":false}],"5677":[{"stop_id":"U15144Z2","name":"Rajhradice, váha","arrival_time":"16:15:00","departure_time":"16:15:00","lat":49.09362,"lon":16.635452,"is_passed":false},{"stop_id":"U15145Z2","name":"Rebešovice","arrival_time":"16:17:00","departure_time":"16:17:00","lat":49.105028,"lon":16.638127,"is_passed":false},{"stop_id":"U15146Z2","name":"Rebešovice, Horky","arrival_time":"16:18:00","departure_time":"16:18:00","lat":49.108966,"lon":16.641733,"is_passed":false},{"stop_id":"U1182Z3","name":"Chrlice, smyčka","arrival_time":"16:21:00","departure_time":"16:21:00","lat":49.126855,"lon":16.655081,"is_passed":false},{"stop_id":"U1183Z2","name":"Chrlice, nádraží","arrival_time":"16:22:00","departure_time":"16:22:00","lat":49.132136,"lon":16.656638,"is_passed":false},{"stop_id":"U1644Z1","name":"Šromova","arrival_time":"16:23:00","departure_time":"16:23:00","lat":49.13376,"lon":16.650299,"is_passed":false},{"stop_id":"U1781Z1","name":"Zámecká","arrival_time":"16:24:00","departure_time":"16:24:00","lat":49.132776,"lon":16.642479,"is_passed":false},{"stop_id":"U15129Z2","name":"Modřice, náměstí","arrival_time":"16:28:00","departure_time":"16:28:00","lat":49.127756,"lon":16.616081,"is_passed":false},{"stop_id":"U15127Z2","name":"Modřice, Masarykova","arrival_time":"16:30:00","departure_time":"16:30:00","lat":49.131296,"lon":16.614624,"is_passed":false},{"stop_id":"U15126Z1","name":"Modřice, Husova","arrival_time":"16:31:00","departure_time":"16:31:00","lat":49.132247,"lon":16.61201,"is_passed":false},{"stop_id":"U15140Z4","name":"Modřice, železniční stanice","arrival_time":"16:33:00","departure_time":"16:33:00","lat":49.133918,"lon":16.606723,"is_passed":false},{"stop_id":"U15137Z4","name":"Modřice, Tyršova","arrival_time":"16:35:00","departure_time":"16:35:00","lat":49.129402,"lon":16.603203,"is_passed":false},{"stop_id":"U15103Z1","name":"Modřice, CTP Inventec","arrival_time":"16:38:00","departure_time":"16:38:00","lat":49.115717,"lon":16.600581,"is_passed":false},{"stop_id":"U15105Z1","name":"Modřice, CTP DHL","arrival_time":"16:39:00","departure_time":"17:10:00","lat":49.111496,"lon":16.602914,"is_passed":false}],"5678":[{"stop_id":"U15105Z1","name":"Modřice, CTP DHL","arrival_time":"17:10:00","departure_time":"17:10:00","lat":49.111496,"lon":16.602914,"is_passed":false},{"stop_id":"U15103Z2","name":"Modřice, CTP Inventec","arrival_time":"17:11:00","departure_time":"17:11:00","lat":49.115131,"lon":16.600629,"is_passed":false},{"stop_id":"U15134Z1","name":"Modřice, smyčka","arrival_time":"17:15:00","departure_time":"17:15:00","lat":49.127138,"lon":16.604706,"is_passed":false},{"stop_id":"U15122Z2","name":"Modřice, Brněnská","arrival_time":"17:15:00","departure_time":"17:15:00","lat":49.129392,"lon":16.604987,"is_passed":false},{"stop_id":"U15140Z3","name":"Modřice, železniční stanice","arrival_time":"17:18:00","departure_time":"17:20:00","lat":49.133518,"lon":16.606731,"is_passed":false},{"stop_id":"U15126Z2","name":"Modřice, Husova","arrival_time":"17:21:00","departure_time":"17:21:00","lat":49.132153,"lon":16.612307,"is_passed":false},{"stop_id":"U15127Z1","name":"Modřice, Masarykova","arrival_time":"17:22:00","departure_time":"17:22:00","lat":49.130994,"lon":16.614563,"is_passed":false},{"stop_id":"U15129Z1","name":"Modřice, náměstí","arrival_time":"17:24:00","departure_time":"17:24:00","lat":49.127673,"lon":16.615841,"is_passed":false},{"stop_id":"U15139Z1","name":"Modřice, Za mlýnem","arrival_time":"17:25:00","departure_time":"17:25:00","lat":49.130699,"lon":16.624761,"is_passed":false},{"stop_id":"U15124Z1","name":"Modřice, Drůbežářské závody","arrival_time":"17:26:00","departure_time":"17:26:00","lat":49.133319,"lon":16.63039,"is_passed":false},{"stop_id":"U1781Z2","name":"Zámecká","arrival_time":"17:29:00","departure_time":"17:29:00","lat":49.132518,"lon":16.642875,"is_passed":false},{"stop_id":"U1644Z2","name":"Šromova","arrival_time":"17:30:00","departure_time":"17:30:00","lat":49.13398,"lon":16.651446,"is_passed":false},{"stop_id":"U1183Z1","name":"Chrlice, nádraží","arrival_time":"17:32:00","departure_time":"17:32:00","lat":49.131712,"lon":16.656596,"is_passed":false},{"stop_id":"U1182Z4","name":"Chrlice, smyčka","arrival_time":"17:33:00","departure_time":"17:33:00","lat":49.126443,"lon":16.654784,"is_passed":false}],"5679":[{"stop_id":"U14201Z2","name":"Ořechov, Jeřábkova","arrival_time":"5:11:00","departure_time":"5:11:00","lat":49.108927,"lon":16.512613,"is_passed":false},{"stop_id":"U14204Z2","name":"Ořechov, obecní úřad","arrival_time":"5:13:00","departure_time":"5:13:00","lat":49.111497,"lon":16.51816,"is_passed":false},{"stop_id":"U14207Z2","name":"Ořechov, zdravotní středisko","arrival_time":"5:15:00","departure_time":"5:15:00","lat":49.11048,"lon":16.527158,"is_passed":false},{"stop_id":"U14206Z2","name":"Ořechov, tábor","arrival_time":"5:16:00","departure_time":"5:16:00","lat":49.11015,"lon":16.539909,"is_passed":false},{"stop_id":"U15101Z2","name":"Hajany","arrival_time":"5:18:00","departure_time":"5:18:00","lat":49.110659,"lon":16.554994,"is_passed":false},{"stop_id":"U15162Z2","name":"Želešice, u dálnice","arrival_time":"5:20:00","departure_time":"5:20:00","lat":49.115092,"lon":16.569087,"is_passed":false},{"stop_id":"U15180Z2","name":"Želešice, u Sulzrů","arrival_time":"5:22:00","departure_time":"5:22:00","lat":49.116762,"lon":16.577892,"is_passed":false},{"stop_id":"U15120Z2","name":"Želešice, hostinec","arrival_time":"5:23:00","departure_time":"5:23:00","lat":49.116718,"lon":16.581256,"is_passed":false},{"stop_id":"U15121Z2","name":"Želešice, na kopci","arrival_time":"5:24:00","departure_time":"5:24:00","lat":49.118595,"lon":16.593624,"is_passed":false},{"stop_id":"U15134Z1","name":"Modřice, smyčka","arrival_time":"5:28:00","departure_time":"5:28:00","lat":49.127138,"lon":16.604706,"is_passed":false},{"stop_id":"U15122Z2","name":"Modřice, Brněnská","arrival_time":"5:28:00","departure_time":"5:28:00","lat":49.129392,"lon":16.604987,"is_passed":false},{"stop_id":"U15140Z3","name":"Modřice, železniční stanice","arrival_time":"5:31:00","departure_time":"5:31:00","lat":49.133518,"lon":16.606731,"is_passed":false},{"stop_id":"U15126Z2","name":"Modřice, Husova","arrival_time":"5:32:00","departure_time":"5:32:00","lat":49.132153,"lon":16.612307,"is_passed":false},{"stop_id":"U15127Z1","name":"Modřice, Masarykova","arrival_time":"5:33:00","departure_time":"5:33:00","lat":49.130994,"lon":16.614563,"is_passed":false},{"stop_id":"U15129Z1","name":"Modřice, náměstí","arrival_time":"5:35:00","departure_time":"5:35:00","lat":49.127673,"lon":16.615841,"is_passed":false},{"stop_id":"U15139Z1","name":"Modřice, Za mlýnem","arrival_time":"5:36:00","departure_time":"5:36:00","lat":49.130699,"lon":16.624761,"is_passed":false},{"stop_id":"U15124Z1","name":"Modřice, Drůbežářské závody","arrival_time":"5:37:00","departure_time":"5:37:00","lat":49.133319,"lon":16.63039,"is_passed":false},{"stop_id":"U15130Z3","name":"Modřice, Olympia","arrival_time":"5:40:00","departure_time":"5:47:00","lat":49.139507,"lon":16.633749,"is_passed":false}],"56700":[{"stop_id":"U1337Z2","name":"Letiště Tuřany - terminál","arrival_time":"20:26:00","departure_time":"20:26:00","lat":49.154845,"lon":16.692583,"is_passed":false},{"stop_id":"U1334Z2","name":"Letiště - logistický areál","arrival_time":"20:28:00","departure_time":"20:28:00","lat":49.156979,"lon":16.699058,"is_passed":false},{"stop_id":"U1640Z2","name":"Šmahova","arrival_time":"20:30:00","departure_time":"20:30:00","lat":49.172157,"lon":16.684373,"is_passed":false},{"stop_id":"U1562Z2","name":"Řípská","arrival_time":"20:32:00","departure_time":"20:32:00","lat":49.174115,"lon":16.681787,"is_passed":false},{"stop_id":"U1046Z2","name":"Brněnky","arrival_time":"20:33:00","departure_time":"20:33:00","lat":49.178901,"lon":16.675332,"is_passed":false},{"stop_id":"U1105Z4","name":"Ericha Roučky","arrival_time":"20:34:00","departure_time":"20:34:00","lat":49.175789,"lon":16.668403,"is_passed":false},{"stop_id":"U1739Z2","name":"Vlastimila Pecha","arrival_time":"20:35:00","departure_time":"20:35:00","lat":49.179751,"lon":16.662407,"is_passed":false},{"stop_id":"U1665Z2","name":"Těžební","arrival_time":"20:36:00","departure_time":"20:36:00","lat":49.182639,"lon":16.656437,"is_passed":false},{"stop_id":"U1455Z2","name":"Olomoucká - u školy","arrival_time":"20:37:00","departure_time":"20:37:00","lat":49.186437,"lon":16.652477,"is_passed":false},{"stop_id":"U1598Z2","name":"Spáčilova","arrival_time":"20:38:00","departure_time":"20:38:00","lat":49.188617,"lon":16.641569,"is_passed":false},{"stop_id":"U1814Z4","name":"Životského","arrival_time":"20:40:00","departure_time":"20:40:00","lat":49.190077,"lon":16.634992,"is_passed":false},{"stop_id":"U1372Z2","name":"Masná","arrival_time":"20:42:00","departure_time":"20:42:00","lat":49.191283,"lon":16.6245,"is_passed":false},{"stop_id":"U1746Z2","name":"Vlhká","arrival_time":"20:43:00","departure_time":"20:43:00","lat":49.191852,"lon":16.619157,"is_passed":false},{"stop_id":"U1146Z7","name":"Hlavní nádraží","arrival_time":"20:46:00","departure_time":"20:46:00","lat":49.19213,"lon":16.613467,"is_passed":false}],"56701":[{"stop_id":"U1146Z8","name":"Hlavní nádraží","arrival_time":"20:55:00","departure_time":"20:55:00","lat":49.191893,"lon":16.613334,"is_passed":false},{"stop_id":"U1746Z1","name":"Vlhká","arrival_time":"20:56:00","departure_time":"20:56:00","lat":49.191847,"lon":16.618976,"is_passed":false},{"stop_id":"U1372Z5","name":"Masná","arrival_time":"20:57:00","departure_time":"20:57:00","lat":49.191189,"lon":16.626548,"is_passed":false},{"stop_id":"U1677Z1","name":"Tržní","arrival_time":"20:59:00","departure_time":"20:59:00","lat":49.189973,"lon":16.632193,"is_passed":false},{"stop_id":"U1068Z1","name":"Černovičky","arrival_time":"21:04:00","departure_time":"21:04:00","lat":49.182244,"lon":16.66894,"is_passed":false},{"stop_id":"U1741Z1","name":"Vlárská","arrival_time":"21:05:00","departure_time":"21:05:00","lat":49.180745,"lon":16.671647,"is_passed":false},{"stop_id":"U1046Z1","name":"Brněnky","arrival_time":"21:06:00","departure_time":"21:06:00","lat":49.17891,"lon":16.674895,"is_passed":false},{"stop_id":"U1562Z1","name":"Řípská","arrival_time":"21:07:00","departure_time":"21:07:00","lat":49.173814,"lon":16.682005,"is_passed":false},{"stop_id":"U1300Z1","name":"Křehlíkova","arrival_time":"21:09:00","departure_time":"21:09:00","lat":49.174839,"lon":16.685145,"is_passed":false},{"stop_id":"U1525Z1","name":"Přemyslovo náměstí","arrival_time":"21:10:00","departure_time":"21:10:00","lat":49.176289,"lon":16.687296,"is_passed":false},{"stop_id":"U1292Z1","name":"Krejčího","arrival_time":"21:11:00","departure_time":"21:11:00","lat":49.177441,"lon":16.690968,"is_passed":false},{"stop_id":"U16165Z1","name":"Šlapanice, sídliště","arrival_time":"21:14:00","departure_time":"21:14:00","lat":49.16703,"lon":16.718338,"is_passed":false},{"stop_id":"U16155Z1","name":"Šlapanice, Čechova","arrival_time":"21:15:00","departure_time":"21:15:00","lat":49.165752,"lon":16.722536,"is_passed":false},{"stop_id":"U16159Z1","name":"Šlapanice, Kalvodova","arrival_time":"21:17:00","departure_time":"21:48:00","lat":49.166442,"lon":16.726521,"is_passed":false}],"56702":[{"stop_id":"U16159Z2","name":"Šlapanice, Kalvodova","arrival_time":"21:48:00","departure_time":"21:48:00","lat":49.166539,"lon":16.726218,"is_passed":false},{"stop_id":"U16155Z2","name":"Šlapanice, Čechova","arrival_time":"21:49:00","departure_time":"21:49:00","lat":49.166076,"lon":16.721551,"is_passed":false},{"stop_id":"U16165Z2","name":"Šlapanice, sídliště","arrival_time":"21:49:00","departure_time":"21:49:00","lat":49.167046,"lon":16.718465,"is_passed":false},{"stop_id":"U1292Z2","name":"Krejčího","arrival_time":"21:53:00","departure_time":"21:53:00","lat":49.177496,"lon":16.690785,"is_passed":false},{"stop_id":"U1525Z2","name":"Přemyslovo náměstí","arrival_time":"21:53:00","departure_time":"21:53:00","lat":49.176456,"lon":16.687324,"is_passed":false},{"stop_id":"U1300Z2","name":"Křehlíkova","arrival_time":"21:54:00","departure_time":"21:54:00","lat":49.174794,"lon":16.685267,"is_passed":false},{"stop_id":"U1562Z2","name":"Řípská","arrival_time":"21:55:00","departure_time":"21:55:00","lat":49.174115,"lon":16.681787,"is_passed":false},{"stop_id":"U1046Z2","name":"Brněnky","arrival_time":"21:56:00","departure_time":"21:56:00","lat":49.178901,"lon":16.675332,"is_passed":false},{"stop_id":"U1741Z2","name":"Vlárská","arrival_time":"21:56:00","departure_time":"21:56:00","lat":49.180702,"lon":16.672017,"is_passed":false},{"stop_id":"U1068Z4","name":"Černovičky","arrival_time":"21:57:00","departure_time":"21:58:00","lat":49.183907,"lon":16.668247,"is_passed":false},{"stop_id":"U1814Z4","name":"Životského","arrival_time":"22:03:00","departure_time":"22:03:00","lat":49.190077,"lon":16.634992,"is_passed":false},{"stop_id":"U1372Z2","name":"Masná","arrival_time":"22:05:00","departure_time":"22:05:00","lat":49.191283,"lon":16.6245,"is_passed":false},{"stop_id":"U1746Z2","name":"Vlhká","arrival_time":"22:06:00","departure_time":"22:06:00","lat":49.191852,"lon":16.619157,"is_passed":false},{"stop_id":"U1146Z7","name":"Hlavní nádraží","arrival_time":"22:09:00","departure_time":"22:09:00","lat":49.19213,"lon":16.613467,"is_passed":false}],"56703":[{"stop_id":"U1146Z8","name":"Hlavní nádraží","arrival_time":"22:18:00","departure_time":"22:18:00","lat":49.191893,"lon":16.613334,"is_passed":false},{"stop_id":"U1746Z1","name":"Vlhká","arrival_time":"22:19:00","departure_time":"22:19:00","lat":49.191847,"lon":16.618976,"is_passed":false},{"stop_id":"U1372Z5","name":"Masná","arrival_time":"22:20:00","departure_time":"22:20:00","lat":49.191189,"lon":16.626548,"is_passed":false},{"stop_id":"U1677Z1","name":"Tržní","arrival_time":"22:22:00","departure_time":"22:22:00","lat":49.189973,"lon":16.632193,"is_passed":false},{"stop_id":"U1598Z1","name":"Spáčilova","arrival_time":"22:23:00","departure_time":"22:23:00","lat":49.188674,"lon":16.640942,"is_passed":false},{"stop_id":"U1455Z1","name":"Olomoucká - u školy","arrival_time":"22:24:00","departure_time":"22:24:00","lat":49.186169,"lon":16.652958,"is_passed":false},{"stop_id":"U1665Z1","name":"Těžební","arrival_time":"22:26:00","departure_time":"22:26:00","lat":49.181966,"lon":16.657236,"is_passed":false},{"stop_id":"U1739Z1","name":"Vlastimila Pecha","arrival_time":"22:27:00","departure_time":"22:27:00","lat":49.179379,"lon":16.662741,"is_passed":false},{"stop_id":"U1741Z2","name":"Vlárská","arrival_time":"22:30:00","departure_time":"22:30:00","lat":49.180702,"lon":16.672017,"is_passed":false},{"stop_id":"U1068Z3","name":"Černovičky","arrival_time":"22:32:00","departure_time":"22:32:00","lat":49.183143,"lon":16.669108,"is_passed":false},{"stop_id":"U1757Z3","name":"Vozovna Slatina","arrival_time":"22:33:00","departure_time":"22:35:00","lat":49.183014,"lon":16.671669,"is_passed":false}],"56704":[{"stop_id":"U1068Z1","name":"Černovičky","arrival_time":"5:54:00","departure_time":"5:54:00","lat":49.182244,"lon":16.66894,"is_passed":false},{"stop_id":"U1741Z1","name":"Vlárská","arrival_time":"5:55:00","departure_time":"5:55:00","lat":49.180745,"lon":16.671647,"is_passed":false},{"stop_id":"U1046Z1","name":"Brněnky","arrival_time":"5:56:00","departure_time":"5:56:00","lat":49.17891,"lon":16.674895,"is_passed":false},{"stop_id":"U1562Z1","name":"Řípská","arrival_time":"5:57:00","departure_time":"5:57:00","lat":49.173814,"lon":16.682005,"is_passed":false},{"stop_id":"U1300Z1","name":"Křehlíkova","arrival_time":"5:59:00","departure_time":"5:59:00","lat":49.174839,"lon":16.685145,"is_passed":false},{"stop_id":"U1525Z1","name":"Přemyslovo náměstí","arrival_time":"6:00:00","departure_time":"6:00:00","lat":49.176289,"lon":16.687296,"is_passed":false},{"stop_id":"U1292Z1","name":"Krejčího","arrival_time":"6:01:00","departure_time":"6:01:00","lat":49.177441,"lon":16.690968,"is_passed":false},{"stop_id":"U16165Z1","name":"Šlapanice, sídliště","arrival_time":"6:04:00","departure_time":"6:04:00","lat":49.16703,"lon":16.718338,"is_passed":false},{"stop_id":"U16155Z1","name":"Šlapanice, Čechova","arrival_time":"6:05:00","departure_time":"6:05:00","lat":49.165752,"lon":16.722536,"is_passed":false},{"stop_id":"U16159Z1","name":"Šlapanice, Kalvodova","arrival_time":"6:07:00","departure_time":"6:16:00","lat":49.166442,"lon":16.726521,"is_passed":false}],"56705":[{"stop_id":"U16159Z2","name":"Šlapanice, Kalvodova","arrival_time":"6:16:00","departure_time":"6:16:00","lat":49.166539,"lon":16.726218,"is_passed":false},{"stop_id":"U16155Z2","name":"Šlapanice, Čechova","arrival_time":"6:17:00","departure_time":"6:17:00","lat":49.166076,"lon":16.721551,"is_passed":false},{"stop_id":"U16165Z2","name":"Šlapanice, sídliště","arrival_time":"6:17:00","departure_time":"6:17:00","lat":49.167046,"lon":16.718465,"is_passed":false},{"stop_id":"U1292Z2","name":"Krejčího","arrival_time":"6:21:00","departure_time":"6:21:00","lat":49.177496,"lon":16.690785,"is_passed":false},{"stop_id":"U1525Z2","name":"Přemyslovo náměstí","arrival_time":"6:21:00","departure_time":"6:21:00","lat":49.176456,"lon":16.687324,"is_passed":false},{"stop_id":"U1300Z2","name":"Křehlíkova","arrival_time":"6:22:00","departure_time":"6:22:00","lat":49.174794,"lon":16.685267,"is_passed":false},{"stop_id":"U1562Z2","name":"Řípská","arrival_time":"6:24:00","departure_time":"6:24:00","lat":49.174115,"lon":16.681787,"is_passed":false},{"stop_id":"U1046Z2","name":"Brněnky","arrival_time":"6:25:00","departure_time":"6:25:00","lat":49.178901,"lon":16.675332,"is_passed":false},{"stop_id":"U1741Z2","name":"Vlárská","arrival_time":"6:26:00","departure_time":"6:26:00","lat":49.180702,"lon":16.672017,"is_passed":false},{"stop_id":"U1068Z4","name":"Černovičky","arrival_time":"6:28:00","departure_time":"6:28:00","lat":49.183907,"lon":16.668247,"is_passed":false},{"stop_id":"U1814Z4","name":"Životského","arrival_time":"6:33:00","departure_time":"6:33:00","lat":49.190077,"lon":16.634992,"is_passed":false},{"stop_id":"U1372Z2","name":"Masná","arrival_time":"6:35:00","departure_time":"6:35:00","lat":49.191283,"lon":16.6245,"is_passed":false},{"stop_id":"U1746Z2","name":"Vlhká","arrival_time":"6:36:00","departure_time":"6:36:00","lat":49.191852,"lon":16.619157,"is_passed":false},{"stop_id":"U1146Z7","name":"Hlavní nádraží","arrival_time":"6:39:00","departure_time":"6:44:00","lat":49.19213,"lon":16.613467,"is_passed":false}],"56706":[{"stop_id":"U1146Z8","name":"Hlavní nádraží","arrival_time":"6:44:00","departure_time":"6:44:00","lat":49.191893,"lon":16.613334,"is_passed":false},{"stop_id":"U1746Z1","name":"Vlhká","arrival_time":"6:45:00","departure_time":"6:45:00","lat":49.191847,"lon":16.618976,"is_passed":false},{"stop_id":"U1372Z5","name":"Masná","arrival_time":"6:47:00","departure_time":"6:47:00","lat":49.191189,"lon":16.626548,"is_passed":false},{"stop_id":"U1677Z1","name":"Tržní","arrival_time":"6:49:00","departure_time":"6:49:00","lat":49.189973,"lon":16.632193,"is_passed":false},{"stop_id":"U1068Z1","name":"Černovičky","arrival_time":"6:55:00","departure_time":"6:55:00","lat":49.182244,"lon":16.66894,"is_passed":false},{"stop_id":"U1741Z1","name":"Vlárská","arrival_time":"6:56:00","departure_time":"6:56:00","lat":49.180745,"lon":16.671647,"is_passed":false},{"stop_id":"U1046Z1","name":"Brněnky","arrival_time":"6:57:00","departure_time":"6:57:00","lat":49.17891,"lon":16.674895,"is_passed":false},{"stop_id":"U1562Z1","name":"Řípská","arrival_time":"6:58:00","departure_time":"6:58:00","lat":49.173814,"lon":16.682005,"is_passed":false},{"stop_id":"U1300Z1","name":"Křehlíkova","arrival_time":"7:00:00","departure_time":"7:00:00","lat":49.174839,"lon":16.685145,"is_passed":false},{"stop_id":"U1525Z1","name":"Přemyslovo náměstí","arrival_time":"7:01:00","departure_time":"7:01:00","lat":49.176289,"lon":16.687296,"is_passed":false},{"stop_id":"U1292Z1","name":"Krejčího","arrival_time":"7:02:00","departure_time":"7:02:00","lat":49.177441,"lon":16.690968,"is_passed":false},{"stop_id":"U16165Z1","name":"Šlapanice, sídliště","arrival_time":"7:05:00","departure_time":"7:05:00","lat":49.16703,"lon":16.718338,"is_passed":false},{"stop_id":"U16155Z1","name":"Šlapanice, Čechova","arrival_time":"7:06:00","departure_time":"7:06:00","lat":49.165752,"lon":16.722536,"is_passed":false},{"stop_id":"U16159Z1","name":"Šlapanice, Kalvodova","arrival_time":"7:08:00","departure_time":"7:20:00","lat":49.166442,"lon":16.726521,"is_passed":false}],"56707":[{"stop_id":"U16159Z2","name":"Šlapanice, Kalvodova","arrival_time":"7:20:00","departure_time":"7:20:00","lat":49.166539,"lon":16.726218,"is_passed":false},{"stop_id":"U16155Z2","name":"Šlapanice, Čechova","arrival_time":"7:21:00","departure_time":"7:21:00","lat":49.166076,"lon":16.721551,"is_passed":false},{"stop_id":"U16165Z2","name":"Šlapanice, sídliště","arrival_time":"7:21:00","departure_time":"7:21:00","lat":49.167046,"lon":16.718465,"is_passed":false},{"stop_id":"U1292Z2","name":"Krejčího","arrival_time":"7:25:00","departure_time":"7:25:00","lat":49.177496,"lon":16.690785,"is_passed":false},{"stop_id":"U1525Z2","name":"Přemyslovo náměstí","arrival_time":"7:25:00","departure_time":"7:25:00","lat":49.176456,"lon":16.687324,"is_passed":false},{"stop_id":"U1300Z2","name":"Křehlíkova","arrival_time":"7:26:00","departure_time":"7:26:00","lat":49.174794,"lon":16.685267,"is_passed":false},{"stop_id":"U1562Z2","name":"Řípská","arrival_time":"7:28:00","departure_time":"7:28:00","lat":49.174115,"lon":16.681787,"is_passed":false},{"stop_id":"U1046Z2","name":"Brněnky","arrival_time":"7:29:00","departure_time":"7:29:00","lat":49.178901,"lon":16.675332,"is_passed":false},{"stop_id":"U1741Z2","name":"Vlárská","arrival_time":"7:30:00","departure_time":"7:30:00","lat":49.180702,"lon":16.672017,"is_passed":false},{"stop_id":"U1068Z4","name":"Černovičky","arrival_time":"7:32:00","departure_time":"7:32:00","lat":49.183907,"lon":16.668247,"is_passed":false},{"stop_id":"U1814Z4","name":"Životského","arrival_time":"7:37:00","departure_time":"7:37:00","lat":49.190077,"lon":16.634992,"is_passed":false},{"stop_id":"U1372Z2","name":"Masná","arrival_time":"7:39:00","departure_time":"7:39:00","lat":49.191283,"lon":16.6245,"is_passed":false},{"stop_id":"U1746Z2","name":"Vlhká","arrival_time":"7:40:00","departure_time":"7:40:00","lat":49.191852,"lon":16.619157,"is_passed":false},{"stop_id":"U1146Z7","name":"Hlavní nádraží","arrival_time":"7:43:00","departure_time":"7:43:00","lat":49.19213,"lon":16.613467,"is_passed":false}],"56708":[{"stop_id":"U1146Z8","name":"Hlavní nádraží","arrival_time":"7:51:00","departure_time":"7:51:00","lat":49.191893,"lon":16.613334,"is_passed":false},{"stop_id":"U1746Z1","name":"Vlhká","arrival_time":"7:52:00","departure_time":"7:52:00","lat":49.191847,"lon":16.618976,"is_passed":false},{"stop_id":"U1372Z5","name":"Masná","arrival_time":"7:54:00","departure_time":"7:54:00","lat":49.191189,"lon":16.626548,"is_passed":false},{"stop_id":"U1677Z1","name":"Tržní","arrival_time":"7:56:00","departure_time":"7:56:00","lat":49.189973,"lon":16.632193,"is_passed":false},{"stop_id":"U1598Z1","name":"Spáčilova","arrival_time":"7:57:00","departure_time":"7:57:00","lat":49.188674,"lon":16.640942,"is_passed":false},{"stop_id":"U1455Z1","name":"Olomoucká - u školy","arrival_time":"7:59:00","departure_time":"7:59:00","lat":49.186169,"lon":16.652958,"is_passed":false},{"stop_id":"U1665Z1","name":"Těžební","arrival_time":"8:01:00","departure_time":"8:01:00","lat":49.181966,"lon":16.657236,"is_passed":false},{"stop_id":"U1739Z1","name":"Vlastimila Pecha","arrival_time":"8:02:00","departure_time":"8:02:00","lat":49.179379,"lon":16.662741,"is_passed":false},{"stop_id":"U1046Z1","name":"Brněnky","arrival_time":"8:05:00","departure_time":"8:05:00","lat":49.17891,"lon":16.674895,"is_passed":false},{"stop_id":"U1562Z1","name":"Řípská","arrival_time":"8:06:00","departure_time":"8:06:00","lat":49.173814,"lon":16.682005,"is_passed":false},{"stop_id":"U1640Z1","name":"Šmahova","arrival_time":"8:08:00","departure_time":"8:08:00","lat":49.171448,"lon":16.685105,"is_passed":false},{"stop_id":"U1334Z1","name":"Letiště - logistický areál","arrival_time":"8:10:00","departure_time":"8:10:00","lat":49.15627,"lon":16.698196,"is_passed":false},{"stop_id":"U1335Z1","name":"Letiště - služební vstup","arrival_time":"8:11:00","departure_time":"8:11:00","lat":49.155635,"lon":16.691132,"is_passed":false},{"stop_id":"U1337Z1","name":"Letiště Tuřany - terminál","arrival_time":"8:13:00","departure_time":"8:24:00","lat":49.154815,"lon":16.692296,"is_passed":false}],"56709":[{"stop_id":"U1337Z2","name":"Letiště Tuřany - terminál","arrival_time":"8:24:00","departure_time":"8:24:00","lat":49.154845,"lon":16.692583,"is_passed":false},{"stop_id":"U1334Z2","name":"Letiště - logistický areál","arrival_time":"8:26:00","departure_time":"8:26:00","lat":49.156979,"lon":16.699058,"is_passed":false},{"stop_id":"U1640Z2","name":"Šmahova","arrival_time":"8:28:00","departure_time":"8:28:00","lat":49.172157,"lon":16.684373,"is_passed":false},{"stop_id":"U1562Z2","name":"Řípská","arrival_time":"8:30:00","departure_time":"8:30:00","lat":49.174115,"lon":16.681787,"is_passed":false},{"stop_id":"U1046Z2","name":"Brněnky","arrival_time":"8:31:00","departure_time":"8:31:00","lat":49.178901,"lon":16.675332,"is_passed":false},{"stop_id":"U1105Z4","name":"Ericha Roučky","arrival_time":"8:33:00","departure_time":"8:33:00","lat":49.175789,"lon":16.668403,"is_passed":false},{"stop_id":"U1739Z2","name":"Vlastimila Pecha","arrival_time":"8:34:00","departure_time":"8:34:00","lat":49.179751,"lon":16.662407,"is_passed":false},{"stop_id":"U1665Z2","name":"Těžební","arrival_time":"8:35:00","departure_time":"8:35:00","lat":49.182639,"lon":16.656437,"is_passed":false},{"stop_id":"U1455Z2","name":"Olomoucká - u školy","arrival_time":"8:37:00","departure_time":"8:37:00","lat":49.186437,"lon":16.652477,"is_passed":false},{"stop_id":"U1598Z2","name":"Spáčilova","arrival_time":"8:39:00","departure_time":"8:39:00","lat":49.188617,"lon":16.641569,"is_passed":false},{"stop_id":"U1814Z4","name":"Životského","arrival_time":"8:41:00","departure_time":"8:41:00","lat":49.190077,"lon":16.634992,"is_passed":false},{"stop_id":"U1372Z2","name":"Masná","arrival_time":"8:43:00","departure_time":"8:43:00","lat":49.191283,"lon":16.6245,"is_passed":false},{"stop_id":"U1746Z2","name":"Vlhká","arrival_time":"8:44:00","departure_time":"8:44:00","lat":49.191852,"lon":16.619157,"is_passed":false},{"stop_id":"U1146Z7","name":"Hlavní nádraží","arrival_time":"8:47:00","departure_time":"8:47:00","lat":49.19213,"lon":16.613467,"is_passed":false}],"56710":[{"stop_id":"U1146Z8","name":"Hlavní nádraží","arrival_time":"8:54:00","departure_time":"8:54:00","lat":49.191893,"lon":16.613334,"is_passed":false},{"stop_id":"U1746Z1","name":"Vlhká","arrival_time":"8:55:00","departure_time":"8:55:00","lat":49.191847,"lon":16.618976,"is_passed":false},{"stop_id":"U1372Z5","name":"Masná","arrival_time":"8:57:00","departure_time":"8:57:00","lat":49.191189,"lon":16.626548,"is_passed":false},{"stop_id":"U1677Z1","name":"Tržní","arrival_time":"8:59:00","departure_time":"8:59:00","lat":49.189973,"lon":16.632193,"is_passed":false},{"stop_id":"U1068Z1","name":"Černovičky","arrival_time":"9:05:00","departure_time":"9:05:00","lat":49.182244,"lon":16.66894,"is_passed":false},{"stop_id":"U1741Z1","name":"Vlárská","arrival_time":"9:06:00","departure_time":"9:06:00","lat":49.180745,"lon":16.671647,"is_passed":false},{"stop_id":"U1046Z1","name":"Brněnky","arrival_time":"9:07:00","departure_time":"9:07:00","lat":49.17891,"lon":16.674895,"is_passed":false},{"stop_id":"U1562Z1","name":"Řípská","arrival_time":"9:08:00","departure_time":"9:08:00","lat":49.173814,"lon":16.682005,"is_passed":false},{"stop_id":"U1300Z1","name":"Křehlíkova","arrival_time":"9:10:00","departure_time":"9:10:00","lat":49.174839,"lon":16.685145,"is_passed":false},{"stop_id":"U1525Z1","name":"Přemyslovo náměstí","arrival_time":"9:11:00","departure_time":"9:11:00","lat":49.176289,"lon":16.687296,"is_passed":false},{"stop_id":"U1292Z1","name":"Krejčího","arrival_time":"9:12:00","departure_time":"9:12:00","lat":49.177441,"lon":16.690968,"is_passed":false},{"stop_id":"U16165Z1","name":"Šlapanice, sídliště","arrival_time":"9:15:00","departure_time":"9:15:00","lat":49.16703,"lon":16.718338,"is_passed":false},{"stop_id":"U16155Z1","name":"Šlapanice, Čechova","arrival_time":"9:16:00","departure_time":"9:16:00","lat":49.165752,"lon":16.722536,"is_passed":false},{"stop_id":"U16159Z1","name":"Šlapanice, Kalvodova","arrival_time":"9:18:00","departure_time":"9:22:00","lat":49.166442,"lon":16.726521,"is_passed":false}],"56711":[{"stop_id":"U1337Z2","name":"Letiště Tuřany - terminál","arrival_time":"15:34:00","departure_time":"15:34:00","lat":49.154845,"lon":16.692583,"is_passed":false},{"stop_id":"U1334Z2","name":"Letiště - logistický areál","arrival_time":"15:36:00","departure_time":"15:36:00","lat":49.156979,"lon":16.699058,"is_passed":false},{"stop_id":"U1640Z2","name":"Šmahova","arrival_time":"15:38:00","departure_time":"15:38:00","lat":49.172157,"lon":16.684373,"is_passed":false},{"stop_id":"U1562Z2","name":"Řípská","arrival_time":"15:40:00","departure_time":"15:40:00","lat":49.174115,"lon":16.681787,"is_passed":false},{"stop_id":"U1046Z2","name":"Brněnky","arrival_time":"15:41:00","departure_time":"15:41:00","lat":49.178901,"lon":16.675332,"is_passed":false},{"stop_id":"U1105Z4","name":"Ericha Roučky","arrival_time":"15:43:00","departure_time":"15:43:00","lat":49.175789,"lon":16.668403,"is_passed":false},{"stop_id":"U1739Z2","name":"Vlastimila Pecha","arrival_time":"15:44:00","departure_time":"15:44:00","lat":49.179751,"lon":16.662407,"is_passed":false},{"stop_id":"U1665Z2","name":"Těžební","arrival_time":"15:45:00","departure_time":"15:45:00","lat":49.182639,"lon":16.656437,"is_passed":false},{"stop_id":"U1455Z2","name":"Olomoucká - u školy","arrival_time":"15:47:00","departure_time":"15:47:00","lat":49.186437,"lon":16.652477,"is_passed":false},{"stop_id":"U1598Z2","name":"Spáčilova","arrival_time":"15:49:00","departure_time":"15:49:00","lat":49.188617,"lon":16.641569,"is_passed":false},{"stop_id":"U1814Z4","name":"Životského","arrival_time":"15:51:00","departure_time":"15:51:00","lat":49.190077,"lon":16.634992,"is_passed":false},{"stop_id":"U1372Z2","name":"Masná","arrival_time":"15:53:00","departure_time":"15:53:00","lat":49.191283,"lon":16.6245,"is_passed":false},{"stop_id":"U1746Z2","name":"Vlhká","arrival_time":"15:54:00","departure_time":"15:54:00","lat":49.191852,"lon":16.619157,"is_passed":false},{"stop_id":"U1146Z7","name":"Hlavní nádraží","arrival_time":"15:57:00","departure_time":"15:57:00","lat":49.19213,"lon":16.613467,"is_passed":false}],"56712":[{"stop_id":"U1146Z8","name":"Hlavní nádraží","arrival_time":"16:05:00","departure_time":"16:05:00","lat":49.191893,"lon":16.613334,"is_passed":false},{"stop_id":"U1746Z1","name":"Vlhká","arrival_time":"16:06:00","departure_time":"16:06:00","lat":49.191847,"lon":16.618976,"is_passed":false},{"stop_id":"U1372Z5","name":"Masná","arrival_time":"16:08:00","departure_time":"16:08:00","lat":49.191189,"lon":16.626548,"is_passed":false},{"stop_id":"U1677Z1","name":"Tržní","arrival_time":"16:10:00","departure_time":"16:10:00","lat":49.189973,"lon":16.632193,"is_passed":false},{"stop_id":"U1068Z1","name":"Černovičky","arrival_time":"16:16:00","departure_time":"16:16:00","lat":49.182244,"lon":16.66894,"is_passed":false},{"stop_id":"U1741Z1","name":"Vlárská","arrival_time":"16:17:00","departure_time":"16:17:00","lat":49.180745,"lon":16.671647,"is_passed":false},{"stop_id":"U1046Z1","name":"Brněnky","arrival_time":"16:18:00","departure_time":"16:18:00","lat":49.17891,"lon":16.674895,"is_passed":false},{"stop_id":"U1562Z1","name":"Řípská","arrival_time":"16:19:00","departure_time":"16:19:00","lat":49.173814,"lon":16.682005,"is_passed":false},{"stop_id":"U1300Z1","name":"Křehlíkova","arrival_time":"16:21:00","departure_time":"16:21:00","lat":49.174839,"lon":16.685145,"is_passed":false},{"stop_id":"U1525Z1","name":"Přemyslovo náměstí","arrival_time":"16:22:00","departure_time":"16:22:00","lat":49.176289,"lon":16.687296,"is_passed":false},{"stop_id":"U1292Z1","name":"Krejčího","arrival_time":"16:23:00","departure_time":"16:23:00","lat":49.177441,"lon":16.690968,"is_passed":false},{"stop_id":"U16165Z1","name":"Šlapanice, sídliště","arrival_time":"16:26:00","departure_time":"16:26:00","lat":49.16703,"lon":16.718338,"is_passed":false},{"stop_id":"U16155Z1","name":"Šlapanice, Čechova","arrival_time":"16:27:00","departure_time":"16:27:00","lat":49.165752,"lon":16.722536,"is_passed":false},{"stop_id":"U16159Z1","name":"Šlapanice, Kalvodova","arrival_time":"16:29:00","departure_time":"16:59:00","lat":49.166442,"lon":16.726521,"is_passed":false}],"56713":[{"stop_id":"U16159Z2","name":"Šlapanice, Kalvodova","arrival_time":"16:59:00","departure_time":"16:59:00","lat":49.166539,"lon":16.726218,"is_passed":false},{"stop_id":"U16155Z2","name":"Šlapanice, Čechova","arrival_time":"17:00:00","departure_time":"17:00:00","lat":49.166076,"lon":16.721551,"is_passed":false},{"stop_id":"U16165Z2","name":"Šlapanice, sídliště","arrival_time":"17:00:00","departure_time":"17:00:00","lat":49.167046,"lon":16.718465,"is_passed":false},{"stop_id":"U1292Z2","name":"Krejčího","arrival_time":"17:04:00","departure_time":"17:04:00","lat":49.177496,"lon":16.690785,"is_passed":false},{"stop_id":"U1525Z2","name":"Přemyslovo náměstí","arrival_time":"17:04:00","departure_time":"17:04:00","lat":49.176456,"lon":16.687324,"is_passed":false},{"stop_id":"U1300Z2","name":"Křehlíkova","arrival_time":"17:05:00","departure_time":"17:05:00","lat":49.174794,"lon":16.685267,"is_passed":false},{"stop_id":"U1562Z2","name":"Řípská","arrival_time":"17:07:00","departure_time":"17:07:00","lat":49.174115,"lon":16.681787,"is_passed":false},{"stop_id":"U1046Z2","name":"Brněnky","arrival_time":"17:08:00","departure_time":"17:08:00","lat":49.178901,"lon":16.675332,"is_passed":false},{"stop_id":"U1741Z2","name":"Vlárská","arrival_time":"17:09:00","departure_time":"17:09:00","lat":49.180702,"lon":16.672017,"is_passed":false},{"stop_id":"U1068Z4","name":"Černovičky","arrival_time":"17:11:00","departure_time":"17:11:00","lat":49.183907,"lon":16.668247,"is_passed":false},{"stop_id":"U1814Z4","name":"Životského","arrival_time":"17:16:00","departure_time":"17:16:00","lat":49.190077,"lon":16.634992,"is_passed":false},{"stop_id":"U1372Z2","name":"Masná","arrival_time":"17:18:00","departure_time":"17:18:00","lat":49.191283,"lon":16.6245,"is_passed":false},{"stop_id":"U1746Z2","name":"Vlhká","arrival_time":"17:19:00","departure_time":"17:19:00","lat":49.191852,"lon":16.619157,"is_passed":false},{"stop_id":"U1146Z7","name":"Hlavní nádraží","arrival_time":"17:22:00","departure_time":"17:25:00","lat":49.19213,"lon":16.613467,"is_passed":false}],"56714":[{"stop_id":"U1146Z8","name":"Hlavní nádraží","arrival_time":"17:25:00","departure_time":"17:25:00","lat":49.191893,"lon":16.613334,"is_passed":false},{"stop_id":"U1746Z1","name":"Vlhká","arrival_time":"17:26:00","departure_time":"17:26:00","lat":49.191847,"lon":16.618976,"is_passed":false},{"stop_id":"U1372Z5","name":"Masná","arrival_time":"17:28:00","departure_time":"17:28:00","lat":49.191189,"lon":16.626548,"is_passed":false},{"stop_id":"U1677Z1","name":"Tržní","arrival_time":"17:30:00","departure_time":"17:30:00","lat":49.189973,"lon":16.632193,"is_passed":false},{"stop_id":"U1068Z1","name":"Černovičky","arrival_time":"17:36:00","departure_time":"17:36:00","lat":49.182244,"lon":16.66894,"is_passed":false},{"stop_id":"U1741Z1","name":"Vlárská","arrival_time":"17:37:00","departure_time":"17:37:00","lat":49.180745,"lon":16.671647,"is_passed":false},{"stop_id":"U1046Z1","name":"Brněnky","arrival_time":"17:38:00","departure_time":"17:38:00","lat":49.17891,"lon":16.674895,"is_passed":false},{"stop_id":"U1562Z1","name":"Řípská","arrival_time":"17:39:00","departure_time":"17:39:00","lat":49.173814,"lon":16.682005,"is_passed":false},{"stop_id":"U1300Z1","name":"Křehlíkova","arrival_time":"17:41:00","departure_time":"17:41:00","lat":49.174839,"lon":16.685145,"is_passed":false},{"stop_id":"U1525Z1","name":"Přemyslovo náměstí","arrival_time":"17:42:00","departure_time":"17:42:00","lat":49.176289,"lon":16.687296,"is_passed":false},{"stop_id":"U1292Z1","name":"Krejčího","arrival_time":"17:43:00","departure_time":"17:43:00","lat":49.177441,"lon":16.690968,"is_passed":false},{"stop_id":"U16165Z1","name":"Šlapanice, sídliště","arrival_time":"17:46:00","departure_time":"17:46:00","lat":49.16703,"lon":16.718338,"is_passed":false},{"stop_id":"U16155Z1","name":"Šlapanice, Čechova","arrival_time":"17:47:00","departure_time":"17:47:00","lat":49.165752,"lon":16.722536,"is_passed":false},{"stop_id":"U16159Z1","name":"Šlapanice, Kalvodova","arrival_time":"17:49:00","departure_time":"18:19:00","lat":49.166442,"lon":16.726521,"is_passed":false}],"56715":[{"stop_id":"U16159Z2","name":"Šlapanice, Kalvodova","arrival_time":"18:19:00","departure_time":"18:19:00","lat":49.166539,"lon":16.726218,"is_passed":false},{"stop_id":"U16155Z2","name":"Šlapanice, Čechova","arrival_time":"18:20:00","departure_time":"18:20:00","lat":49.166076,"lon":16.721551,"is_passed":false},{"stop_id":"U16165Z2","name":"Šlapanice, sídliště","arrival_time":"18:20:00","departure_time":"18:20:00","lat":49.167046,"lon":16.718465,"is_passed":false},{"stop_id":"U1292Z2","name":"Krejčího","arrival_time":"18:24:00","departure_time":"18:24:00","lat":49.177496,"lon":16.690785,"is_passed":false},{"stop_id":"U1525Z2","name":"Přemyslovo náměstí","arrival_time":"18:24:00","departure_time":"18:24:00","lat":49.176456,"lon":16.687324,"is_passed":false},{"stop_id":"U1300Z2","name":"Křehlíkova","arrival_time":"18:25:00","departure_time":"18:25:00","lat":49.174794,"lon":16.685267,"is_passed":false},{"stop_id":"U1562Z2","name":"Řípská","arrival_time":"18:27:00","departure_time":"18:27:00","lat":49.174115,"lon":16.681787,"is_passed":false},{"stop_id":"U1046Z2","name":"Brněnky","arrival_time":"18:28:00","departure_time":"18:28:00","lat":49.178901,"lon":16.675332,"is_passed":false},{"stop_id":"U1741Z2","name":"Vlárská","arrival_time":"18:28:00","departure_time":"18:28:00","lat":49.180702,"lon":16.672017,"is_passed":false},{"stop_id":"U1068Z4","name":"Černovičky","arrival_time":"18:30:00","departure_time":"18:30:00","lat":49.183907,"lon":16.668247,"is_passed":false},{"stop_id":"U1814Z4","name":"Životského","arrival_time":"18:35:00","departure_time":"18:35:00","lat":49.190077,"lon":16.634992,"is_passed":false},{"stop_id":"U1372Z2","name":"Masná","arrival_time":"18:37:00","departure_time":"18:37:00","lat":49.191283,"lon":16.6245,"is_passed":false},{"stop_id":"U1746Z2","name":"Vlhká","arrival_time":"18:38:00","departure_time":"18:38:00","lat":49.191852,"lon":16.619157,"is_passed":false},{"stop_id":"U1146Z7","name":"Hlavní nádraží","arrival_time":"18:41:00","departure_time":"18:41:00","lat":49.19213,"lon":16.613467,"is_passed":false}],"56716":[{"stop_id":"U1146Z8","name":"Hlavní nádraží","arrival_time":"18:48:00","departure_time":"18:48:00","lat":49.191893,"lon":16.613334,"is_passed":false},{"stop_id":"U1746Z1","name":"Vlhká","arrival_time":"18:49:00","departure_time":"18:49:00","lat":49.191847,"lon":16.618976,"is_passed":false},{"stop_id":"U1372Z5","name":"Masná","arrival_time":"18:50:00","departure_time":"18:50:00","lat":49.191189,"lon":16.626548,"is_passed":false},{"stop_id":"U1677Z1","name":"Tržní","arrival_time":"18:52:00","departure_time":"18:52:00","lat":49.189973,"lon":16.632193,"is_passed":false},{"stop_id":"U1598Z1","name":"Spáčilova","arrival_time":"18:53:00","departure_time":"18:53:00","lat":49.188674,"lon":16.640942,"is_passed":false},{"stop_id":"U1455Z1","name":"Olomoucká - u školy","arrival_time":"18:54:00","departure_time":"18:54:00","lat":49.186169,"lon":16.652958,"is_passed":false},{"stop_id":"U1665Z1","name":"Těžební","arrival_time":"18:56:00","departure_time":"18:56:00","lat":49.181966,"lon":16.657236,"is_passed":false},{"stop_id":"U1739Z1","name":"Vlastimila Pecha","arrival_time":"18:57:00","departure_time":"18:57:00","lat":49.179379,"lon":16.662741,"is_passed":false},{"stop_id":"U1046Z1","name":"Brněnky","arrival_time":"18:59:00","departure_time":"18:59:00","lat":49.17891,"lon":16.674895,"is_passed":false},{"stop_id":"U1562Z1","name":"Řípská","arrival_time":"19:00:00","departure_time":"19:00:00","lat":49.173814,"lon":16.682005,"is_passed":false},{"stop_id":"U1640Z1","name":"Šmahova","arrival_time":"19:02:00","departure_time":"19:02:00","lat":49.171448,"lon":16.685105,"is_passed":false},{"stop_id":"U1334Z1","name":"Letiště - logistický areál","arrival_time":"19:04:00","departure_time":"19:04:00","lat":49.15627,"lon":16.698196,"is_passed":false},{"stop_id":"U1335Z1","name":"Letiště - služební vstup","arrival_time":"19:05:00","departure_time":"19:05:00","lat":49.155635,"lon":16.691132,"is_passed":false},{"stop_id":"U1337Z1","name":"Letiště Tuřany - terminál","arrival_time":"19:07:00","departure_time":"19:26:00","lat":49.154815,"lon":16.692296,"is_passed":false}],"56717":[{"stop_id":"U1337Z2","name":"Letiště Tuřany - terminál","arrival_time":"19:26:00","departure_time":"19:26:00","lat":49.154845,"lon":16.692583,"is_passed":false},{"stop_id":"U1334Z2","name":"Letiště - logistický areál","arrival_time":"19:28:00","departure_time":"19:28:00","lat":49.156979,"lon":16.699058,"is_passed":false},{"stop_id":"U1640Z2","name":"Šmahova","arrival_time":"19:30:00","departure_time":"19:30:00","lat":49.172157,"lon":16.684373,"is_passed":false},{"stop_id":"U1562Z2","name":"Řípská","arrival_time":"19:32:00","departure_time":"19:32:00","lat":49.174115,"lon":16.681787,"is_passed":false},{"stop_id":"U1046Z2","name":"Brněnky","arrival_time":"19:33:00","departure_time":"19:33:00","lat":49.178901,"lon":16.675332,"is_passed":false},{"stop_id":"U1105Z4","name":"Ericha Roučky","arrival_time":"19:34:00","departure_time":"19:34:00","lat":49.175789,"lon":16.668403,"is_passed":false},{"stop_id":"U1739Z2","name":"Vlastimila Pecha","arrival_time":"19:35:00","departure_time":"19:35:00","lat":49.179751,"lon":16.662407,"is_passed":false},{"stop_id":"U1665Z2","name":"Těžební","arrival_time":"19:36:00","departure_time":"19:36:00","lat":49.182639,"lon":16.656437,"is_passed":false},{"stop_id":"U1455Z2","name":"Olomoucká - u školy","arrival_time":"19:37:00","departure_time":"19:37:00","lat":49.186437,"lon":16.652477,"is_passed":false},{"stop_id":"U1598Z2","name":"Spáčilova","arrival_time":"19:38:00","departure_time":"19:38:00","lat":49.188617,"lon":16.641569,"is_passed":false},{"stop_id":"U1814Z4","name":"Životského","arrival_time":"19:40:00","departure_time":"19:40:00","lat":49.190077,"lon":16.634992,"is_passed":false},{"stop_id":"U1372Z2","name":"Masná","arrival_time":"19:42:00","departure_time":"19:42:00","lat":49.191283,"lon":16.6245,"is_passed":false},{"stop_id":"U1746Z2","name":"Vlhká","arrival_time":"19:43:00","departure_time":"19:43:00","lat":49.191852,"lon":16.619157,"is_passed":false},{"stop_id":"U1146Z7","name":"Hlavní nádraží","arrival_time":"19:46:00","departure_time":"19:46:00","lat":49.19213,"lon":16.613467,"is_passed":false}],"56718":[{"stop_id":"U1146Z8","name":"Hlavní nádraží","arrival_time":"19:55:00","departure_time":"19:55:00","lat":49.191893,"lon":16.613334,"is_passed":false},{"stop_id":"U1746Z1","name":"Vlhká","arrival_time":"19:56:00","departure_time":"19:56:00","lat":49.191847,"lon":16.618976,"is_passed":false},{"stop_id":"U1372Z5","name":"Masná","arrival_time":"19:57:00","departure_time":"19:57:00","lat":49.191189,"lon":16.626548,"is_passed":false},{"stop_id":"U1677Z1","name":"Tržní","arrival_time":"19:59:00","departure_time":"19:59:00","lat":49.189973,"lon":16.632193,"is_passed":false},{"stop_id":"U1068Z1","name":"Černovičky","arrival_time":"20:04:00","departure_time":"20:04:00","lat":49.182244,"lon":16.66894,"is_passed":false},{"stop_id":"U1741Z1","name":"Vlárská","arrival_time":"20:05:00","departure_time":"20:05:00","lat":49.180745,"lon":16.671647,"is_passed":false},{"stop_id":"U1046Z1","name":"Brněnky","arrival_time":"20:06:00","departure_time":"20:06:00","lat":49.17891,"lon":16.674895,"is_passed":false},{"stop_id":"U1562Z1","name":"Řípská","arrival_time":"20:07:00","departure_time":"20:07:00","lat":49.173814,"lon":16.682005,"is_passed":false},{"stop_id":"U1300Z1","name":"Křehlíkova","arrival_time":"20:09:00","departure_time":"20:09:00","lat":49.174839,"lon":16.685145,"is_passed":false},{"stop_id":"U1525Z1","name":"Přemyslovo náměstí","arrival_time":"20:10:00","departure_time":"20:10:00","lat":49.176289,"lon":16.687296,"is_passed":false},{"stop_id":"U1292Z1","name":"Krejčího","arrival_time":"20:11:00","departure_time":"20:11:00","lat":49.177441,"lon":16.690968,"is_passed":false},{"stop_id":"U16165Z1","name":"Šlapanice, sídliště","arrival_time":"20:14:00","departure_time":"20:14:00","lat":49.16703,"lon":16.718338,"is_passed":false},{"stop_id":"U16155Z1","name":"Šlapanice, Čechova","arrival_time":"20:15:00","departure_time":"20:15:00","lat":49.165752,"lon":16.722536,"is_passed":false},{"stop_id":"U16159Z1","name":"Šlapanice, Kalvodova","arrival_time":"20:17:00","departure_time":"20:21:00","lat":49.166442,"lon":16.726521,"is_passed":false}],"56719":[{"stop_id":"U1143Z2","name":"Hlavní","arrival_time":"4:42:00","departure_time":"4:42:00","lat":49.21715,"lon":16.560506,"is_passed":false},{"stop_id":"U1651Z2","name":"Štursova","arrival_time":"4:43:00","departure_time":"4:43:00","lat":49.215854,"lon":16.564522,"is_passed":false},{"stop_id":"U1758Z2","name":"Vrázova","arrival_time":"4:44:00","departure_time":"4:44:00","lat":49.216977,"lon":16.568646,"is_passed":false},{"stop_id":"U1528Z4","name":"Přívrat","arrival_time":"4:46:00","departure_time":"4:46:00","lat":49.218647,"lon":16.574085,"is_passed":false},{"stop_id":"U1777Z2","name":"Záhřebská","arrival_time":"4:47:00","departure_time":"4:47:00","lat":49.219845,"lon":16.580415,"is_passed":false},{"stop_id":"U1567Z6","name":"Skácelova","arrival_time":"4:49:00","departure_time":"4:49:00","lat":49.22163,"lon":16.585935,"is_passed":false},{"stop_id":"U1586Z4","name":"Slovanské náměstí","arrival_time":"4:50:00","departure_time":"4:50:00","lat":49.222774,"lon":16.591332,"is_passed":false},{"stop_id":"U1172Z1","name":"Hutařova","arrival_time":"4:51:00","departure_time":"4:51:00","lat":49.226073,"lon":16.588562,"is_passed":false},{"stop_id":"U1606Z1","name":"Srbská","arrival_time":"4:53:00","departure_time":"4:53:00","lat":49.228127,"lon":16.587054,"is_passed":false}],"56720":[{"stop_id":"U1606Z2","name":"Srbská","arrival_time":"4:57:00","departure_time":"4:57:00","lat":49.228202,"lon":16.586939,"is_passed":false},{"stop_id":"U1172Z2","name":"Hutařova","arrival_time":"4:57:00","departure_time":"4:57:00","lat":49.226291,"lon":16.588195,"is_passed":false},{"stop_id":"U1586Z3","name":"Slovanské náměstí","arrival_time":"4:59:00","departure_time":"4:59:00","lat":49.223525,"lon":16.591009,"is_passed":false},{"stop_id":"U1586Z4","name":"Slovanské náměstí","arrival_time":"5:00:00","departure_time":"5:00:00","lat":49.222774,"lon":16.591332,"is_passed":false},{"stop_id":"U1181Z2","name":"Charvatská","arrival_time":"5:01:00","departure_time":"5:01:00","lat":49.219543,"lon":16.592241,"is_passed":false},{"stop_id":"U1635Z2","name":"Šelepova","arrival_time":"5:02:00","departure_time":"5:02:00","lat":49.212877,"lon":16.596271,"is_passed":false},{"stop_id":"U1038Z2","name":"Botanická","arrival_time":"5:03:00","departure_time":"5:03:00","lat":49.210784,"lon":16.597532,"is_passed":false},{"stop_id":"U1776Z2","name":"Zahradníkova","arrival_time":"5:04:00","departure_time":"5:04:00","lat":49.208145,"lon":16.599126,"is_passed":false},{"stop_id":"U1626Z2","name":"Sušilova","arrival_time":"5:06:00","departure_time":"5:06:00","lat":49.204397,"lon":16.598621,"is_passed":false},{"stop_id":"U1587Z2","name":"Smetanova","arrival_time":"5:07:00","departure_time":"5:07:00","lat":49.201271,"lon":16.602293,"is_passed":false},{"stop_id":"U1073Z5","name":"Česká","arrival_time":"5:09:00","departure_time":"5:11:00","lat":49.198374,"lon":16.605647,"is_passed":false}],"56721":[{"stop_id":"U1073Z6","name":"Česká","arrival_time":"5:11:00","departure_time":"5:11:00","lat":49.198291,"lon":16.605232,"is_passed":false},{"stop_id":"U1587Z1","name":"Smetanova","arrival_time":"5:13:00","departure_time":"5:13:00","lat":49.201909,"lon":16.601644,"is_passed":false},{"stop_id":"U1626Z1","name":"Sušilova","arrival_time":"5:14:00","departure_time":"5:14:00","lat":49.204346,"lon":16.598828,"is_passed":false},{"stop_id":"U1776Z1","name":"Zahradníkova","arrival_time":"5:16:00","departure_time":"5:16:00","lat":49.20774,"lon":16.599048,"is_passed":false},{"stop_id":"U1038Z1","name":"Botanická","arrival_time":"5:17:00","departure_time":"5:17:00","lat":49.210624,"lon":16.597711,"is_passed":false},{"stop_id":"U1635Z1","name":"Šelepova","arrival_time":"5:17:00","departure_time":"5:17:00","lat":49.213818,"lon":16.595803,"is_passed":false},{"stop_id":"U1181Z1","name":"Charvatská","arrival_time":"5:19:00","departure_time":"5:19:00","lat":49.219239,"lon":16.59252,"is_passed":false},{"stop_id":"U1586Z1","name":"Slovanské náměstí","arrival_time":"5:20:00","departure_time":"5:20:00","lat":49.222659,"lon":16.591882,"is_passed":false},{"stop_id":"U1172Z1","name":"Hutařova","arrival_time":"5:21:00","departure_time":"5:21:00","lat":49.226073,"lon":16.588562,"is_passed":false},{"stop_id":"U1606Z1","name":"Srbská","arrival_time":"5:23:00","departure_time":"5:37:00","lat":49.228127,"lon":16.587054,"is_passed":false}],"56722":[{"stop_id":"U1606Z2","name":"Srbská","arrival_time":"5:37:00","departure_time":"5:37:00","lat":49.228202,"lon":16.586939,"is_passed":false},{"stop_id":"U1172Z2","name":"Hutařova","arrival_time":"5:37:00","departure_time":"5:37:00","lat":49.226291,"lon":16.588195,"is_passed":false},{"stop_id":"U1586Z3","name":"Slovanské náměstí","arrival_time":"5:39:00","departure_time":"5:39:00","lat":49.223525,"lon":16.591009,"is_passed":false},{"stop_id":"U1586Z4","name":"Slovanské náměstí","arrival_time":"5:40:00","departure_time":"5:40:00","lat":49.222774,"lon":16.591332,"is_passed":false},{"stop_id":"U1181Z2","name":"Charvatská","arrival_time":"5:41:00","departure_time":"5:41:00","lat":49.219543,"lon":16.592241,"is_passed":false},{"stop_id":"U1635Z2","name":"Šelepova","arrival_time":"5:42:00","departure_time":"5:42:00","lat":49.212877,"lon":16.596271,"is_passed":false},{"stop_id":"U1038Z2","name":"Botanická","arrival_time":"5:43:00","departure_time":"5:43:00","lat":49.210784,"lon":16.597532,"is_passed":false},{"stop_id":"U1776Z2","name":"Zahradníkova","arrival_time":"5:44:00","departure_time":"5:44:00","lat":49.208145,"lon":16.599126,"is_passed":false},{"stop_id":"U1626Z2","name":"Sušilova","arrival_time":"5:46:00","departure_time":"5:46:00","lat":49.204397,"lon":16.598621,"is_passed":false},{"stop_id":"U1587Z2","name":"Smetanova","arrival_time":"5:47:00","departure_time":"5:47:00","lat":49.201271,"lon":16.602293,"is_passed":false},{"stop_id":"U1073Z5","name":"Česká","arrival_time":"5:49:00","departure_time":"5:51:00","lat":49.198374,"lon":16.605647,"is_passed":false}],"56723":[{"stop_id":"U1073Z6","name":"Česká","arrival_time":"5:51:00","departure_time":"5:51:00","lat":49.198291,"lon":16.605232,"is_passed":false},{"stop_id":"U1587Z1","name":"Smetanova","arrival_time":"5:53:00","departure_time":"5:53:00","lat":49.201909,"lon":16.601644,"is_passed":false},{"stop_id":"U1626Z1","name":"Sušilova","arrival_time":"5:54:00","departure_time":"5:54:00","lat":49.204346,"lon":16.598828,"is_passed":false},{"stop_id":"U1776Z1","name":"Zahradníkova","arrival_time":"5:56:00","departure_time":"5:56:00","lat":49.20774,"lon":16.599048,"is_passed":false},{"stop_id":"U1038Z1","name":"Botanická","arrival_time":"5:57:00","departure_time":"5:57:00","lat":49.210624,"lon":16.597711,"is_passed":false},{"stop_id":"U1635Z1","name":"Šelepova","arrival_time":"5:57:00","departure_time":"5:57:00","lat":49.213818,"lon":16.595803,"is_passed":false},{"stop_id":"U1181Z1","name":"Charvatská","arrival_time":"5:59:00","departure_time":"5:59:00","lat":49.219239,"lon":16.59252,"is_passed":false},{"stop_id":"U1586Z1","name":"Slovanské náměstí","arrival_time":"6:00:00","departure_time":"6:00:00","lat":49.222659,"lon":16.591882,"is_passed":false},{"stop_id":"U1172Z1","name":"Hutařova","arrival_time":"6:01:00","departure_time":"6:01:00","lat":49.226073,"lon":16.588562,"is_passed":false},{"stop_id":"U1606Z1","name":"Srbská","arrival_time":"6:03:00","departure_time":"6:14:00","lat":49.228127,"lon":16.587054,"is_passed":false}],"56724":[{"stop_id":"U1606Z2","name":"Srbská","arrival_time":"6:14:00","departure_time":"6:14:00","lat":49.228202,"lon":16.586939,"is_passed":false},{"stop_id":"U1172Z2","name":"Hutařova","arrival_time":"6:14:00","departure_time":"6:14:00","lat":49.226291,"lon":16.588195,"is_passed":false},{"stop_id":"U1586Z3","name":"Slovanské náměstí","arrival_time":"6:16:00","departure_time":"6:16:00","lat":49.223525,"lon":16.591009,"is_passed":false},{"stop_id":"U1586Z4","name":"Slovanské náměstí","arrival_time":"6:17:00","departure_time":"6:17:00","lat":49.222774,"lon":16.591332,"is_passed":false},{"stop_id":"U1181Z2","name":"Charvatská","arrival_time":"6:18:00","departure_time":"6:18:00","lat":49.219543,"lon":16.592241,"is_passed":false},{"stop_id":"U1635Z2","name":"Šelepova","arrival_time":"6:19:00","departure_time":"6:19:00","lat":49.212877,"lon":16.596271,"is_passed":false},{"stop_id":"U1038Z2","name":"Botanická","arrival_time":"6:20:00","departure_time":"6:20:00","lat":49.210784,"lon":16.597532,"is_passed":false},{"stop_id":"U1776Z2","name":"Zahradníkova","arrival_time":"6:21:00","departure_time":"6:21:00","lat":49.208145,"lon":16.599126,"is_passed":false},{"stop_id":"U1626Z2","name":"Sušilova","arrival_time":"6:24:00","departure_time":"6:24:00","lat":49.204397,"lon":16.598621,"is_passed":false},{"stop_id":"U1587Z2","name":"Smetanova","arrival_time":"6:25:00","departure_time":"6:25:00","lat":49.201271,"lon":16.602293,"is_passed":false},{"stop_id":"U1073Z5","name":"Česká","arrival_time":"6:28:00","departure_time":"6:31:00","lat":49.198374,"lon":16.605647,"is_passed":false}],"56725":[{"stop_id":"U1073Z6","name":"Česká","arrival_time":"6:31:00","departure_time":"6:31:00","lat":49.198291,"lon":16.605232,"is_passed":false},{"stop_id":"U1587Z1","name":"Smetanova","arrival_time":"6:33:00","departure_time":"6:33:00","lat":49.201909,"lon":16.601644,"is_passed":false},{"stop_id":"U1626Z1","name":"Sušilova","arrival_time":"6:34:00","departure_time":"6:34:00","lat":49.204346,"lon":16.598828,"is_passed":false},{"stop_id":"U1776Z1","name":"Zahradníkova","arrival_time":"6:36:00","departure_time":"6:36:00","lat":49.20774,"lon":16.599048,"is_passed":false},{"stop_id":"U1038Z1","name":"Botanická","arrival_time":"6:37:00","departure_time":"6:37:00","lat":49.210624,"lon":16.597711,"is_passed":false},{"stop_id":"U1635Z1","name":"Šelepova","arrival_time":"6:37:00","departure_time":"6:37:00","lat":49.213818,"lon":16.595803,"is_passed":false},{"stop_id":"U1181Z1","name":"Charvatská","arrival_time":"6:39:00","departure_time":"6:39:00","lat":49.219239,"lon":16.59252,"is_passed":false},{"stop_id":"U1586Z1","name":"Slovanské náměstí","arrival_time":"6:40:00","departure_time":"6:40:00","lat":49.222659,"lon":16.591882,"is_passed":false},{"stop_id":"U1172Z1","name":"Hutařova","arrival_time":"6:41:00","departure_time":"6:41:00","lat":49.226073,"lon":16.588562,"is_passed":false},{"stop_id":"U1606Z1","name":"Srbská","arrival_time":"6:43:00","departure_time":"6:59:00","lat":49.228127,"lon":16.587054,"is_passed":false}],"56726":[{"stop_id":"U1606Z2","name":"Srbská","arrival_time":"6:59:00","departure_time":"6:59:00","lat":49.228202,"lon":16.586939,"is_passed":false},{"stop_id":"U1172Z2","name":"Hutařova","arrival_time":"6:59:00","departure_time":"6:59:00","lat":49.226291,"lon":16.588195,"is_passed":false},{"stop_id":"U1586Z3","name":"Slovanské náměstí","arrival_time":"7:01:00","departure_time":"7:01:00","lat":49.223525,"lon":16.591009,"is_passed":false},{"stop_id":"U1586Z4","name":"Slovanské náměstí","arrival_time":"7:02:00","departure_time":"7:02:00","lat":49.222774,"lon":16.591332,"is_passed":false},{"stop_id":"U1181Z2","name":"Charvatská","arrival_time":"7:03:00","departure_time":"7:03:00","lat":49.219543,"lon":16.592241,"is_passed":false},{"stop_id":"U1635Z2","name":"Šelepova","arrival_time":"7:04:00","departure_time":"7:04:00","lat":49.212877,"lon":16.596271,"is_passed":false},{"stop_id":"U1038Z2","name":"Botanická","arrival_time":"7:05:00","departure_time":"7:05:00","lat":49.210784,"lon":16.597532,"is_passed":false},{"stop_id":"U1776Z2","name":"Zahradníkova","arrival_time":"7:06:00","departure_time":"7:06:00","lat":49.208145,"lon":16.599126,"is_passed":false},{"stop_id":"U1626Z2","name":"Sušilova","arrival_time":"7:09:00","departure_time":"7:09:00","lat":49.204397,"lon":16.598621,"is_passed":false},{"stop_id":"U1587Z2","name":"Smetanova","arrival_time":"7:10:00","departure_time":"7:10:00","lat":49.201271,"lon":16.602293,"is_passed":false},{"stop_id":"U1073Z5","name":"Česká","arrival_time":"7:13:00","departure_time":"7:16:00","lat":49.198374,"lon":16.605647,"is_passed":false}],"56727":[{"stop_id":"U1073Z6","name":"Česká","arrival_time":"7:16:00","departure_time":"7:16:00","lat":49.198291,"lon":16.605232,"is_passed":false},{"stop_id":"U1587Z1","name":"Smetanova","arrival_time":"7:18:00","departure_time":"7:18:00","lat":49.201909,"lon":16.601644,"is_passed":false},{"stop_id":"U1626Z1","name":"Sušilova","arrival_time":"7:19:00","departure_time":"7:19:00","lat":49.204346,"lon":16.598828,"is_passed":false},{"stop_id":"U1776Z1","name":"Zahradníkova","arrival_time":"7:21:00","departure_time":"7:21:00","lat":49.20774,"lon":16.599048,"is_passed":false},{"stop_id":"U1038Z1","name":"Botanická","arrival_time":"7:22:00","departure_time":"7:22:00","lat":49.210624,"lon":16.597711,"is_passed":false},{"stop_id":"U1635Z1","name":"Šelepova","arrival_time":"7:23:00","departure_time":"7:23:00","lat":49.213818,"lon":16.595803,"is_passed":false},{"stop_id":"U1181Z1","name":"Charvatská","arrival_time":"7:25:00","departure_time":"7:25:00","lat":49.219239,"lon":16.59252,"is_passed":false},{"stop_id":"U1586Z1","name":"Slovanské náměstí","arrival_time":"7:26:00","departure_time":"7:26:00","lat":49.222659,"lon":16.591882,"is_passed":false},{"stop_id":"U1172Z1","name":"Hutařova","arrival_time":"7:28:00","departure_time":"7:28:00","lat":49.226073,"lon":16.588562,"is_passed":false},{"stop_id":"U1606Z1","name":"Srbská","arrival_time":"7:30:00","departure_time":"7:44:00","lat":49.228127,"lon":16.587054,"is_passed":false}],"56728":[{"stop_id":"U1606Z2","name":"Srbská","arrival_time":"7:44:00","departure_time":"7:44:00","lat":49.228202,"lon":16.586939,"is_passed":false},{"stop_id":"U1172Z2","name":"Hutařova","arrival_time":"7:44:00","departure_time":"7:44:00","lat":49.226291,"lon":16.588195,"is_passed":false},{"stop_id":"U1586Z3","name":"Slovanské náměstí","arrival_time":"7:46:00","departure_time":"7:46:00","lat":49.223525,"lon":16.591009,"is_passed":false},{"stop_id":"U1586Z4","name":"Slovanské náměstí","arrival_time":"7:47:00","departure_time":"7:47:00","lat":49.222774,"lon":16.591332,"is_passed":false},{"stop_id":"U1181Z2","name":"Charvatská","arrival_time":"7:48:00","departure_time":"7:48:00","lat":49.219543,"lon":16.592241,"is_passed":false},{"stop_id":"U1635Z2","name":"Šelepova","arrival_time":"7:49:00","departure_time":"7:49:00","lat":49.212877,"lon":16.596271,"is_passed":false},{"stop_id":"U1038Z2","name":"Botanická","arrival_time":"7:50:00","departure_time":"7:50:00","lat":49.210784,"lon":16.597532,"is_passed":false},{"stop_id":"U1776Z2","name":"Zahradníkova","arrival_time":"7:51:00","departure_time":"7:51:00","lat":49.208145,"lon":16.599126,"is_passed":false},{"stop_id":"U1626Z2","name":"Sušilova","arrival_time":"7:54:00","departure_time":"7:54:00","lat":49.204397,"lon":16.598621,"is_passed":false},{"stop_id":"U1587Z2","name":"Smetanova","arrival_time":"7:55:00","departure_time":"7:55:00","lat":49.201271,"lon":16.602293,"is_passed":false},{"stop_id":"U1073Z5","name":"Česká","arrival_time":"7:58:00","departure_time":"8:01:00","lat":49.198374,"lon":16.605647,"is_passed":false}],"56729":[{"stop_id":"U1073Z6","name":"Česká","arrival_time":"8:01:00","departure_time":"8:01:00","lat":49.198291,"lon":16.605232,"is_passed":false},{"stop_id":"U1587Z1","name":"Smetanova","arrival_time":"8:03:00","departure_time":"8:03:00","lat":49.201909,"lon":16.601644,"is_passed":false},{"stop_id":"U1626Z1","name":"Sušilova","arrival_time":"8:04:00","departure_time":"8:04:00","lat":49.204346,"lon":16.598828,"is_passed":false},{"stop_id":"U1776Z1","name":"Zahradníkova","arrival_time":"8:06:00","departure_time":"8:06:00","lat":49.20774,"lon":16.599048,"is_passed":false},{"stop_id":"U1038Z1","name":"Botanická","arrival_time":"8:07:00","departure_time":"8:07:00","lat":49.210624,"lon":16.597711,"is_passed":false},{"stop_id":"U1635Z1","name":"Šelepova","arrival_time":"8:08:00","departure_time":"8:08:00","lat":49.213818,"lon":16.595803,"is_passed":false},{"stop_id":"U1181Z1","name":"Charvatská","arrival_time":"8:10:00","departure_time":"8:10:00","lat":49.219239,"lon":16.59252,"is_passed":false},{"stop_id":"U1586Z1","name":"Slovanské náměstí","arrival_time":"8:11:00","departure_time":"8:11:00","lat":49.222659,"lon":16.591882,"is_passed":false},{"stop_id":"U1172Z1","name":"Hutařova","arrival_time":"8:13:00","departure_time":"8:13:00","lat":49.226073,"lon":16.588562,"is_passed":false},{"stop_id":"U1606Z1","name":"Srbská","arrival_time":"8:15:00","departure_time":"8:29:00","lat":49.228127,"lon":16.587054,"is_passed":false}],"56730":[{"stop_id":"U1606Z2","name":"Srbská","arrival_time":"8:29:00","departure_time":"8:29:00","lat":49.228202,"lon":16.586939,"is_passed":false},{"stop_id":"U1172Z2","name":"Hutařova","arrival_time":"8:29:00","departure_time":"8:29:00","lat":49.226291,"lon":16.588195,"is_passed":false},{"stop_id":"U1586Z3","name":"Slovanské náměstí","arrival_time":"8:31:00","departure_time":"8:31:00","lat":49.223525,"lon":16.591009,"is_passed":false},{"stop_id":"U1586Z4","name":"Slovanské náměstí","arrival_time":"8:32:00","departure_time":"8:32:00","lat":49.222774,"lon":16.591332,"is_passed":false},{"stop_id":"U1181Z2","name":"Charvatská","arrival_time":"8:33:00","departure_time":"8:33:00","lat":49.219543,"lon":16.592241,"is_passed":false},{"stop_id":"U1635Z2","name":"Šelepova","arrival_time":"8:34:00","departure_time":"8:34:00","lat":49.212877,"lon":16.596271,"is_passed":false},{"stop_id":"U1038Z2","name":"Botanická","arrival_time":"8:35:00","departure_time":"8:35:00","lat":49.210784,"lon":16.597532,"is_passed":false},{"stop_id":"U1776Z2","name":"Zahradníkova","arrival_time":"8:36:00","departure_time":"8:36:00","lat":49.208145,"lon":16.599126,"is_passed":false},{"stop_id":"U1626Z2","name":"Sušilova","arrival_time":"8:39:00","departure_time":"8:39:00","lat":49.204397,"lon":16.598621,"is_passed":false},{"stop_id":"U1587Z2","name":"Smetanova","arrival_time":"8:40:00","departure_time":"8:40:00","lat":49.201271,"lon":16.602293,"is_passed":false},{"stop_id":"U1073Z5","name":"Česká","arrival_time":"8:43:00","departure_time":"8:46:00","lat":49.198374,"lon":16.605647,"is_passed":false}],"56731":[{"stop_id":"U1073Z6","name":"Česká","arrival_time":"8:46:00","departure_time":"8:46:00","lat":49.198291,"lon":16.605232,"is_passed":false},{"stop_id":"U1587Z1","name":"Smetanova","arrival_time":"8:48:00","departure_time":"8:48:00","lat":49.201909,"lon":16.601644,"is_passed":false},{"stop_id":"U1626Z1","name":"Sušilova","arrival_time":"8:49:00","departure_time":"8:49:00","lat":49.204346,"lon":16.598828,"is_passed":false},{"stop_id":"U1776Z1","name":"Zahradníkova","arrival_time":"8:51:00","departure_time":"8:51:00","lat":49.20774,"lon":16.599048,"is_passed":false},{"stop_id":"U1038Z1","name":"Botanická","arrival_time":"8:52:00","departure_time":"8:52:00","lat":49.210624,"lon":16.597711,"is_passed":false},{"stop_id":"U1635Z1","name":"Šelepova","arrival_time":"8:53:00","departure_time":"8:53:00","lat":49.213818,"lon":16.595803,"is_passed":false},{"stop_id":"U1181Z1","name":"Charvatská","arrival_time":"8:55:00","departure_time":"8:55:00","lat":49.219239,"lon":16.59252,"is_passed":false},{"stop_id":"U1586Z1","name":"Slovanské náměstí","arrival_time":"8:56:00","departure_time":"8:56:00","lat":49.222659,"lon":16.591882,"is_passed":false},{"stop_id":"U1172Z1","name":"Hutařova","arrival_time":"8:58:00","departure_time":"8:58:00","lat":49.226073,"lon":16.588562,"is_passed":false},{"stop_id":"U1606Z1","name":"Srbská","arrival_time":"9:00:00","departure_time":"9:07:00","lat":49.228127,"lon":16.587054,"is_passed":false}],"56732":[{"stop_id":"U1606Z2","name":"Srbská","arrival_time":"9:07:00","departure_time":"9:07:00","lat":49.228202,"lon":16.586939,"is_passed":false},{"stop_id":"U1172Z2","name":"Hutařova","arrival_time":"9:07:00","departure_time":"9:07:00","lat":49.226291,"lon":16.588195,"is_passed":false},{"stop_id":"U1586Z3","name":"Slovanské náměstí","arrival_time":"9:09:00","departure_time":"9:09:00","lat":49.223525,"lon":16.591009,"is_passed":false},{"stop_id":"U1586Z4","name":"Slovanské náměstí","arrival_time":"9:10:00","departure_time":"9:10:00","lat":49.222774,"lon":16.591332,"is_passed":false},{"stop_id":"U1181Z2","name":"Charvatská","arrival_time":"9:11:00","departure_time":"9:11:00","lat":49.219543,"lon":16.592241,"is_passed":false},{"stop_id":"U1635Z2","name":"Šelepova","arrival_time":"9:12:00","departure_time":"9:12:00","lat":49.212877,"lon":16.596271,"is_passed":false},{"stop_id":"U1038Z2","name":"Botanická","arrival_time":"9:13:00","departure_time":"9:13:00","lat":49.210784,"lon":16.597532,"is_passed":false},{"stop_id":"U1776Z2","name":"Zahradníkova","arrival_time":"9:14:00","departure_time":"9:14:00","lat":49.208145,"lon":16.599126,"is_passed":false},{"stop_id":"U1626Z2","name":"Sušilova","arrival_time":"9:17:00","departure_time":"9:17:00","lat":49.204397,"lon":16.598621,"is_passed":false},{"stop_id":"U1587Z2","name":"Smetanova","arrival_time":"9:18:00","departure_time":"9:18:00","lat":49.201271,"lon":16.602293,"is_passed":false},{"stop_id":"U1073Z5","name":"Česká","arrival_time":"9:21:00","departure_time":"9:23:00","lat":49.198374,"lon":16.605647,"is_passed":false}],"56733":[{"stop_id":"U1073Z6","name":"Česká","arrival_time":"9:23:00","departure_time":"9:23:00","lat":49.198291,"lon":16.605232,"is_passed":false},{"stop_id":"U1587Z1","name":"Smetanova","arrival_time":"9:25:00","departure_time":"9:25:00","lat":49.201909,"lon":16.601644,"is_passed":false},{"stop_id":"U1626Z1","name":"Sušilova","arrival_time":"9:26:00","departure_time":"9:26:00","lat":49.204346,"lon":16.598828,"is_passed":false},{"stop_id":"U1776Z1","name":"Zahradníkova","arrival_time":"9:28:00","departure_time":"9:28:00","lat":49.20774,"lon":16.599048,"is_passed":false},{"stop_id":"U1038Z1","name":"Botanická","arrival_time":"9:29:00","departure_time":"9:29:00","lat":49.210624,"lon":16.597711,"is_passed":false},{"stop_id":"U1635Z1","name":"Šelepova","arrival_time":"9:30:00","departure_time":"9:30:00","lat":49.213818,"lon":16.595803,"is_passed":false},{"stop_id":"U1181Z1","name":"Charvatská","arrival_time":"9:32:00","departure_time":"9:32:00","lat":49.219239,"lon":16.59252,"is_passed":false},{"stop_id":"U1586Z1","name":"Slovanské náměstí","arrival_time":"9:33:00","departure_time":"9:33:00","lat":49.222659,"lon":16.591882,"is_passed":false},{"stop_id":"U1172Z1","name":"Hutařova","arrival_time":"9:35:00","departure_time":"9:35:00","lat":49.226073,"lon":16.588562,"is_passed":false},{"stop_id":"U1606Z1","name":"Srbská","arrival_time":"9:37:00","departure_time":"10:07:00","lat":49.228127,"lon":16.587054,"is_passed":false}],"56734":[{"stop_id":"U1606Z2","name":"Srbská","arrival_time":"10:07:00","departure_time":"10:07:00","lat":49.228202,"lon":16.586939,"is_passed":false},{"stop_id":"U1172Z2","name":"Hutařova","arrival_time":"10:07:00","departure_time":"10:07:00","lat":49.226291,"lon":16.588195,"is_passed":false},{"stop_id":"U1586Z3","name":"Slovanské náměstí","arrival_time":"10:09:00","departure_time":"10:09:00","lat":49.223525,"lon":16.591009,"is_passed":false},{"stop_id":"U1586Z4","name":"Slovanské náměstí","arrival_time":"10:10:00","departure_time":"10:10:00","lat":49.222774,"lon":16.591332,"is_passed":false},{"stop_id":"U1181Z2","name":"Charvatská","arrival_time":"10:11:00","departure_time":"10:11:00","lat":49.219543,"lon":16.592241,"is_passed":false},{"stop_id":"U1635Z2","name":"Šelepova","arrival_time":"10:12:00","departure_time":"10:12:00","lat":49.212877,"lon":16.596271,"is_passed":false},{"stop_id":"U1038Z2","name":"Botanická","arrival_time":"10:13:00","departure_time":"10:13:00","lat":49.210784,"lon":16.597532,"is_passed":false},{"stop_id":"U1776Z2","name":"Zahradníkova","arrival_time":"10:14:00","departure_time":"10:14:00","lat":49.208145,"lon":16.599126,"is_passed":false},{"stop_id":"U1626Z2","name":"Sušilova","arrival_time":"10:17:00","departure_time":"10:17:00","lat":49.204397,"lon":16.598621,"is_passed":false},{"stop_id":"U1587Z2","name":"Smetanova","arrival_time":"10:18:00","departure_time":"10:18:00","lat":49.201271,"lon":16.602293,"is_passed":false},{"stop_id":"U1073Z5","name":"Česká","arrival_time":"10:21:00","departure_time":"10:23:00","lat":49.198374,"lon":16.605647,"is_passed":false}],"56735":[{"stop_id":"U1073Z6","name":"Česká","arrival_time":"10:23:00","departure_time":"10:23:00","lat":49.198291,"lon":16.605232,"is_passed":false},{"stop_id":"U1587Z1","name":"Smetanova","arrival_time":"10:25:00","departure_time":"10:25:00","lat":49.201909,"lon":16.601644,"is_passed":false},{"stop_id":"U1626Z1","name":"Sušilova","arrival_time":"10:26:00","departure_time":"10:26:00","lat":49.204346,"lon":16.598828,"is_passed":false},{"stop_id":"U1776Z1","name":"Zahradníkova","arrival_time":"10:28:00","departure_time":"10:28:00","lat":49.20774,"lon":16.599048,"is_passed":false},{"stop_id":"U1038Z1","name":"Botanická","arrival_time":"10:29:00","departure_time":"10:29:00","lat":49.210624,"lon":16.597711,"is_passed":false},{"stop_id":"U1635Z1","name":"Šelepova","arrival_time":"10:30:00","departure_time":"10:30:00","lat":49.213818,"lon":16.595803,"is_passed":false},{"stop_id":"U1181Z1","name":"Charvatská","arrival_time":"10:32:00","departure_time":"10:32:00","lat":49.219239,"lon":16.59252,"is_passed":false},{"stop_id":"U1586Z1","name":"Slovanské náměstí","arrival_time":"10:33:00","departure_time":"10:33:00","lat":49.222659,"lon":16.591882,"is_passed":false},{"stop_id":"U1172Z1","name":"Hutařova","arrival_time":"10:35:00","departure_time":"10:35:00","lat":49.226073,"lon":16.588562,"is_passed":false},{"stop_id":"U1606Z1","name":"Srbská","arrival_time":"10:37:00","departure_time":"11:07:00","lat":49.228127,"lon":16.587054,"is_passed":false}],"56736":[{"stop_id":"U1606Z2","name":"Srbská","arrival_time":"11:07:00","departure_time":"11:07:00","lat":49.228202,"lon":16.586939,"is_passed":false},{"stop_id":"U1172Z2","name":"Hutařova","arrival_time":"11:07:00","departure_time":"11:07:00","lat":49.226291,"lon":16.588195,"is_passed":false},{"stop_id":"U1586Z3","name":"Slovanské náměstí","arrival_time":"11:09:00","departure_time":"11:09:00","lat":49.223525,"lon":16.591009,"is_passed":false},{"stop_id":"U1586Z4","name":"Slovanské náměstí","arrival_time":"11:10:00","departure_time":"11:10:00","lat":49.222774,"lon":16.591332,"is_passed":false},{"stop_id":"U1181Z2","name":"Charvatská","arrival_time":"11:11:00","departure_time":"11:11:00","lat":49.219543,"lon":16.592241,"is_passed":false},{"stop_id":"U1635Z2","name":"Šelepova","arrival_time":"11:12:00","departure_time":"11:12:00","lat":49.212877,"lon":16.596271,"is_passed":false},{"stop_id":"U1038Z2","name":"Botanická","arrival_time":"11:13:00","departure_time":"11:13:00","lat":49.210784,"lon":16.597532,"is_passed":false},{"stop_id":"U1776Z2","name":"Zahradníkova","arrival_time":"11:14:00","departure_time":"11:14:00","lat":49.208145,"lon":16.599126,"is_passed":false},{"stop_id":"U1626Z2","name":"Sušilova","arrival_time":"11:17:00","departure_time":"11:17:00","lat":49.204397,"lon":16.598621,"is_passed":false},{"stop_id":"U1587Z2","name":"Smetanova","arrival_time":"11:18:00","departure_time":"11:18:00","lat":49.201271,"lon":16.602293,"is_passed":false},{"stop_id":"U1073Z5","name":"Česká","arrival_time":"11:21:00","departure_time":"11:23:00","lat":49.198374,"lon":16.605647,"is_passed":false}],"56737":[{"stop_id":"U1073Z6","name":"Česká","arrival_time":"11:23:00","departure_time":"11:23:00","lat":49.198291,"lon":16.605232,"is_passed":false},{"stop_id":"U1587Z1","name":"Smetanova","arrival_time":"11:25:00","departure_time":"11:25:00","lat":49.201909,"lon":16.601644,"is_passed":false},{"stop_id":"U1626Z1","name":"Sušilova","arrival_time":"11:26:00","departure_time":"11:26:00","lat":49.204346,"lon":16.598828,"is_passed":false},{"stop_id":"U1776Z1","name":"Zahradníkova","arrival_time":"11:28:00","departure_time":"11:28:00","lat":49.20774,"lon":16.599048,"is_passed":false},{"stop_id":"U1038Z1","name":"Botanická","arrival_time":"11:29:00","departure_time":"11:29:00","lat":49.210624,"lon":16.597711,"is_passed":false},{"stop_id":"U1635Z1","name":"Šelepova","arrival_time":"11:30:00","departure_time":"11:30:00","lat":49.213818,"lon":16.595803,"is_passed":false},{"stop_id":"U1181Z1","name":"Charvatská","arrival_time":"11:32:00","departure_time":"11:32:00","lat":49.219239,"lon":16.59252,"is_passed":false},{"stop_id":"U1586Z1","name":"Slovanské náměstí","arrival_time":"11:33:00","departure_time":"11:33:00","lat":49.222659,"lon":16.591882,"is_passed":false},{"stop_id":"U1172Z1","name":"Hutařova","arrival_time":"11:35:00","departure_time":"11:35:00","lat":49.226073,"lon":16.588562,"is_passed":false},{"stop_id":"U1606Z1","name":"Srbská","arrival_time":"11:37:00","departure_time":"11:47:00","lat":49.228127,"lon":16.587054,"is_passed":false}],"56738":[{"stop_id":"U1606Z2","name":"Srbská","arrival_time":"11:47:00","departure_time":"11:47:00","lat":49.228202,"lon":16.586939,"is_passed":false},{"stop_id":"U1172Z2","name":"Hutařova","arrival_time":"11:47:00","departure_time":"11:47:00","lat":49.226291,"lon":16.588195,"is_passed":false},{"stop_id":"U1586Z3","name":"Slovanské náměstí","arrival_time":"11:49:00","departure_time":"11:49:00","lat":49.223525,"lon":16.591009,"is_passed":false},{"stop_id":"U1586Z4","name":"Slovanské náměstí","arrival_time":"11:50:00","departure_time":"11:50:00","lat":49.222774,"lon":16.591332,"is_passed":false},{"stop_id":"U1181Z2","name":"Charvatská","arrival_time":"11:51:00","departure_time":"11:51:00","lat":49.219543,"lon":16.592241,"is_passed":false},{"stop_id":"U1635Z2","name":"Šelepova","arrival_time":"11:52:00","departure_time":"11:52:00","lat":49.212877,"lon":16.596271,"is_passed":false},{"stop_id":"U1038Z2","name":"Botanická","arrival_time":"11:53:00","departure_time":"11:53:00","lat":49.210784,"lon":16.597532,"is_passed":false},{"stop_id":"U1776Z2","name":"Zahradníkova","arrival_time":"11:54:00","departure_time":"11:54:00","lat":49.208145,"lon":16.599126,"is_passed":false},{"stop_id":"U1626Z2","name":"Sušilova","arrival_time":"11:57:00","departure_time":"11:57:00","lat":49.204397,"lon":16.598621,"is_passed":false},{"stop_id":"U1587Z2","name":"Smetanova","arrival_time":"11:58:00","departure_time":"11:58:00","lat":49.201271,"lon":16.602293,"is_passed":false},{"stop_id":"U1073Z5","name":"Česká","arrival_time":"12:01:00","departure_time":"12:03:00","lat":49.198374,"lon":16.605647,"is_passed":false}],"56739":[{"stop_id":"U1073Z6","name":"Česká","arrival_time":"12:03:00","departure_time":"12:03:00","lat":49.198291,"lon":16.605232,"is_passed":false},{"stop_id":"U1587Z1","name":"Smetanova","arrival_time":"12:05:00","departure_time":"12:05:00","lat":49.201909,"lon":16.601644,"is_passed":false},{"stop_id":"U1626Z1","name":"Sušilova","arrival_time":"12:06:00","departure_time":"12:06:00","lat":49.204346,"lon":16.598828,"is_passed":false},{"stop_id":"U1776Z1","name":"Zahradníkova","arrival_time":"12:08:00","departure_time":"12:08:00","lat":49.20774,"lon":16.599048,"is_passed":false},{"stop_id":"U1038Z1","name":"Botanická","arrival_time":"12:09:00","departure_time":"12:09:00","lat":49.210624,"lon":16.597711,"is_passed":false},{"stop_id":"U1635Z1","name":"Šelepova","arrival_time":"12:10:00","departure_time":"12:10:00","lat":49.213818,"lon":16.595803,"is_passed":false},{"stop_id":"U1181Z1","name":"Charvatská","arrival_time":"12:12:00","departure_time":"12:12:00","lat":49.219239,"lon":16.59252,"is_passed":false},{"stop_id":"U1586Z1","name":"Slovanské náměstí","arrival_time":"12:13:00","departure_time":"12:13:00","lat":49.222659,"lon":16.591882,"is_passed":false},{"stop_id":"U1172Z1","name":"Hutařova","arrival_time":"12:15:00","departure_time":"12:15:00","lat":49.226073,"lon":16.588562,"is_passed":false},{"stop_id":"U1606Z1","name":"Srbská","arrival_time":"12:17:00","departure_time":"12:27:00","lat":49.228127,"lon":16.587054,"is_passed":false}],"56740":[{"stop_id":"U1606Z2","name":"Srbská","arrival_time":"12:27:00","departure_time":"12:27:00","lat":49.228202,"lon":16.586939,"is_passed":false},{"stop_id":"U1172Z2","name":"Hutařova","arrival_time":"12:27:00","departure_time":"12:27:00","lat":49.226291,"lon":16.588195,"is_passed":false},{"stop_id":"U1586Z3","name":"Slovanské náměstí","arrival_time":"12:29:00","departure_time":"12:29:00","lat":49.223525,"lon":16.591009,"is_passed":false},{"stop_id":"U1586Z4","name":"Slovanské náměstí","arrival_time":"12:30:00","departure_time":"12:30:00","lat":49.222774,"lon":16.591332,"is_passed":false},{"stop_id":"U1181Z2","name":"Charvatská","arrival_time":"12:31:00","departure_time":"12:31:00","lat":49.219543,"lon":16.592241,"is_passed":false},{"stop_id":"U1635Z2","name":"Šelepova","arrival_time":"12:32:00","departure_time":"12:32:00","lat":49.212877,"lon":16.596271,"is_passed":false},{"stop_id":"U1038Z2","name":"Botanická","arrival_time":"12:33:00","departure_time":"12:33:00","lat":49.210784,"lon":16.597532,"is_passed":false},{"stop_id":"U1776Z2","name":"Zahradníkova","arrival_time":"12:34:00","departure_time":"12:34:00","lat":49.208145,"lon":16.599126,"is_passed":false},{"stop_id":"U1626Z2","name":"Sušilova","arrival_time":"12:37:00","departure_time":"12:37:00","lat":49.204397,"lon":16.598621,"is_passed":false},{"stop_id":"U1587Z2","name":"Smetanova","arrival_time":"12:38:00","departure_time":"12:38:00","lat":49.201271,"lon":16.602293,"is_passed":false},{"stop_id":"U1073Z5","name":"Česká","arrival_time":"12:41:00","departure_time":"12:43:00","lat":49.198374,"lon":16.605647,"is_passed":false}],"56741":[{"stop_id":"U1073Z6","name":"Česká","arrival_time":"12:43:00","departure_time":"12:43:00","lat":49.198291,"lon":16.605232,"is_passed":false},{"stop_id":"U1587Z1","name":"Smetanova","arrival_time":"12:45:00","departure_time":"12:45:00","lat":49.201909,"lon":16.601644,"is_passed":false},{"stop_id":"U1626Z1","name":"Sušilova","arrival_time":"12:46:00","departure_time":"12:46:00","lat":49.204346,"lon":16.598828,"is_passed":false},{"stop_id":"U1776Z1","name":"Zahradníkova","arrival_time":"12:48:00","departure_time":"12:48:00","lat":49.20774,"lon":16.599048,"is_passed":false},{"stop_id":"U1038Z1","name":"Botanická","arrival_time":"12:49:00","departure_time":"12:49:00","lat":49.210624,"lon":16.597711,"is_passed":false},{"stop_id":"U1635Z1","name":"Šelepova","arrival_time":"12:50:00","departure_time":"12:50:00","lat":49.213818,"lon":16.595803,"is_passed":false},{"stop_id":"U1181Z1","name":"Charvatská","arrival_time":"12:52:00","departure_time":"12:52:00","lat":49.219239,"lon":16.59252,"is_passed":false},{"stop_id":"U1586Z1","name":"Slovanské náměstí","arrival_time":"12:53:00","departure_time":"12:53:00","lat":49.222659,"lon":16.591882,"is_passed":false},{"stop_id":"U1172Z1","name":"Hutařova","arrival_time":"12:55:00","departure_time":"12:55:00","lat":49.226073,"lon":16.588562,"is_passed":false},{"stop_id":"U1606Z1","name":"Srbská","arrival_time":"12:57:00","departure_time":"13:07:00","lat":49.228127,"lon":16.587054,"is_passed":false}],"56742":[{"stop_id":"U1606Z2","name":"Srbská","arrival_time":"13:07:00","departure_time":"13:07:00","lat":49.228202,"lon":16.586939,"is_passed":false},{"stop_id":"U1172Z2","name":"Hutařova","arrival_time":"13:07:00","departure_time":"13:07:00","lat":49.226291,"lon":16.588195,"is_passed":false},