{"570":[{"stop_id":"U16149Z10","name":"Sokolnice, železniční stanice","arrival_time":"14:40:00","departure_time":"14:40:00","lat":49.108029,"lon":16.733459,"is_passed":false},{"stop_id":"U1183Z10","name":"Chrlice, nádraží","arrival_time":"14:45:00","departure_time":"14:46:00","lat":49.132031,"lon":16.657232,"is_passed":false},{"stop_id":"U1146Z99","name":"Hlavní nádraží","arrival_time":"14:55:00","departure_time":"15:00:00","lat":49.19035,"lon":16.612342,"is_passed":false},{"stop_id":"U1809Z10","name":"Židenice, nádraží","arrival_time":"15:04:00","departure_time":"15:05:00","lat":49.204282,"lon":16.636042,"is_passed":false},{"stop_id":"U12158Z10","name":"Bílovice nad Svitavou, žel. stanice","arrival_time":"15:10:00","departure_time":"15:11:00","lat":49.242715,"lon":16.673677,"is_passed":false},{"stop_id":"U22101Z1","name":"Babice nad Svitavou","arrival_time":"15:15:00","departure_time":"15:15:00","lat":49.276645,"lon":16.673012,"is_passed":false},{"stop_id":"U12230Z10","name":"Adamov, železniční stanice","arrival_time":"15:18:00","departure_time":"15:19:00","lat":49.295341,"lon":16.663538,"is_passed":false},{"stop_id":"U12231Z10","name":"Adamov, železniční zastávka","arrival_time":"15:20:00","departure_time":"15:21:00","lat":49.300671,"lon":16.650653,"is_passed":false},{"stop_id":"U12342Z30","name":"Blansko, aut. st.","arrival_time":"15:26:00","departure_time":"15:28:00","lat":49.352753,"lon":16.646848,"is_passed":false},{"stop_id":"U22302Z1","name":"Blansko město","arrival_time":"15:30:00","departure_time":"15:31:00","lat":49.360996,"lon":16.639464,"is_passed":false},{"stop_id":"U22301Z1","name":"Dolní Lhota","arrival_time":"15:33:00","departure_time":"15:34:00","lat":49.386917,"lon":16.633978,"is_passed":false},{"stop_id":"U12439Z50","name":"Rájec-Jestřebí, železniční stanice","arrival_time":"15:36:00","departure_time":"15:37:00","lat":49.408206,"lon":16.627711,"is_passed":false},{"stop_id":"U12511Z50","name":"Doubravice, žel.st.","arrival_time":"15:40:00","departure_time":"15:40:00","lat":49.438707,"lon":16.621809,"is_passed":false},{"stop_id":"U12676Z50","name":"Skalice nad Svitavou, žel.st.","arrival_time":"15:45:00","departure_time":"15:51:00","lat":49.480123,"lon":16.609726,"is_passed":false},{"stop_id":"U22602Z1","name":"Svitávka","arrival_time":"15:53:00","departure_time":"15:54:00","lat":49.499434,"lon":16.599208,"is_passed":false},{"stop_id":"U22701Z1","name":"Zboněk","arrival_time":"15:56:00","departure_time":"15:56:00","lat":49.521608,"lon":16.583438,"is_passed":false},{"stop_id":"U22702Z1","name":"Letovice zastávka","arrival_time":"15:59:00","departure_time":"15:59:00","lat":49.535496,"lon":16.576998,"is_passed":false},{"stop_id":"U12736Z50","name":"Letovice, železniční stanice","arrival_time":"16:02:00","departure_time":"17:57:00","lat":49.555973,"lon":16.570906,"is_passed":false}],"5700":[{"stop_id":"U15130Z1","name":"Modřice, Olympia","arrival_time":"5:17:00","departure_time":"5:17:00","lat":49.139278,"lon":16.634036,"is_passed":false},{"stop_id":"U15132Z2","name":"Modřice, Olympia jih","arrival_time":"5:18:00","departure_time":"5:18:00","lat":49.135069,"lon":16.633864,"is_passed":false},{"stop_id":"U15124Z2","name":"Modřice, Drůbežářské závody","arrival_time":"5:19:00","departure_time":"5:19:00","lat":49.13409,"lon":16.631493,"is_passed":false},{"stop_id":"U15129Z2","name":"Modřice, náměstí","arrival_time":"5:21:00","departure_time":"5:21:00","lat":49.127756,"lon":16.616081,"is_passed":false},{"stop_id":"U15127Z2","name":"Modřice, Masarykova","arrival_time":"5:23:00","departure_time":"5:23:00","lat":49.131296,"lon":16.614624,"is_passed":false},{"stop_id":"U15126Z1","name":"Modřice, Husova","arrival_time":"5:24:00","departure_time":"5:24:00","lat":49.132247,"lon":16.61201,"is_passed":false},{"stop_id":"U15140Z4","name":"Modřice, železniční stanice","arrival_time":"5:26:00","departure_time":"5:26:00","lat":49.133918,"lon":16.606723,"is_passed":false},{"stop_id":"U15134Z2","name":"Modřice, smyčka","arrival_time":"5:31:00","departure_time":"5:31:00","lat":49.126517,"lon":16.604633,"is_passed":false},{"stop_id":"U15137Z4","name":"Modřice, Tyršova","arrival_time":"5:32:00","departure_time":"5:32:00","lat":49.129402,"lon":16.603203,"is_passed":false},{"stop_id":"U15121Z1","name":"Želešice, na kopci","arrival_time":"5:35:00","departure_time":"5:35:00","lat":49.118092,"lon":16.59048,"is_passed":false},{"stop_id":"U15120Z1","name":"Želešice, hostinec","arrival_time":"5:36:00","departure_time":"5:36:00","lat":49.1169,"lon":16.581776,"is_passed":false},{"stop_id":"U15180Z1","name":"Želešice, u Sulzrů","arrival_time":"5:37:00","departure_time":"5:37:00","lat":49.11668,"lon":16.577048,"is_passed":false},{"stop_id":"U15162Z1","name":"Želešice, u dálnice","arrival_time":"5:38:00","departure_time":"5:38:00","lat":49.115165,"lon":16.56894,"is_passed":false},{"stop_id":"U15101Z1","name":"Hajany","arrival_time":"5:40:00","departure_time":"5:40:00","lat":49.110681,"lon":16.55513,"is_passed":false},{"stop_id":"U14206Z1","name":"Ořechov, tábor","arrival_time":"5:42:00","departure_time":"5:42:00","lat":49.110213,"lon":16.539938,"is_passed":false},{"stop_id":"U14207Z1","name":"Ořechov, zdravotní středisko","arrival_time":"5:43:00","departure_time":"5:43:00","lat":49.110487,"lon":16.526989,"is_passed":false},{"stop_id":"U14204Z1","name":"Ořechov, obecní úřad","arrival_time":"5:45:00","departure_time":"5:45:00","lat":49.111535,"lon":16.518505,"is_passed":false},{"stop_id":"U14201Z1","name":"Ořechov, Jeřábkova","arrival_time":"5:47:00","departure_time":"5:47:00","lat":49.108887,"lon":16.512248,"is_passed":false},{"stop_id":"U14203Z1","name":"Ořechov, kravín","arrival_time":"5:48:00","departure_time":"5:48:00","lat":49.108683,"lon":16.49674,"is_passed":false},{"stop_id":"U14210Z1","name":"Silůvky","arrival_time":"5:51:00","departure_time":"5:51:00","lat":49.105977,"lon":16.468112,"is_passed":false},{"stop_id":"U14208Z1","name":"Prštice, rozcestí Hlína","arrival_time":"5:53:00","departure_time":"5:53:00","lat":49.113498,"lon":16.46853,"is_passed":false},{"stop_id":"U14209Z1","name":"Prštice, u zámku","arrival_time":"5:54:00","departure_time":"5:54:00","lat":49.117985,"lon":16.473368,"is_passed":false},{"stop_id":"U14213Z2","name":"Radostice, kostel","arrival_time":"5:59:00","departure_time":"6:09:00","lat":49.131522,"lon":16.477831,"is_passed":false}],"5701":[{"stop_id":"U14213Z2","name":"Radostice, kostel","arrival_time":"6:09:00","departure_time":"6:09:00","lat":49.131522,"lon":16.477831,"is_passed":false},{"stop_id":"U14212Z2","name":"Radostice, Mlýnská silnice","arrival_time":"6:10:00","departure_time":"6:10:00","lat":49.135667,"lon":16.474973,"is_passed":false},{"stop_id":"U14211Z2","name":"Radostice, koupaliště","arrival_time":"6:11:00","departure_time":"6:11:00","lat":49.138172,"lon":16.467963,"is_passed":false},{"stop_id":"U14214Z2","name":"Radostice, u Žemličků","arrival_time":"6:12:00","departure_time":"6:12:00","lat":49.143695,"lon":16.467485,"is_passed":false},{"stop_id":"U14122Z2","name":"Střelice, rozcestí Radostice","arrival_time":"6:13:00","departure_time":"6:13:00","lat":49.150502,"lon":16.46454,"is_passed":false},{"stop_id":"U14138Z2","name":"Střelice, Zámeček","arrival_time":"6:14:00","departure_time":"6:14:00","lat":49.151717,"lon":16.470265,"is_passed":false},{"stop_id":"U14124Z2","name":"Střelice, Vršovice","arrival_time":"6:16:00","departure_time":"6:16:00","lat":49.153397,"lon":16.480075,"is_passed":false},{"stop_id":"U14120Z2","name":"Střelice, nákupní středisko","arrival_time":"6:18:00","departure_time":"6:18:00","lat":49.152702,"lon":16.494152,"is_passed":false},{"stop_id":"U14121Z2","name":"Střelice, obecní úřad","arrival_time":"6:20:00","departure_time":"6:20:00","lat":49.152613,"lon":16.502885,"is_passed":false},{"stop_id":"U14119Z2","name":"Střelice, dolní železniční stanice","arrival_time":"6:21:00","departure_time":"6:21:00","lat":49.156018,"lon":16.50473,"is_passed":false},{"stop_id":"U14109Z3","name":"Troubsko, obecní úřad","arrival_time":"6:24:00","departure_time":"6:24:00","lat":49.170364,"lon":16.505743,"is_passed":false},{"stop_id":"U14106Z2","name":"Troubsko, kaplička","arrival_time":"6:25:00","departure_time":"6:25:00","lat":49.168923,"lon":16.511588,"is_passed":false},{"stop_id":"U14126Z4","name":"Troubsko, Nová","arrival_time":"6:26:00","departure_time":"6:26:00","lat":49.166839,"lon":16.518385,"is_passed":false},{"stop_id":"U1516Z1","name":"Pražská","arrival_time":"6:28:00","departure_time":"6:28:00","lat":49.173478,"lon":16.531543,"is_passed":false},{"stop_id":"U1568Z2","name":"Skalní","arrival_time":"6:29:00","departure_time":"6:29:00","lat":49.174201,"lon":16.537903,"is_passed":false},{"stop_id":"U1202Z2","name":"Jemelkova","arrival_time":"6:30:00","departure_time":"6:30:00","lat":49.173163,"lon":16.54872,"is_passed":false},{"stop_id":"U1632Z2","name":"Svážná","arrival_time":"6:31:00","departure_time":"6:31:00","lat":49.173409,"lon":16.553508,"is_passed":false},{"stop_id":"U1429Z7","name":"Nemocnice Bohunice","arrival_time":"6:34:00","departure_time":"6:34:00","lat":49.176176,"lon":16.567045,"is_passed":false}],"5702":[{"stop_id":"U1429Z5","name":"Nemocnice Bohunice","arrival_time":"6:43:00","departure_time":"6:43:00","lat":49.175206,"lon":16.56694,"is_passed":false},{"stop_id":"U1492Z2","name":"Pod nemocnicí","arrival_time":"6:45:00","departure_time":"6:45:00","lat":49.172338,"lon":16.569417,"is_passed":false},{"stop_id":"U1472Z8","name":"Osová","arrival_time":"6:47:00","departure_time":"6:47:00","lat":49.168617,"lon":16.566306,"is_passed":false},{"stop_id":"U1273Z2","name":"Kosmonautů","arrival_time":"6:47:00","departure_time":"6:47:00","lat":49.167124,"lon":16.56745,"is_passed":false},{"stop_id":"U1627Z1","name":"Svah","arrival_time":"6:48:00","departure_time":"6:48:00","lat":49.165199,"lon":16.567969,"is_passed":false},{"stop_id":"U1061Z1","name":"Čermákova","arrival_time":"6:48:00","departure_time":"6:48:00","lat":49.164336,"lon":16.565516,"is_passed":false},{"stop_id":"U1666Z1","name":"Točná","arrival_time":"6:49:00","departure_time":"6:49:00","lat":49.16476,"lon":16.561692,"is_passed":false},{"stop_id":"U1488Z1","name":"Pod dálnicí","arrival_time":"6:50:00","departure_time":"6:50:00","lat":49.163512,"lon":16.555152,"is_passed":false},{"stop_id":"U14101Z1","name":"Ostopovice, Branky","arrival_time":"6:51:00","departure_time":"6:51:00","lat":49.159937,"lon":16.548801,"is_passed":false},{"stop_id":"U14103Z1","name":"Ostopovice, U Kaple","arrival_time":"6:52:00","departure_time":"6:52:00","lat":49.161083,"lon":16.545743,"is_passed":false},{"stop_id":"U14104Z1","name":"Ostopovice, rozcestí","arrival_time":"6:52:00","departure_time":"6:52:00","lat":49.163046,"lon":16.542924,"is_passed":false},{"stop_id":"U14105Z2","name":"Ostopovice, smyčka","arrival_time":"6:53:00","departure_time":"6:53:00","lat":49.164301,"lon":16.540971,"is_passed":false},{"stop_id":"U15114Z2","name":"Moravany, Hlavní","arrival_time":"6:59:00","departure_time":"6:59:00","lat":49.147097,"lon":16.578552,"is_passed":false},{"stop_id":"U15113Z2","name":"Moravany, Bohunická cesta","arrival_time":"7:00:00","departure_time":"7:00:00","lat":49.151006,"lon":16.583777,"is_passed":false},{"stop_id":"U1549Z2","name":"Rozhraní","arrival_time":"7:01:00","departure_time":"7:01:00","lat":49.155698,"lon":16.592118,"is_passed":false},{"stop_id":"U1466Z55","name":"Ořechovská","arrival_time":"7:03:00","departure_time":"7:03:00","lat":49.156238,"lon":16.599375,"is_passed":false},{"stop_id":"U1141Z2","name":"Heršpická","arrival_time":"7:06:00","departure_time":"7:06:00","lat":49.170473,"lon":16.599896,"is_passed":false},{"stop_id":"U1703Z5","name":"Ústřední hřbitov","arrival_time":"7:10:00","departure_time":"7:10:00","lat":49.171604,"lon":16.597316,"is_passed":false}],"5703":[{"stop_id":"U1703Z6","name":"Ústřední hřbitov","arrival_time":"7:12:00","departure_time":"7:12:00","lat":49.170744,"lon":16.597612,"is_passed":false},{"stop_id":"U1466Z5","name":"Ořechovská","arrival_time":"7:15:00","departure_time":"7:15:00","lat":49.156238,"lon":16.599375,"is_passed":false},{"stop_id":"U1549Z1","name":"Rozhraní","arrival_time":"7:16:00","departure_time":"7:16:00","lat":49.155854,"lon":16.592288,"is_passed":false},{"stop_id":"U15113Z1","name":"Moravany, Bohunická cesta","arrival_time":"7:17:00","departure_time":"7:17:00","lat":49.15089,"lon":16.583503,"is_passed":false},{"stop_id":"U15114Z1","name":"Moravany, Hlavní","arrival_time":"7:18:00","departure_time":"7:18:00","lat":49.147228,"lon":16.578896,"is_passed":false},{"stop_id":"U15115Z1","name":"Moravany, Nebovidská","arrival_time":"7:19:00","departure_time":"7:19:00","lat":49.147983,"lon":16.569237,"is_passed":false},{"stop_id":"U15118Z1","name":"Nebovidy, u kostela","arrival_time":"7:21:00","departure_time":"7:21:00","lat":49.141636,"lon":16.553667,"is_passed":false},{"stop_id":"U15116Z1","name":"Nebovidy, dolní konec","arrival_time":"7:22:00","departure_time":"7:24:00","lat":49.142128,"lon":16.549075,"is_passed":false}],"5704":[{"stop_id":"U15116Z2","name":"Nebovidy, dolní konec","arrival_time":"7:24:00","departure_time":"7:24:00","lat":49.141953,"lon":16.54915,"is_passed":false},{"stop_id":"U15118Z2","name":"Nebovidy, u kostela","arrival_time":"7:25:00","departure_time":"7:25:00","lat":49.141783,"lon":16.554006,"is_passed":false},{"stop_id":"U15114Z2","name":"Moravany, Hlavní","arrival_time":"7:29:00","departure_time":"7:29:00","lat":49.147097,"lon":16.578552,"is_passed":false},{"stop_id":"U15113Z2","name":"Moravany, Bohunická cesta","arrival_time":"7:30:00","departure_time":"7:30:00","lat":49.151006,"lon":16.583777,"is_passed":false},{"stop_id":"U1549Z2","name":"Rozhraní","arrival_time":"7:31:00","departure_time":"7:31:00","lat":49.155698,"lon":16.592118,"is_passed":false},{"stop_id":"U1466Z55","name":"Ořechovská","arrival_time":"7:33:00","departure_time":"7:33:00","lat":49.156238,"lon":16.599375,"is_passed":false},{"stop_id":"U1141Z2","name":"Heršpická","arrival_time":"7:36:00","departure_time":"7:36:00","lat":49.170473,"lon":16.599896,"is_passed":false},{"stop_id":"U1703Z5","name":"Ústřední hřbitov","arrival_time":"7:40:00","departure_time":"7:42:00","lat":49.171604,"lon":16.597316,"is_passed":false}],"5705":[{"stop_id":"U1703Z6","name":"Ústřední hřbitov","arrival_time":"7:42:00","departure_time":"7:42:00","lat":49.170744,"lon":16.597612,"is_passed":false},{"stop_id":"U1466Z5","name":"Ořechovská","arrival_time":"7:45:00","departure_time":"7:45:00","lat":49.156238,"lon":16.599375,"is_passed":false},{"stop_id":"U1549Z1","name":"Rozhraní","arrival_time":"7:46:00","departure_time":"7:46:00","lat":49.155854,"lon":16.592288,"is_passed":false},{"stop_id":"U15113Z1","name":"Moravany, Bohunická cesta","arrival_time":"7:47:00","departure_time":"7:47:00","lat":49.15089,"lon":16.583503,"is_passed":false},{"stop_id":"U15114Z1","name":"Moravany, Hlavní","arrival_time":"7:48:00","departure_time":"7:48:00","lat":49.147228,"lon":16.578896,"is_passed":false},{"stop_id":"U15115Z1","name":"Moravany, Nebovidská","arrival_time":"7:49:00","departure_time":"7:49:00","lat":49.147983,"lon":16.569237,"is_passed":false},{"stop_id":"U15118Z1","name":"Nebovidy, u kostela","arrival_time":"7:51:00","departure_time":"7:51:00","lat":49.141636,"lon":16.553667,"is_passed":false},{"stop_id":"U15116Z1","name":"Nebovidy, dolní konec","arrival_time":"7:52:00","departure_time":"8:04:00","lat":49.142128,"lon":16.549075,"is_passed":false}],"5706":[{"stop_id":"U15116Z2","name":"Nebovidy, dolní konec","arrival_time":"8:04:00","departure_time":"8:04:00","lat":49.141953,"lon":16.54915,"is_passed":false},{"stop_id":"U15118Z2","name":"Nebovidy, u kostela","arrival_time":"8:05:00","departure_time":"8:05:00","lat":49.141783,"lon":16.554006,"is_passed":false},{"stop_id":"U15114Z2","name":"Moravany, Hlavní","arrival_time":"8:09:00","departure_time":"8:09:00","lat":49.147097,"lon":16.578552,"is_passed":false},{"stop_id":"U15113Z2","name":"Moravany, Bohunická cesta","arrival_time":"8:10:00","departure_time":"8:10:00","lat":49.151006,"lon":16.583777,"is_passed":false},{"stop_id":"U1549Z2","name":"Rozhraní","arrival_time":"8:11:00","departure_time":"8:11:00","lat":49.155698,"lon":16.592118,"is_passed":false},{"stop_id":"U1466Z55","name":"Ořechovská","arrival_time":"8:13:00","departure_time":"8:13:00","lat":49.156238,"lon":16.599375,"is_passed":false},{"stop_id":"U1141Z2","name":"Heršpická","arrival_time":"8:16:00","departure_time":"8:16:00","lat":49.170473,"lon":16.599896,"is_passed":false},{"stop_id":"U1703Z5","name":"Ústřední hřbitov","arrival_time":"8:20:00","departure_time":"11:12:00","lat":49.171604,"lon":16.597316,"is_passed":false}],"5707":[{"stop_id":"U1703Z6","name":"Ústřední hřbitov","arrival_time":"11:12:00","departure_time":"11:12:00","lat":49.170744,"lon":16.597612,"is_passed":false},{"stop_id":"U1466Z5","name":"Ořechovská","arrival_time":"11:15:00","departure_time":"11:15:00","lat":49.156238,"lon":16.599375,"is_passed":false},{"stop_id":"U1549Z1","name":"Rozhraní","arrival_time":"11:16:00","departure_time":"11:16:00","lat":49.155854,"lon":16.592288,"is_passed":false},{"stop_id":"U15113Z1","name":"Moravany, Bohunická cesta","arrival_time":"11:17:00","departure_time":"11:17:00","lat":49.15089,"lon":16.583503,"is_passed":false},{"stop_id":"U15114Z1","name":"Moravany, Hlavní","arrival_time":"11:18:00","departure_time":"11:18:00","lat":49.147228,"lon":16.578896,"is_passed":false},{"stop_id":"U15115Z1","name":"Moravany, Nebovidská","arrival_time":"11:19:00","departure_time":"11:19:00","lat":49.147983,"lon":16.569237,"is_passed":false},{"stop_id":"U15118Z1","name":"Nebovidy, u kostela","arrival_time":"11:21:00","departure_time":"11:21:00","lat":49.141636,"lon":16.553667,"is_passed":false},{"stop_id":"U15116Z1","name":"Nebovidy, dolní konec","arrival_time":"11:22:00","departure_time":"11:34:00","lat":49.142128,"lon":16.549075,"is_passed":false}],"5708":[{"stop_id":"U15116Z2","name":"Nebovidy, dolní konec","arrival_time":"11:34:00","departure_time":"11:34:00","lat":49.141953,"lon":16.54915,"is_passed":false},{"stop_id":"U15118Z2","name":"Nebovidy, u kostela","arrival_time":"11:35:00","departure_time":"11:35:00","lat":49.141783,"lon":16.554006,"is_passed":false},{"stop_id":"U15114Z2","name":"Moravany, Hlavní","arrival_time":"11:39:00","departure_time":"11:39:00","lat":49.147097,"lon":16.578552,"is_passed":false},{"stop_id":"U15113Z2","name":"Moravany, Bohunická cesta","arrival_time":"11:40:00","departure_time":"11:40:00","lat":49.151006,"lon":16.583777,"is_passed":false},{"stop_id":"U1549Z2","name":"Rozhraní","arrival_time":"11:41:00","departure_time":"11:41:00","lat":49.155698,"lon":16.592118,"is_passed":false},{"stop_id":"U1466Z55","name":"Ořechovská","arrival_time":"11:43:00","departure_time":"11:43:00","lat":49.156238,"lon":16.599375,"is_passed":false},{"stop_id":"U1141Z2","name":"Heršpická","arrival_time":"11:46:00","departure_time":"11:46:00","lat":49.170473,"lon":16.599896,"is_passed":false},{"stop_id":"U1703Z5","name":"Ústřední hřbitov","arrival_time":"11:50:00","departure_time":"13:37:00","lat":49.171604,"lon":16.597316,"is_passed":false}],"5709":[{"stop_id":"U1703Z6","name":"Ústřední hřbitov","arrival_time":"13:37:00","departure_time":"13:37:00","lat":49.170744,"lon":16.597612,"is_passed":false},{"stop_id":"U1466Z5","name":"Ořechovská","arrival_time":"13:40:00","departure_time":"13:40:00","lat":49.156238,"lon":16.599375,"is_passed":false},{"stop_id":"U1549Z1","name":"Rozhraní","arrival_time":"13:41:00","departure_time":"13:41:00","lat":49.155854,"lon":16.592288,"is_passed":false},{"stop_id":"U15113Z1","name":"Moravany, Bohunická cesta","arrival_time":"13:42:00","departure_time":"13:42:00","lat":49.15089,"lon":16.583503,"is_passed":false},{"stop_id":"U15114Z1","name":"Moravany, Hlavní","arrival_time":"13:43:00","departure_time":"13:43:00","lat":49.147228,"lon":16.578896,"is_passed":false},{"stop_id":"U15115Z1","name":"Moravany, Nebovidská","arrival_time":"13:44:00","departure_time":"13:44:00","lat":49.147983,"lon":16.569237,"is_passed":false},{"stop_id":"U15118Z1","name":"Nebovidy, u kostela","arrival_time":"13:46:00","departure_time":"13:46:00","lat":49.141636,"lon":16.553667,"is_passed":false},{"stop_id":"U15116Z1","name":"Nebovidy, dolní konec","arrival_time":"13:47:00","departure_time":"13:47:00","lat":49.142128,"lon":16.549075,"is_passed":false},{"stop_id":"U15117Z1","name":"Nebovidy, rozcestí Střelice","arrival_time":"13:49:00","departure_time":"13:49:00","lat":49.144946,"lon":16.530984,"is_passed":false},{"stop_id":"U15119Z1","name":"Nebovidy, Závist","arrival_time":"13:51:00","departure_time":"13:51:00","lat":49.13415,"lon":16.529119,"is_passed":false},{"stop_id":"U14202Z1","name":"Ořechov, Kerendov","arrival_time":"13:54:00","departure_time":"13:54:00","lat":49.117361,"lon":16.525717,"is_passed":false},{"stop_id":"U14205Z1","name":"Ořechov, orlovna","arrival_time":"13:55:00","departure_time":"13:55:00","lat":49.111073,"lon":16.526063,"is_passed":false},{"stop_id":"U14204Z1","name":"Ořechov, obecní úřad","arrival_time":"13:56:00","departure_time":"13:56:00","lat":49.111535,"lon":16.518505,"is_passed":false},{"stop_id":"U14201Z3","name":"Ořechov, Jeřábkova","arrival_time":"13:57:00","departure_time":"14:17:00","lat":49.108927,"lon":16.512613,"is_passed":false}],"57000":[{"stop_id":"U1073Z6","name":"Česká","arrival_time":"17:12:00","departure_time":"17:12:00","lat":49.198291,"lon":16.605232,"is_passed":false},{"stop_id":"U1587Z1","name":"Smetanova","arrival_time":"17:14:00","departure_time":"17:14:00","lat":49.201909,"lon":16.601644,"is_passed":false},{"stop_id":"U1626Z1","name":"Sušilova","arrival_time":"17:15:00","departure_time":"17:15:00","lat":49.204346,"lon":16.598828,"is_passed":false},{"stop_id":"U1785Z1","name":"Zemská knihovna","arrival_time":"17:17:00","departure_time":"17:17:00","lat":49.208934,"lon":16.594822,"is_passed":false},{"stop_id":"U1242Z1","name":"Klusáčkova","arrival_time":"17:18:00","departure_time":"17:18:00","lat":49.212365,"lon":16.592666,"is_passed":false},{"stop_id":"U1601Z1","name":"Spojovací","arrival_time":"17:21:00","departure_time":"17:21:00","lat":49.212099,"lon":16.586305,"is_passed":false},{"stop_id":"U1206Z1","name":"Jindřichova","arrival_time":"17:22:00","departure_time":"17:22:00","lat":49.21326,"lon":16.582924,"is_passed":false},{"stop_id":"U1426Z1","name":"Náměstí Svornosti","arrival_time":"17:23:00","departure_time":"17:23:00","lat":49.215585,"lon":16.582,"is_passed":false},{"stop_id":"U1352Z1","name":"Makovského náměstí","arrival_time":"17:24:00","departure_time":"17:24:00","lat":49.217922,"lon":16.576761,"is_passed":false},{"stop_id":"U1528Z5","name":"Přívrat","arrival_time":"17:25:00","departure_time":"17:25:00","lat":49.218247,"lon":16.574102,"is_passed":false},{"stop_id":"U1766Z1","name":"Vychodilova","arrival_time":"17:27:00","departure_time":"17:39:00","lat":49.220431,"lon":16.571764,"is_passed":false}],"57001":[{"stop_id":"U1766Z2","name":"Vychodilova","arrival_time":"17:39:00","departure_time":"17:39:00","lat":49.220204,"lon":16.571445,"is_passed":false},{"stop_id":"U1528Z6","name":"Přívrat","arrival_time":"17:41:00","departure_time":"17:41:00","lat":49.218109,"lon":16.574404,"is_passed":false},{"stop_id":"U1352Z2","name":"Makovského náměstí","arrival_time":"17:41:00","departure_time":"17:41:00","lat":49.217881,"lon":16.576657,"is_passed":false},{"stop_id":"U1426Z2","name":"Náměstí Svornosti","arrival_time":"17:43:00","departure_time":"17:43:00","lat":49.215179,"lon":16.58299,"is_passed":false},{"stop_id":"U1206Z2","name":"Jindřichova","arrival_time":"17:44:00","departure_time":"17:44:00","lat":49.213132,"lon":16.583163,"is_passed":false},{"stop_id":"U1601Z2","name":"Spojovací","arrival_time":"17:45:00","departure_time":"17:45:00","lat":49.211772,"lon":16.58703,"is_passed":false},{"stop_id":"U1242Z2","name":"Klusáčkova","arrival_time":"17:47:00","departure_time":"17:47:00","lat":49.211903,"lon":16.592875,"is_passed":false},{"stop_id":"U1785Z2","name":"Zemská knihovna","arrival_time":"17:48:00","departure_time":"17:48:00","lat":49.208799,"lon":16.594624,"is_passed":false},{"stop_id":"U1626Z2","name":"Sušilova","arrival_time":"17:50:00","departure_time":"17:50:00","lat":49.204397,"lon":16.598621,"is_passed":false},{"stop_id":"U1587Z2","name":"Smetanova","arrival_time":"17:51:00","departure_time":"17:51:00","lat":49.201271,"lon":16.602293,"is_passed":false},{"stop_id":"U1073Z7","name":"Česká","arrival_time":"17:54:00","departure_time":"17:57:00","lat":49.198331,"lon":16.605663,"is_passed":false}],"57002":[{"stop_id":"U1073Z6","name":"Česká","arrival_time":"17:57:00","departure_time":"17:57:00","lat":49.198291,"lon":16.605232,"is_passed":false},{"stop_id":"U1587Z1","name":"Smetanova","arrival_time":"17:59:00","departure_time":"17:59:00","lat":49.201909,"lon":16.601644,"is_passed":false},{"stop_id":"U1626Z1","name":"Sušilova","arrival_time":"18:00:00","departure_time":"18:00:00","lat":49.204346,"lon":16.598828,"is_passed":false},{"stop_id":"U1785Z1","name":"Zemská knihovna","arrival_time":"18:02:00","departure_time":"18:02:00","lat":49.208934,"lon":16.594822,"is_passed":false},{"stop_id":"U1242Z1","name":"Klusáčkova","arrival_time":"18:03:00","departure_time":"18:03:00","lat":49.212365,"lon":16.592666,"is_passed":false},{"stop_id":"U1601Z1","name":"Spojovací","arrival_time":"18:06:00","departure_time":"18:06:00","lat":49.212099,"lon":16.586305,"is_passed":false},{"stop_id":"U1206Z1","name":"Jindřichova","arrival_time":"18:07:00","departure_time":"18:07:00","lat":49.21326,"lon":16.582924,"is_passed":false},{"stop_id":"U1426Z1","name":"Náměstí Svornosti","arrival_time":"18:08:00","departure_time":"18:08:00","lat":49.215585,"lon":16.582,"is_passed":false},{"stop_id":"U1352Z1","name":"Makovského náměstí","arrival_time":"18:09:00","departure_time":"18:09:00","lat":49.217922,"lon":16.576761,"is_passed":false},{"stop_id":"U1528Z5","name":"Přívrat","arrival_time":"18:10:00","departure_time":"18:10:00","lat":49.218247,"lon":16.574102,"is_passed":false},{"stop_id":"U1766Z1","name":"Vychodilova","arrival_time":"18:12:00","departure_time":"18:37:00","lat":49.220431,"lon":16.571764,"is_passed":false}],"57003":[{"stop_id":"U1766Z2","name":"Vychodilova","arrival_time":"18:37:00","departure_time":"18:37:00","lat":49.220204,"lon":16.571445,"is_passed":false},{"stop_id":"U1528Z6","name":"Přívrat","arrival_time":"18:39:00","departure_time":"18:39:00","lat":49.218109,"lon":16.574404,"is_passed":false},{"stop_id":"U1352Z2","name":"Makovského náměstí","arrival_time":"18:39:00","departure_time":"18:39:00","lat":49.217881,"lon":16.576657,"is_passed":false},{"stop_id":"U1426Z2","name":"Náměstí Svornosti","arrival_time":"18:41:00","departure_time":"18:41:00","lat":49.215179,"lon":16.58299,"is_passed":false},{"stop_id":"U1206Z2","name":"Jindřichova","arrival_time":"18:42:00","departure_time":"18:42:00","lat":49.213132,"lon":16.583163,"is_passed":false},{"stop_id":"U1601Z2","name":"Spojovací","arrival_time":"18:43:00","departure_time":"18:43:00","lat":49.211772,"lon":16.58703,"is_passed":false},{"stop_id":"U1242Z2","name":"Klusáčkova","arrival_time":"18:45:00","departure_time":"18:45:00","lat":49.211903,"lon":16.592875,"is_passed":false},{"stop_id":"U1785Z2","name":"Zemská knihovna","arrival_time":"18:46:00","departure_time":"18:46:00","lat":49.208799,"lon":16.594624,"is_passed":false},{"stop_id":"U1626Z2","name":"Sušilova","arrival_time":"18:48:00","departure_time":"18:48:00","lat":49.204397,"lon":16.598621,"is_passed":false},{"stop_id":"U1587Z2","name":"Smetanova","arrival_time":"18:49:00","departure_time":"18:49:00","lat":49.201271,"lon":16.602293,"is_passed":false},{"stop_id":"U1073Z7","name":"Česká","arrival_time":"18:51:00","departure_time":"18:53:00","lat":49.198331,"lon":16.605663,"is_passed":false}],"57004":[{"stop_id":"U1073Z6","name":"Česká","arrival_time":"18:53:00","departure_time":"18:53:00","lat":49.198291,"lon":16.605232,"is_passed":false},{"stop_id":"U1587Z1","name":"Smetanova","arrival_time":"18:55:00","departure_time":"18:55:00","lat":49.201909,"lon":16.601644,"is_passed":false},{"stop_id":"U1626Z1","name":"Sušilova","arrival_time":"18:56:00","departure_time":"18:56:00","lat":49.204346,"lon":16.598828,"is_passed":false},{"stop_id":"U1785Z1","name":"Zemská knihovna","arrival_time":"18:57:00","departure_time":"18:57:00","lat":49.208934,"lon":16.594822,"is_passed":false},{"stop_id":"U1242Z1","name":"Klusáčkova","arrival_time":"18:58:00","departure_time":"18:58:00","lat":49.212365,"lon":16.592666,"is_passed":false},{"stop_id":"U1601Z1","name":"Spojovací","arrival_time":"19:01:00","departure_time":"19:01:00","lat":49.212099,"lon":16.586305,"is_passed":false},{"stop_id":"U1206Z1","name":"Jindřichova","arrival_time":"19:02:00","departure_time":"19:02:00","lat":49.21326,"lon":16.582924,"is_passed":false},{"stop_id":"U1426Z1","name":"Náměstí Svornosti","arrival_time":"19:03:00","departure_time":"19:03:00","lat":49.215585,"lon":16.582,"is_passed":false},{"stop_id":"U1352Z1","name":"Makovského náměstí","arrival_time":"19:04:00","departure_time":"19:04:00","lat":49.217922,"lon":16.576761,"is_passed":false},{"stop_id":"U1528Z5","name":"Přívrat","arrival_time":"19:05:00","departure_time":"19:05:00","lat":49.218247,"lon":16.574102,"is_passed":false},{"stop_id":"U1766Z1","name":"Vychodilova","arrival_time":"19:07:00","departure_time":"19:17:00","lat":49.220431,"lon":16.571764,"is_passed":false}],"57005":[{"stop_id":"U1766Z2","name":"Vychodilova","arrival_time":"19:17:00","departure_time":"19:17:00","lat":49.220204,"lon":16.571445,"is_passed":false},{"stop_id":"U1528Z6","name":"Přívrat","arrival_time":"19:19:00","departure_time":"19:19:00","lat":49.218109,"lon":16.574404,"is_passed":false},{"stop_id":"U1352Z2","name":"Makovského náměstí","arrival_time":"19:19:00","departure_time":"19:19:00","lat":49.217881,"lon":16.576657,"is_passed":false},{"stop_id":"U1426Z2","name":"Náměstí Svornosti","arrival_time":"19:21:00","departure_time":"19:21:00","lat":49.215179,"lon":16.58299,"is_passed":false},{"stop_id":"U1206Z2","name":"Jindřichova","arrival_time":"19:22:00","departure_time":"19:22:00","lat":49.213132,"lon":16.583163,"is_passed":false},{"stop_id":"U1601Z2","name":"Spojovací","arrival_time":"19:23:00","departure_time":"19:23:00","lat":49.211772,"lon":16.58703,"is_passed":false},{"stop_id":"U1242Z2","name":"Klusáčkova","arrival_time":"19:25:00","departure_time":"19:25:00","lat":49.211903,"lon":16.592875,"is_passed":false},{"stop_id":"U1785Z2","name":"Zemská knihovna","arrival_time":"19:26:00","departure_time":"19:26:00","lat":49.208799,"lon":16.594624,"is_passed":false},{"stop_id":"U1626Z2","name":"Sušilova","arrival_time":"19:28:00","departure_time":"19:28:00","lat":49.204397,"lon":16.598621,"is_passed":false},{"stop_id":"U1587Z2","name":"Smetanova","arrival_time":"19:29:00","departure_time":"19:29:00","lat":49.201271,"lon":16.602293,"is_passed":false},{"stop_id":"U1073Z7","name":"Česká","arrival_time":"19:31:00","departure_time":"19:36:00","lat":49.198331,"lon":16.605663,"is_passed":false}],"57006":[{"stop_id":"U1143Z2","name":"Hlavní","arrival_time":"4:42:00","departure_time":"4:42:00","lat":49.21715,"lon":16.560506,"is_passed":false},{"stop_id":"U1651Z2","name":"Štursova","arrival_time":"4:43:00","departure_time":"4:43:00","lat":49.215854,"lon":16.564522,"is_passed":false},{"stop_id":"U1758Z2","name":"Vrázova","arrival_time":"4:44:00","departure_time":"4:44:00","lat":49.216977,"lon":16.568646,"is_passed":false},{"stop_id":"U1528Z4","name":"Přívrat","arrival_time":"4:46:00","departure_time":"4:46:00","lat":49.218647,"lon":16.574085,"is_passed":false},{"stop_id":"U1777Z2","name":"Záhřebská","arrival_time":"4:47:00","departure_time":"4:47:00","lat":49.219845,"lon":16.580415,"is_passed":false},{"stop_id":"U1567Z6","name":"Skácelova","arrival_time":"4:49:00","departure_time":"4:49:00","lat":49.22163,"lon":16.585935,"is_passed":false},{"stop_id":"U1586Z4","name":"Slovanské náměstí","arrival_time":"4:50:00","departure_time":"4:50:00","lat":49.222774,"lon":16.591332,"is_passed":false},{"stop_id":"U1171Z3","name":"Husitská","arrival_time":"4:51:00","departure_time":"4:51:00","lat":49.223851,"lon":16.594116,"is_passed":false},{"stop_id":"U1566Z4","name":"Semilasso","arrival_time":"4:53:00","departure_time":"4:53:00","lat":49.228055,"lon":16.593438,"is_passed":false},{"stop_id":"U1286Z3","name":"Královo Pole, nádraží","arrival_time":"4:54:00","departure_time":"4:54:00","lat":49.229218,"lon":16.596271,"is_passed":false},{"stop_id":"U1388Z2","name":"Mojmírovo náměstí","arrival_time":"4:55:00","departure_time":"4:55:00","lat":49.226499,"lon":16.598423,"is_passed":false},{"stop_id":"U1150Z1","name":"Högrova","arrival_time":"4:57:00","departure_time":"4:57:00","lat":49.228296,"lon":16.604528,"is_passed":false},{"stop_id":"U1195Z1","name":"Jarmily Kurandové","arrival_time":"4:57:00","departure_time":"4:57:00","lat":49.230235,"lon":16.604438,"is_passed":false},{"stop_id":"U1399Z1","name":"Moskalykova","arrival_time":"4:58:00","departure_time":"4:58:00","lat":49.231252,"lon":16.607921,"is_passed":false},{"stop_id":"U1564Z1","name":"Sadová","arrival_time":"4:59:00","departure_time":"4:59:00","lat":49.234166,"lon":16.603978,"is_passed":false},{"stop_id":"U1130Z2","name":"Hamerláky","arrival_time":"5:00:00","departure_time":"5:00:00","lat":49.237225,"lon":16.60407,"is_passed":false},{"stop_id":"U1407Z1","name":"Myslivecký stadion","arrival_time":"5:01:00","departure_time":"5:01:00","lat":49.241317,"lon":16.609929,"is_passed":false},{"stop_id":"U1711Z1","name":"Útěchovská","arrival_time":"5:02:00","departure_time":"5:02:00","lat":49.2475,"lon":16.616402,"is_passed":false},{"stop_id":"U1091Z1","name":"Dohnalova","arrival_time":"5:03:00","departure_time":"5:03:00","lat":49.251124,"lon":16.618901,"is_passed":false},{"stop_id":"U1412Z1","name":"Na kovárně","arrival_time":"5:04:00","departure_time":"5:04:00","lat":49.253213,"lon":16.620275,"is_passed":false},{"stop_id":"U1548Z1","name":"Rozárka","arrival_time":"5:05:00","departure_time":"5:05:00","lat":49.254486,"lon":16.622791,"is_passed":false},{"stop_id":"U1235Z3","name":"Klarisky","arrival_time":"5:07:00","departure_time":"5:11:00","lat":49.256942,"lon":16.622725,"is_passed":false}],"57007":[{"stop_id":"U1235Z4","name":"Klarisky","arrival_time":"5:11:00","departure_time":"5:11:00","lat":49.257063,"lon":16.622604,"is_passed":false},{"stop_id":"U1412Z2","name":"Na kovárně","arrival_time":"5:12:00","departure_time":"5:12:00","lat":49.254426,"lon":16.620777,"is_passed":false},{"stop_id":"U1091Z2","name":"Dohnalova","arrival_time":"5:13:00","departure_time":"5:13:00","lat":49.249657,"lon":16.617775,"is_passed":false},{"stop_id":"U1711Z2","name":"Útěchovská","arrival_time":"5:14:00","departure_time":"5:14:00","lat":49.246974,"lon":16.61581,"is_passed":false},{"stop_id":"U1407Z2","name":"Myslivecký stadion","arrival_time":"5:15:00","departure_time":"5:15:00","lat":49.241075,"lon":16.609359,"is_passed":false},{"stop_id":"U1130Z1","name":"Hamerláky","arrival_time":"5:16:00","departure_time":"5:16:00","lat":49.237082,"lon":16.603873,"is_passed":false},{"stop_id":"U1564Z2","name":"Sadová","arrival_time":"5:17:00","departure_time":"5:17:00","lat":49.233904,"lon":16.604679,"is_passed":false},{"stop_id":"U1399Z2","name":"Moskalykova","arrival_time":"5:18:00","departure_time":"5:18:00","lat":49.23163,"lon":16.608178,"is_passed":false},{"stop_id":"U1150Z2","name":"Högrova","arrival_time":"5:19:00","departure_time":"5:19:00","lat":49.229128,"lon":16.604259,"is_passed":false},{"stop_id":"U1388Z1","name":"Mojmírovo náměstí","arrival_time":"5:21:00","departure_time":"5:21:00","lat":49.226134,"lon":16.597399,"is_passed":false},{"stop_id":"U1286Z5","name":"Královo Pole, nádraží","arrival_time":"5:24:00","departure_time":"5:24:00","lat":49.229633,"lon":16.595447,"is_passed":false},{"stop_id":"U1566Z6","name":"Semilasso","arrival_time":"5:25:00","departure_time":"5:25:00","lat":49.228248,"lon":16.593466,"is_passed":false},{"stop_id":"U1171Z4","name":"Husitská","arrival_time":"5:27:00","departure_time":"5:27:00","lat":49.224063,"lon":16.593994,"is_passed":false},{"stop_id":"U1586Z3","name":"Slovanské náměstí","arrival_time":"5:28:00","departure_time":"5:28:00","lat":49.223525,"lon":16.591009,"is_passed":false},{"stop_id":"U1567Z5","name":"Skácelova","arrival_time":"5:29:00","departure_time":"5:29:00","lat":49.221353,"lon":16.584711,"is_passed":false},{"stop_id":"U1777Z1","name":"Záhřebská","arrival_time":"5:31:00","departure_time":"5:31:00","lat":49.219602,"lon":16.579157,"is_passed":false},{"stop_id":"U1528Z3","name":"Přívrat","arrival_time":"5:32:00","departure_time":"5:32:00","lat":49.218788,"lon":16.574147,"is_passed":false},{"stop_id":"U1758Z1","name":"Vrázova","arrival_time":"5:33:00","departure_time":"5:33:00","lat":49.216968,"lon":16.568321,"is_passed":false},{"stop_id":"U1651Z1","name":"Štursova","arrival_time":"5:34:00","departure_time":"5:34:00","lat":49.216462,"lon":16.563614,"is_passed":false},{"stop_id":"U1502Z1","name":"Podveská","arrival_time":"5:35:00","departure_time":"5:35:00","lat":49.217623,"lon":16.559017,"is_passed":false},{"stop_id":"U1633Z3","name":"Svratecká","arrival_time":"5:36:00","departure_time":"5:36:00","lat":49.219008,"lon":16.554451,"is_passed":false},{"stop_id":"U1345Z1","name":"Lísky","arrival_time":"5:37:00","departure_time":"5:37:00","lat":49.219825,"lon":16.548868,"is_passed":false},{"stop_id":"U1493Z3","name":"Podlesí","arrival_time":"5:38:00","departure_time":"5:38:00","lat":49.218861,"lon":16.542049,"is_passed":false},{"stop_id":"U1226Z3","name":"Kamenolom","arrival_time":"5:39:00","departure_time":"5:39:00","lat":49.222506,"lon":16.537085,"is_passed":false},{"stop_id":"U1796Z7","name":"Zoologická zahrada","arrival_time":"5:43:00","departure_time":"5:43:00","lat":49.227823,"lon":16.531364,"is_passed":false},{"stop_id":"U1417Z1","name":"Náměstí 28. dubna","arrival_time":"5:44:00","departure_time":"5:44:00","lat":49.225188,"lon":16.531132,"is_passed":false},{"stop_id":"U1752Z1","name":"Vondrákova","arrival_time":"5:45:00","departure_time":"5:45:00","lat":49.221303,"lon":16.528376,"is_passed":false},{"stop_id":"U1326Z1","name":"Laštůvkova","arrival_time":"5:46:00","departure_time":"5:46:00","lat":49.220185,"lon":16.525212,"is_passed":false},{"stop_id":"U1107Z1","name":"Filipova","arrival_time":"5:47:00","departure_time":"5:47:00","lat":49.217684,"lon":16.525123,"is_passed":false},{"stop_id":"U1062Z1","name":"Černého","arrival_time":"5:49:00","departure_time":"6:00:00","lat":49.214083,"lon":16.522812,"is_passed":false}],"57008":[{"stop_id":"U1062Z2","name":"Černého","arrival_time":"6:00:00","departure_time":"6:00:00","lat":49.213885,"lon":16.523087,"is_passed":false},{"stop_id":"U1107Z2","name":"Filipova","arrival_time":"6:01:00","departure_time":"6:01:00","lat":49.217593,"lon":16.525217,"is_passed":false},{"stop_id":"U1326Z4","name":"Laštůvkova","arrival_time":"6:02:00","departure_time":"6:02:00","lat":49.220549,"lon":16.526237,"is_passed":false},{"stop_id":"U1752Z2","name":"Vondrákova","arrival_time":"6:03:00","departure_time":"6:03:00","lat":49.221445,"lon":16.528853,"is_passed":false},{"stop_id":"U1417Z2","name":"Náměstí 28. dubna","arrival_time":"6:04:00","departure_time":"6:04:00","lat":49.226314,"lon":16.53213,"is_passed":false},{"stop_id":"U1226Z4","name":"Kamenolom","arrival_time":"6:06:00","departure_time":"6:06:00","lat":49.221655,"lon":16.536983,"is_passed":false},{"stop_id":"U1493Z4","name":"Podlesí","arrival_time":"6:07:00","departure_time":"6:07:00","lat":49.218759,"lon":16.542623,"is_passed":false},{"stop_id":"U1345Z2","name":"Lísky","arrival_time":"6:08:00","departure_time":"6:08:00","lat":49.219967,"lon":16.549281,"is_passed":false},{"stop_id":"U1633Z4","name":"Svratecká","arrival_time":"6:10:00","departure_time":"6:10:00","lat":49.218696,"lon":16.554399,"is_passed":false},{"stop_id":"U1502Z2","name":"Podveská","arrival_time":"6:12:00","departure_time":"6:12:00","lat":49.217607,"lon":16.558178,"is_passed":false},{"stop_id":"U1651Z2","name":"Štursova","arrival_time":"6:13:00","departure_time":"6:13:00","lat":49.215854,"lon":16.564522,"is_passed":false},{"stop_id":"U1758Z2","name":"Vrázova","arrival_time":"6:14:00","departure_time":"6:14:00","lat":49.216977,"lon":16.568646,"is_passed":false},{"stop_id":"U1528Z4","name":"Přívrat","arrival_time":"6:16:00","departure_time":"6:16:00","lat":49.218647,"lon":16.574085,"is_passed":false},{"stop_id":"U1777Z2","name":"Záhřebská","arrival_time":"6:17:00","departure_time":"6:17:00","lat":49.219845,"lon":16.580415,"is_passed":false},{"stop_id":"U1567Z6","name":"Skácelova","arrival_time":"6:19:00","departure_time":"6:19:00","lat":49.22163,"lon":16.585935,"is_passed":false},{"stop_id":"U1586Z4","name":"Slovanské náměstí","arrival_time":"6:20:00","departure_time":"6:20:00","lat":49.222774,"lon":16.591332,"is_passed":false},{"stop_id":"U1171Z3","name":"Husitská","arrival_time":"6:21:00","departure_time":"6:21:00","lat":49.223851,"lon":16.594116,"is_passed":false},{"stop_id":"U1566Z4","name":"Semilasso","arrival_time":"6:23:00","departure_time":"6:23:00","lat":49.228055,"lon":16.593438,"is_passed":false},{"stop_id":"U1286Z9","name":"Královo Pole, nádraží","arrival_time":"6:25:00","departure_time":"6:26:00","lat":49.229881,"lon":16.595274,"is_passed":false}],"57009":[{"stop_id":"U1766Z2","name":"Vychodilova","arrival_time":"6:39:00","departure_time":"6:39:00","lat":49.220204,"lon":16.571445,"is_passed":false},{"stop_id":"U1528Z6","name":"Přívrat","arrival_time":"6:41:00","departure_time":"6:41:00","lat":49.218109,"lon":16.574404,"is_passed":false},{"stop_id":"U1352Z2","name":"Makovského náměstí","arrival_time":"6:41:00","departure_time":"6:41:00","lat":49.217881,"lon":16.576657,"is_passed":false},{"stop_id":"U1426Z2","name":"Náměstí Svornosti","arrival_time":"6:43:00","departure_time":"6:43:00","lat":49.215179,"lon":16.58299,"is_passed":false},{"stop_id":"U1206Z2","name":"Jindřichova","arrival_time":"6:44:00","departure_time":"6:44:00","lat":49.213132,"lon":16.583163,"is_passed":false},{"stop_id":"U1601Z2","name":"Spojovací","arrival_time":"6:45:00","departure_time":"6:45:00","lat":49.211772,"lon":16.58703,"is_passed":false},{"stop_id":"U1242Z2","name":"Klusáčkova","arrival_time":"6:47:00","departure_time":"6:47:00","lat":49.211903,"lon":16.592875,"is_passed":false},{"stop_id":"U1785Z2","name":"Zemská knihovna","arrival_time":"6:48:00","departure_time":"6:48:00","lat":49.208799,"lon":16.594624,"is_passed":false},{"stop_id":"U1626Z2","name":"Sušilova","arrival_time":"6:50:00","departure_time":"6:50:00","lat":49.204397,"lon":16.598621,"is_passed":false},{"stop_id":"U1587Z2","name":"Smetanova","arrival_time":"6:51:00","departure_time":"6:51:00","lat":49.201271,"lon":16.602293,"is_passed":false},{"stop_id":"U1073Z7","name":"Česká","arrival_time":"6:54:00","departure_time":"6:57:00","lat":49.198331,"lon":16.605663,"is_passed":false}],"57010":[{"stop_id":"U1073Z6","name":"Česká","arrival_time":"6:57:00","departure_time":"6:57:00","lat":49.198291,"lon":16.605232,"is_passed":false},{"stop_id":"U1587Z1","name":"Smetanova","arrival_time":"6:59:00","departure_time":"6:59:00","lat":49.201909,"lon":16.601644,"is_passed":false},{"stop_id":"U1626Z1","name":"Sušilova","arrival_time":"7:00:00","departure_time":"7:00:00","lat":49.204346,"lon":16.598828,"is_passed":false},{"stop_id":"U1785Z1","name":"Zemská knihovna","arrival_time":"7:02:00","departure_time":"7:02:00","lat":49.208934,"lon":16.594822,"is_passed":false},{"stop_id":"U1242Z1","name":"Klusáčkova","arrival_time":"7:03:00","departure_time":"7:03:00","lat":49.212365,"lon":16.592666,"is_passed":false},{"stop_id":"U1601Z1","name":"Spojovací","arrival_time":"7:06:00","departure_time":"7:06:00","lat":49.212099,"lon":16.586305,"is_passed":false},{"stop_id":"U1206Z1","name":"Jindřichova","arrival_time":"7:07:00","departure_time":"7:07:00","lat":49.21326,"lon":16.582924,"is_passed":false},{"stop_id":"U1426Z1","name":"Náměstí Svornosti","arrival_time":"7:08:00","departure_time":"7:08:00","lat":49.215585,"lon":16.582,"is_passed":false},{"stop_id":"U1352Z1","name":"Makovského náměstí","arrival_time":"7:09:00","departure_time":"7:09:00","lat":49.217922,"lon":16.576761,"is_passed":false},{"stop_id":"U1528Z5","name":"Přívrat","arrival_time":"7:10:00","departure_time":"7:10:00","lat":49.218247,"lon":16.574102,"is_passed":false},{"stop_id":"U1766Z1","name":"Vychodilova","arrival_time":"7:12:00","departure_time":"7:54:00","lat":49.220431,"lon":16.571764,"is_passed":false}],"57011":[{"stop_id":"U1766Z2","name":"Vychodilova","arrival_time":"7:54:00","departure_time":"7:54:00","lat":49.220204,"lon":16.571445,"is_passed":false},{"stop_id":"U1528Z6","name":"Přívrat","arrival_time":"7:56:00","departure_time":"7:56:00","lat":49.218109,"lon":16.574404,"is_passed":false},{"stop_id":"U1352Z2","name":"Makovského náměstí","arrival_time":"7:56:00","departure_time":"7:56:00","lat":49.217881,"lon":16.576657,"is_passed":false},{"stop_id":"U1426Z2","name":"Náměstí Svornosti","arrival_time":"7:58:00","departure_time":"7:58:00","lat":49.215179,"lon":16.58299,"is_passed":false},{"stop_id":"U1206Z2","name":"Jindřichova","arrival_time":"7:59:00","departure_time":"7:59:00","lat":49.213132,"lon":16.583163,"is_passed":false},{"stop_id":"U1601Z2","name":"Spojovací","arrival_time":"8:00:00","departure_time":"8:00:00","lat":49.211772,"lon":16.58703,"is_passed":false},{"stop_id":"U1242Z2","name":"Klusáčkova","arrival_time":"8:02:00","departure_time":"8:02:00","lat":49.211903,"lon":16.592875,"is_passed":false},{"stop_id":"U1785Z2","name":"Zemská knihovna","arrival_time":"8:03:00","departure_time":"8:03:00","lat":49.208799,"lon":16.594624,"is_passed":false},{"stop_id":"U1626Z2","name":"Sušilova","arrival_time":"8:05:00","departure_time":"8:05:00","lat":49.204397,"lon":16.598621,"is_passed":false},{"stop_id":"U1587Z2","name":"Smetanova","arrival_time":"8:06:00","departure_time":"8:06:00","lat":49.201271,"lon":16.602293,"is_passed":false},{"stop_id":"U1073Z7","name":"Česká","arrival_time":"8:09:00","departure_time":"8:12:00","lat":49.198331,"lon":16.605663,"is_passed":false}],"57012":[{"stop_id":"U1073Z6","name":"Česká","arrival_time":"8:12:00","departure_time":"8:12:00","lat":49.198291,"lon":16.605232,"is_passed":false},{"stop_id":"U1587Z1","name":"Smetanova","arrival_time":"8:14:00","departure_time":"8:14:00","lat":49.201909,"lon":16.601644,"is_passed":false},{"stop_id":"U1626Z1","name":"Sušilova","arrival_time":"8:15:00","departure_time":"8:15:00","lat":49.204346,"lon":16.598828,"is_passed":false},{"stop_id":"U1785Z1","name":"Zemská knihovna","arrival_time":"8:17:00","departure_time":"8:17:00","lat":49.208934,"lon":16.594822,"is_passed":false},{"stop_id":"U1242Z1","name":"Klusáčkova","arrival_time":"8:18:00","departure_time":"8:18:00","lat":49.212365,"lon":16.592666,"is_passed":false},{"stop_id":"U1601Z1","name":"Spojovací","arrival_time":"8:21:00","departure_time":"8:21:00","lat":49.212099,"lon":16.586305,"is_passed":false},{"stop_id":"U1206Z1","name":"Jindřichova","arrival_time":"8:22:00","departure_time":"8:22:00","lat":49.21326,"lon":16.582924,"is_passed":false},{"stop_id":"U1426Z1","name":"Náměstí Svornosti","arrival_time":"8:23:00","departure_time":"8:23:00","lat":49.215585,"lon":16.582,"is_passed":false},{"stop_id":"U1352Z1","name":"Makovského náměstí","arrival_time":"8:24:00","departure_time":"8:24:00","lat":49.217922,"lon":16.576761,"is_passed":false},{"stop_id":"U1528Z5","name":"Přívrat","arrival_time":"8:25:00","departure_time":"8:25:00","lat":49.218247,"lon":16.574102,"is_passed":false},{"stop_id":"U1766Z1","name":"Vychodilova","arrival_time":"8:27:00","departure_time":"8:40:00","lat":49.220431,"lon":16.571764,"is_passed":false}],"57013":[{"stop_id":"U1766Z2","name":"Vychodilova","arrival_time":"8:40:00","departure_time":"8:40:00","lat":49.220204,"lon":16.571445,"is_passed":false},{"stop_id":"U1528Z6","name":"Přívrat","arrival_time":"8:42:00","departure_time":"8:42:00","lat":49.218109,"lon":16.574404,"is_passed":false},{"stop_id":"U1352Z2","name":"Makovského náměstí","arrival_time":"8:42:00","departure_time":"8:42:00","lat":49.217881,"lon":16.576657,"is_passed":false},{"stop_id":"U1426Z2","name":"Náměstí Svornosti","arrival_time":"8:44:00","departure_time":"8:44:00","lat":49.215179,"lon":16.58299,"is_passed":false},{"stop_id":"U1206Z2","name":"Jindřichova","arrival_time":"8:45:00","departure_time":"8:45:00","lat":49.213132,"lon":16.583163,"is_passed":false},{"stop_id":"U1601Z2","name":"Spojovací","arrival_time":"8:46:00","departure_time":"8:46:00","lat":49.211772,"lon":16.58703,"is_passed":false},{"stop_id":"U1242Z2","name":"Klusáčkova","arrival_time":"8:48:00","departure_time":"8:48:00","lat":49.211903,"lon":16.592875,"is_passed":false},{"stop_id":"U1785Z2","name":"Zemská knihovna","arrival_time":"8:49:00","departure_time":"8:49:00","lat":49.208799,"lon":16.594624,"is_passed":false},{"stop_id":"U1626Z2","name":"Sušilova","arrival_time":"8:51:00","departure_time":"8:51:00","lat":49.204397,"lon":16.598621,"is_passed":false},{"stop_id":"U1587Z2","name":"Smetanova","arrival_time":"8:52:00","departure_time":"8:52:00","lat":49.201271,"lon":16.602293,"is_passed":false},{"stop_id":"U1073Z7","name":"Česká","arrival_time":"8:55:00","departure_time":"8:58:00","lat":49.198331,"lon":16.605663,"is_passed":false}],"57014":[{"stop_id":"U1073Z6","name":"Česká","arrival_time":"8:58:00","departure_time":"8:58:00","lat":49.198291,"lon":16.605232,"is_passed":false},{"stop_id":"U1587Z1","name":"Smetanova","arrival_time":"9:00:00","departure_time":"9:00:00","lat":49.201909,"lon":16.601644,"is_passed":false},{"stop_id":"U1626Z1","name":"Sušilova","arrival_time":"9:01:00","departure_time":"9:01:00","lat":49.204346,"lon":16.598828,"is_passed":false},{"stop_id":"U1785Z1","name":"Zemská knihovna","arrival_time":"9:03:00","departure_time":"9:03:00","lat":49.208934,"lon":16.594822,"is_passed":false},{"stop_id":"U1242Z1","name":"Klusáčkova","arrival_time":"9:04:00","departure_time":"9:04:00","lat":49.212365,"lon":16.592666,"is_passed":false},{"stop_id":"U1601Z1","name":"Spojovací","arrival_time":"9:07:00","departure_time":"9:07:00","lat":49.212099,"lon":16.586305,"is_passed":false},{"stop_id":"U1206Z1","name":"Jindřichova","arrival_time":"9:08:00","departure_time":"9:08:00","lat":49.21326,"lon":16.582924,"is_passed":false},{"stop_id":"U1426Z1","name":"Náměstí Svornosti","arrival_time":"9:09:00","departure_time":"9:09:00","lat":49.215585,"lon":16.582,"is_passed":false},{"stop_id":"U1352Z1","name":"Makovského náměstí","arrival_time":"9:10:00","departure_time":"9:10:00","lat":49.217922,"lon":16.576761,"is_passed":false},{"stop_id":"U1528Z5","name":"Přívrat","arrival_time":"9:11:00","departure_time":"9:11:00","lat":49.218247,"lon":16.574102,"is_passed":false},{"stop_id":"U1766Z1","name":"Vychodilova","arrival_time":"9:13:00","departure_time":"9:40:00","lat":49.220431,"lon":16.571764,"is_passed":false}],"57015":[{"stop_id":"U1766Z2","name":"Vychodilova","arrival_time":"9:40:00","departure_time":"9:40:00","lat":49.220204,"lon":16.571445,"is_passed":false},{"stop_id":"U1528Z6","name":"Přívrat","arrival_time":"9:42:00","departure_time":"9:42:00","lat":49.218109,"lon":16.574404,"is_passed":false},{"stop_id":"U1352Z2","name":"Makovského náměstí","arrival_time":"9:42:00","departure_time":"9:42:00","lat":49.217881,"lon":16.576657,"is_passed":false},{"stop_id":"U1426Z2","name":"Náměstí Svornosti","arrival_time":"9:44:00","departure_time":"9:44:00","lat":49.215179,"lon":16.58299,"is_passed":false},{"stop_id":"U1206Z2","name":"Jindřichova","arrival_time":"9:45:00","departure_time":"9:45:00","lat":49.213132,"lon":16.583163,"is_passed":false},{"stop_id":"U1601Z2","name":"Spojovací","arrival_time":"9:46:00","departure_time":"9:46:00","lat":49.211772,"lon":16.58703,"is_passed":false},{"stop_id":"U1242Z2","name":"Klusáčkova","arrival_time":"9:48:00","departure_time":"9:48:00","lat":49.211903,"lon":16.592875,"is_passed":false},{"stop_id":"U1785Z2","name":"Zemská knihovna","arrival_time":"9:49:00","departure_time":"9:49:00","lat":49.208799,"lon":16.594624,"is_passed":false},{"stop_id":"U1626Z2","name":"Sušilova","arrival_time":"9:51:00","departure_time":"9:51:00","lat":49.204397,"lon":16.598621,"is_passed":false},{"stop_id":"U1587Z2","name":"Smetanova","arrival_time":"9:52:00","departure_time":"9:52:00","lat":49.201271,"lon":16.602293,"is_passed":false},{"stop_id":"U1073Z7","name":"Česká","arrival_time":"9:55:00","departure_time":"9:58:00","lat":49.198331,"lon":16.605663,"is_passed":false}],"57016":[{"stop_id":"U1073Z6","name":"Česká","arrival_time":"9:58:00","departure_time":"9:58:00","lat":49.198291,"lon":16.605232,"is_passed":false},{"stop_id":"U1587Z1","name":"Smetanova","arrival_time":"10:00:00","departure_time":"10:00:00","lat":49.201909,"lon":16.601644,"is_passed":false},{"stop_id":"U1626Z1","name":"Sušilova","arrival_time":"10:01:00","departure_time":"10:01:00","lat":49.204346,"lon":16.598828,"is_passed":false},{"stop_id":"U1785Z1","name":"Zemská knihovna","arrival_time":"10:03:00","departure_time":"10:03:00","lat":49.208934,"lon":16.594822,"is_passed":false},{"stop_id":"U1242Z1","name":"Klusáčkova","arrival_time":"10:04:00","departure_time":"10:04:00","lat":49.212365,"lon":16.592666,"is_passed":false},{"stop_id":"U1601Z1","name":"Spojovací","arrival_time":"10:07:00","departure_time":"10:07:00","lat":49.212099,"lon":16.586305,"is_passed":false},{"stop_id":"U1206Z1","name":"Jindřichova","arrival_time":"10:08:00","departure_time":"10:08:00","lat":49.21326,"lon":16.582924,"is_passed":false},{"stop_id":"U1426Z1","name":"Náměstí Svornosti","arrival_time":"10:09:00","departure_time":"10:09:00","lat":49.215585,"lon":16.582,"is_passed":false},{"stop_id":"U1352Z1","name":"Makovského náměstí","arrival_time":"10:10:00","departure_time":"10:10:00","lat":49.217922,"lon":16.576761,"is_passed":false},{"stop_id":"U1528Z5","name":"Přívrat","arrival_time":"10:11:00","departure_time":"10:11:00","lat":49.218247,"lon":16.574102,"is_passed":false},{"stop_id":"U1766Z1","name":"Vychodilova","arrival_time":"10:13:00","departure_time":"10:20:00","lat":49.220431,"lon":16.571764,"is_passed":false}],"57017":[{"stop_id":"U1766Z2","name":"Vychodilova","arrival_time":"10:20:00","departure_time":"10:20:00","lat":49.220204,"lon":16.571445,"is_passed":false},{"stop_id":"U1528Z6","name":"Přívrat","arrival_time":"10:22:00","departure_time":"10:22:00","lat":49.218109,"lon":16.574404,"is_passed":false},{"stop_id":"U1352Z2","name":"Makovského náměstí","arrival_time":"10:22:00","departure_time":"10:22:00","lat":49.217881,"lon":16.576657,"is_passed":false},{"stop_id":"U1426Z2","name":"Náměstí Svornosti","arrival_time":"10:24:00","departure_time":"10:24:00","lat":49.215179,"lon":16.58299,"is_passed":false},{"stop_id":"U1206Z2","name":"Jindřichova","arrival_time":"10:25:00","departure_time":"10:25:00","lat":49.213132,"lon":16.583163,"is_passed":false},{"stop_id":"U1601Z2","name":"Spojovací","arrival_time":"10:26:00","departure_time":"10:26:00","lat":49.211772,"lon":16.58703,"is_passed":false},{"stop_id":"U1242Z2","name":"Klusáčkova","arrival_time":"10:28:00","departure_time":"10:28:00","lat":49.211903,"lon":16.592875,"is_passed":false},{"stop_id":"U1785Z2","name":"Zemská knihovna","arrival_time":"10:29:00","departure_time":"10:29:00","lat":49.208799,"lon":16.594624,"is_passed":false},{"stop_id":"U1626Z2","name":"Sušilova","arrival_time":"10:31:00","departure_time":"10:31:00","lat":49.204397,"lon":16.598621,"is_passed":false},{"stop_id":"U1587Z2","name":"Smetanova","arrival_time":"10:32:00","departure_time":"10:32:00","lat":49.201271,"lon":16.602293,"is_passed":false},{"stop_id":"U1073Z7","name":"Česká","arrival_time":"10:35:00","departure_time":"10:38:00","lat":49.198331,"lon":16.605663,"is_passed":false}],"57018":[{"stop_id":"U1073Z6","name":"Česká","arrival_time":"10:38:00","departure_time":"10:38:00","lat":49.198291,"lon":16.605232,"is_passed":false},{"stop_id":"U1587Z1","name":"Smetanova","arrival_time":"10:40:00","departure_time":"10:40:00","lat":49.201909,"lon":16.601644,"is_passed":false},{"stop_id":"U1626Z1","name":"Sušilova","arrival_time":"10:41:00","departure_time":"10:41:00","lat":49.204346,"lon":16.598828,"is_passed":false},{"stop_id":"U1785Z1","name":"Zemská knihovna","arrival_time":"10:43:00","departure_time":"10:43:00","lat":49.208934,"lon":16.594822,"is_passed":false},{"stop_id":"U1242Z1","name":"Klusáčkova","arrival_time":"10:44:00","departure_time":"10:44:00","lat":49.212365,"lon":16.592666,"is_passed":false},{"stop_id":"U1601Z1","name":"Spojovací","arrival_time":"10:47:00","departure_time":"10:47:00","lat":49.212099,"lon":16.586305,"is_passed":false},{"stop_id":"U1206Z1","name":"Jindřichova","arrival_time":"10:48:00","departure_time":"10:48:00","lat":49.21326,"lon":16.582924,"is_passed":false},{"stop_id":"U1426Z1","name":"Náměstí Svornosti","arrival_time":"10:49:00","departure_time":"10:49:00","lat":49.215585,"lon":16.582,"is_passed":false},{"stop_id":"U1352Z1","name":"Makovského náměstí","arrival_time":"10:50:00","departure_time":"10:50:00","lat":49.217922,"lon":16.576761,"is_passed":false},{"stop_id":"U1528Z5","name":"Přívrat","arrival_time":"10:51:00","departure_time":"10:51:00","lat":49.218247,"lon":16.574102,"is_passed":false},{"stop_id":"U1766Z1","name":"Vychodilova","arrival_time":"10:53:00","departure_time":"11:00:00","lat":49.220431,"lon":16.571764,"is_passed":false}],"57019":[{"stop_id":"U1766Z2","name":"Vychodilova","arrival_time":"11:00:00","departure_time":"11:00:00","lat":49.220204,"lon":16.571445,"is_passed":false},{"stop_id":"U1528Z6","name":"Přívrat","arrival_time":"11:02:00","departure_time":"11:02:00","lat":49.218109,"lon":16.574404,"is_passed":false},{"stop_id":"U1352Z2","name":"Makovského náměstí","arrival_time":"11:02:00","departure_time":"11:02:00","lat":49.217881,"lon":16.576657,"is_passed":false},{"stop_id":"U1426Z2","name":"Náměstí Svornosti","arrival_time":"11:04:00","departure_time":"11:04:00","lat":49.215179,"lon":16.58299,"is_passed":false},{"stop_id":"U1206Z2","name":"Jindřichova","arrival_time":"11:05:00","departure_time":"11:05:00","lat":49.213132,"lon":16.583163,"is_passed":false},{"stop_id":"U1601Z2","name":"Spojovací","arrival_time":"11:06:00","departure_time":"11:06:00","lat":49.211772,"lon":16.58703,"is_passed":false},{"stop_id":"U1242Z2","name":"Klusáčkova","arrival_time":"11:08:00","departure_time":"11:08:00","lat":49.211903,"lon":16.592875,"is_passed":false},{"stop_id":"U1785Z2","name":"Zemská knihovna","arrival_time":"11:09:00","departure_time":"11:09:00","lat":49.208799,"lon":16.594624,"is_passed":false},{"stop_id":"U1626Z2","name":"Sušilova","arrival_time":"11:11:00","departure_time":"11:11:00","lat":49.204397,"lon":16.598621,"is_passed":false},{"stop_id":"U1587Z2","name":"Smetanova","arrival_time":"11:12:00","departure_time":"11:12:00","lat":49.201271,"lon":16.602293,"is_passed":false},{"stop_id":"U1073Z7","name":"Česká","arrival_time":"11:15:00","departure_time":"11:18:00","lat":49.198331,"lon":16.605663,"is_passed":false}],"57020":[{"stop_id":"U1073Z6","name":"Česká","arrival_time":"11:18:00","departure_time":"11:18:00","lat":49.198291,"lon":16.605232,"is_passed":false},{"stop_id":"U1587Z1","name":"Smetanova","arrival_time":"11:20:00","departure_time":"11:20:00","lat":49.201909,"lon":16.601644,"is_passed":false},{"stop_id":"U1626Z1","name":"Sušilova","arrival_time":"11:21:00","departure_time":"11:21:00","lat":49.204346,"lon":16.598828,"is_passed":false},{"stop_id":"U1785Z1","name":"Zemská knihovna","arrival_time":"11:23:00","departure_time":"11:23:00","lat":49.208934,"lon":16.594822,"is_passed":false},{"stop_id":"U1242Z1","name":"Klusáčkova","arrival_time":"11:24:00","departure_time":"11:24:00","lat":49.212365,"lon":16.592666,"is_passed":false},{"stop_id":"U1601Z1","name":"Spojovací","arrival_time":"11:27:00","departure_time":"11:27:00","lat":49.212099,"lon":16.586305,"is_passed":false},{"stop_id":"U1206Z1","name":"Jindřichova","arrival_time":"11:28:00","departure_time":"11:28:00","lat":49.21326,"lon":16.582924,"is_passed":false},{"stop_id":"U1426Z1","name":"Náměstí Svornosti","arrival_time":"11:29:00","departure_time":"11:29:00","lat":49.215585,"lon":16.582,"is_passed":false},{"stop_id":"U1352Z1","name":"Makovského náměstí","arrival_time":"11:30:00","departure_time":"11:30:00","lat":49.217922,"lon":16.576761,"is_passed":false},{"stop_id":"U1528Z5","name":"Přívrat","arrival_time":"11:31:00","departure_time":"11:31:00","lat":49.218247,"lon":16.574102,"is_passed":false},{"stop_id":"U1766Z1","name":"Vychodilova","arrival_time":"11:33:00","departure_time":"12:00:00","lat":49.220431,"lon":16.571764,"is_passed":false}],"57021":[{"stop_id":"U1766Z2","name":"Vychodilova","arrival_time":"12:00:00","departure_time":"12:00:00","lat":49.220204,"lon":16.571445,"is_passed":false},{"stop_id":"U1528Z6","name":"Přívrat","arrival_time":"12:02:00","departure_time":"12:02:00","lat":49.218109,"lon":16.574404,"is_passed":false},{"stop_id":"U1352Z2","name":"Makovského náměstí","arrival_time":"12:02:00","departure_time":"12:02:00","lat":49.217881,"lon":16.576657,"is_passed":false},{"stop_id":"U1426Z2","name":"Náměstí Svornosti","arrival_time":"12:04:00","departure_time":"12:04:00","lat":49.215179,"lon":16.58299,"is_passed":false},{"stop_id":"U1206Z2","name":"Jindřichova","arrival_time":"12:05:00","departure_time":"12:05:00","lat":49.213132,"lon":16.583163,"is_passed":false},{"stop_id":"U1601Z2","name":"Spojovací","arrival_time":"12:06:00","departure_time":"12:06:00","lat":49.211772,"lon":16.58703,"is_passed":false},{"stop_id":"U1242Z2","name":"Klusáčkova","arrival_time":"12:08:00","departure_time":"12:08:00","lat":49.211903,"lon":16.592875,"is_passed":false},{"stop_id":"U1785Z2","name":"Zemská knihovna","arrival_time":"12:09:00","departure_time":"12:09:00","lat":49.208799,"lon":16.594624,"is_passed":false},{"stop_id":"U1626Z2","name":"Sušilova","arrival_time":"12:11:00","departure_time":"12:11:00","lat":49.204397,"lon":16.598621,"is_passed":false},{"stop_id":"U1587Z2","name":"Smetanova","arrival_time":"12:12:00","departure_time":"12:12:00","lat":49.201271,"lon":16.602293,"is_passed":false},{"stop_id":"U1073Z7","name":"Česká","arrival_time":"12:15:00","departure_time":"12:18:00","lat":49.198331,"lon":16.605663,"is_passed":false}],"57022":[{"stop_id":"U1073Z6","name":"Česká","arrival_time":"12:18:00","departure_time":"12:18:00","lat":49.198291,"lon":16.605232,"is_passed":false},{"stop_id":"U1587Z1","name":"Smetanova","arrival_time":"12:20:00","departure_time":"12:20:00","lat":49.201909,"lon":16.601644,"is_passed":false},{"stop_id":"U1626Z1","name":"Sušilova","arrival_time":"12:21:00","departure_time":"12:21:00","lat":49.204346,"lon":16.598828,"is_passed":false},{"stop_id":"U1785Z1","name":"Zemská knihovna","arrival_time":"12:23:00","departure_time":"12:23:00","lat":49.208934,"lon":16.594822,"is_passed":false},{"stop_id":"U1242Z1","name":"Klusáčkova","arrival_time":"12:24:00","departure_time":"12:24:00","lat":49.212365,"lon":16.592666,"is_passed":false},{"stop_id":"U1601Z1","name":"Spojovací","arrival_time":"12:27:00","departure_time":"12:27:00","lat":49.212099,"lon":16.586305,"is_passed":false},{"stop_id":"U1206Z1","name":"Jindřichova","arrival_time":"12:28:00","departure_time":"12:28:00","lat":49.21326,"lon":16.582924,"is_passed":false},{"stop_id":"U1426Z1","name":"Náměstí Svornosti","arrival_time":"12:29:00","departure_time":"12:29:00","lat":49.215585,"lon":16.582,"is_passed":false},{"stop_id":"U1352Z1","name":"Makovského náměstí","arrival_time":"12:30:00","departure_time":"12:30:00","lat":49.217922,"lon":16.576761,"is_passed":false},{"stop_id":"U1528Z5","name":"Přívrat","arrival_time":"12:31:00","departure_time":"12:31:00","lat":49.218247,"lon":16.574102,"is_passed":false},{"stop_id":"U1766Z1","name":"Vychodilova","arrival_time":"12:33:00","departure_time":"13:00:00","lat":49.220431,"lon":16.571764,"is_passed":false}],"57023":[{"stop_id":"U1766Z2","name":"Vychodilova","arrival_time":"13:00:00","departure_time":"13:00:00","lat":49.220204,"lon":16.571445,"is_passed":false},{"stop_id":"U1528Z6","name":"Přívrat","arrival_time":"13:02:00","departure_time":"13:02:00","lat":49.218109,"lon":16.574404,"is_passed":false},{"stop_id":"U1352Z2","name":"Makovského náměstí","arrival_time":"13:02:00","departure_time":"13:02:00","lat":49.217881,"lon":16.576657,"is_passed":false},{"stop_id":"U1426Z2","name":"Náměstí Svornosti","arrival_time":"13:04:00","departure_time":"13:04:00","lat":49.215179,"lon":16.58299,"is_passed":false},{"stop_id":"U1206Z2","name":"Jindřichova","arrival_time":"13:05:00","departure_time":"13:05:00","lat":49.213132,"lon":16.583163,"is_passed":false},{"stop_id":"U1601Z2","name":"Spojovací","arrival_time":"13:06:00","departure_time":"13:06:00","lat":49.211772,"lon":16.58703,"is_passed":false},{"stop_id":"U1242Z2","name":"Klusáčkova","arrival_time":"13:08:00","departure_time":"13:08:00","lat":49.211903,"lon":16.592875,"is_passed":false},{"stop_id":"U1785Z2","name":"Zemská knihovna","arrival_time":"13:09:00","departure_time":"13:09:00","lat":49.208799,"lon":16.594624,"is_passed":false},{"stop_id":"U1626Z2","name":"Sušilova","arrival_time":"13:11:00","departure_time":"13:11:00","lat":49.204397,"lon":16.598621,"is_passed":false},{"stop_id":"U1587Z2","name":"Smetanova","arrival_time":"13:12:00","departure_time":"13:12:00","lat":49.201271,"lon":16.602293,"is_passed":false},{"stop_id":"U1073Z7","name":"Česká","arrival_time":"13:15:00","departure_time":"13:18:00","lat":49.198331,"lon":16.605663,"is_passed":false}],"57024":[{"stop_id":"U1073Z6","name":"Česká","arrival_time":"13:18:00","departure_time":"13:18:00","lat":49.198291,"lon":16.605232,"is_passed":false},{"stop_id":"U1587Z1","name":"Smetanova","arrival_time":"13:20:00","departure_time":"13:20:00","lat":49.201909,"lon":16.601644,"is_passed":false},{"stop_id":"U1626Z1","name":"Sušilova","arrival_time":"13:21:00","departure_time":"13:21:00","lat":49.204346,"lon":16.598828,"is_passed":false},{"stop_id":"U1785Z1","name":"Zemská knihovna","arrival_time":"13:23:00","departure_time":"13:23:00","lat":49.208934,"lon":16.594822,"is_passed":false},{"stop_id":"U1242Z1","name":"Klusáčkova","arrival_time":"13:24:00","departure_time":"13:24:00","lat":49.212365,"lon":16.592666,"is_passed":false},{"stop_id":"U1601Z1","name":"Spojovací","arrival_time":"13:27:00","departure_time":"13:27:00","lat":49.212099,"lon":16.586305,"is_passed":false},{"stop_id":"U1206Z1","name":"Jindřichova","arrival_time":"13:28:00","departure_time":"13:28:00","lat":49.21326,"lon":16.582924,"is_passed":false},{"stop_id":"U1426Z1","name":"Náměstí Svornosti","arrival_time":"13:29:00","departure_time":"13:29:00","lat":49.215585,"lon":16.582,"is_passed":false},{"stop_id":"U1352Z1","name":"Makovského náměstí","arrival_time":"13:30:00","departure_time":"13:30:00","lat":49.217922,"lon":16.576761,"is_passed":false},{"stop_id":"U1528Z5","name":"Přívrat","arrival_time":"13:31:00","departure_time":"13:31:00","lat":49.218247,"lon":16.574102,"is_passed":false},{"stop_id":"U1766Z1","name":"Vychodilova","arrival_time":"13:33:00","departure_time":"13:39:00","lat":49.220431,"lon":16.571764,"is_passed":false}],"57025":[{"stop_id":"U1766Z2","name":"Vychodilova","arrival_time":"13:39:00","departure_time":"13:39:00","lat":49.220204,"lon":16.571445,"is_passed":false},{"stop_id":"U1528Z6","name":"Přívrat","arrival_time":"13:41:00","departure_time":"13:41:00","lat":49.218109,"lon":16.574404,"is_passed":false},{"stop_id":"U1352Z2","name":"Makovského náměstí","arrival_time":"13:41:00","departure_time":"13:41:00","lat":49.217881,"lon":16.576657,"is_passed":false},{"stop_id":"U1426Z2","name":"Náměstí Svornosti","arrival_time":"13:43:00","departure_time":"13:43:00","lat":49.215179,"lon":16.58299,"is_passed":false},{"stop_id":"U1206Z2","name":"Jindřichova","arrival_time":"13:44:00","departure_time":"13:44:00","lat":49.213132,"lon":16.583163,"is_passed":false},{"stop_id":"U1601Z2","name":"Spojovací","arrival_time":"13:45:00","departure_time":"13:45:00","lat":49.211772,"lon":16.58703,"is_passed":false},{"stop_id":"U1242Z2","name":"Klusáčkova","arrival_time":"13:47:00","departure_time":"13:47:00","lat":49.211903,"lon":16.592875,"is_passed":false},{"stop_id":"U1785Z2","name":"Zemská knihovna","arrival_time":"13:48:00","departure_time":"13:48:00","lat":49.208799,"lon":16.594624,"is_passed":false},{"stop_id":"U1626Z2","name":"Sušilova","arrival_time":"13:50:00","departure_time":"13:50:00","lat":49.204397,"lon":16.598621,"is_passed":false},{"stop_id":"U1587Z2","name":"Smetanova","arrival_time":"13:51:00","departure_time":"13:51:00","lat":49.201271,"lon":16.602293,"is_passed":false},{"stop_id":"U1073Z7","name":"Česká","arrival_time":"13:54:00","departure_time":"13:57:00","lat":49.198331,"lon":16.605663,"is_passed":false}],"57026":[{"stop_id":"U1073Z6","name":"Česká","arrival_time":"13:57:00","departure_time":"13:57:00","lat":49.198291,"lon":16.605232,"is_passed":false},{"stop_id":"U1587Z1","name":"Smetanova","arrival_time":"13:59:00","departure_time":"13:59:00","lat":49.201909,"lon":16.601644,"is_passed":false},{"stop_id":"U1626Z1","name":"Sušilova","arrival_time":"14:00:00","departure_time":"14:00:00","lat":49.204346,"lon":16.598828,"is_passed":false},{"stop_id":"U1785Z1","name":"Zemská knihovna","arrival_time":"14:02:00","departure_time":"14:02:00","lat":49.208934,"lon":16.594822,"is_passed":false},{"stop_id":"U1242Z1","name":"Klusáčkova","arrival_time":"14:03:00","departure_time":"14:03:00","lat":49.212365,"lon":16.592666,"is_passed":false},{"stop_id":"U1601Z1","name":"Spojovací","arrival_time":"14:06:00","departure_time":"14:06:00","lat":49.212099,"lon":16.586305,"is_passed":false},{"stop_id":"U1206Z1","name":"Jindřichova","arrival_time":"14:07:00","departure_time":"14:07:00","lat":49.21326,"lon":16.582924,"is_passed":false},{"stop_id":"U1426Z1","name":"Náměstí Svornosti","arrival_time":"14:08:00","departure_time":"14:08:00","lat":49.215585,"lon":16.582,"is_passed":false},{"stop_id":"U1352Z1","name":"Makovského náměstí","arrival_time":"14:09:00","departure_time":"14:09:00","lat":49.217922,"lon":16.576761,"is_passed":false},{"stop_id":"U1528Z5","name":"Přívrat","arrival_time":"14:10:00","departure_time":"14:10:00","lat":49.218247,"lon":16.574102,"is_passed":false},{"stop_id":"U1766Z1","name":"Vychodilova","arrival_time":"14:12:00","departure_time":"14:24:00","lat":49.220431,"lon":16.571764,"is_passed":false}],"57027":[{"stop_id":"U1766Z2","name":"Vychodilova","arrival_time":"14:24:00","departure_time":"14:24:00","lat":49.220204,"lon":16.571445,"is_passed":false},{"stop_id":"U1528Z6","name":"Přívrat","arrival_time":"14:26:00","departure_time":"14:26:00","lat":49.218109,"lon":16.574404,"is_passed":false},{"stop_id":"U1352Z2","name":"Makovského náměstí","arrival_time":"14:26:00","departure_time":"14:26:00","lat":49.217881,"lon":16.576657,"is_passed":false},{"stop_id":"U1426Z2","name":"Náměstí Svornosti","arrival_time":"14:28:00","departure_time":"14:28:00","lat":49.215179,"lon":16.58299,"is_passed":false},{"stop_id":"U1206Z2","name":"Jindřichova","arrival_time":"14:29:00","departure_time":"14:29:00","lat":49.213132,"lon":16.583163,"is_passed":false},{"stop_id":"U1601Z2","name":"Spojovací","arrival_time":"14:30:00","departure_time":"14:30:00","lat":49.211772,"lon":16.58703,"is_passed":false},{"stop_id":"U1242Z2","name":"Klusáčkova","arrival_time":"14:32:00","departure_time":"14:32:00","lat":49.211903,"lon":16.592875,"is_passed":false},{"stop_id":"U1785Z2","name":"Zemská knihovna","arrival_time":"14:33:00","departure_time":"14:33:00","lat":49.208799,"lon":16.594624,"is_passed":false},{"stop_id":"U1626Z2","name":"Sušilova","arrival_time":"14:35:00","departure_time":"14:35:00","lat":49.204397,"lon":16.598621,"is_passed":false},{"stop_id":"U1587Z2","name":"Smetanova","arrival_time":"14:36:00","departure_time":"14:36:00","lat":49.201271,"lon":16.602293,"is_passed":false},{"stop_id":"U1073Z7","name":"Česká","arrival_time":"14:39:00","departure_time":"14:42:00","lat":49.198331,"lon":16.605663,"is_passed":false}],"57028":[{"stop_id":"U1073Z6","name":"Česká","arrival_time":"14:42:00","departure_time":"14:42:00","lat":49.198291,"lon":16.605232,"is_passed":false},{"stop_id":"U1587Z1","name":"Smetanova","arrival_time":"14:44:00","departure_time":"14:44:00","lat":49.201909,"lon":16.601644,"is_passed":false},{"stop_id":"U1626Z1","name":"Sušilova","arrival_time":"14:45:00","departure_time":"14:45:00","lat":49.204346,"lon":16.598828,"is_passed":false},{"stop_id":"U1785Z1","name":"Zemská knihovna","arrival_time":"14:47:00","departure_time":"14:47:00","lat":49.208934,"lon":16.594822,"is_passed":false},{"stop_id":"U1242Z1","name":"Klusáčkova","arrival_time":"14:48:00","departure_time":"14:48:00","lat":49.212365,"lon":16.592666,"is_passed":false},{"stop_id":"U1601Z1","name":"Spojovací","arrival_time":"14:51:00","departure_time":"14:51:00","lat":49.212099,"lon":16.586305,"is_passed":false},{"stop_id":"U1206Z1","name":"Jindřichova","arrival_time":"14:52:00","departure_time":"14:52:00","lat":49.21326,"lon":16.582924,"is_passed":false},{"stop_id":"U1426Z1","name":"Náměstí Svornosti","arrival_time":"14:53:00","departure_time":"14:53:00","lat":49.215585,"lon":16.582,"is_passed":false},{"stop_id":"U1352Z1","name":"Makovského náměstí","arrival_time":"14:54:00","departure_time":"14:54:00","lat":49.217922,"lon":16.576761,"is_passed":false},{"stop_id":"U1528Z5","name":"Přívrat","arrival_time":"14:55:00","departure_time":"14:55:00","lat":49.218247,"lon":16.574102,"is_passed":false},{"stop_id":"U1766Z1","name":"Vychodilova","arrival_time":"14:57:00","departure_time":"15:09:00","lat":49.220431,"lon":16.571764,"is_passed":false}],"57029":[{"stop_id":"U1766Z2","name":"Vychodilova","arrival_time":"15:09:00","departure_time":"15:09:00","lat":49.220204,"lon":16.571445,"is_passed":false},{"stop_id":"U1528Z6","name":"Přívrat","arrival_time":"15:11:00","departure_time":"15:11:00","lat":49.218109,"lon":16.574404,"is_passed":false},{"stop_id":"U1352Z2","name":"Makovského náměstí","arrival_time":"15:11:00","departure_time":"15:11:00","lat":49.217881,"lon":16.576657,"is_passed":false},{"stop_id":"U1426Z2","name":"Náměstí Svornosti","arrival_time":"15:13:00","departure_time":"15:13:00","lat":49.215179,"lon":16.58299,"is_passed":false},{"stop_id":"U1206Z2","name":"Jindřichova","arrival_time":"15:14:00","departure_time":"15:14:00","lat":49.213132,"lon":16.583163,"is_passed":false},{"stop_id":"U1601Z2","name":"Spojovací","arrival_time":"15:15:00","departure_time":"15:15:00","lat":49.211772,"lon":16.58703,"is_passed":false},{"stop_id":"U1242Z2","name":"Klusáčkova","arrival_time":"15:17:00","departure_time":"15:17:00","lat":49.211903,"lon":16.592875,"is_passed":false},{"stop_id":"U1785Z2","name":"Zemská knihovna","arrival_time":"15:18:00","departure_time":"15:18:00","lat":49.208799,"lon":16.594624,"is_passed":false},{"stop_id":"U1626Z2","name":"Sušilova","arrival_time":"15:20:00","departure_time":"15:20:00","lat":49.204397,"lon":16.598621,"is_passed":false},{"stop_id":"U1587Z2","name":"Smetanova","arrival_time":"15:21:00","departure_time":"15:21:00","lat":49.201271,"lon":16.602293,"is_passed":false},{"stop_id":"U1073Z7","name":"Česká","arrival_time":"15:24:00","departure_time":"15:27:00","lat":49.198331,"lon":16.605663,"is_passed":false}],"57030":[{"stop_id":"U1073Z6","name":"Česká","arrival_time":"15:27:00","departure_time":"15:27:00","lat":49.198291,"lon":16.605232,"is_passed":false},{"stop_id":"U1587Z1","name":"Smetanova","arrival_time":"15:29:00","departure_time":"15:29:00","lat":49.201909,"lon":16.601644,"is_passed":false},{"stop_id":"U1626Z1","name":"Sušilova","arrival_time":"15:30:00","departure_time":"15:30:00","lat":49.204346,"lon":16.598828,"is_passed":false},{"stop_id":"U1785Z1","name":"Zemská knihovna","arrival_time":"15:32:00","departure_time":"15:32:00","lat":49.208934,"lon":16.594822,"is_passed":false},{"stop_id":"U1242Z1","name":"Klusáčkova","arrival_time":"15:33:00","departure_time":"15:33:00","lat":49.212365,"lon":16.592666,"is_passed":false},{"stop_id":"U1601Z1","name":"Spojovací","arrival_time":"15:36:00","departure_time":"15:36:00","lat":49.212099,"lon":16.586305,"is_passed":false},{"stop_id":"U1206Z1","name":"Jindřichova","arrival_time":"15:37:00","departure_time":"15:37:00","lat":49.21326,"lon":16.582924,"is_passed":false},{"stop_id":"U1426Z1","name":"Náměstí Svornosti","arrival_time":"15:38:00","departure_time":"15:38:00","lat":49.215585,"lon":16.582,"is_passed":false},{"stop_id":"U1352Z1","name":"Makovského náměstí","arrival_time":"15:39:00","departure_time":"15:39:00","lat":49.217922,"lon":16.576761,"is_passed":false},{"stop_id":"U1528Z5","name":"Přívrat","arrival_time":"15:40:00","departure_time":"15:40:00","lat":49.218247,"lon":16.574102,"is_passed":false},{"stop_id":"U1766Z1","name":"Vychodilova","arrival_time":"15:42:00","departure_time":"16:09:00","lat":49.220431,"lon":16.571764,"is_passed":false}],"57031":[{"stop_id":"U1766Z2","name":"Vychodilova","arrival_time":"16:09:00","departure_time":"16:09:00","lat":49.220204,"lon":16.571445,"is_passed":false},{"stop_id":"U1528Z6","name":"Přívrat","arrival_time":"16:11:00","departure_time":"16:11:00","lat":49.218109,"lon":16.574404,"is_passed":false},{"stop_id":"U1352Z2","name":"Makovského náměstí","arrival_time":"16:11:00","departure_time":"16:11:00","lat":49.217881,"lon":16.576657,"is_passed":false},{"stop_id":"U1426Z2","name":"Náměstí Svornosti","arrival_time":"16:13:00","departure_time":"16:13:00","lat":49.215179,"lon":16.58299,"is_passed":false},{"stop_id":"U1206Z2","name":"Jindřichova","arrival_time":"16:14:00","departure_time":"16:14:00","lat":49.213132,"lon":16.583163,"is_passed":false},{"stop_id":"U1601Z2","name":"Spojovací","arrival_time":"16:15:00","departure_time":"16:15:00","lat":49.211772,"lon":16.58703,"is_passed":false},{"stop_id":"U1242Z2","name":"Klusáčkova","arrival_time":"16:17:00","departure_time":"16:17:00","lat":49.211903,"lon":16.592875,"is_passed":false},{"stop_id":"U1785Z2","name":"Zemská knihovna","arrival_time":"16:18:00","departure_time":"16:18:00","lat":49.208799,"lon":16.594624,"is_passed":false},{"stop_id":"U1626Z2","name":"Sušilova","arrival_time":"16:20:00","departure_time":"16:20:00","lat":49.204397,"lon":16.598621,"is_passed":false},{"stop_id":"U1587Z2","name":"Smetanova","arrival_time":"16:21:00","departure_time":"16:21:00","lat":49.201271,"lon":16.602293,"is_passed":false},{"stop_id":"U1073Z7","name":"Česká","arrival_time":"16:24:00","departure_time":"16:27:00","lat":49.198331,"lon":16.605663,"is_passed":false}],"57032":[{"stop_id":"U1073Z6","name":"Česká","arrival_time":"16:27:00","departure_time":"16:27:00","lat":49.198291,"lon":16.605232,"is_passed":false},{"stop_id":"U1587Z1","name":"Smetanova","arrival_time":"16:29:00","departure_time":"16:29:00","lat":49.201909,"lon":16.601644,"is_passed":false},{"stop_id":"U1626Z1","name":"Sušilova","arrival_time":"16:30:00","departure_time":"16:30:00","lat":49.204346,"lon":16.598828,"is_passed":false},{"stop_id":"U1785Z1","name":"Zemská knihovna","arrival_time":"16:32:00","departure_time":"16:32:00","lat":49.208934,"lon":16.594822,"is_passed":false},{"stop_id":"U1242Z1","name":"Klusáčkova","arrival_time":"16:33:00","departure_time":"16:33:00","lat":49.212365,"lon":16.592666,"is_passed":false},{"stop_id":"U1601Z1","name":"Spojovací","arrival_time":"16:36:00","departure_time":"16:36:00","lat":49.212099,"lon":16.586305,"is_passed":false},{"stop_id":"U1206Z1","name":"Jindřichova","arrival_time":"16:37:00","departure_time":"16:37:00","lat":49.21326,"lon":16.582924,"is_passed":false},{"stop_id":"U1426Z1","name":"Náměstí Svornosti","arrival_time":"16:38:00","departure_time":"16:38:00","lat":49.215585,"lon":16.582,"is_passed":false},{"stop_id":"U1352Z1","name":"Makovského náměstí","arrival_time":"16:39:00","departure_time":"16:39:00","lat":49.217922,"lon":16.576761,"is_passed":false},{"stop_id":"U1528Z5","name":"Přívrat","arrival_time":"16:40:00","departure_time":"16:40:00","lat":49.218247,"lon":16.574102,"is_passed":false},{"stop_id":"U1766Z1","name":"Vychodilova","arrival_time":"16:42:00","departure_time":"17:09:00","lat":49.220431,"lon":16.571764,"is_passed":false}],"57033":[{"stop_id":"U1766Z2","name":"Vychodilova","arrival_time":"17:09:00","departure_time":"17:09:00","lat":49.220204,"lon":16.571445,"is_passed":false},{"stop_id":"U1528Z6","name":"Přívrat","arrival_time":"17:11:00","departure_time":"17:11:00","lat":49.218109,"lon":16.574404,"is_passed":false},{"stop_id":"U1352Z2","name":"Makovského náměstí","arrival_time":"17:11:00","departure_time":"17:11:00","lat":49.217881,"lon":16.576657,"is_passed":false},{"stop_id":"U1426Z2","name":"Náměstí Svornosti","arrival_time":"17:13:00","departure_time":"17:13:00","lat":49.215179,"lon":16.58299,"is_passed":false},{"stop_id":"U1206Z2","name":"Jindřichova","arrival_time":"17:14:00","departure_time":"17:14:00","lat":49.213132,"lon":16.583163,"is_passed":false},{"stop_id":"U1601Z2","name":"Spojovací","arrival_time":"17:15:00","departure_time":"17:15:00","lat":49.211772,"lon":16.58703,"is_passed":false},{"stop_id":"U1242Z2","name":"Klusáčkova","arrival_time":"17:17:00","departure_time":"17:17:00","lat":49.211903,"lon":16.592875,"is_passed":false},{"stop_id":"U1785Z2","name":"Zemská knihovna","arrival_time":"17:18:00","departure_time":"17:18:00","lat":49.208799,"lon":16.594624,"is_passed":false},{"stop_id":"U1626Z2","name":"Sušilova","arrival_time":"17:20:00","departure_time":"17:20:00","lat":49.204397,"lon":16.598621,"is_passed":false},{"stop_id":"U1587Z2","name":"Smetanova","arrival_time":"17:21:00","departure_time":"17:21:00","lat":49.201271,"lon":16.602293,"is_passed":false},{"stop_id":"U1073Z7","name":"Česká","arrival_time":"17:24:00","departure_time":"17:27:00","lat":49.198331,"lon":16.605663,"is_passed":false}],"57034":[{"stop_id":"U1073Z6","name":"Česká","arrival_time":"17:27:00","departure_time":"17:27:00","lat":49.198291,"lon":16.605232,"is_passed":false},{"stop_id":"U1587Z1","name":"Smetanova","arrival_time":"17:29:00","departure_time":"17:29:00","lat":49.201909,"lon":16.601644,"is_passed":false},{"stop_id":"U1626Z1","name":"Sušilova","arrival_time":"17:30:00","departure_time":"17:30:00","lat":49.204346,"lon":16.598828,"is_passed":false},{"stop_id":"U1785Z1","name":"Zemská knihovna","arrival_time":"17:32:00","departure_time":"17:32:00","lat":49.208934,"lon":16.594822,"is_passed":false},{"stop_id":"U1242Z1","name":"Klusáčkova","arrival_time":"17:33:00","departure_time":"17:33:00","lat":49.212365,"lon":16.592666,"is_passed":false},{"stop_id":"U1601Z1","name":"Spojovací","arrival_time":"17:36:00","departure_time":"17:36:00","lat":49.212099,"lon":16.586305,"is_passed":false},{"stop_id":"U1206Z1","name":"Jindřichova","arrival_time":"17:37:00","departure_time":"17:37:00","lat":49.21326,"lon":16.582924,"is_passed":false},{"stop_id":"U1426Z1","name":"Náměstí Svornosti","arrival_time":"17:38:00","departure_time":"17:38:00","lat":49.215585,"lon":16.582,"is_passed":false},{"stop_id":"U1352Z1","name":"Makovského náměstí","arrival_time":"17:39:00","departure_time":"17:39:00","lat":49.217922,"lon":16.576761,"is_passed":false},{"stop_id":"U1528Z5","name":"Přívrat","arrival_time":"17:40:00","departure_time":"17:40:00","lat":49.218247,"lon":16.574102,"is_passed":false},{"stop_id":"U1766Z1","name":"Vychodilova","arrival_time":"17:42:00","departure_time":"17:57:00","lat":49.220431,"lon":16.571764,"is_passed":false}],"57035":[{"stop_id":"U1766Z2","name":"Vychodilova","arrival_time":"17:57:00","departure_time":"17:57:00","lat":49.220204,"lon":16.571445,"is_passed":false},{"stop_id":"U1528Z6","name":"Přívrat","arrival_time":"17:59:00","departure_time":"17:59:00","lat":49.218109,"lon":16.574404,"is_passed":false},{"stop_id":"U1352Z2","name":"Makovského náměstí","arrival_time":"17:59:00","departure_time":"17:59:00","lat":49.217881,"lon":16.576657,"is_passed":false},{"stop_id":"U1426Z2","name":"Náměstí Svornosti","arrival_time":"18:01:00","departure_time":"18:01:00","lat":49.215179,"lon":16.58299,"is_passed":false},{"stop_id":"U1206Z2","name":"Jindřichova","arrival_time":"18:02:00","departure_time":"18:02:00","lat":49.213132,"lon":16.583163,"is_passed":false},{"stop_id":"U1601Z2","name":"Spojovací","arrival_time":"18:03:00","departure_time":"18:03:00","lat":49.211772,"lon":16.58703,"is_passed":false},{"stop_id":"U1242Z2","name":"Klusáčkova","arrival_time":"18:05:00","departure_time":"18:05:00","lat":49.211903,"lon":16.592875,"is_passed":false},{"stop_id":"U1785Z2","name":"Zemská knihovna","arrival_time":"18:06:00","departure_time":"18:06:00","lat":49.208799,"lon":16.594624,"is_passed":false},{"stop_id":"U1626Z2","name":"Sušilova","arrival_time":"18:08:00","departure_time":"18:08:00","lat":49.204397,"lon":16.598621,"is_passed":false},{"stop_id":"U1587Z2","name":"Smetanova","arrival_time":"18:09:00","departure_time":"18:09:00","lat":49.201271,"lon":16.602293,"is_passed":false},{"stop_id":"U1073Z7","name":"Česká","arrival_time":"18:11:00","departure_time":"18:13:00","lat":49.198331,"lon":16.605663,"is_passed":false}],"57036":[{"stop_id":"U1073Z6","name":"Česká","arrival_time":"18:13:00","departure_time":"18:13:00","lat":49.198291,"lon":16.605232,"is_passed":false},{"stop_id":"U1587Z1","name":"Smetanova","arrival_time":"18:15:00","departure_time":"18:15:00","lat":49.201909,"lon":16.601644,"is_passed":false},{"stop_id":"U1626Z1","name":"Sušilova","arrival_time":"18:16:00","departure_time":"18:16:00","lat":49.204346,"lon":16.598828,"is_passed":false},{"stop_id":"U1785Z1","name":"Zemská knihovna","arrival_time":"18:17:00","departure_time":"18:17:00","lat":49.208934,"lon":16.594822,"is_passed":false},{"stop_id":"U1242Z1","name":"Klusáčkova","arrival_time":"18:18:00","departure_time":"18:18:00","lat":49.212365,"lon":16.592666,"is_passed":false},{"stop_id":"U1601Z1","name":"Spojovací","arrival_time":"18:21:00","departure_time":"18:21:00","lat":49.212099,"lon":16.586305,"is_passed":false},{"stop_id":"U1206Z1","name":"Jindřichova","arrival_time":"18:22:00","departure_time":"18:22:00","lat":49.21326,"lon":16.582924,"is_passed":false},{"stop_id":"U1426Z1","name":"Náměstí Svornosti","arrival_time":"18:23:00","departure_time":"18:23:00","lat":49.215585,"lon":16.582,"is_passed":false},{"stop_id":"U1352Z1","name":"Makovského náměstí","arrival_time":"18:24:00","departure_time":"18:24:00","lat":49.217922,"lon":16.576761,"is_passed":false},{"stop_id":"U1528Z5","name":"Přívrat","arrival_time":"18:25:00","departure_time":"18:25:00","lat":49.218247,"lon":16.574102,"is_passed":false},{"stop_id":"U1766Z1","name":"Vychodilova","arrival_time":"18:27:00","departure_time":"18:57:00","lat":49.220431,"lon":16.571764,"is_passed":false}],"57037":[{"stop_id":"U1766Z2","name":"Vychodilova","arrival_time":"18:57:00","departure_time":"18:57:00","lat":49.220204,"lon":16.571445,"is_passed":false},{"stop_id":"U1528Z6","name":"Přívrat","arrival_time":"18:59:00","departure_time":"18:59:00","lat":49.218109,"lon":16.574404,"is_passed":false},{"stop_id":"U1352Z2","name":"Makovského náměstí","arrival_time":"18:59:00","departure_time":"18:59:00","lat":49.217881,"lon":16.576657,"is_passed":false},{"stop_id":"U1426Z2","name":"Náměstí Svornosti","arrival_time":"19:01:00","departure_time":"19:01:00","lat":49.215179,"lon":16.58299,"is_passed":false},{"stop_id":"U1206Z2","name":"Jindřichova","arrival_time":"19:02:00","departure_time":"19:02:00","lat":49.213132,"lon":16.583163,"is_passed":false},{"stop_id":"U1601Z2","name":"Spojovací","arrival_time":"19:03:00","departure_time":"19:03:00","lat":49.211772,"lon":16.58703,"is_passed":false},{"stop_id":"U1242Z2","name":"Klusáčkova","arrival_time":"19:05:00","departure_time":"19:05:00","lat":49.211903,"lon":16.592875,"is_passed":false},{"stop_id":"U1785Z2","name":"Zemská knihovna","arrival_time":"19:06:00","departure_time":"19:06:00","lat":49.208799,"lon":16.594624,"is_passed":false},{"stop_id":"U1626Z2","name":"Sušilova","arrival_time":"19:08:00","departure_time":"19:08:00","lat":49.204397,"lon":16.598621,"is_passed":false},{"stop_id":"U1587Z2","name":"Smetanova","arrival_time":"19:09:00","departure_time":"19:09:00","lat":49.201271,"lon":16.602293,"is_passed":false},{"stop_id":"U1073Z7","name":"Česká","arrival_time":"19:11:00","departure_time":"19:13:00","lat":49.198331,"lon":16.605663,"is_passed":false}],"57038":[{"stop_id":"U1073Z6","name":"Česká","arrival_time":"19:13:00","departure_time":"19:13:00","lat":49.198291,"lon":16.605232,"is_passed":false},{"stop_id":"U1587Z1","name":"Smetanova","arrival_time":"19:15:00","departure_time":"19:15:00","lat":49.201909,"lon":16.601644,"is_passed":false},{"stop_id":"U1626Z1","name":"Sušilova","arrival_time":"19:16:00","departure_time":"19:16:00","lat":49.204346,"lon":16.598828,"is_passed":false},{"stop_id":"U1785Z1","name":"Zemská knihovna","arrival_time":"19:17:00","departure_time":"19:17:00","lat":49.208934,"lon":16.594822,"is_passed":false},{"stop_id":"U1242Z1","name":"Klusáčkova","arrival_time":"19:18:00","departure_time":"19:18:00","lat":49.212365,"lon":16.592666,"is_passed":false},{"stop_id":"U1601Z1","name":"Spojovací","arrival_time":"19:21:00","departure_time":"19:21:00","lat":49.212099,"lon":16.586305,"is_passed":false},{"stop_id":"U1206Z1","name":"Jindřichova","arrival_time":"19:22:00","departure_time":"19:22:00","lat":49.21326,"lon":16.582924,"is_passed":false},{"stop_id":"U1426Z1","name":"Náměstí Svornosti","arrival_time":"19:23:00","departure_time":"19:23:00","lat":49.215585,"lon":16.582,"is_passed":false},{"stop_id":"U1352Z1","name":"Makovského náměstí","arrival_time":"19:24:00","departure_time":"19:24:00","lat":49.217922,"lon":16.576761,"is_passed":false},{"stop_id":"U1528Z5","name":"Přívrat","arrival_time":"19:25:00","departure_time":"19:25:00","lat":49.218247,"lon":16.574102,"is_passed":false},{"stop_id":"U1766Z1","name":"Vychodilova","arrival_time":"19:27:00","departure_time":"19:37:00","lat":49.220431,"lon":16.571764,"is_passed":false}],"57039":[{"stop_id":"U1766Z2","name":"Vychodilova","arrival_time":"19:37:00","departure_time":"19:37:00","lat":49.220204,"lon":16.571445,"is_passed":false},{"stop_id":"U1528Z6","name":"Přívrat","arrival_time":"19:39:00","departure_time":"19:39:00","lat":49.218109,"lon":16.574404,"is_passed":false},{"stop_id":"U1352Z2","name":"Makovského náměstí","arrival_time":"19:39:00","departure_time":"19:39:00","lat":49.217881,"lon":16.576657,"is_passed":false},{"stop_id":"U1426Z2","name":"Náměstí Svornosti","arrival_time":"19:41:00","departure_time":"19:41:00","lat":49.215179,"lon":16.58299,"is_passed":false},{"stop_id":"U1206Z2","name":"Jindřichova","arrival_time":"19:42:00","departure_time":"19:42:00","lat":49.213132,"lon":16.583163,"is_passed":false},{"stop_id":"U1601Z2","name":"Spojovací","arrival_time":"19:43:00","departure_time":"19:43:00","lat":49.211772,"lon":16.58703,"is_passed":false},{"stop_id":"U1242Z2","name":"Klusáčkova","arrival_time":"19:45:00","departure_time":"19:45:00","lat":49.211903,"lon":16.592875,"is_passed":false},{"stop_id":"U1785Z2","name":"Zemská knihovna","arrival_time":"19:46:00","departure_time":"19:46:00","lat":49.208799,"lon":16.594624,"is_passed":false},{"stop_id":"U1626Z2","name":"Sušilova","arrival_time":"19:48:00","departure_time":"19:48:00","lat":49.204397,"lon":16.598621,"is_passed":false},{"stop_id":"U1587Z2","name":"Smetanova","arrival_time":"19:49:00","departure_time":"19:49:00","lat":49.201271,"lon":16.602293,"is_passed":false},{"stop_id":"U1073Z7","name":"Česká","arrival_time":"19:51:00","departure_time":"19:53:00","lat":49.198331,"lon":16.605663,"is_passed":false}],"57040":[{"stop_id":"U1073Z6","name":"Česká","arrival_time":"19:53:00","departure_time":"19:53:00","lat":49.198291,"lon":16.605232,"is_passed":false},{"stop_id":"U1587Z1","name":"Smetanova","arrival_time":"19:55:00","departure_time":"19:55:00","lat":49.201909,"lon":16.601644,"is_passed":false},{"stop_id":"U1626Z1","name":"Sušilova","arrival_time":"19:56:00","departure_time":"19:56:00","lat":49.204346,"lon":16.598828,"is_passed":false},{"stop_id":"U1785Z1","name":"Zemská knihovna","arrival_time":"19:57:00","departure_time":"19:57:00","lat":49.208934,"lon":16.594822,"is_passed":false},{"stop_id":"U1242Z1","name":"Klusáčkova","arrival_time":"19:58:00","departure_time":"19:58:00","lat":49.212365,"lon":16.592666,"is_passed":false},{"stop_id":"U1601Z1","name":"Spojovací","arrival_time":"20:01:00","departure_time":"20:01:00","lat":49.212099,"lon":16.586305,"is_passed":false},{"stop_id":"U1206Z1","name":"Jindřichova","arrival_time":"20:02:00","departure_time":"20:02:00","lat":49.21326,"lon":16.582924,"is_passed":false},{"stop_id":"U1426Z1","name":"Náměstí Svornosti","arrival_time":"20:03:00","departure_time":"20:03:00","lat":49.215585,"lon":16.582,"is_passed":false},{"stop_id":"U1352Z1","name":"Makovského náměstí","arrival_time":"20:04:00","departure_time":"20:04:00","lat":49.217922,"lon":16.576761,"is_passed":false},{"stop_id":"U1528Z5","name":"Přívrat","arrival_time":"20:05:00","departure_time":"20:05:00","lat":49.218247,"lon":16.574102,"is_passed":false},{"stop_id":"U1766Z1","name":"Vychodilova","arrival_time":"20:07:00","departure_time":"20:19:00","lat":49.220431,"lon":16.571764,"is_passed":false}],"57041":[{"stop_id":"U1766Z2","name":"Vychodilova","arrival_time":"20:19:00","departure_time":"20:19:00","lat":49.220204,"lon":16.571445,"is_passed":false},{"stop_id":"U1528Z6","name":"Přívrat","arrival_time":"20:21:00","departure_time":"20:21:00","lat":49.218109,"lon":16.574404,"is_passed":false},{"stop_id":"U1352Z2","name":"Makovského náměstí","arrival_time":"20:21:00","departure_time":"20:21:00","lat":49.217881,"lon":16.576657,"is_passed":false},{"stop_id":"U1426Z2","name":"Náměstí Svornosti","arrival_time":"20:23:00","departure_time":"20:23:00","lat":49.215179,"lon":16.58299,"is_passed":false},{"stop_id":"U1206Z2","name":"Jindřichova","arrival_time":"20:24:00","departure_time":"20:24:00","lat":49.213132,"lon":16.583163,"is_passed":false},{"stop_id":"U1601Z2","name":"Spojovací","arrival_time":"20:25:00","departure_time":"20:25:00","lat":49.211772,"lon":16.58703,"is_passed":false},{"stop_id":"U1242Z2","name":"Klusáčkova","arrival_time":"20:27:00","departure_time":"20:27:00","lat":49.211903,"lon":16.592875,"is_passed":false},{"stop_id":"U1785Z2","name":"Zemská knihovna","arrival_time":"20:28:00","departure_time":"20:28:00","lat":49.208799,"lon":16.594624,"is_passed":false},{"stop_id":"U1626Z2","name":"Sušilova","arrival_time":"20:30:00","departure_time":"20:30:00","lat":49.204397,"lon":16.598621,"is_passed":false},{"stop_id":"U1587Z2","name":"Smetanova","arrival_time":"20:31:00","departure_time":"20:31:00","lat":49.201271,"lon":16.602293,"is_passed":false},{"stop_id":"U1073Z7","name":"Česká","arrival_time":"20:33:00","departure_time":"20:35:00","lat":49.198331,"lon":16.605663,"is_passed":false}],"57042":[{"stop_id":"U1073Z6","name":"Česká","arrival_time":"20:35:00","departure_time":"20:35:00","lat":49.198291,"lon":16.605232,"is_passed":false},{"stop_id":"U1587Z1","name":"Smetanova","arrival_time":"20:37:00","departure_time":"20:37:00","lat":49.201909,"lon":16.601644,"is_passed":false},{"stop_id":"U1626Z1","name":"Sušilova","arrival_time":"20:38:00","departure_time":"20:38:00","lat":49.204346,"lon":16.598828,"is_passed":false},{"stop_id":"U1785Z1","name":"Zemská knihovna","arrival_time":"20:39:00","departure_time":"20:39:00","lat":49.208934,"lon":16.594822,"is_passed":false},{"stop_id":"U1242Z1","name":"Klusáčkova","arrival_time":"20:40:00","departure_time":"20:40:00","lat":49.212365,"lon":16.592666,"is_passed":false},{"stop_id":"U1601Z1","name":"Spojovací","arrival_time":"20:43:00","departure_time":"20:43:00","lat":49.212099,"lon":16.586305,"is_passed":false},{"stop_id":"U1206Z1","name":"Jindřichova","arrival_time":"20:44:00","departure_time":"20:44:00","lat":49.21326,"lon":16.582924,"is_passed":false},{"stop_id":"U1426Z1","name":"Náměstí Svornosti","arrival_time":"20:45:00","departure_time":"20:45:00","lat":49.215585,"lon":16.582,"is_passed":false},{"stop_id":"U1352Z1","name":"Makovského náměstí","arrival_time":"20:46:00","departure_time":"20:46:00","lat":49.217922,"lon":16.576761,"is_passed":false},{"stop_id":"U1528Z5","name":"Přívrat","arrival_time":"20:47:00","departure_time":"20:47:00","lat":49.218247,"lon":16.574102,"is_passed":false},{"stop_id":"U1766Z1","name":"Vychodilova","arrival_time":"20:49:00","departure_time":"21:19:00","lat":49.220431,"lon":16.571764,"is_passed":false}],"57043":[{"stop_id":"U1766Z2","name":"Vychodilova","arrival_time":"21:19:00","departure_time":"21:19:00","lat":49.220204,"lon":16.571445,"is_passed":false},{"stop_id":"U1528Z6","name":"Přívrat","arrival_time":"21:20:00","departure_time":"21:20:00","lat":49.218109,"lon":16.574404,"is_passed":false},{"stop_id":"U1352Z2","name":"Makovského náměstí","arrival_time":"21:20:00","departure_time":"21:20:00","lat":49.217881,"lon":16.576657,"is_passed":false},{"stop_id":"U1426Z2","name":"Náměstí Svornosti","arrival_time":"21:22:00","departure_time":"21:22:00","lat":49.215179,"lon":16.58299,"is_passed":false},{"stop_id":"U1206Z2","name":"Jindřichova","arrival_time":"21:23:00","departure_time":"21:23:00","lat":49.213132,"lon":16.583163,"is_passed":false},{"stop_id":"U1601Z2","name":"Spojovací","arrival_time":"21:24:00","departure_time":"21:24:00","lat":49.211772,"lon":16.58703,"is_passed":false},{"stop_id":"U1242Z2","name":"Klusáčkova","arrival_time":"21:26:00","departure_time":"21:26:00","lat":49.211903,"lon":16.592875,"is_passed":false},{"stop_id":"U1785Z2","name":"Zemská knihovna","arrival_time":"21:27:00","departure_time":"21:27:00","lat":49.208799,"lon":16.594624,"is_passed":false},{"stop_id":"U1626Z2","name":"Sušilova","arrival_time":"21:29:00","departure_time":"21:29:00","lat":49.204397,"lon":16.598621,"is_passed":false},{"stop_id":"U1587Z2","name":"Smetanova","arrival_time":"21:30:00","departure_time":"21:30:00","lat":49.201271,"lon":16.602293,"is_passed":false},{"stop_id":"U1073Z7","name":"Česká","arrival_time":"21:32:00","departure_time":"21:34:00","lat":49.198331,"lon":16.605663,"is_passed":false}],"57044":[{"stop_id":"U1073Z6","name":"Česká","arrival_time":"21:34:00","departure_time":"21:34:00","lat":49.198291,"lon":16.605232,"is_passed":false},{"stop_id":"U1587Z1","name":"Smetanova","arrival_time":"21:36:00","departure_time":"21:36:00","lat":49.201909,"lon":16.601644,"is_passed":false},{"stop_id":"U1626Z1","name":"Sušilova","arrival_time":"21:37:00","departure_time":"21:37:00","lat":49.204346,"lon":16.598828,"is_passed":false},{"stop_id":"U1785Z1","name":"Zemská knihovna","arrival_time":"21:38:00","departure_time":"21:38:00","lat":49.208934,"lon":16.594822,"is_passed":false},{"stop_id":"U1242Z1","name":"Klusáčkova","arrival_time":"21:39:00","departure_time":"21:39:00","lat":49.212365,"lon":16.592666,"is_passed":false},{"stop_id":"U1601Z1","name":"Spojovací","arrival_time":"21:42:00","departure_time":"21:42:00","lat":49.212099,"lon":16.586305,"is_passed":false},{"stop_id":"U1206Z1","name":"Jindřichova","arrival_time":"21:43:00","departure_time":"21:43:00","lat":49.21326,"lon":16.582924,"is_passed":false},{"stop_id":"U1426Z1","name":"Náměstí Svornosti","arrival_time":"21:44:00","departure_time":"21:44:00","lat":49.215585,"lon":16.582,"is_passed":false},{"stop_id":"U1352Z1","name":"Makovského náměstí","arrival_time":"21:45:00","departure_time":"21:45:00","lat":49.217922,"lon":16.576761,"is_passed":false},{"stop_id":"U1528Z5","name":"Přívrat","arrival_time":"21:46:00","departure_time":"21:46:00","lat":49.218247,"lon":16.574102,"is_passed":false},{"stop_id":"U1766Z1","name":"Vychodilova","arrival_time":"21:48:00","departure_time":"21:50:00","lat":49.220431,"lon":16.571764,"is_passed":false}],"57045":[{"stop_id":"U1766Z2","name":"Vychodilova","arrival_time":"15:24:00","departure_time":"15:24:00","lat":49.220204,"lon":16.571445,"is_passed":false},{"stop_id":"U1528Z6","name":"Přívrat","arrival_time":"15:26:00","departure_time":"15:26:00","lat":49.218109,"lon":16.574404,"is_passed":false},{"stop_id":"U1352Z2","name":"Makovského náměstí","arrival_time":"15:26:00","departure_time":"15:26:00","lat":49.217881,"lon":16.576657,"is_passed":false},