{"570":[{"stop_id":"U16149Z10","name":"Sokolnice, železniční stanice","arrival_time":"14:40:00","departure_time":"14:40:00","lat":49.108029,"lon":16.733459,"is_passed":false},{"stop_id":"U1183Z10","name":"Chrlice, nádraží","arrival_time":"14:45:00","departure_time":"14:46:00","lat":49.132031,"lon":16.657232,"is_passed":false},{"stop_id":"U1146Z99","name":"Hlavní nádraží","arrival_time":"14:55:00","departure_time":"15:00:00","lat":49.19035,"lon":16.612342,"is_passed":false},{"stop_id":"U1809Z10","name":"Židenice, nádraží","arrival_time":"15:04:00","departure_time":"15:05:00","lat":49.204282,"lon":16.636042,"is_passed":false},{"stop_id":"U12158Z10","name":"Bílovice nad Svitavou, žel. stanice","arrival_time":"15:10:00","departure_time":"15:11:00","lat":49.242715,"lon":16.673677,"is_passed":false},{"stop_id":"U22101Z1","name":"Babice nad Svitavou","arrival_time":"15:15:00","departure_time":"15:15:00","lat":49.276645,"lon":16.673012,"is_passed":false},{"stop_id":"U12230Z10","name":"Adamov, železniční stanice","arrival_time":"15:18:00","departure_time":"15:19:00","lat":49.295341,"lon":16.663538,"is_passed":false},{"stop_id":"U12231Z10","name":"Adamov, železniční zastávka","arrival_time":"15:20:00","departure_time":"15:21:00","lat":49.300671,"lon":16.650653,"is_passed":false},{"stop_id":"U12342Z30","name":"Blansko, aut. st.","arrival_time":"15:26:00","departure_time":"15:28:00","lat":49.352753,"lon":16.646848,"is_passed":false},{"stop_id":"U22302Z1","name":"Blansko město","arrival_time":"15:30:00","departure_time":"15:31:00","lat":49.360996,"lon":16.639464,"is_passed":false},{"stop_id":"U22301Z1","name":"Dolní Lhota","arrival_time":"15:33:00","departure_time":"15:34:00","lat":49.386917,"lon":16.633978,"is_passed":false},{"stop_id":"U12439Z50","name":"Rájec-Jestřebí, železniční stanice","arrival_time":"15:36:00","departure_time":"15:37:00","lat":49.408206,"lon":16.627711,"is_passed":false},{"stop_id":"U12511Z50","name":"Doubravice, žel.st.","arrival_time":"15:40:00","departure_time":"15:40:00","lat":49.438707,"lon":16.621809,"is_passed":false},{"stop_id":"U12676Z50","name":"Skalice nad Svitavou, žel.st.","arrival_time":"15:45:00","departure_time":"15:51:00","lat":49.480123,"lon":16.609726,"is_passed":false},{"stop_id":"U22602Z1","name":"Svitávka","arrival_time":"15:53:00","departure_time":"15:54:00","lat":49.499434,"lon":16.599208,"is_passed":false},{"stop_id":"U22701Z1","name":"Zboněk","arrival_time":"15:56:00","departure_time":"15:56:00","lat":49.521608,"lon":16.583438,"is_passed":false},{"stop_id":"U22702Z1","name":"Letovice zastávka","arrival_time":"15:59:00","departure_time":"15:59:00","lat":49.535496,"lon":16.576998,"is_passed":false},{"stop_id":"U12736Z50","name":"Letovice, železniční stanice","arrival_time":"16:02:00","departure_time":"17:57:00","lat":49.555973,"lon":16.570906,"is_passed":false}],"5700":[{"stop_id":"U14213Z1","name":"Radostice, kostel","arrival_time":"22:00:00","departure_time":"22:00:00","lat":49.131522,"lon":16.477831,"is_passed":false},{"stop_id":"U14209Z2","name":"Prštice, u zámku","arrival_time":"22:03:00","departure_time":"22:03:00","lat":49.118063,"lon":16.473357,"is_passed":false},{"stop_id":"U14208Z2","name":"Prštice, rozcestí Hlína","arrival_time":"22:04:00","departure_time":"22:04:00","lat":49.113508,"lon":16.468452,"is_passed":false},{"stop_id":"U14210Z2","name":"Silůvky","arrival_time":"22:06:00","departure_time":"22:06:00","lat":49.105918,"lon":16.468362,"is_passed":false},{"stop_id":"U14203Z2","name":"Ořechov, kravín","arrival_time":"22:09:00","departure_time":"22:09:00","lat":49.10861,"lon":16.496173,"is_passed":false},{"stop_id":"U14201Z2","name":"Ořechov, Jeřábkova","arrival_time":"22:11:00","departure_time":"22:11:00","lat":49.108927,"lon":16.512613,"is_passed":false},{"stop_id":"U14204Z2","name":"Ořechov, obecní úřad","arrival_time":"22:13:00","departure_time":"22:13:00","lat":49.111497,"lon":16.51816,"is_passed":false},{"stop_id":"U14207Z2","name":"Ořechov, zdravotní středisko","arrival_time":"22:15:00","departure_time":"22:15:00","lat":49.11048,"lon":16.527158,"is_passed":false},{"stop_id":"U14206Z2","name":"Ořechov, tábor","arrival_time":"22:16:00","departure_time":"22:16:00","lat":49.11015,"lon":16.539909,"is_passed":false},{"stop_id":"U15101Z2","name":"Hajany","arrival_time":"22:18:00","departure_time":"22:18:00","lat":49.110659,"lon":16.554994,"is_passed":false},{"stop_id":"U15162Z2","name":"Želešice, u dálnice","arrival_time":"22:20:00","departure_time":"22:20:00","lat":49.115092,"lon":16.569087,"is_passed":false},{"stop_id":"U15180Z2","name":"Želešice, u Sulzrů","arrival_time":"22:22:00","departure_time":"22:22:00","lat":49.116762,"lon":16.577892,"is_passed":false},{"stop_id":"U15120Z2","name":"Želešice, hostinec","arrival_time":"22:23:00","departure_time":"22:23:00","lat":49.116718,"lon":16.581256,"is_passed":false},{"stop_id":"U15121Z2","name":"Želešice, na kopci","arrival_time":"22:24:00","departure_time":"22:24:00","lat":49.118595,"lon":16.593624,"is_passed":false},{"stop_id":"U15134Z1","name":"Modřice, smyčka","arrival_time":"22:28:00","departure_time":"22:28:00","lat":49.127138,"lon":16.604706,"is_passed":false},{"stop_id":"U15122Z2","name":"Modřice, Brněnská","arrival_time":"22:28:00","departure_time":"22:28:00","lat":49.129392,"lon":16.604987,"is_passed":false},{"stop_id":"U15140Z3","name":"Modřice, železniční stanice","arrival_time":"22:31:00","departure_time":"22:31:00","lat":49.133518,"lon":16.606731,"is_passed":false},{"stop_id":"U15126Z2","name":"Modřice, Husova","arrival_time":"22:32:00","departure_time":"22:32:00","lat":49.132153,"lon":16.612307,"is_passed":false},{"stop_id":"U15127Z1","name":"Modřice, Masarykova","arrival_time":"22:33:00","departure_time":"22:33:00","lat":49.130994,"lon":16.614563,"is_passed":false},{"stop_id":"U15129Z1","name":"Modřice, náměstí","arrival_time":"22:35:00","departure_time":"22:35:00","lat":49.127673,"lon":16.615841,"is_passed":false},{"stop_id":"U15139Z1","name":"Modřice, Za mlýnem","arrival_time":"22:36:00","departure_time":"22:36:00","lat":49.130699,"lon":16.624761,"is_passed":false},{"stop_id":"U15124Z1","name":"Modřice, Drůbežářské závody","arrival_time":"22:37:00","departure_time":"22:37:00","lat":49.133319,"lon":16.63039,"is_passed":false},{"stop_id":"U15130Z3","name":"Modřice, Olympia","arrival_time":"22:40:00","departure_time":"22:47:00","lat":49.139507,"lon":16.633749,"is_passed":false}],"5701":[{"stop_id":"U15130Z1","name":"Modřice, Olympia","arrival_time":"22:47:00","departure_time":"22:47:00","lat":49.139278,"lon":16.634036,"is_passed":false},{"stop_id":"U15132Z2","name":"Modřice, Olympia jih","arrival_time":"22:48:00","departure_time":"22:48:00","lat":49.135069,"lon":16.633864,"is_passed":false},{"stop_id":"U15124Z2","name":"Modřice, Drůbežářské závody","arrival_time":"22:49:00","departure_time":"22:49:00","lat":49.13409,"lon":16.631493,"is_passed":false},{"stop_id":"U15129Z2","name":"Modřice, náměstí","arrival_time":"22:51:00","departure_time":"22:51:00","lat":49.127756,"lon":16.616081,"is_passed":false},{"stop_id":"U15127Z2","name":"Modřice, Masarykova","arrival_time":"22:53:00","departure_time":"22:53:00","lat":49.131296,"lon":16.614624,"is_passed":false},{"stop_id":"U15126Z1","name":"Modřice, Husova","arrival_time":"22:54:00","departure_time":"22:54:00","lat":49.132247,"lon":16.61201,"is_passed":false},{"stop_id":"U15140Z4","name":"Modřice, železniční stanice","arrival_time":"22:56:00","departure_time":"22:56:00","lat":49.133918,"lon":16.606723,"is_passed":false},{"stop_id":"U15134Z2","name":"Modřice, smyčka","arrival_time":"23:00:00","departure_time":"23:00:00","lat":49.126517,"lon":16.604633,"is_passed":false},{"stop_id":"U15137Z4","name":"Modřice, Tyršova","arrival_time":"23:01:00","departure_time":"23:01:00","lat":49.129402,"lon":16.603203,"is_passed":false},{"stop_id":"U15121Z1","name":"Želešice, na kopci","arrival_time":"23:04:00","departure_time":"23:04:00","lat":49.118092,"lon":16.59048,"is_passed":false},{"stop_id":"U15120Z1","name":"Želešice, hostinec","arrival_time":"23:05:00","departure_time":"23:05:00","lat":49.1169,"lon":16.581776,"is_passed":false},{"stop_id":"U15180Z1","name":"Želešice, u Sulzrů","arrival_time":"23:05:00","departure_time":"23:05:00","lat":49.11668,"lon":16.577048,"is_passed":false},{"stop_id":"U15162Z1","name":"Želešice, u dálnice","arrival_time":"23:06:00","departure_time":"23:06:00","lat":49.115165,"lon":16.56894,"is_passed":false},{"stop_id":"U15101Z1","name":"Hajany","arrival_time":"23:08:00","departure_time":"23:08:00","lat":49.110681,"lon":16.55513,"is_passed":false},{"stop_id":"U14206Z1","name":"Ořechov, tábor","arrival_time":"23:10:00","departure_time":"23:10:00","lat":49.110213,"lon":16.539938,"is_passed":false},{"stop_id":"U14207Z1","name":"Ořechov, zdravotní středisko","arrival_time":"23:11:00","departure_time":"23:11:00","lat":49.110487,"lon":16.526989,"is_passed":false},{"stop_id":"U14204Z1","name":"Ořechov, obecní úřad","arrival_time":"23:12:00","departure_time":"23:12:00","lat":49.111535,"lon":16.518505,"is_passed":false},{"stop_id":"U14201Z1","name":"Ořechov, Jeřábkova","arrival_time":"23:14:00","departure_time":"23:14:00","lat":49.108887,"lon":16.512248,"is_passed":false},{"stop_id":"U14203Z1","name":"Ořechov, kravín","arrival_time":"23:15:00","departure_time":"23:15:00","lat":49.108683,"lon":16.49674,"is_passed":false},{"stop_id":"U14210Z1","name":"Silůvky","arrival_time":"23:18:00","departure_time":"23:18:00","lat":49.105977,"lon":16.468112,"is_passed":false},{"stop_id":"U14208Z1","name":"Prštice, rozcestí Hlína","arrival_time":"23:20:00","departure_time":"23:20:00","lat":49.113498,"lon":16.46853,"is_passed":false},{"stop_id":"U14209Z1","name":"Prštice, u zámku","arrival_time":"23:21:00","departure_time":"23:21:00","lat":49.117985,"lon":16.473368,"is_passed":false},{"stop_id":"U14213Z1","name":"Radostice, kostel","arrival_time":"23:25:00","departure_time":"23:25:00","lat":49.131522,"lon":16.477831,"is_passed":false}],"5702":[{"stop_id":"U14213Z1","name":"Radostice, kostel","arrival_time":"4:30:00","departure_time":"4:30:00","lat":49.131522,"lon":16.477831,"is_passed":false},{"stop_id":"U14209Z2","name":"Prštice, u zámku","arrival_time":"4:33:00","departure_time":"4:33:00","lat":49.118063,"lon":16.473357,"is_passed":false},{"stop_id":"U14208Z2","name":"Prštice, rozcestí Hlína","arrival_time":"4:34:00","departure_time":"4:34:00","lat":49.113508,"lon":16.468452,"is_passed":false},{"stop_id":"U14210Z2","name":"Silůvky","arrival_time":"4:36:00","departure_time":"4:36:00","lat":49.105918,"lon":16.468362,"is_passed":false},{"stop_id":"U14203Z2","name":"Ořechov, kravín","arrival_time":"4:39:00","departure_time":"4:39:00","lat":49.10861,"lon":16.496173,"is_passed":false},{"stop_id":"U14201Z2","name":"Ořechov, Jeřábkova","arrival_time":"4:41:00","departure_time":"4:41:00","lat":49.108927,"lon":16.512613,"is_passed":false},{"stop_id":"U14204Z2","name":"Ořechov, obecní úřad","arrival_time":"4:43:00","departure_time":"4:43:00","lat":49.111497,"lon":16.51816,"is_passed":false},{"stop_id":"U14207Z2","name":"Ořechov, zdravotní středisko","arrival_time":"4:45:00","departure_time":"4:45:00","lat":49.11048,"lon":16.527158,"is_passed":false},{"stop_id":"U14206Z2","name":"Ořechov, tábor","arrival_time":"4:46:00","departure_time":"4:46:00","lat":49.11015,"lon":16.539909,"is_passed":false},{"stop_id":"U15101Z2","name":"Hajany","arrival_time":"4:48:00","departure_time":"4:48:00","lat":49.110659,"lon":16.554994,"is_passed":false},{"stop_id":"U15162Z2","name":"Želešice, u dálnice","arrival_time":"4:50:00","departure_time":"4:50:00","lat":49.115092,"lon":16.569087,"is_passed":false},{"stop_id":"U15180Z2","name":"Želešice, u Sulzrů","arrival_time":"4:52:00","departure_time":"4:52:00","lat":49.116762,"lon":16.577892,"is_passed":false},{"stop_id":"U15120Z2","name":"Želešice, hostinec","arrival_time":"4:53:00","departure_time":"4:53:00","lat":49.116718,"lon":16.581256,"is_passed":false},{"stop_id":"U15121Z2","name":"Želešice, na kopci","arrival_time":"4:54:00","departure_time":"4:54:00","lat":49.118595,"lon":16.593624,"is_passed":false},{"stop_id":"U15134Z1","name":"Modřice, smyčka","arrival_time":"4:58:00","departure_time":"4:58:00","lat":49.127138,"lon":16.604706,"is_passed":false},{"stop_id":"U15122Z2","name":"Modřice, Brněnská","arrival_time":"4:58:00","departure_time":"4:58:00","lat":49.129392,"lon":16.604987,"is_passed":false},{"stop_id":"U15140Z3","name":"Modřice, železniční stanice","arrival_time":"5:01:00","departure_time":"5:01:00","lat":49.133518,"lon":16.606731,"is_passed":false},{"stop_id":"U15126Z2","name":"Modřice, Husova","arrival_time":"5:02:00","departure_time":"5:02:00","lat":49.132153,"lon":16.612307,"is_passed":false},{"stop_id":"U15127Z1","name":"Modřice, Masarykova","arrival_time":"5:03:00","departure_time":"5:03:00","lat":49.130994,"lon":16.614563,"is_passed":false},{"stop_id":"U15129Z1","name":"Modřice, náměstí","arrival_time":"5:05:00","departure_time":"5:05:00","lat":49.127673,"lon":16.615841,"is_passed":false},{"stop_id":"U15139Z1","name":"Modřice, Za mlýnem","arrival_time":"5:06:00","departure_time":"5:06:00","lat":49.130699,"lon":16.624761,"is_passed":false},{"stop_id":"U15124Z1","name":"Modřice, Drůbežářské závody","arrival_time":"5:07:00","departure_time":"5:07:00","lat":49.133319,"lon":16.63039,"is_passed":false},{"stop_id":"U15130Z3","name":"Modřice, Olympia","arrival_time":"5:10:00","departure_time":"5:17:00","lat":49.139507,"lon":16.633749,"is_passed":false}],"5703":[{"stop_id":"U15130Z1","name":"Modřice, Olympia","arrival_time":"5:17:00","departure_time":"5:17:00","lat":49.139278,"lon":16.634036,"is_passed":false},{"stop_id":"U15132Z2","name":"Modřice, Olympia jih","arrival_time":"5:18:00","departure_time":"5:18:00","lat":49.135069,"lon":16.633864,"is_passed":false},{"stop_id":"U15124Z2","name":"Modřice, Drůbežářské závody","arrival_time":"5:19:00","departure_time":"5:19:00","lat":49.13409,"lon":16.631493,"is_passed":false},{"stop_id":"U15129Z2","name":"Modřice, náměstí","arrival_time":"5:21:00","departure_time":"5:21:00","lat":49.127756,"lon":16.616081,"is_passed":false},{"stop_id":"U15127Z2","name":"Modřice, Masarykova","arrival_time":"5:23:00","departure_time":"5:23:00","lat":49.131296,"lon":16.614624,"is_passed":false},{"stop_id":"U15126Z1","name":"Modřice, Husova","arrival_time":"5:24:00","departure_time":"5:24:00","lat":49.132247,"lon":16.61201,"is_passed":false},{"stop_id":"U15140Z4","name":"Modřice, železniční stanice","arrival_time":"5:26:00","departure_time":"5:26:00","lat":49.133918,"lon":16.606723,"is_passed":false},{"stop_id":"U15134Z2","name":"Modřice, smyčka","arrival_time":"5:31:00","departure_time":"5:31:00","lat":49.126517,"lon":16.604633,"is_passed":false},{"stop_id":"U15137Z4","name":"Modřice, Tyršova","arrival_time":"5:32:00","departure_time":"5:32:00","lat":49.129402,"lon":16.603203,"is_passed":false},{"stop_id":"U15121Z1","name":"Želešice, na kopci","arrival_time":"5:35:00","departure_time":"5:35:00","lat":49.118092,"lon":16.59048,"is_passed":false},{"stop_id":"U15120Z1","name":"Želešice, hostinec","arrival_time":"5:36:00","departure_time":"5:36:00","lat":49.1169,"lon":16.581776,"is_passed":false},{"stop_id":"U15180Z1","name":"Želešice, u Sulzrů","arrival_time":"5:37:00","departure_time":"5:37:00","lat":49.11668,"lon":16.577048,"is_passed":false},{"stop_id":"U15162Z1","name":"Želešice, u dálnice","arrival_time":"5:38:00","departure_time":"5:38:00","lat":49.115165,"lon":16.56894,"is_passed":false},{"stop_id":"U15101Z1","name":"Hajany","arrival_time":"5:40:00","departure_time":"5:40:00","lat":49.110681,"lon":16.55513,"is_passed":false},{"stop_id":"U14206Z1","name":"Ořechov, tábor","arrival_time":"5:42:00","departure_time":"5:42:00","lat":49.110213,"lon":16.539938,"is_passed":false},{"stop_id":"U14207Z1","name":"Ořechov, zdravotní středisko","arrival_time":"5:43:00","departure_time":"5:43:00","lat":49.110487,"lon":16.526989,"is_passed":false},{"stop_id":"U14204Z1","name":"Ořechov, obecní úřad","arrival_time":"5:45:00","departure_time":"5:45:00","lat":49.111535,"lon":16.518505,"is_passed":false},{"stop_id":"U14201Z1","name":"Ořechov, Jeřábkova","arrival_time":"5:47:00","departure_time":"5:47:00","lat":49.108887,"lon":16.512248,"is_passed":false},{"stop_id":"U14203Z1","name":"Ořechov, kravín","arrival_time":"5:48:00","departure_time":"5:48:00","lat":49.108683,"lon":16.49674,"is_passed":false},{"stop_id":"U14210Z1","name":"Silůvky","arrival_time":"5:51:00","departure_time":"5:51:00","lat":49.105977,"lon":16.468112,"is_passed":false},{"stop_id":"U14208Z1","name":"Prštice, rozcestí Hlína","arrival_time":"5:53:00","departure_time":"5:53:00","lat":49.113498,"lon":16.46853,"is_passed":false},{"stop_id":"U14209Z1","name":"Prštice, u zámku","arrival_time":"5:54:00","departure_time":"5:54:00","lat":49.117985,"lon":16.473368,"is_passed":false},{"stop_id":"U14213Z2","name":"Radostice, kostel","arrival_time":"5:59:00","departure_time":"6:09:00","lat":49.131522,"lon":16.477831,"is_passed":false}],"5704":[{"stop_id":"U14213Z2","name":"Radostice, kostel","arrival_time":"6:09:00","departure_time":"6:09:00","lat":49.131522,"lon":16.477831,"is_passed":false},{"stop_id":"U14212Z2","name":"Radostice, Mlýnská silnice","arrival_time":"6:10:00","departure_time":"6:10:00","lat":49.135667,"lon":16.474973,"is_passed":false},{"stop_id":"U14211Z2","name":"Radostice, koupaliště","arrival_time":"6:11:00","departure_time":"6:11:00","lat":49.138172,"lon":16.467963,"is_passed":false},{"stop_id":"U14214Z2","name":"Radostice, u Žemličků","arrival_time":"6:12:00","departure_time":"6:12:00","lat":49.143695,"lon":16.467485,"is_passed":false},{"stop_id":"U14122Z2","name":"Střelice, rozcestí Radostice","arrival_time":"6:13:00","departure_time":"6:13:00","lat":49.150502,"lon":16.46454,"is_passed":false},{"stop_id":"U14138Z2","name":"Střelice, Zámeček","arrival_time":"6:14:00","departure_time":"6:14:00","lat":49.151717,"lon":16.470265,"is_passed":false},{"stop_id":"U14124Z2","name":"Střelice, Vršovice","arrival_time":"6:16:00","departure_time":"6:16:00","lat":49.153397,"lon":16.480075,"is_passed":false},{"stop_id":"U14120Z2","name":"Střelice, nákupní středisko","arrival_time":"6:18:00","departure_time":"6:18:00","lat":49.152702,"lon":16.494152,"is_passed":false},{"stop_id":"U14121Z2","name":"Střelice, obecní úřad","arrival_time":"6:20:00","departure_time":"6:20:00","lat":49.152613,"lon":16.502885,"is_passed":false},{"stop_id":"U14119Z2","name":"Střelice, dolní železniční stanice","arrival_time":"6:21:00","departure_time":"6:21:00","lat":49.156018,"lon":16.50473,"is_passed":false},{"stop_id":"U14109Z3","name":"Troubsko, obecní úřad","arrival_time":"6:24:00","departure_time":"6:24:00","lat":49.170364,"lon":16.505743,"is_passed":false},{"stop_id":"U14106Z2","name":"Troubsko, kaplička","arrival_time":"6:25:00","departure_time":"6:25:00","lat":49.168923,"lon":16.511588,"is_passed":false},{"stop_id":"U14126Z4","name":"Troubsko, Nová","arrival_time":"6:26:00","departure_time":"6:26:00","lat":49.166839,"lon":16.518385,"is_passed":false},{"stop_id":"U1516Z1","name":"Pražská","arrival_time":"6:28:00","departure_time":"6:28:00","lat":49.173478,"lon":16.531543,"is_passed":false},{"stop_id":"U1568Z2","name":"Skalní","arrival_time":"6:29:00","departure_time":"6:29:00","lat":49.174201,"lon":16.537903,"is_passed":false},{"stop_id":"U1202Z2","name":"Jemelkova","arrival_time":"6:30:00","departure_time":"6:30:00","lat":49.173163,"lon":16.54872,"is_passed":false},{"stop_id":"U1632Z2","name":"Svážná","arrival_time":"6:31:00","departure_time":"6:31:00","lat":49.173409,"lon":16.553508,"is_passed":false},{"stop_id":"U1429Z7","name":"Nemocnice Bohunice","arrival_time":"6:34:00","departure_time":"6:34:00","lat":49.176176,"lon":16.567045,"is_passed":false}],"5705":[{"stop_id":"U1429Z5","name":"Nemocnice Bohunice","arrival_time":"6:43:00","departure_time":"6:43:00","lat":49.175206,"lon":16.56694,"is_passed":false},{"stop_id":"U1492Z2","name":"Pod nemocnicí","arrival_time":"6:45:00","departure_time":"6:45:00","lat":49.172338,"lon":16.569417,"is_passed":false},{"stop_id":"U1472Z8","name":"Osová","arrival_time":"6:47:00","departure_time":"6:47:00","lat":49.168617,"lon":16.566306,"is_passed":false},{"stop_id":"U1273Z2","name":"Kosmonautů","arrival_time":"6:47:00","departure_time":"6:47:00","lat":49.167124,"lon":16.56745,"is_passed":false},{"stop_id":"U1627Z1","name":"Svah","arrival_time":"6:48:00","departure_time":"6:48:00","lat":49.165199,"lon":16.567969,"is_passed":false},{"stop_id":"U1061Z1","name":"Čermákova","arrival_time":"6:48:00","departure_time":"6:48:00","lat":49.164336,"lon":16.565516,"is_passed":false},{"stop_id":"U1666Z1","name":"Točná","arrival_time":"6:49:00","departure_time":"6:49:00","lat":49.16476,"lon":16.561692,"is_passed":false},{"stop_id":"U1488Z1","name":"Pod dálnicí","arrival_time":"6:50:00","departure_time":"6:50:00","lat":49.163512,"lon":16.555152,"is_passed":false},{"stop_id":"U14101Z1","name":"Ostopovice, Branky","arrival_time":"6:51:00","departure_time":"6:51:00","lat":49.159937,"lon":16.548801,"is_passed":false},{"stop_id":"U14103Z1","name":"Ostopovice, U Kaple","arrival_time":"6:52:00","departure_time":"6:52:00","lat":49.161083,"lon":16.545743,"is_passed":false},{"stop_id":"U14104Z1","name":"Ostopovice, rozcestí","arrival_time":"6:52:00","departure_time":"6:52:00","lat":49.163046,"lon":16.542924,"is_passed":false},{"stop_id":"U14105Z2","name":"Ostopovice, smyčka","arrival_time":"6:53:00","departure_time":"6:53:00","lat":49.164301,"lon":16.540971,"is_passed":false},{"stop_id":"U15114Z2","name":"Moravany, Hlavní","arrival_time":"6:59:00","departure_time":"6:59:00","lat":49.147097,"lon":16.578552,"is_passed":false},{"stop_id":"U15113Z2","name":"Moravany, Bohunická cesta","arrival_time":"7:00:00","departure_time":"7:00:00","lat":49.151006,"lon":16.583777,"is_passed":false},{"stop_id":"U1549Z2","name":"Rozhraní","arrival_time":"7:01:00","departure_time":"7:01:00","lat":49.155698,"lon":16.592118,"is_passed":false},{"stop_id":"U1466Z55","name":"Ořechovská","arrival_time":"7:03:00","departure_time":"7:03:00","lat":49.156238,"lon":16.599375,"is_passed":false},{"stop_id":"U1141Z2","name":"Heršpická","arrival_time":"7:06:00","departure_time":"7:06:00","lat":49.170473,"lon":16.599896,"is_passed":false},{"stop_id":"U1703Z5","name":"Ústřední hřbitov","arrival_time":"7:10:00","departure_time":"7:10:00","lat":49.171604,"lon":16.597316,"is_passed":false}],"5706":[{"stop_id":"U1703Z6","name":"Ústřední hřbitov","arrival_time":"7:12:00","departure_time":"7:12:00","lat":49.170744,"lon":16.597612,"is_passed":false},{"stop_id":"U1466Z5","name":"Ořechovská","arrival_time":"7:15:00","departure_time":"7:15:00","lat":49.156238,"lon":16.599375,"is_passed":false},{"stop_id":"U1549Z1","name":"Rozhraní","arrival_time":"7:16:00","departure_time":"7:16:00","lat":49.155854,"lon":16.592288,"is_passed":false},{"stop_id":"U15113Z1","name":"Moravany, Bohunická cesta","arrival_time":"7:17:00","departure_time":"7:17:00","lat":49.15089,"lon":16.583503,"is_passed":false},{"stop_id":"U15114Z1","name":"Moravany, Hlavní","arrival_time":"7:18:00","departure_time":"7:18:00","lat":49.147228,"lon":16.578896,"is_passed":false},{"stop_id":"U15115Z1","name":"Moravany, Nebovidská","arrival_time":"7:19:00","departure_time":"7:19:00","lat":49.147983,"lon":16.569237,"is_passed":false},{"stop_id":"U15118Z1","name":"Nebovidy, u kostela","arrival_time":"7:21:00","departure_time":"7:21:00","lat":49.141636,"lon":16.553667,"is_passed":false},{"stop_id":"U15116Z1","name":"Nebovidy, dolní konec","arrival_time":"7:22:00","departure_time":"7:24:00","lat":49.142128,"lon":16.549075,"is_passed":false}],"5707":[{"stop_id":"U15116Z2","name":"Nebovidy, dolní konec","arrival_time":"7:24:00","departure_time":"7:24:00","lat":49.141953,"lon":16.54915,"is_passed":false},{"stop_id":"U15118Z2","name":"Nebovidy, u kostela","arrival_time":"7:25:00","departure_time":"7:25:00","lat":49.141783,"lon":16.554006,"is_passed":false},{"stop_id":"U15114Z2","name":"Moravany, Hlavní","arrival_time":"7:29:00","departure_time":"7:29:00","lat":49.147097,"lon":16.578552,"is_passed":false},{"stop_id":"U15113Z2","name":"Moravany, Bohunická cesta","arrival_time":"7:30:00","departure_time":"7:30:00","lat":49.151006,"lon":16.583777,"is_passed":false},{"stop_id":"U1549Z2","name":"Rozhraní","arrival_time":"7:31:00","departure_time":"7:31:00","lat":49.155698,"lon":16.592118,"is_passed":false},{"stop_id":"U1466Z55","name":"Ořechovská","arrival_time":"7:33:00","departure_time":"7:33:00","lat":49.156238,"lon":16.599375,"is_passed":false},{"stop_id":"U1141Z2","name":"Heršpická","arrival_time":"7:36:00","departure_time":"7:36:00","lat":49.170473,"lon":16.599896,"is_passed":false},{"stop_id":"U1703Z5","name":"Ústřední hřbitov","arrival_time":"7:40:00","departure_time":"7:42:00","lat":49.171604,"lon":16.597316,"is_passed":false}],"5708":[{"stop_id":"U1703Z6","name":"Ústřední hřbitov","arrival_time":"7:42:00","departure_time":"7:42:00","lat":49.170744,"lon":16.597612,"is_passed":false},{"stop_id":"U1466Z5","name":"Ořechovská","arrival_time":"7:45:00","departure_time":"7:45:00","lat":49.156238,"lon":16.599375,"is_passed":false},{"stop_id":"U1549Z1","name":"Rozhraní","arrival_time":"7:46:00","departure_time":"7:46:00","lat":49.155854,"lon":16.592288,"is_passed":false},{"stop_id":"U15113Z1","name":"Moravany, Bohunická cesta","arrival_time":"7:47:00","departure_time":"7:47:00","lat":49.15089,"lon":16.583503,"is_passed":false},{"stop_id":"U15114Z1","name":"Moravany, Hlavní","arrival_time":"7:48:00","departure_time":"7:48:00","lat":49.147228,"lon":16.578896,"is_passed":false},{"stop_id":"U15115Z1","name":"Moravany, Nebovidská","arrival_time":"7:49:00","departure_time":"7:49:00","lat":49.147983,"lon":16.569237,"is_passed":false},{"stop_id":"U15118Z1","name":"Nebovidy, u kostela","arrival_time":"7:51:00","departure_time":"7:51:00","lat":49.141636,"lon":16.553667,"is_passed":false},{"stop_id":"U15116Z1","name":"Nebovidy, dolní konec","arrival_time":"7:52:00","departure_time":"8:04:00","lat":49.142128,"lon":16.549075,"is_passed":false}],"5709":[{"stop_id":"U15116Z2","name":"Nebovidy, dolní konec","arrival_time":"8:04:00","departure_time":"8:04:00","lat":49.141953,"lon":16.54915,"is_passed":false},{"stop_id":"U15118Z2","name":"Nebovidy, u kostela","arrival_time":"8:05:00","departure_time":"8:05:00","lat":49.141783,"lon":16.554006,"is_passed":false},{"stop_id":"U15114Z2","name":"Moravany, Hlavní","arrival_time":"8:09:00","departure_time":"8:09:00","lat":49.147097,"lon":16.578552,"is_passed":false},{"stop_id":"U15113Z2","name":"Moravany, Bohunická cesta","arrival_time":"8:10:00","departure_time":"8:10:00","lat":49.151006,"lon":16.583777,"is_passed":false},{"stop_id":"U1549Z2","name":"Rozhraní","arrival_time":"8:11:00","departure_time":"8:11:00","lat":49.155698,"lon":16.592118,"is_passed":false},{"stop_id":"U1466Z55","name":"Ořechovská","arrival_time":"8:13:00","departure_time":"8:13:00","lat":49.156238,"lon":16.599375,"is_passed":false},{"stop_id":"U1141Z2","name":"Heršpická","arrival_time":"8:16:00","departure_time":"8:16:00","lat":49.170473,"lon":16.599896,"is_passed":false},{"stop_id":"U1703Z5","name":"Ústřední hřbitov","arrival_time":"8:20:00","departure_time":"11:12:00","lat":49.171604,"lon":16.597316,"is_passed":false}],"57000":[{"stop_id":"U1378Z10","name":"Mendlovo náměstí","arrival_time":"14:40:00","departure_time":"14:40:00","lat":49.190361,"lon":16.593096,"is_passed":false},{"stop_id":"U1768Z3","name":"Výstaviště - hlavní vstup","arrival_time":"14:41:00","departure_time":"14:41:00","lat":49.18958,"lon":16.586471,"is_passed":false},{"stop_id":"U1343Z3","name":"ARENA BRNO","arrival_time":"14:42:00","departure_time":"14:42:00","lat":49.191696,"lon":16.576091,"is_passed":false},{"stop_id":"U1487Z5","name":"Pisárky","arrival_time":"14:43:00","departure_time":"14:43:00","lat":49.193517,"lon":16.571155,"is_passed":false},{"stop_id":"U1007Z3","name":"Anthropos","arrival_time":"14:44:00","departure_time":"14:44:00","lat":49.193146,"lon":16.565715,"is_passed":false},{"stop_id":"U1003Z2","name":"Antonína Procházky","arrival_time":"14:45:00","departure_time":"14:45:00","lat":49.194292,"lon":16.55926,"is_passed":false},{"stop_id":"U1636Z1","name":"Šárka","arrival_time":"14:46:00","departure_time":"14:46:00","lat":49.191567,"lon":16.545721,"is_passed":false},{"stop_id":"U1409Z1","name":"Myslivní","arrival_time":"14:47:00","departure_time":"14:47:00","lat":49.190497,"lon":16.543386,"is_passed":false},{"stop_id":"U1767Z1","name":"Výletní","arrival_time":"14:48:00","departure_time":"14:48:00","lat":49.1916,"lon":16.539376,"is_passed":false},{"stop_id":"U1806Z1","name":"Žebětínská","arrival_time":"14:49:00","departure_time":"14:49:00","lat":49.195158,"lon":16.536454,"is_passed":false},{"stop_id":"U1248Z2","name":"Kohoutovice, hájenka","arrival_time":"14:51:00","departure_time":"14:51:00","lat":49.19656,"lon":16.530778,"is_passed":false},{"stop_id":"U1608Z2","name":"Stará dálnice","arrival_time":"14:53:00","departure_time":"14:53:00","lat":49.199858,"lon":16.516922,"is_passed":false},{"stop_id":"U1267Z1","name":"Kopce","arrival_time":"14:54:00","departure_time":"14:54:00","lat":49.205491,"lon":16.509214,"is_passed":false},{"stop_id":"U1251Z1","name":"Kohoutovická","arrival_time":"14:56:00","departure_time":"14:56:00","lat":49.207042,"lon":16.497787,"is_passed":false},{"stop_id":"U1803Z1","name":"Žebětín, škola","arrival_time":"14:57:00","departure_time":"14:57:00","lat":49.207486,"lon":16.491642,"is_passed":false},{"stop_id":"U1302Z1","name":"Křivánkovo náměstí","arrival_time":"14:58:00","departure_time":"14:58:00","lat":49.20718,"lon":16.487513,"is_passed":false},{"stop_id":"U1800Z1","name":"Žebětín, hřbitov","arrival_time":"14:59:00","departure_time":"14:59:00","lat":49.204634,"lon":16.487304,"is_passed":false},{"stop_id":"U1015Z2","name":"Bartolomějská","arrival_time":"15:00:00","departure_time":"15:00:00","lat":49.203579,"lon":16.489347,"is_passed":false},{"stop_id":"U1540Z2","name":"Ríšova","arrival_time":"15:03:00","departure_time":"15:03:00","lat":49.206684,"lon":16.481219,"is_passed":false},{"stop_id":"U1139Z2","name":"Helenčina","arrival_time":"15:04:00","departure_time":"15:04:00","lat":49.206852,"lon":16.486036,"is_passed":false},{"stop_id":"U1096Z2","name":"Drdy","arrival_time":"15:05:00","departure_time":"15:05:00","lat":49.209191,"lon":16.492285,"is_passed":false},{"stop_id":"U1802Z2","name":"Žebětínský rybník","arrival_time":"15:06:00","departure_time":"15:06:00","lat":49.215544,"lon":16.493531,"is_passed":false},{"stop_id":"U1221Z2","name":"Kamechy","arrival_time":"15:07:00","departure_time":"15:07:00","lat":49.214794,"lon":16.49742,"is_passed":false},{"stop_id":"U1185Z2","name":"Chvalovka","arrival_time":"15:08:00","departure_time":"15:08:00","lat":49.21492,"lon":16.500086,"is_passed":false},{"stop_id":"U1230Z2","name":"Kavčí","arrival_time":"15:09:00","departure_time":"15:09:00","lat":49.216872,"lon":16.500241,"is_passed":false},{"stop_id":"U1559Z2","name":"Říčanská","arrival_time":"15:10:00","departure_time":"15:10:00","lat":49.218456,"lon":16.497582,"is_passed":false},{"stop_id":"U1550Z2","name":"Ruda","arrival_time":"15:11:00","departure_time":"15:11:00","lat":49.220473,"lon":16.502554,"is_passed":false},{"stop_id":"U1102Z4","name":"Ečerova","arrival_time":"15:14:00","departure_time":"15:14:00","lat":49.218044,"lon":16.509781,"is_passed":false},{"stop_id":"U1461Z4","name":"Ondrouškova","arrival_time":"15:15:00","departure_time":"15:15:00","lat":49.217906,"lon":16.518033,"is_passed":false},{"stop_id":"U1771Z2","name":"Wollmanova","arrival_time":"15:16:00","departure_time":"15:16:00","lat":49.222108,"lon":16.52284,"is_passed":false},{"stop_id":"U1326Z4","name":"Laštůvkova","arrival_time":"15:17:00","departure_time":"15:17:00","lat":49.220549,"lon":16.526237,"is_passed":false},{"stop_id":"U1752Z2","name":"Vondrákova","arrival_time":"15:18:00","departure_time":"15:18:00","lat":49.221445,"lon":16.528853,"is_passed":false},{"stop_id":"U1796Z6","name":"Zoologická zahrada","arrival_time":"15:20:00","departure_time":"15:20:00","lat":49.227675,"lon":16.531519,"is_passed":false}],"57001":[{"stop_id":"U1796Z7","name":"Zoologická zahrada","arrival_time":"15:25:00","departure_time":"15:25:00","lat":49.227823,"lon":16.531364,"is_passed":false},{"stop_id":"U1796Z3","name":"Zoologická zahrada","arrival_time":"15:26:00","departure_time":"15:26:00","lat":49.228465,"lon":16.531116,"is_passed":false},{"stop_id":"U1527Z3","name":"Přístaviště","arrival_time":"15:27:00","departure_time":"15:27:00","lat":49.228139,"lon":16.522365,"is_passed":false},{"stop_id":"U1537Z3","name":"Rakovecká","arrival_time":"15:28:00","departure_time":"15:28:00","lat":49.225834,"lon":16.518322,"is_passed":false},{"stop_id":"U1312Z5","name":"Kubíčkova","arrival_time":"15:29:00","departure_time":"15:29:00","lat":49.221996,"lon":16.519339,"is_passed":false},{"stop_id":"U1461Z3","name":"Ondrouškova","arrival_time":"15:30:00","departure_time":"15:30:00","lat":49.217721,"lon":16.517208,"is_passed":false},{"stop_id":"U1102Z3","name":"Ečerova","arrival_time":"15:32:00","departure_time":"15:32:00","lat":49.218746,"lon":16.50885,"is_passed":false},{"stop_id":"U1550Z1","name":"Ruda","arrival_time":"15:33:00","departure_time":"15:33:00","lat":49.220738,"lon":16.503998,"is_passed":false},{"stop_id":"U1221Z2","name":"Kamechy","arrival_time":"15:36:00","departure_time":"15:36:00","lat":49.214794,"lon":16.49742,"is_passed":false}],"57002":[{"stop_id":"U1221Z2","name":"Kamechy","arrival_time":"15:36:00","departure_time":"15:36:00","lat":49.214794,"lon":16.49742,"is_passed":false},{"stop_id":"U1185Z2","name":"Chvalovka","arrival_time":"15:37:00","departure_time":"15:37:00","lat":49.21492,"lon":16.500086,"is_passed":false},{"stop_id":"U1230Z2","name":"Kavčí","arrival_time":"15:38:00","departure_time":"15:39:00","lat":49.216872,"lon":16.500241,"is_passed":false},{"stop_id":"U1559Z2","name":"Říčanská","arrival_time":"15:40:00","departure_time":"15:40:00","lat":49.218456,"lon":16.497582,"is_passed":false},{"stop_id":"U1550Z2","name":"Ruda","arrival_time":"15:41:00","departure_time":"15:41:00","lat":49.220473,"lon":16.502554,"is_passed":false},{"stop_id":"U1102Z4","name":"Ečerova","arrival_time":"15:44:00","departure_time":"15:44:00","lat":49.218044,"lon":16.509781,"is_passed":false},{"stop_id":"U1461Z4","name":"Ondrouškova","arrival_time":"15:45:00","departure_time":"15:45:00","lat":49.217906,"lon":16.518033,"is_passed":false},{"stop_id":"U1312Z6","name":"Kubíčkova","arrival_time":"15:46:00","departure_time":"15:46:00","lat":49.22159,"lon":16.519454,"is_passed":false},{"stop_id":"U1537Z4","name":"Rakovecká","arrival_time":"15:47:00","departure_time":"15:47:00","lat":49.226308,"lon":16.518652,"is_passed":false},{"stop_id":"U1527Z4","name":"Přístaviště","arrival_time":"15:48:00","departure_time":"15:48:00","lat":49.228127,"lon":16.522637,"is_passed":false},{"stop_id":"U1796Z6","name":"Zoologická zahrada","arrival_time":"15:50:00","departure_time":"15:50:00","lat":49.227675,"lon":16.531519,"is_passed":false}],"57003":[{"stop_id":"U1796Z7","name":"Zoologická zahrada","arrival_time":"16:16:00","departure_time":"16:16:00","lat":49.227823,"lon":16.531364,"is_passed":false},{"stop_id":"U1417Z1","name":"Náměstí 28. dubna","arrival_time":"16:17:00","departure_time":"16:17:00","lat":49.225188,"lon":16.531132,"is_passed":false},{"stop_id":"U1752Z1","name":"Vondrákova","arrival_time":"16:18:00","departure_time":"16:18:00","lat":49.221303,"lon":16.528376,"is_passed":false},{"stop_id":"U1771Z1","name":"Wollmanova","arrival_time":"16:19:00","departure_time":"16:19:00","lat":49.222275,"lon":16.522436,"is_passed":false},{"stop_id":"U1461Z3","name":"Ondrouškova","arrival_time":"16:20:00","departure_time":"16:20:00","lat":49.217721,"lon":16.517208,"is_passed":false},{"stop_id":"U1102Z3","name":"Ečerova","arrival_time":"16:22:00","departure_time":"16:22:00","lat":49.218746,"lon":16.50885,"is_passed":false},{"stop_id":"U1550Z1","name":"Ruda","arrival_time":"16:23:00","departure_time":"16:23:00","lat":49.220738,"lon":16.503998,"is_passed":false},{"stop_id":"U1559Z1","name":"Říčanská","arrival_time":"16:25:00","departure_time":"16:25:00","lat":49.218679,"lon":16.497368,"is_passed":false},{"stop_id":"U1230Z1","name":"Kavčí","arrival_time":"16:26:00","departure_time":"16:26:00","lat":49.216417,"lon":16.501128,"is_passed":false},{"stop_id":"U1185Z1","name":"Chvalovka","arrival_time":"16:27:00","departure_time":"16:27:00","lat":49.214783,"lon":16.499512,"is_passed":false},{"stop_id":"U1221Z1","name":"Kamechy","arrival_time":"16:28:00","departure_time":"16:28:00","lat":49.216243,"lon":16.493973,"is_passed":false},{"stop_id":"U1802Z1","name":"Žebětínský rybník","arrival_time":"16:29:00","departure_time":"16:29:00","lat":49.215096,"lon":16.49364,"is_passed":false},{"stop_id":"U1096Z1","name":"Drdy","arrival_time":"16:30:00","departure_time":"16:30:00","lat":49.209636,"lon":16.492567,"is_passed":false},{"stop_id":"U1302Z1","name":"Křivánkovo náměstí","arrival_time":"16:31:00","departure_time":"16:31:00","lat":49.20718,"lon":16.487513,"is_passed":false},{"stop_id":"U1540Z2","name":"Ríšova","arrival_time":"16:33:00","departure_time":"16:33:00","lat":49.206684,"lon":16.481219,"is_passed":false},{"stop_id":"U1139Z2","name":"Helenčina","arrival_time":"16:34:00","departure_time":"16:34:00","lat":49.206852,"lon":16.486036,"is_passed":false},{"stop_id":"U1800Z1","name":"Žebětín, hřbitov","arrival_time":"16:35:00","departure_time":"16:35:00","lat":49.204634,"lon":16.487304,"is_passed":false},{"stop_id":"U1015Z2","name":"Bartolomějská","arrival_time":"16:36:00","departure_time":"16:36:00","lat":49.203579,"lon":16.489347,"is_passed":false},{"stop_id":"U1302Z2","name":"Křivánkovo náměstí","arrival_time":"16:37:00","departure_time":"16:37:00","lat":49.20688,"lon":16.4876,"is_passed":false},{"stop_id":"U1803Z2","name":"Žebětín, škola","arrival_time":"16:38:00","departure_time":"16:38:00","lat":49.207347,"lon":16.49285,"is_passed":false},{"stop_id":"U1251Z2","name":"Kohoutovická","arrival_time":"16:39:00","departure_time":"16:39:00","lat":49.206969,"lon":16.498211,"is_passed":false},{"stop_id":"U1267Z2","name":"Kopce","arrival_time":"16:40:00","departure_time":"16:40:00","lat":49.20545,"lon":16.509409,"is_passed":false},{"stop_id":"U1608Z1","name":"Stará dálnice","arrival_time":"16:42:00","departure_time":"16:42:00","lat":49.198733,"lon":16.517301,"is_passed":false},{"stop_id":"U1248Z1","name":"Kohoutovice, hájenka","arrival_time":"16:45:00","departure_time":"16:45:00","lat":49.19638,"lon":16.531386,"is_passed":false},{"stop_id":"U1806Z2","name":"Žebětínská","arrival_time":"16:46:00","departure_time":"16:46:00","lat":49.195249,"lon":16.536145,"is_passed":false},{"stop_id":"U1767Z2","name":"Výletní","arrival_time":"16:47:00","departure_time":"16:47:00","lat":49.191443,"lon":16.539596,"is_passed":false},{"stop_id":"U1409Z2","name":"Myslivní","arrival_time":"16:47:00","departure_time":"16:47:00","lat":49.190415,"lon":16.543578,"is_passed":false},{"stop_id":"U1636Z2","name":"Šárka","arrival_time":"16:48:00","departure_time":"16:48:00","lat":49.19131,"lon":16.545929,"is_passed":false},{"stop_id":"U1003Z1","name":"Antonína Procházky","arrival_time":"16:50:00","departure_time":"16:50:00","lat":49.193559,"lon":16.561795,"is_passed":false},{"stop_id":"U1007Z4","name":"Anthropos","arrival_time":"16:51:00","departure_time":"16:51:00","lat":49.193356,"lon":16.56677,"is_passed":false},{"stop_id":"U1487Z6","name":"Pisárky","arrival_time":"16:52:00","departure_time":"16:52:00","lat":49.193537,"lon":16.570797,"is_passed":false},{"stop_id":"U1343Z4","name":"ARENA BRNO","arrival_time":"16:53:00","departure_time":"16:53:00","lat":49.191574,"lon":16.576353,"is_passed":false},{"stop_id":"U1768Z4","name":"Výstaviště - hlavní vstup","arrival_time":"16:55:00","departure_time":"16:55:00","lat":49.1886,"lon":16.589153,"is_passed":false},{"stop_id":"U1378Z7","name":"Mendlovo náměstí","arrival_time":"16:57:00","departure_time":"17:20:00","lat":49.189919,"lon":16.593687,"is_passed":false}],"57004":[{"stop_id":"U1378Z10","name":"Mendlovo náměstí","arrival_time":"17:20:00","departure_time":"17:20:00","lat":49.190361,"lon":16.593096,"is_passed":false},{"stop_id":"U1768Z3","name":"Výstaviště - hlavní vstup","arrival_time":"17:21:00","departure_time":"17:21:00","lat":49.18958,"lon":16.586471,"is_passed":false},{"stop_id":"U1343Z3","name":"ARENA BRNO","arrival_time":"17:22:00","departure_time":"17:22:00","lat":49.191696,"lon":16.576091,"is_passed":false},{"stop_id":"U1487Z5","name":"Pisárky","arrival_time":"17:23:00","departure_time":"17:23:00","lat":49.193517,"lon":16.571155,"is_passed":false},{"stop_id":"U1007Z3","name":"Anthropos","arrival_time":"17:24:00","departure_time":"17:24:00","lat":49.193146,"lon":16.565715,"is_passed":false},{"stop_id":"U1003Z2","name":"Antonína Procházky","arrival_time":"17:25:00","departure_time":"17:25:00","lat":49.194292,"lon":16.55926,"is_passed":false},{"stop_id":"U1636Z1","name":"Šárka","arrival_time":"17:26:00","departure_time":"17:26:00","lat":49.191567,"lon":16.545721,"is_passed":false},{"stop_id":"U1409Z1","name":"Myslivní","arrival_time":"17:27:00","departure_time":"17:27:00","lat":49.190497,"lon":16.543386,"is_passed":false},{"stop_id":"U1767Z1","name":"Výletní","arrival_time":"17:28:00","departure_time":"17:28:00","lat":49.1916,"lon":16.539376,"is_passed":false},{"stop_id":"U1806Z1","name":"Žebětínská","arrival_time":"17:29:00","departure_time":"17:29:00","lat":49.195158,"lon":16.536454,"is_passed":false},{"stop_id":"U1248Z2","name":"Kohoutovice, hájenka","arrival_time":"17:31:00","departure_time":"17:31:00","lat":49.19656,"lon":16.530778,"is_passed":false},{"stop_id":"U1608Z2","name":"Stará dálnice","arrival_time":"17:33:00","departure_time":"17:33:00","lat":49.199858,"lon":16.516922,"is_passed":false},{"stop_id":"U1267Z1","name":"Kopce","arrival_time":"17:34:00","departure_time":"17:34:00","lat":49.205491,"lon":16.509214,"is_passed":false},{"stop_id":"U1251Z1","name":"Kohoutovická","arrival_time":"17:36:00","departure_time":"17:36:00","lat":49.207042,"lon":16.497787,"is_passed":false},{"stop_id":"U1803Z1","name":"Žebětín, škola","arrival_time":"17:37:00","departure_time":"17:37:00","lat":49.207486,"lon":16.491642,"is_passed":false},{"stop_id":"U1302Z1","name":"Křivánkovo náměstí","arrival_time":"17:38:00","departure_time":"17:38:00","lat":49.20718,"lon":16.487513,"is_passed":false},{"stop_id":"U1800Z1","name":"Žebětín, hřbitov","arrival_time":"17:39:00","departure_time":"17:39:00","lat":49.204634,"lon":16.487304,"is_passed":false},{"stop_id":"U1015Z2","name":"Bartolomějská","arrival_time":"17:40:00","departure_time":"17:40:00","lat":49.203579,"lon":16.489347,"is_passed":false},{"stop_id":"U1540Z2","name":"Ríšova","arrival_time":"17:43:00","departure_time":"17:43:00","lat":49.206684,"lon":16.481219,"is_passed":false},{"stop_id":"U1139Z2","name":"Helenčina","arrival_time":"17:44:00","departure_time":"17:44:00","lat":49.206852,"lon":16.486036,"is_passed":false},{"stop_id":"U1096Z2","name":"Drdy","arrival_time":"17:45:00","departure_time":"17:45:00","lat":49.209191,"lon":16.492285,"is_passed":false},{"stop_id":"U1802Z2","name":"Žebětínský rybník","arrival_time":"17:46:00","departure_time":"17:46:00","lat":49.215544,"lon":16.493531,"is_passed":false},{"stop_id":"U1221Z2","name":"Kamechy","arrival_time":"17:47:00","departure_time":"17:47:00","lat":49.214794,"lon":16.49742,"is_passed":false},{"stop_id":"U1185Z2","name":"Chvalovka","arrival_time":"17:48:00","departure_time":"17:48:00","lat":49.21492,"lon":16.500086,"is_passed":false},{"stop_id":"U1230Z2","name":"Kavčí","arrival_time":"17:49:00","departure_time":"17:49:00","lat":49.216872,"lon":16.500241,"is_passed":false},{"stop_id":"U1559Z2","name":"Říčanská","arrival_time":"17:50:00","departure_time":"17:50:00","lat":49.218456,"lon":16.497582,"is_passed":false},{"stop_id":"U1550Z2","name":"Ruda","arrival_time":"17:51:00","departure_time":"17:51:00","lat":49.220473,"lon":16.502554,"is_passed":false},{"stop_id":"U1102Z4","name":"Ečerova","arrival_time":"17:54:00","departure_time":"17:54:00","lat":49.218044,"lon":16.509781,"is_passed":false},{"stop_id":"U1461Z4","name":"Ondrouškova","arrival_time":"17:55:00","departure_time":"17:55:00","lat":49.217906,"lon":16.518033,"is_passed":false},{"stop_id":"U1771Z2","name":"Wollmanova","arrival_time":"17:56:00","departure_time":"17:56:00","lat":49.222108,"lon":16.52284,"is_passed":false},{"stop_id":"U1326Z4","name":"Laštůvkova","arrival_time":"17:57:00","departure_time":"17:57:00","lat":49.220549,"lon":16.526237,"is_passed":false},{"stop_id":"U1752Z2","name":"Vondrákova","arrival_time":"17:58:00","departure_time":"17:58:00","lat":49.221445,"lon":16.528853,"is_passed":false},{"stop_id":"U1796Z6","name":"Zoologická zahrada","arrival_time":"18:00:00","departure_time":"18:00:00","lat":49.227675,"lon":16.531519,"is_passed":false}],"57005":[{"stop_id":"U1796Z7","name":"Zoologická zahrada","arrival_time":"18:05:00","departure_time":"18:05:00","lat":49.227823,"lon":16.531364,"is_passed":false},{"stop_id":"U1796Z3","name":"Zoologická zahrada","arrival_time":"18:06:00","departure_time":"18:06:00","lat":49.228465,"lon":16.531116,"is_passed":false},{"stop_id":"U1527Z3","name":"Přístaviště","arrival_time":"18:07:00","departure_time":"18:07:00","lat":49.228139,"lon":16.522365,"is_passed":false},{"stop_id":"U1537Z3","name":"Rakovecká","arrival_time":"18:08:00","departure_time":"18:08:00","lat":49.225834,"lon":16.518322,"is_passed":false},{"stop_id":"U1312Z5","name":"Kubíčkova","arrival_time":"18:09:00","departure_time":"18:09:00","lat":49.221996,"lon":16.519339,"is_passed":false},{"stop_id":"U1461Z3","name":"Ondrouškova","arrival_time":"18:10:00","departure_time":"18:10:00","lat":49.217721,"lon":16.517208,"is_passed":false},{"stop_id":"U1102Z3","name":"Ečerova","arrival_time":"18:12:00","departure_time":"18:12:00","lat":49.218746,"lon":16.50885,"is_passed":false},{"stop_id":"U1550Z1","name":"Ruda","arrival_time":"18:13:00","departure_time":"18:13:00","lat":49.220738,"lon":16.503998,"is_passed":false},{"stop_id":"U1221Z2","name":"Kamechy","arrival_time":"18:16:00","departure_time":"18:16:00","lat":49.214794,"lon":16.49742,"is_passed":false}],"57006":[{"stop_id":"U1221Z2","name":"Kamechy","arrival_time":"18:16:00","departure_time":"18:16:00","lat":49.214794,"lon":16.49742,"is_passed":false},{"stop_id":"U1185Z2","name":"Chvalovka","arrival_time":"18:17:00","departure_time":"18:17:00","lat":49.21492,"lon":16.500086,"is_passed":false},{"stop_id":"U1230Z2","name":"Kavčí","arrival_time":"18:18:00","departure_time":"18:19:00","lat":49.216872,"lon":16.500241,"is_passed":false},{"stop_id":"U1559Z2","name":"Říčanská","arrival_time":"18:20:00","departure_time":"18:20:00","lat":49.218456,"lon":16.497582,"is_passed":false},{"stop_id":"U1550Z2","name":"Ruda","arrival_time":"18:21:00","departure_time":"18:21:00","lat":49.220473,"lon":16.502554,"is_passed":false},{"stop_id":"U1102Z4","name":"Ečerova","arrival_time":"18:24:00","departure_time":"18:24:00","lat":49.218044,"lon":16.509781,"is_passed":false},{"stop_id":"U1461Z4","name":"Ondrouškova","arrival_time":"18:25:00","departure_time":"18:25:00","lat":49.217906,"lon":16.518033,"is_passed":false},{"stop_id":"U1312Z6","name":"Kubíčkova","arrival_time":"18:26:00","departure_time":"18:26:00","lat":49.22159,"lon":16.519454,"is_passed":false},{"stop_id":"U1537Z4","name":"Rakovecká","arrival_time":"18:27:00","departure_time":"18:27:00","lat":49.226308,"lon":16.518652,"is_passed":false},{"stop_id":"U1527Z4","name":"Přístaviště","arrival_time":"18:28:00","departure_time":"18:28:00","lat":49.228127,"lon":16.522637,"is_passed":false},{"stop_id":"U1796Z6","name":"Zoologická zahrada","arrival_time":"18:30:00","departure_time":"18:30:00","lat":49.227675,"lon":16.531519,"is_passed":false}],"57007":[{"stop_id":"U1796Z7","name":"Zoologická zahrada","arrival_time":"18:56:00","departure_time":"18:56:00","lat":49.227823,"lon":16.531364,"is_passed":false},{"stop_id":"U1417Z1","name":"Náměstí 28. dubna","arrival_time":"18:57:00","departure_time":"18:57:00","lat":49.225188,"lon":16.531132,"is_passed":false},{"stop_id":"U1752Z1","name":"Vondrákova","arrival_time":"18:58:00","departure_time":"18:58:00","lat":49.221303,"lon":16.528376,"is_passed":false},{"stop_id":"U1771Z1","name":"Wollmanova","arrival_time":"18:59:00","departure_time":"18:59:00","lat":49.222275,"lon":16.522436,"is_passed":false},{"stop_id":"U1461Z3","name":"Ondrouškova","arrival_time":"19:00:00","departure_time":"19:00:00","lat":49.217721,"lon":16.517208,"is_passed":false},{"stop_id":"U1102Z3","name":"Ečerova","arrival_time":"19:02:00","departure_time":"19:02:00","lat":49.218746,"lon":16.50885,"is_passed":false},{"stop_id":"U1550Z1","name":"Ruda","arrival_time":"19:03:00","departure_time":"19:03:00","lat":49.220738,"lon":16.503998,"is_passed":false},{"stop_id":"U1559Z1","name":"Říčanská","arrival_time":"19:05:00","departure_time":"19:05:00","lat":49.218679,"lon":16.497368,"is_passed":false},{"stop_id":"U1230Z1","name":"Kavčí","arrival_time":"19:06:00","departure_time":"19:06:00","lat":49.216417,"lon":16.501128,"is_passed":false},{"stop_id":"U1185Z1","name":"Chvalovka","arrival_time":"19:07:00","departure_time":"19:07:00","lat":49.214783,"lon":16.499512,"is_passed":false},{"stop_id":"U1221Z1","name":"Kamechy","arrival_time":"19:08:00","departure_time":"19:08:00","lat":49.216243,"lon":16.493973,"is_passed":false},{"stop_id":"U1802Z1","name":"Žebětínský rybník","arrival_time":"19:09:00","departure_time":"19:09:00","lat":49.215096,"lon":16.49364,"is_passed":false},{"stop_id":"U1096Z1","name":"Drdy","arrival_time":"19:10:00","departure_time":"19:10:00","lat":49.209636,"lon":16.492567,"is_passed":false},{"stop_id":"U1302Z1","name":"Křivánkovo náměstí","arrival_time":"19:11:00","departure_time":"19:11:00","lat":49.20718,"lon":16.487513,"is_passed":false},{"stop_id":"U1540Z2","name":"Ríšova","arrival_time":"19:13:00","departure_time":"19:13:00","lat":49.206684,"lon":16.481219,"is_passed":false},{"stop_id":"U1139Z2","name":"Helenčina","arrival_time":"19:14:00","departure_time":"19:14:00","lat":49.206852,"lon":16.486036,"is_passed":false},{"stop_id":"U1800Z1","name":"Žebětín, hřbitov","arrival_time":"19:15:00","departure_time":"19:15:00","lat":49.204634,"lon":16.487304,"is_passed":false},{"stop_id":"U1015Z2","name":"Bartolomějská","arrival_time":"19:16:00","departure_time":"19:16:00","lat":49.203579,"lon":16.489347,"is_passed":false},{"stop_id":"U1302Z2","name":"Křivánkovo náměstí","arrival_time":"19:17:00","departure_time":"19:17:00","lat":49.20688,"lon":16.4876,"is_passed":false},{"stop_id":"U1803Z2","name":"Žebětín, škola","arrival_time":"19:18:00","departure_time":"19:18:00","lat":49.207347,"lon":16.49285,"is_passed":false},{"stop_id":"U1251Z2","name":"Kohoutovická","arrival_time":"19:19:00","departure_time":"19:19:00","lat":49.206969,"lon":16.498211,"is_passed":false},{"stop_id":"U1267Z2","name":"Kopce","arrival_time":"19:20:00","departure_time":"19:20:00","lat":49.20545,"lon":16.509409,"is_passed":false},{"stop_id":"U1608Z1","name":"Stará dálnice","arrival_time":"19:22:00","departure_time":"19:22:00","lat":49.198733,"lon":16.517301,"is_passed":false},{"stop_id":"U1248Z1","name":"Kohoutovice, hájenka","arrival_time":"19:25:00","departure_time":"19:25:00","lat":49.19638,"lon":16.531386,"is_passed":false},{"stop_id":"U1806Z2","name":"Žebětínská","arrival_time":"19:26:00","departure_time":"19:26:00","lat":49.195249,"lon":16.536145,"is_passed":false},{"stop_id":"U1767Z2","name":"Výletní","arrival_time":"19:27:00","departure_time":"19:27:00","lat":49.191443,"lon":16.539596,"is_passed":false},{"stop_id":"U1409Z2","name":"Myslivní","arrival_time":"19:27:00","departure_time":"19:27:00","lat":49.190415,"lon":16.543578,"is_passed":false},{"stop_id":"U1636Z2","name":"Šárka","arrival_time":"19:28:00","departure_time":"19:28:00","lat":49.19131,"lon":16.545929,"is_passed":false},{"stop_id":"U1003Z1","name":"Antonína Procházky","arrival_time":"19:30:00","departure_time":"19:30:00","lat":49.193559,"lon":16.561795,"is_passed":false},{"stop_id":"U1007Z4","name":"Anthropos","arrival_time":"19:31:00","departure_time":"19:31:00","lat":49.193356,"lon":16.56677,"is_passed":false},{"stop_id":"U1487Z6","name":"Pisárky","arrival_time":"19:32:00","departure_time":"19:32:00","lat":49.193537,"lon":16.570797,"is_passed":false},{"stop_id":"U1343Z4","name":"ARENA BRNO","arrival_time":"19:33:00","departure_time":"19:33:00","lat":49.191574,"lon":16.576353,"is_passed":false},{"stop_id":"U1768Z4","name":"Výstaviště - hlavní vstup","arrival_time":"19:35:00","departure_time":"19:35:00","lat":49.1886,"lon":16.589153,"is_passed":false},{"stop_id":"U1378Z7","name":"Mendlovo náměstí","arrival_time":"19:37:00","departure_time":"20:00:00","lat":49.189919,"lon":16.593687,"is_passed":false}],"57008":[{"stop_id":"U1378Z10","name":"Mendlovo náměstí","arrival_time":"20:00:00","departure_time":"20:00:00","lat":49.190361,"lon":16.593096,"is_passed":false},{"stop_id":"U1768Z3","name":"Výstaviště - hlavní vstup","arrival_time":"20:01:00","departure_time":"20:01:00","lat":49.18958,"lon":16.586471,"is_passed":false},{"stop_id":"U1343Z3","name":"ARENA BRNO","arrival_time":"20:02:00","departure_time":"20:02:00","lat":49.191696,"lon":16.576091,"is_passed":false},{"stop_id":"U1487Z5","name":"Pisárky","arrival_time":"20:03:00","departure_time":"20:03:00","lat":49.193517,"lon":16.571155,"is_passed":false},{"stop_id":"U1007Z3","name":"Anthropos","arrival_time":"20:04:00","departure_time":"20:04:00","lat":49.193146,"lon":16.565715,"is_passed":false},{"stop_id":"U1003Z2","name":"Antonína Procházky","arrival_time":"20:05:00","departure_time":"20:05:00","lat":49.194292,"lon":16.55926,"is_passed":false},{"stop_id":"U1636Z1","name":"Šárka","arrival_time":"20:06:00","departure_time":"20:06:00","lat":49.191567,"lon":16.545721,"is_passed":false},{"stop_id":"U1409Z1","name":"Myslivní","arrival_time":"20:07:00","departure_time":"20:07:00","lat":49.190497,"lon":16.543386,"is_passed":false},{"stop_id":"U1767Z1","name":"Výletní","arrival_time":"20:08:00","departure_time":"20:08:00","lat":49.1916,"lon":16.539376,"is_passed":false},{"stop_id":"U1806Z1","name":"Žebětínská","arrival_time":"20:09:00","departure_time":"20:09:00","lat":49.195158,"lon":16.536454,"is_passed":false},{"stop_id":"U1248Z2","name":"Kohoutovice, hájenka","arrival_time":"20:11:00","departure_time":"20:11:00","lat":49.19656,"lon":16.530778,"is_passed":false},{"stop_id":"U1608Z2","name":"Stará dálnice","arrival_time":"20:13:00","departure_time":"20:13:00","lat":49.199858,"lon":16.516922,"is_passed":false},{"stop_id":"U1267Z1","name":"Kopce","arrival_time":"20:14:00","departure_time":"20:14:00","lat":49.205491,"lon":16.509214,"is_passed":false},{"stop_id":"U1251Z1","name":"Kohoutovická","arrival_time":"20:16:00","departure_time":"20:16:00","lat":49.207042,"lon":16.497787,"is_passed":false},{"stop_id":"U1803Z1","name":"Žebětín, škola","arrival_time":"20:17:00","departure_time":"20:17:00","lat":49.207486,"lon":16.491642,"is_passed":false},{"stop_id":"U1302Z1","name":"Křivánkovo náměstí","arrival_time":"20:18:00","departure_time":"20:18:00","lat":49.20718,"lon":16.487513,"is_passed":false},{"stop_id":"U1800Z1","name":"Žebětín, hřbitov","arrival_time":"20:19:00","departure_time":"20:19:00","lat":49.204634,"lon":16.487304,"is_passed":false},{"stop_id":"U1015Z2","name":"Bartolomějská","arrival_time":"20:20:00","departure_time":"20:20:00","lat":49.203579,"lon":16.489347,"is_passed":false},{"stop_id":"U1540Z2","name":"Ríšova","arrival_time":"20:23:00","departure_time":"20:23:00","lat":49.206684,"lon":16.481219,"is_passed":false},{"stop_id":"U1139Z2","name":"Helenčina","arrival_time":"20:24:00","departure_time":"20:24:00","lat":49.206852,"lon":16.486036,"is_passed":false},{"stop_id":"U1096Z2","name":"Drdy","arrival_time":"20:25:00","departure_time":"20:25:00","lat":49.209191,"lon":16.492285,"is_passed":false},{"stop_id":"U1802Z2","name":"Žebětínský rybník","arrival_time":"20:26:00","departure_time":"20:26:00","lat":49.215544,"lon":16.493531,"is_passed":false},{"stop_id":"U1221Z2","name":"Kamechy","arrival_time":"20:27:00","departure_time":"20:27:00","lat":49.214794,"lon":16.49742,"is_passed":false},{"stop_id":"U1185Z2","name":"Chvalovka","arrival_time":"20:28:00","departure_time":"20:28:00","lat":49.21492,"lon":16.500086,"is_passed":false},{"stop_id":"U1230Z2","name":"Kavčí","arrival_time":"20:29:00","departure_time":"20:29:00","lat":49.216872,"lon":16.500241,"is_passed":false},{"stop_id":"U1559Z2","name":"Říčanská","arrival_time":"20:30:00","departure_time":"20:30:00","lat":49.218456,"lon":16.497582,"is_passed":false},{"stop_id":"U1550Z2","name":"Ruda","arrival_time":"20:31:00","departure_time":"20:31:00","lat":49.220473,"lon":16.502554,"is_passed":false},{"stop_id":"U1102Z4","name":"Ečerova","arrival_time":"20:34:00","departure_time":"20:34:00","lat":49.218044,"lon":16.509781,"is_passed":false},{"stop_id":"U1461Z4","name":"Ondrouškova","arrival_time":"20:35:00","departure_time":"20:35:00","lat":49.217906,"lon":16.518033,"is_passed":false},{"stop_id":"U1771Z2","name":"Wollmanova","arrival_time":"20:36:00","departure_time":"20:36:00","lat":49.222108,"lon":16.52284,"is_passed":false},{"stop_id":"U1326Z4","name":"Laštůvkova","arrival_time":"20:37:00","departure_time":"20:37:00","lat":49.220549,"lon":16.526237,"is_passed":false},{"stop_id":"U1752Z2","name":"Vondrákova","arrival_time":"20:38:00","departure_time":"20:38:00","lat":49.221445,"lon":16.528853,"is_passed":false},{"stop_id":"U1796Z6","name":"Zoologická zahrada","arrival_time":"20:40:00","departure_time":"20:56:00","lat":49.227675,"lon":16.531519,"is_passed":false}],"57009":[{"stop_id":"U1796Z7","name":"Zoologická zahrada","arrival_time":"20:56:00","departure_time":"20:56:00","lat":49.227823,"lon":16.531364,"is_passed":false},{"stop_id":"U1417Z1","name":"Náměstí 28. dubna","arrival_time":"20:57:00","departure_time":"20:57:00","lat":49.225188,"lon":16.531132,"is_passed":false},{"stop_id":"U1752Z1","name":"Vondrákova","arrival_time":"20:58:00","departure_time":"20:58:00","lat":49.221303,"lon":16.528376,"is_passed":false},{"stop_id":"U1771Z1","name":"Wollmanova","arrival_time":"20:59:00","departure_time":"20:59:00","lat":49.222275,"lon":16.522436,"is_passed":false},{"stop_id":"U1461Z3","name":"Ondrouškova","arrival_time":"21:00:00","departure_time":"21:00:00","lat":49.217721,"lon":16.517208,"is_passed":false},{"stop_id":"U1102Z3","name":"Ečerova","arrival_time":"21:02:00","departure_time":"21:02:00","lat":49.218746,"lon":16.50885,"is_passed":false},{"stop_id":"U1550Z1","name":"Ruda","arrival_time":"21:03:00","departure_time":"21:03:00","lat":49.220738,"lon":16.503998,"is_passed":false},{"stop_id":"U1559Z1","name":"Říčanská","arrival_time":"21:04:00","departure_time":"21:04:00","lat":49.218679,"lon":16.497368,"is_passed":false},{"stop_id":"U1230Z1","name":"Kavčí","arrival_time":"21:05:00","departure_time":"21:05:00","lat":49.216417,"lon":16.501128,"is_passed":false},{"stop_id":"U1185Z1","name":"Chvalovka","arrival_time":"21:05:00","departure_time":"21:05:00","lat":49.214783,"lon":16.499512,"is_passed":false},{"stop_id":"U1221Z1","name":"Kamechy","arrival_time":"21:06:00","departure_time":"21:06:00","lat":49.216243,"lon":16.493973,"is_passed":false},{"stop_id":"U1802Z1","name":"Žebětínský rybník","arrival_time":"21:07:00","departure_time":"21:07:00","lat":49.215096,"lon":16.49364,"is_passed":false},{"stop_id":"U1096Z1","name":"Drdy","arrival_time":"21:08:00","departure_time":"21:08:00","lat":49.209636,"lon":16.492567,"is_passed":false},{"stop_id":"U1302Z1","name":"Křivánkovo náměstí","arrival_time":"21:09:00","departure_time":"21:09:00","lat":49.20718,"lon":16.487513,"is_passed":false},{"stop_id":"U1540Z2","name":"Ríšova","arrival_time":"21:11:00","departure_time":"21:11:00","lat":49.206684,"lon":16.481219,"is_passed":false},{"stop_id":"U1139Z2","name":"Helenčina","arrival_time":"21:12:00","departure_time":"21:12:00","lat":49.206852,"lon":16.486036,"is_passed":false},{"stop_id":"U1800Z1","name":"Žebětín, hřbitov","arrival_time":"21:13:00","departure_time":"21:13:00","lat":49.204634,"lon":16.487304,"is_passed":false},{"stop_id":"U1015Z2","name":"Bartolomějská","arrival_time":"21:14:00","departure_time":"21:14:00","lat":49.203579,"lon":16.489347,"is_passed":false},{"stop_id":"U1302Z2","name":"Křivánkovo náměstí","arrival_time":"21:15:00","departure_time":"21:15:00","lat":49.20688,"lon":16.4876,"is_passed":false},{"stop_id":"U1803Z2","name":"Žebětín, škola","arrival_time":"21:16:00","departure_time":"21:16:00","lat":49.207347,"lon":16.49285,"is_passed":false},{"stop_id":"U1251Z2","name":"Kohoutovická","arrival_time":"21:17:00","departure_time":"21:17:00","lat":49.206969,"lon":16.498211,"is_passed":false},{"stop_id":"U1267Z2","name":"Kopce","arrival_time":"21:18:00","departure_time":"21:18:00","lat":49.20545,"lon":16.509409,"is_passed":false},{"stop_id":"U1608Z1","name":"Stará dálnice","arrival_time":"21:20:00","departure_time":"21:20:00","lat":49.198733,"lon":16.517301,"is_passed":false},{"stop_id":"U1248Z1","name":"Kohoutovice, hájenka","arrival_time":"21:23:00","departure_time":"21:24:00","lat":49.19638,"lon":16.531386,"is_passed":false},{"stop_id":"U1806Z2","name":"Žebětínská","arrival_time":"21:25:00","departure_time":"21:25:00","lat":49.195249,"lon":16.536145,"is_passed":false},{"stop_id":"U1767Z2","name":"Výletní","arrival_time":"21:26:00","departure_time":"21:26:00","lat":49.191443,"lon":16.539596,"is_passed":false},{"stop_id":"U1409Z2","name":"Myslivní","arrival_time":"21:26:00","departure_time":"21:26:00","lat":49.190415,"lon":16.543578,"is_passed":false},{"stop_id":"U1636Z2","name":"Šárka","arrival_time":"21:27:00","departure_time":"21:27:00","lat":49.19131,"lon":16.545929,"is_passed":false},{"stop_id":"U1003Z1","name":"Antonína Procházky","arrival_time":"21:29:00","departure_time":"21:29:00","lat":49.193559,"lon":16.561795,"is_passed":false},{"stop_id":"U1007Z4","name":"Anthropos","arrival_time":"21:30:00","departure_time":"21:30:00","lat":49.193356,"lon":16.56677,"is_passed":false},{"stop_id":"U1487Z6","name":"Pisárky","arrival_time":"21:31:00","departure_time":"21:31:00","lat":49.193537,"lon":16.570797,"is_passed":false},{"stop_id":"U1343Z4","name":"ARENA BRNO","arrival_time":"21:32:00","departure_time":"21:32:00","lat":49.191574,"lon":16.576353,"is_passed":false},{"stop_id":"U1768Z4","name":"Výstaviště - hlavní vstup","arrival_time":"21:34:00","departure_time":"21:34:00","lat":49.1886,"lon":16.589153,"is_passed":false},{"stop_id":"U1378Z7","name":"Mendlovo náměstí","arrival_time":"21:36:00","departure_time":"21:38:00","lat":49.189919,"lon":16.593687,"is_passed":false}],"57010":[{"stop_id":"U1696Z2","name":"ÚAN Zvonařka","arrival_time":"22:31:00","departure_time":"22:31:00","lat":49.185257,"lon":16.617821,"is_passed":false},{"stop_id":"U1011Z4","name":"Autobusové nádraží","arrival_time":"22:32:00","departure_time":"22:32:00","lat":49.186887,"lon":16.618479,"is_passed":false},{"stop_id":"U1144Z1","name":"Hladíkova","arrival_time":"22:33:00","departure_time":"22:33:00","lat":49.187682,"lon":16.625353,"is_passed":false},{"stop_id":"U1677Z1","name":"Tržní","arrival_time":"22:35:00","departure_time":"22:35:00","lat":49.189973,"lon":16.632193,"is_passed":false},{"stop_id":"U1641Z1","name":"Škroupova","arrival_time":"22:37:00","departure_time":"22:37:00","lat":49.192022,"lon":16.648112,"is_passed":false},{"stop_id":"U1473Z4","name":"Otakara Ševčíka","arrival_time":"22:38:00","departure_time":"22:38:00","lat":49.194988,"lon":16.646643,"is_passed":false},{"stop_id":"U1113Z2","name":"Gajdošova","arrival_time":"22:39:00","departure_time":"22:39:00","lat":49.198286,"lon":16.645995,"is_passed":false},{"stop_id":"U1611Z8","name":"Stará osada","arrival_time":"22:41:00","departure_time":"22:41:00","lat":49.202294,"lon":16.642001,"is_passed":false},{"stop_id":"U1811Z1","name":"Židenice, kasárna","arrival_time":"22:42:00","departure_time":"22:42:00","lat":49.208445,"lon":16.642414,"is_passed":false},{"stop_id":"U1668Z4","name":"Tomkovo náměstí","arrival_time":"22:45:00","departure_time":"22:45:00","lat":49.214128,"lon":16.634545,"is_passed":false},{"stop_id":"U1381Z2","name":"Merhautova","arrival_time":"22:46:00","departure_time":"22:46:00","lat":49.215,"lon":16.627633,"is_passed":false},{"stop_id":"U1646Z3","name":"Štefánikova čtvrť","arrival_time":"22:47:00","departure_time":"22:47:00","lat":49.216958,"lon":16.627543,"is_passed":false},{"stop_id":"U1331Z1","name":"Lesná, nádraží","arrival_time":"22:48:00","departure_time":"22:48:00","lat":49.220041,"lon":16.629534,"is_passed":false},{"stop_id":"U1506Z1","name":"Poliklinika Lesná","arrival_time":"22:49:00","departure_time":"22:49:00","lat":49.222513,"lon":16.625643,"is_passed":false},{"stop_id":"U1128Z3","name":"Halasovo náměstí","arrival_time":"22:50:00","departure_time":"22:53:00","lat":49.223406,"lon":16.622237,"is_passed":false},{"stop_id":"U1692Z2","name":"U tunýlku","arrival_time":"22:54:00","departure_time":"22:54:00","lat":49.222902,"lon":16.617348,"is_passed":false},{"stop_id":"U1087Z2","name":"Divišova čtvrť","arrival_time":"22:54:00","departure_time":"22:54:00","lat":49.223685,"lon":16.612398,"is_passed":false},{"stop_id":"U1288Z2","name":"Královopolská strojírna","arrival_time":"22:55:00","departure_time":"22:55:00","lat":49.224075,"lon":16.607207,"is_passed":false},{"stop_id":"U1246Z2","name":"Kociánka","arrival_time":"22:56:00","departure_time":"22:56:00","lat":49.225972,"lon":16.601746,"is_passed":false},{"stop_id":"U1286Z4","name":"Královo Pole, nádraží","arrival_time":"22:58:00","departure_time":"22:58:00","lat":49.230229,"lon":16.595629,"is_passed":false},{"stop_id":"U1566Z6","name":"Semilasso","arrival_time":"22:59:00","departure_time":"22:59:00","lat":49.228248,"lon":16.593466,"is_passed":false},{"stop_id":"U1171Z4","name":"Husitská","arrival_time":"23:00:00","departure_time":"23:00:00","lat":49.224063,"lon":16.593994,"is_passed":false},{"stop_id":"U1586Z3","name":"Slovanské náměstí","arrival_time":"23:01:00","departure_time":"23:01:00","lat":49.223525,"lon":16.591009,"is_passed":false},{"stop_id":"U1567Z5","name":"Skácelova","arrival_time":"23:02:00","departure_time":"23:02:00","lat":49.221353,"lon":16.584711,"is_passed":false},{"stop_id":"U1777Z1","name":"Záhřebská","arrival_time":"23:04:00","departure_time":"23:04:00","lat":49.219602,"lon":16.579157,"is_passed":false},{"stop_id":"U1528Z3","name":"Přívrat","arrival_time":"23:05:00","departure_time":"23:05:00","lat":49.218788,"lon":16.574147,"is_passed":false},{"stop_id":"U1544Z3","name":"Rosického náměstí","arrival_time":"23:06:00","departure_time":"23:06:00","lat":49.214882,"lon":16.56907,"is_passed":false},{"stop_id":"U1651Z1","name":"Štursova","arrival_time":"23:07:00","departure_time":"23:07:00","lat":49.216462,"lon":16.563614,"is_passed":false},{"stop_id":"U1143Z1","name":"Hlavní","arrival_time":"23:08:00","departure_time":"23:08:00","lat":49.216836,"lon":16.560198,"is_passed":false},{"stop_id":"U1217Z3","name":"Vozovna Komín","arrival_time":"23:08:00","departure_time":"23:08:00","lat":49.213556,"lon":16.559289,"is_passed":false}],"57011":[{"stop_id":"U1796Z7","name":"Zoologická zahrada","arrival_time":"5:36:00","departure_time":"5:36:00","lat":49.227823,"lon":16.531364,"is_passed":false},{"stop_id":"U1417Z1","name":"Náměstí 28. dubna","arrival_time":"5:37:00","departure_time":"5:37:00","lat":49.225188,"lon":16.531132,"is_passed":false},{"stop_id":"U1752Z1","name":"Vondrákova","arrival_time":"5:38:00","departure_time":"5:38:00","lat":49.221303,"lon":16.528376,"is_passed":false},{"stop_id":"U1771Z1","name":"Wollmanova","arrival_time":"5:39:00","departure_time":"5:39:00","lat":49.222275,"lon":16.522436,"is_passed":false},{"stop_id":"U1004Z1","name":"Adamcova","arrival_time":"5:40:00","departure_time":"5:40:00","lat":49.21825,"lon":16.520013,"is_passed":false},{"stop_id":"U1648Z1","name":"Štouračova","arrival_time":"5:41:00","departure_time":"5:41:00","lat":49.215562,"lon":16.521438,"is_passed":false},{"stop_id":"U1608Z1","name":"Stará dálnice","arrival_time":"5:43:00","departure_time":"5:43:00","lat":49.198733,"lon":16.517301,"is_passed":false},{"stop_id":"U1248Z1","name":"Kohoutovice, hájenka","arrival_time":"5:46:00","departure_time":"5:46:00","lat":49.19638,"lon":16.531386,"is_passed":false},{"stop_id":"U1017Z2","name":"Bellova","arrival_time":"5:47:00","departure_time":"5:47:00","lat":49.193898,"lon":16.53095,"is_passed":false},{"stop_id":"U1658Z2","name":"Talichova","arrival_time":"5:47:00","departure_time":"5:47:00","lat":49.191695,"lon":16.529784,"is_passed":false},{"stop_id":"U1481Z2","name":"Pavlovská","arrival_time":"5:48:00","departure_time":"5:48:00","lat":49.189569,"lon":16.531348,"is_passed":false},{"stop_id":"U1209Z3","name":"Jírovcova","arrival_time":"5:49:00","departure_time":"5:49:00","lat":49.187316,"lon":16.535309,"is_passed":false},{"stop_id":"U1223Z2","name":"Kamenný vrch","arrival_time":"5:51:00","departure_time":"5:51:00","lat":49.179747,"lon":16.547764,"is_passed":false},{"stop_id":"U1443Z2","name":"Oblá","arrival_time":"5:52:00","departure_time":"5:52:00","lat":49.177425,"lon":16.552647,"is_passed":false},{"stop_id":"U1263Z2","name":"Koniklecová","arrival_time":"5:53:00","departure_time":"5:53:00","lat":49.176417,"lon":16.559347,"is_passed":false},{"stop_id":"U1078Z3","name":"Čtvrtě","arrival_time":"5:54:00","departure_time":"5:54:00","lat":49.17821,"lon":16.563175,"is_passed":false},{"stop_id":"U1699Z2","name":"Univerzitní kampus","arrival_time":"5:55:00","departure_time":"5:55:00","lat":49.177455,"lon":16.567173,"is_passed":false},{"stop_id":"U1429Z5","name":"Nemocnice Bohunice","arrival_time":"5:56:00","departure_time":"5:56:00","lat":49.175206,"lon":16.56694,"is_passed":false},{"stop_id":"U1492Z2","name":"Pod nemocnicí","arrival_time":"5:58:00","departure_time":"5:58:00","lat":49.172338,"lon":16.569417,"is_passed":false},{"stop_id":"U1472Z8","name":"Osová","arrival_time":"5:59:00","departure_time":"5:59:00","lat":49.168617,"lon":16.566306,"is_passed":false},{"stop_id":"U1273Z2","name":"Kosmonautů","arrival_time":"5:59:00","departure_time":"5:59:00","lat":49.167124,"lon":16.56745,"is_passed":false},{"stop_id":"U1168Z2","name":"Humenná","arrival_time":"6:00:00","departure_time":"6:00:00","lat":49.167953,"lon":16.573664,"is_passed":false},{"stop_id":"U1763Z1","name":"Vyhlídalova","arrival_time":"6:01:00","departure_time":"6:01:00","lat":49.165385,"lon":16.577302,"is_passed":false},{"stop_id":"U1122Z4","name":"Gruzínská","arrival_time":"6:02:00","departure_time":"6:02:00","lat":49.166074,"lon":16.585383,"is_passed":false},{"stop_id":"U1774Z2","name":"Za hřbitovem","arrival_time":"6:03:00","departure_time":"6:03:00","lat":49.164318,"lon":16.591448,"is_passed":false},{"stop_id":"U1673Z2","name":"Traťová","arrival_time":"6:04:00","departure_time":"6:04:00","lat":49.163623,"lon":16.595954,"is_passed":false},{"stop_id":"U1031Z6","name":"Bohunická","arrival_time":"6:05:00","departure_time":"6:05:00","lat":49.162697,"lon":16.600443,"is_passed":false},{"stop_id":"U1275Z2","name":"Košuličova","arrival_time":"6:06:00","departure_time":"6:06:00","lat":49.164588,"lon":16.609917,"is_passed":false},{"stop_id":"U1156Z2","name":"Horní Heršpice","arrival_time":"6:07:00","departure_time":"6:07:00","lat":49.167029,"lon":16.616537,"is_passed":false},{"stop_id":"U1308Z2","name":"Kšírova","arrival_time":"6:08:00","departure_time":"6:08:00","lat":49.171726,"lon":16.615746,"is_passed":false},{"stop_id":"U1256Z6","name":"Komárov","arrival_time":"6:10:00","departure_time":"6:10:00","lat":49.174812,"lon":16.620877,"is_passed":false},{"stop_id":"U1361Z4","name":"Mariánské náměstí","arrival_time":"6:12:00","departure_time":"6:43:00","lat":49.177094,"lon":16.621935,"is_passed":false}],"57012":[{"stop_id":"U1361Z1","name":"Mariánské náměstí","arrival_time":"6:43:00","departure_time":"6:43:00","lat":49.176433,"lon":16.622739,"is_passed":false},{"stop_id":"U1256Z5","name":"Komárov","arrival_time":"6:45:00","departure_time":"6:45:00","lat":49.174917,"lon":16.621279,"is_passed":false},{"stop_id":"U1308Z1","name":"Kšírova","arrival_time":"6:46:00","departure_time":"6:46:00","lat":49.17135,"lon":16.615769,"is_passed":false},{"stop_id":"U1156Z1","name":"Horní Heršpice","arrival_time":"6:47:00","departure_time":"6:47:00","lat":49.166342,"lon":16.616562,"is_passed":false},{"stop_id":"U1275Z1","name":"Košuličova","arrival_time":"6:48:00","departure_time":"6:48:00","lat":49.164685,"lon":16.610183,"is_passed":false},{"stop_id":"U1514Z3","name":"Pražákova","arrival_time":"6:49:00","departure_time":"6:49:00","lat":49.162888,"lon":16.602621,"is_passed":false},{"stop_id":"U1031Z5","name":"Bohunická","arrival_time":"6:50:00","departure_time":"6:50:00","lat":49.162871,"lon":16.599483,"is_passed":false},{"stop_id":"U1673Z1","name":"Traťová","arrival_time":"6:51:00","departure_time":"6:51:00","lat":49.163849,"lon":16.595255,"is_passed":false},{"stop_id":"U1122Z3","name":"Gruzínská","arrival_time":"6:52:00","departure_time":"6:52:00","lat":49.166188,"lon":16.585372,"is_passed":false},{"stop_id":"U1763Z2","name":"Vyhlídalova","arrival_time":"6:53:00","departure_time":"6:53:00","lat":49.165134,"lon":16.576558,"is_passed":false},{"stop_id":"U1168Z1","name":"Humenná","arrival_time":"6:55:00","departure_time":"6:55:00","lat":49.1676,"lon":16.572367,"is_passed":false},{"stop_id":"U1273Z1","name":"Kosmonautů","arrival_time":"6:56:00","departure_time":"6:56:00","lat":49.167006,"lon":16.568017,"is_passed":false},{"stop_id":"U1472Z7","name":"Osová","arrival_time":"6:57:00","departure_time":"6:57:00","lat":49.168951,"lon":16.566714,"is_passed":false},{"stop_id":"U1492Z1","name":"Pod nemocnicí","arrival_time":"6:58:00","departure_time":"6:58:00","lat":49.172412,"lon":16.569624,"is_passed":false},{"stop_id":"U1429Z4","name":"Nemocnice Bohunice","arrival_time":"7:00:00","departure_time":"7:00:00","lat":49.176125,"lon":16.567246,"is_passed":false},{"stop_id":"U1699Z1","name":"Univerzitní kampus","arrival_time":"7:01:00","departure_time":"7:01:00","lat":49.178062,"lon":16.566488,"is_passed":false},{"stop_id":"U1078Z2","name":"Čtvrtě","arrival_time":"7:02:00","departure_time":"7:02:00","lat":49.177932,"lon":16.561546,"is_passed":false},{"stop_id":"U1263Z1","name":"Koniklecová","arrival_time":"7:03:00","departure_time":"7:03:00","lat":49.176634,"lon":16.558219,"is_passed":false},{"stop_id":"U1443Z1","name":"Oblá","arrival_time":"7:04:00","departure_time":"7:04:00","lat":49.177573,"lon":16.552766,"is_passed":false},{"stop_id":"U1223Z1","name":"Kamenný vrch","arrival_time":"7:05:00","departure_time":"7:05:00","lat":49.179914,"lon":16.547756,"is_passed":false},{"stop_id":"U1209Z2","name":"Jírovcova","arrival_time":"7:08:00","departure_time":"7:08:00","lat":49.188255,"lon":16.533803,"is_passed":false},{"stop_id":"U1481Z1","name":"Pavlovská","arrival_time":"7:08:00","departure_time":"7:08:00","lat":49.189952,"lon":16.531006,"is_passed":false},{"stop_id":"U1658Z1","name":"Talichova","arrival_time":"7:09:00","departure_time":"7:09:00","lat":49.191443,"lon":16.52996,"is_passed":false},{"stop_id":"U1017Z1","name":"Bellova","arrival_time":"7:10:00","departure_time":"7:10:00","lat":49.194186,"lon":16.531513,"is_passed":false},{"stop_id":"U1248Z2","name":"Kohoutovice, hájenka","arrival_time":"7:12:00","departure_time":"7:12:00","lat":49.19656,"lon":16.530778,"is_passed":false},{"stop_id":"U1608Z2","name":"Stará dálnice","arrival_time":"7:14:00","departure_time":"7:14:00","lat":49.199858,"lon":16.516922,"is_passed":false},{"stop_id":"U1648Z2","name":"Štouračova","arrival_time":"7:16:00","departure_time":"7:16:00","lat":49.21488,"lon":16.521926,"is_passed":false},{"stop_id":"U1004Z2","name":"Adamcova","arrival_time":"7:17:00","departure_time":"7:17:00","lat":49.218427,"lon":16.519896,"is_passed":false},{"stop_id":"U1771Z2","name":"Wollmanova","arrival_time":"7:18:00","departure_time":"7:18:00","lat":49.222108,"lon":16.52284,"is_passed":false},{"stop_id":"U1326Z4","name":"Laštůvkova","arrival_time":"7:18:00","departure_time":"7:18:00","lat":49.220549,"lon":16.526237,"is_passed":false},{"stop_id":"U1752Z2","name":"Vondrákova","arrival_time":"7:19:00","departure_time":"7:19:00","lat":49.221445,"lon":16.528853,"is_passed":false},{"stop_id":"U1796Z6","name":"Zoologická zahrada","arrival_time":"7:21:00","departure_time":"7:23:00","lat":49.227675,"lon":16.531519,"is_passed":false}],"57013":[{"stop_id":"U1221Z2","name":"Kamechy","arrival_time":"7:42:00","departure_time":"7:42:00","lat":49.214794,"lon":16.49742,"is_passed":false},{"stop_id":"U1185Z2","name":"Chvalovka","arrival_time":"7:42:00","departure_time":"7:42:00","lat":49.21492,"lon":16.500086,"is_passed":false},{"stop_id":"U1230Z2","name":"Kavčí","arrival_time":"7:43:00","departure_time":"7:43:00","lat":49.216872,"lon":16.500241,"is_passed":false},{"stop_id":"U1559Z2","name":"Říčanská","arrival_time":"7:44:00","departure_time":"7:44:00","lat":49.218456,"lon":16.497582,"is_passed":false},{"stop_id":"U1550Z2","name":"Ruda","arrival_time":"7:45:00","departure_time":"7:45:00","lat":49.220473,"lon":16.502554,"is_passed":false},{"stop_id":"U1102Z4","name":"Ečerova","arrival_time":"7:47:00","departure_time":"7:47:00","lat":49.218044,"lon":16.509781,"is_passed":false},{"stop_id":"U1461Z4","name":"Ondrouškova","arrival_time":"7:48:00","departure_time":"7:48:00","lat":49.217906,"lon":16.518033,"is_passed":false},{"stop_id":"U1312Z6","name":"Kubíčkova","arrival_time":"7:49:00","departure_time":"7:49:00","lat":49.22159,"lon":16.519454,"is_passed":false},{"stop_id":"U1537Z4","name":"Rakovecká","arrival_time":"7:50:00","departure_time":"7:50:00","lat":49.226308,"lon":16.518652,"is_passed":false},{"stop_id":"U1527Z4","name":"Přístaviště","arrival_time":"7:51:00","departure_time":"7:51:00","lat":49.228127,"lon":16.522637,"is_passed":false},{"stop_id":"U1796Z6","name":"Zoologická zahrada","arrival_time":"7:53:00","departure_time":"8:05:00","lat":49.227675,"lon":16.531519,"is_passed":false}],"57014":[{"stop_id":"U1796Z7","name":"Zoologická zahrada","arrival_time":"8:05:00","departure_time":"8:05:00","lat":49.227823,"lon":16.531364,"is_passed":false},{"stop_id":"U1796Z3","name":"Zoologická zahrada","arrival_time":"8:06:00","departure_time":"8:06:00","lat":49.228465,"lon":16.531116,"is_passed":false},{"stop_id":"U1527Z3","name":"Přístaviště","arrival_time":"8:07:00","departure_time":"8:07:00","lat":49.228139,"lon":16.522365,"is_passed":false},{"stop_id":"U1537Z3","name":"Rakovecká","arrival_time":"8:08:00","departure_time":"8:08:00","lat":49.225834,"lon":16.518322,"is_passed":false},{"stop_id":"U1312Z5","name":"Kubíčkova","arrival_time":"8:09:00","departure_time":"8:09:00","lat":49.221996,"lon":16.519339,"is_passed":false},{"stop_id":"U1461Z3","name":"Ondrouškova","arrival_time":"8:10:00","departure_time":"8:10:00","lat":49.217721,"lon":16.517208,"is_passed":false},{"stop_id":"U1102Z3","name":"Ečerova","arrival_time":"8:12:00","departure_time":"8:12:00","lat":49.218746,"lon":16.50885,"is_passed":false},{"stop_id":"U1550Z1","name":"Ruda","arrival_time":"8:13:00","departure_time":"8:13:00","lat":49.220738,"lon":16.503998,"is_passed":false},{"stop_id":"U1221Z2","name":"Kamechy","arrival_time":"8:16:00","departure_time":"8:16:00","lat":49.214794,"lon":16.49742,"is_passed":false}],"57015":[{"stop_id":"U1221Z2","name":"Kamechy","arrival_time":"8:16:00","departure_time":"8:16:00","lat":49.214794,"lon":16.49742,"is_passed":false},{"stop_id":"U1185Z2","name":"Chvalovka","arrival_time":"8:17:00","departure_time":"8:17:00","lat":49.21492,"lon":16.500086,"is_passed":false},{"stop_id":"U1230Z2","name":"Kavčí","arrival_time":"8:18:00","departure_time":"8:19:00","lat":49.216872,"lon":16.500241,"is_passed":false},{"stop_id":"U1559Z2","name":"Říčanská","arrival_time":"8:20:00","departure_time":"8:20:00","lat":49.218456,"lon":16.497582,"is_passed":false},{"stop_id":"U1550Z2","name":"Ruda","arrival_time":"8:21:00","departure_time":"8:21:00","lat":49.220473,"lon":16.502554,"is_passed":false},{"stop_id":"U1102Z4","name":"Ečerova","arrival_time":"8:24:00","departure_time":"8:24:00","lat":49.218044,"lon":16.509781,"is_passed":false},{"stop_id":"U1461Z4","name":"Ondrouškova","arrival_time":"8:25:00","departure_time":"8:25:00","lat":49.217906,"lon":16.518033,"is_passed":false},{"stop_id":"U1312Z6","name":"Kubíčkova","arrival_time":"8:26:00","departure_time":"8:26:00","lat":49.22159,"lon":16.519454,"is_passed":false},{"stop_id":"U1537Z4","name":"Rakovecká","arrival_time":"8:27:00","departure_time":"8:27:00","lat":49.226308,"lon":16.518652,"is_passed":false},{"stop_id":"U1527Z4","name":"Přístaviště","arrival_time":"8:28:00","departure_time":"8:28:00","lat":49.228127,"lon":16.522637,"is_passed":false},{"stop_id":"U1796Z6","name":"Zoologická zahrada","arrival_time":"8:30:00","departure_time":"8:30:00","lat":49.227675,"lon":16.531519,"is_passed":false}],"57016":[{"stop_id":"U1796Z7","name":"Zoologická zahrada","arrival_time":"8:36:00","departure_time":"8:36:00","lat":49.227823,"lon":16.531364,"is_passed":false},{"stop_id":"U1417Z1","name":"Náměstí 28. dubna","arrival_time":"8:37:00","departure_time":"8:37:00","lat":49.225188,"lon":16.531132,"is_passed":false},{"stop_id":"U1752Z1","name":"Vondrákova","arrival_time":"8:38:00","departure_time":"8:38:00","lat":49.221303,"lon":16.528376,"is_passed":false},{"stop_id":"U1771Z1","name":"Wollmanova","arrival_time":"8:39:00","departure_time":"8:39:00","lat":49.222275,"lon":16.522436,"is_passed":false},{"stop_id":"U1461Z3","name":"Ondrouškova","arrival_time":"8:40:00","departure_time":"8:40:00","lat":49.217721,"lon":16.517208,"is_passed":false},{"stop_id":"U1102Z3","name":"Ečerova","arrival_time":"8:42:00","departure_time":"8:42:00","lat":49.218746,"lon":16.50885,"is_passed":false},{"stop_id":"U1550Z1","name":"Ruda","arrival_time":"8:43:00","departure_time":"8:43:00","lat":49.220738,"lon":16.503998,"is_passed":false},{"stop_id":"U1559Z1","name":"Říčanská","arrival_time":"8:45:00","departure_time":"8:45:00","lat":49.218679,"lon":16.497368,"is_passed":false},{"stop_id":"U1230Z1","name":"Kavčí","arrival_time":"8:46:00","departure_time":"8:46:00","lat":49.216417,"lon":16.501128,"is_passed":false},{"stop_id":"U1185Z1","name":"Chvalovka","arrival_time":"8:47:00","departure_time":"8:47:00","lat":49.214783,"lon":16.499512,"is_passed":false},{"stop_id":"U1221Z1","name":"Kamechy","arrival_time":"8:48:00","departure_time":"8:48:00","lat":49.216243,"lon":16.493973,"is_passed":false},{"stop_id":"U1802Z1","name":"Žebětínský rybník","arrival_time":"8:49:00","departure_time":"8:49:00","lat":49.215096,"lon":16.49364,"is_passed":false},{"stop_id":"U1096Z1","name":"Drdy","arrival_time":"8:50:00","departure_time":"8:50:00","lat":49.209636,"lon":16.492567,"is_passed":false},{"stop_id":"U1302Z1","name":"Křivánkovo náměstí","arrival_time":"8:51:00","departure_time":"8:51:00","lat":49.20718,"lon":16.487513,"is_passed":false},{"stop_id":"U1540Z2","name":"Ríšova","arrival_time":"8:53:00","departure_time":"8:53:00","lat":49.206684,"lon":16.481219,"is_passed":false},{"stop_id":"U1139Z2","name":"Helenčina","arrival_time":"8:54:00","departure_time":"8:54:00","lat":49.206852,"lon":16.486036,"is_passed":false},{"stop_id":"U1800Z1","name":"Žebětín, hřbitov","arrival_time":"8:55:00","departure_time":"8:55:00","lat":49.204634,"lon":16.487304,"is_passed":false},{"stop_id":"U1015Z2","name":"Bartolomějská","arrival_time":"8:56:00","departure_time":"8:56:00","lat":49.203579,"lon":16.489347,"is_passed":false},{"stop_id":"U1302Z2","name":"Křivánkovo náměstí","arrival_time":"8:57:00","departure_time":"8:57:00","lat":49.20688,"lon":16.4876,"is_passed":false},{"stop_id":"U1803Z2","name":"Žebětín, škola","arrival_time":"8:58:00","departure_time":"8:58:00","lat":49.207347,"lon":16.49285,"is_passed":false},{"stop_id":"U1251Z2","name":"Kohoutovická","arrival_time":"8:59:00","departure_time":"8:59:00","lat":49.206969,"lon":16.498211,"is_passed":false},{"stop_id":"U1267Z2","name":"Kopce","arrival_time":"9:00:00","departure_time":"9:00:00","lat":49.20545,"lon":16.509409,"is_passed":false},{"stop_id":"U1608Z1","name":"Stará dálnice","arrival_time":"9:02:00","departure_time":"9:02:00","lat":49.198733,"lon":16.517301,"is_passed":false},{"stop_id":"U1248Z1","name":"Kohoutovice, hájenka","arrival_time":"9:05:00","departure_time":"9:05:00","lat":49.19638,"lon":16.531386,"is_passed":false},{"stop_id":"U1806Z2","name":"Žebětínská","arrival_time":"9:06:00","departure_time":"9:06:00","lat":49.195249,"lon":16.536145,"is_passed":false},{"stop_id":"U1767Z2","name":"Výletní","arrival_time":"9:07:00","departure_time":"9:07:00","lat":49.191443,"lon":16.539596,"is_passed":false},{"stop_id":"U1409Z2","name":"Myslivní","arrival_time":"9:07:00","departure_time":"9:07:00","lat":49.190415,"lon":16.543578,"is_passed":false},{"stop_id":"U1636Z2","name":"Šárka","arrival_time":"9:08:00","departure_time":"9:08:00","lat":49.19131,"lon":16.545929,"is_passed":false},{"stop_id":"U1003Z1","name":"Antonína Procházky","arrival_time":"9:10:00","departure_time":"9:10:00","lat":49.193559,"lon":16.561795,"is_passed":false},{"stop_id":"U1007Z4","name":"Anthropos","arrival_time":"9:11:00","departure_time":"9:11:00","lat":49.193356,"lon":16.56677,"is_passed":false},{"stop_id":"U1487Z6","name":"Pisárky","arrival_time":"9:12:00","departure_time":"9:12:00","lat":49.193537,"lon":16.570797,"is_passed":false},{"stop_id":"U1343Z4","name":"ARENA BRNO","arrival_time":"9:13:00","departure_time":"9:13:00","lat":49.191574,"lon":16.576353,"is_passed":false},{"stop_id":"U1768Z4","name":"Výstaviště - hlavní vstup","arrival_time":"9:15:00","departure_time":"9:15:00","lat":49.1886,"lon":16.589153,"is_passed":false},{"stop_id":"U1378Z7","name":"Mendlovo náměstí","arrival_time":"9:17:00","departure_time":"9:40:00","lat":49.189919,"lon":16.593687,"is_passed":false}],"57017":[{"stop_id":"U1378Z10","name":"Mendlovo náměstí","arrival_time":"9:40:00","departure_time":"9:40:00","lat":49.190361,"lon":16.593096,"is_passed":false},{"stop_id":"U1768Z3","name":"Výstaviště - hlavní vstup","arrival_time":"9:41:00","departure_time":"9:41:00","lat":49.18958,"lon":16.586471,"is_passed":false},{"stop_id":"U1343Z3","name":"ARENA BRNO","arrival_time":"9:42:00","departure_time":"9:42:00","lat":49.191696,"lon":16.576091,"is_passed":false},{"stop_id":"U1487Z5","name":"Pisárky","arrival_time":"9:43:00","departure_time":"9:43:00","lat":49.193517,"lon":16.571155,"is_passed":false},{"stop_id":"U1007Z3","name":"Anthropos","arrival_time":"9:44:00","departure_time":"9:44:00","lat":49.193146,"lon":16.565715,"is_passed":false},{"stop_id":"U1003Z2","name":"Antonína Procházky","arrival_time":"9:45:00","departure_time":"9:45:00","lat":49.194292,"lon":16.55926,"is_passed":false},{"stop_id":"U1636Z1","name":"Šárka","arrival_time":"9:46:00","departure_time":"9:46:00","lat":49.191567,"lon":16.545721,"is_passed":false},{"stop_id":"U1409Z1","name":"Myslivní","arrival_time":"9:47:00","departure_time":"9:47:00","lat":49.190497,"lon":16.543386,"is_passed":false},{"stop_id":"U1767Z1","name":"Výletní","arrival_time":"9:48:00","departure_time":"9:48:00","lat":49.1916,"lon":16.539376,"is_passed":false},{"stop_id":"U1806Z1","name":"Žebětínská","arrival_time":"9:49:00","departure_time":"9:49:00","lat":49.195158,"lon":16.536454,"is_passed":false},{"stop_id":"U1248Z2","name":"Kohoutovice, hájenka","arrival_time":"9:51:00","departure_time":"9:51:00","lat":49.19656,"lon":16.530778,"is_passed":false},{"stop_id":"U1608Z2","name":"Stará dálnice","arrival_time":"9:53:00","departure_time":"9:53:00","lat":49.199858,"lon":16.516922,"is_passed":false},{"stop_id":"U1267Z1","name":"Kopce","arrival_time":"9:54:00","departure_time":"9:54:00","lat":49.205491,"lon":16.509214,"is_passed":false},{"stop_id":"U1251Z1","name":"Kohoutovická","arrival_time":"9:56:00","departure_time":"9:56:00","lat":49.207042,"lon":16.497787,"is_passed":false},{"stop_id":"U1803Z1","name":"Žebětín, škola","arrival_time":"9:57:00","departure_time":"9:57:00","lat":49.207486,"lon":16.491642,"is_passed":false},{"stop_id":"U1302Z1","name":"Křivánkovo náměstí","arrival_time":"9:58:00","departure_time":"9:58:00","lat":49.20718,"lon":16.487513,"is_passed":false},{"stop_id":"U1800Z1","name":"Žebětín, hřbitov","arrival_time":"9:59:00","departure_time":"9:59:00","lat":49.204634,"lon":16.487304,"is_passed":false},{"stop_id":"U1015Z2","name":"Bartolomějská","arrival_time":"10:00:00","departure_time":"10:00:00","lat":49.203579,"lon":16.489347,"is_passed":false},{"stop_id":"U1540Z2","name":"Ríšova","arrival_time":"10:03:00","departure_time":"10:03:00","lat":49.206684,"lon":16.481219,"is_passed":false},{"stop_id":"U1139Z2","name":"Helenčina","arrival_time":"10:04:00","departure_time":"10:04:00","lat":49.206852,"lon":16.486036,"is_passed":false},{"stop_id":"U1096Z2","name":"Drdy","arrival_time":"10:05:00","departure_time":"10:05:00","lat":49.209191,"lon":16.492285,"is_passed":false},{"stop_id":"U1802Z2","name":"Žebětínský rybník","arrival_time":"10:06:00","departure_time":"10:06:00","lat":49.215544,"lon":16.493531,"is_passed":false},{"stop_id":"U1221Z2","name":"Kamechy","arrival_time":"10:07:00","departure_time":"10:07:00","lat":49.214794,"lon":16.49742,"is_passed":false},{"stop_id":"U1185Z2","name":"Chvalovka","arrival_time":"10:08:00","departure_time":"10:08:00","lat":49.21492,"lon":16.500086,"is_passed":false},{"stop_id":"U1230Z2","name":"Kavčí","arrival_time":"10:09:00","departure_time":"10:09:00","lat":49.216872,"lon":16.500241,"is_passed":false},{"stop_id":"U1559Z2","name":"Říčanská","arrival_time":"10:10:00","departure_time":"10:10:00","lat":49.218456,"lon":16.497582,"is_passed":false},{"stop_id":"U1550Z2","name":"Ruda","arrival_time":"10:11:00","departure_time":"10:11:00","lat":49.220473,"lon":16.502554,"is_passed":false},{"stop_id":"U1102Z4","name":"Ečerova","arrival_time":"10:14:00","departure_time":"10:14:00","lat":49.218044,"lon":16.509781,"is_passed":false},{"stop_id":"U1461Z4","name":"Ondrouškova","arrival_time":"10:15:00","departure_time":"10:15:00","lat":49.217906,"lon":16.518033,"is_passed":false},{"stop_id":"U1771Z2","name":"Wollmanova","arrival_time":"10:16:00","departure_time":"10:16:00","lat":49.222108,"lon":16.52284,"is_passed":false},{"stop_id":"U1326Z4","name":"Laštůvkova","arrival_time":"10:17:00","departure_time":"10:17:00","lat":49.220549,"lon":16.526237,"is_passed":false},{"stop_id":"U1752Z2","name":"Vondrákova","arrival_time":"10:18:00","departure_time":"10:18:00","lat":49.221445,"lon":16.528853,"is_passed":false},{"stop_id":"U1796Z6","name":"Zoologická zahrada","arrival_time":"10:20:00","departure_time":"10:20:00","lat":49.227675,"lon":16.531519,"is_passed":false}],"57018":[{"stop_id":"U1796Z7","name":"Zoologická zahrada","arrival_time":"10:25:00","departure_time":"10:25:00","lat":49.227823,"lon":16.531364,"is_passed":false},{"stop_id":"U1796Z3","name":"Zoologická zahrada","arrival_time":"10:26:00","departure_time":"10:26:00","lat":49.228465,"lon":16.531116,"is_passed":false},{"stop_id":"U1527Z3","name":"Přístaviště","arrival_time":"10:27:00","departure_time":"10:27:00","lat":49.228139,"lon":16.522365,"is_passed":false},{"stop_id":"U1537Z3","name":"Rakovecká","arrival_time":"10:28:00","departure_time":"10:28:00","lat":49.225834,"lon":16.518322,"is_passed":false},{"stop_id":"U1312Z5","name":"Kubíčkova","arrival_time":"10:29:00","departure_time":"10:29:00","lat":49.221996,"lon":16.519339,"is_passed":false},{"stop_id":"U1461Z3","name":"Ondrouškova","arrival_time":"10:30:00","departure_time":"10:30:00","lat":49.217721,"lon":16.517208,"is_passed":false},{"stop_id":"U1102Z3","name":"Ečerova","arrival_time":"10:32:00","departure_time":"10:32:00","lat":49.218746,"lon":16.50885,"is_passed":false},{"stop_id":"U1550Z1","name":"Ruda","arrival_time":"10:33:00","departure_time":"10:33:00","lat":49.220738,"lon":16.503998,"is_passed":false},{"stop_id":"U1221Z2","name":"Kamechy","arrival_time":"10:36:00","departure_time":"10:36:00","lat":49.214794,"lon":16.49742,"is_passed":false}],"57019":[{"stop_id":"U1221Z2","name":"Kamechy","arrival_time":"10:36:00","departure_time":"10:36:00","lat":49.214794,"lon":16.49742,"is_passed":false},{"stop_id":"U1185Z2","name":"Chvalovka","arrival_time":"10:37:00","departure_time":"10:37:00","lat":49.21492,"lon":16.500086,"is_passed":false},{"stop_id":"U1230Z2","name":"Kavčí","arrival_time":"10:38:00","departure_time":"10:39:00","lat":49.216872,"lon":16.500241,"is_passed":false},{"stop_id":"U1559Z2","name":"Říčanská","arrival_time":"10:40:00","departure_time":"10:40:00","lat":49.218456,"lon":16.497582,"is_passed":false},{"stop_id":"U1550Z2","name":"Ruda","arrival_time":"10:41:00","departure_time":"10:41:00","lat":49.220473,"lon":16.502554,"is_passed":false},{"stop_id":"U1102Z4","name":"Ečerova","arrival_time":"10:44:00","departure_time":"10:44:00","lat":49.218044,"lon":16.509781,"is_passed":false},{"stop_id":"U1461Z4","name":"Ondrouškova","arrival_time":"10:45:00","departure_time":"10:45:00","lat":49.217906,"lon":16.518033,"is_passed":false},{"stop_id":"U1312Z6","name":"Kubíčkova","arrival_time":"10:46:00","departure_time":"10:46:00","lat":49.22159,"lon":16.519454,"is_passed":false},{"stop_id":"U1537Z4","name":"Rakovecká","arrival_time":"10:47:00","departure_time":"10:47:00","lat":49.226308,"lon":16.518652,"is_passed":false},{"stop_id":"U1527Z4","name":"Přístaviště","arrival_time":"10:48:00","departure_time":"10:48:00","lat":49.228127,"lon":16.522637,"is_passed":false},{"stop_id":"U1796Z6","name":"Zoologická zahrada","arrival_time":"10:50:00","departure_time":"10:50:00","lat":49.227675,"lon":16.531519,"is_passed":false}],"57020":[{"stop_id":"U1796Z7","name":"Zoologická zahrada","arrival_time":"11:16:00","departure_time":"11:16:00","lat":49.227823,"lon":16.531364,"is_passed":false},{"stop_id":"U1417Z1","name":"Náměstí 28. dubna","arrival_time":"11:17:00","departure_time":"11:17:00","lat":49.225188,"lon":16.531132,"is_passed":false},{"stop_id":"U1752Z1","name":"Vondrákova","arrival_time":"11:18:00","departure_time":"11:18:00","lat":49.221303,"lon":16.528376,"is_passed":false},{"stop_id":"U1771Z1","name":"Wollmanova","arrival_time":"11:19:00","departure_time":"11:19:00","lat":49.222275,"lon":16.522436,"is_passed":false},{"stop_id":"U1461Z3","name":"Ondrouškova","arrival_time":"11:20:00","departure_time":"11:20:00","lat":49.217721,"lon":16.517208,"is_passed":false},{"stop_id":"U1102Z3","name":"Ečerova","arrival_time":"11:22:00","departure_time":"11:22:00","lat":49.218746,"lon":16.50885,"is_passed":false},{"stop_id":"U1550Z1","name":"Ruda","arrival_time":"11:23:00","departure_time":"11:23:00","lat":49.220738,"lon":16.503998,"is_passed":false},{"stop_id":"U1559Z1","name":"Říčanská","arrival_time":"11:25:00","departure_time":"11:25:00","lat":49.218679,"lon":16.497368,"is_passed":false},{"stop_id":"U1230Z1","name":"Kavčí","arrival_time":"11:26:00","departure_time":"11:26:00","lat":49.216417,"lon":16.501128,"is_passed":false},{"stop_id":"U1185Z1","name":"Chvalovka","arrival_time":"11:27:00","departure_time":"11:27:00","lat":49.214783,"lon":16.499512,"is_passed":false},{"stop_id":"U1221Z1","name":"Kamechy","arrival_time":"11:28:00","departure_time":"11:28:00","lat":49.216243,"lon":16.493973,"is_passed":false},{"stop_id":"U1802Z1","name":"Žebětínský rybník","arrival_time":"11:29:00","departure_time":"11:29:00","lat":49.215096,"lon":16.49364,"is_passed":false},{"stop_id":"U1096Z1","name":"Drdy","arrival_time":"11:30:00","departure_time":"11:30:00","lat":49.209636,"lon":16.492567,"is_passed":false},{"stop_id":"U1302Z1","name":"Křivánkovo náměstí","arrival_time":"11:31:00","departure_time":"11:31:00","lat":49.20718,"lon":16.487513,"is_passed":false},{"stop_id":"U1540Z2","name":"Ríšova","arrival_time":"11:33:00","departure_time":"11:33:00","lat":49.206684,"lon":16.481219,"is_passed":false},{"stop_id":"U1139Z2","name":"Helenčina","arrival_time":"11:34:00","departure_time":"11:34:00","lat":49.206852,"lon":16.486036,"is_passed":false},{"stop_id":"U1800Z1","name":"Žebětín, hřbitov","arrival_time":"11:35:00","departure_time":"11:35:00","lat":49.204634,"lon":16.487304,"is_passed":false},{"stop_id":"U1015Z2","name":"Bartolomějská","arrival_time":"11:36:00","departure_time":"11:36:00","lat":49.203579,"lon":16.489347,"is_passed":false},{"stop_id":"U1302Z2","name":"Křivánkovo náměstí","arrival_time":"11:37:00","departure_time":"11:37:00","lat":49.20688,"lon":16.4876,"is_passed":false},{"stop_id":"U1803Z2","name":"Žebětín, škola","arrival_time":"11:38:00","departure_time":"11:38:00","lat":49.207347,"lon":16.49285,"is_passed":false},{"stop_id":"U1251Z2","name":"Kohoutovická","arrival_time":"11:39:00","departure_time":"11:39:00","lat":49.206969,"lon":16.498211,"is_passed":false},{"stop_id":"U1267Z2","name":"Kopce","arrival_time":"11:40:00","departure_time":"11:40:00","lat":49.20545,"lon":16.509409,"is_passed":false},{"stop_id":"U1608Z1","name":"Stará dálnice","arrival_time":"11:42:00","departure_time":"11:42:00","lat":49.198733,"lon":16.517301,"is_passed":false},{"stop_id":"U1248Z1","name":"Kohoutovice, hájenka","arrival_time":"11:45:00","departure_time":"11:45:00","lat":49.19638,"lon":16.531386,"is_passed":false},{"stop_id":"U1806Z2","name":"Žebětínská","arrival_time":"11:46:00","departure_time":"11:46:00","lat":49.195249,"lon":16.536145,"is_passed":false},{"stop_id":"U1767Z2","name":"Výletní","arrival_time":"11:47:00","departure_time":"11:47:00","lat":49.191443,"lon":16.539596,"is_passed":false},{"stop_id":"U1409Z2","name":"Myslivní","arrival_time":"11:47:00","departure_time":"11:47:00","lat":49.190415,"lon":16.543578,"is_passed":false},{"stop_id":"U1636Z2","name":"Šárka","arrival_time":"11:48:00","departure_time":"11:48:00","lat":49.19131,"lon":16.545929,"is_passed":false},{"stop_id":"U1003Z1","name":"Antonína Procházky","arrival_time":"11:50:00","departure_time":"11:50:00","lat":49.193559,"lon":16.561795,"is_passed":false},{"stop_id":"U1007Z4","name":"Anthropos","arrival_time":"11:51:00","departure_time":"11:51:00","lat":49.193356,"lon":16.56677,"is_passed":false},{"stop_id":"U1487Z6","name":"Pisárky","arrival_time":"11:52:00","departure_time":"11:52:00","lat":49.193537,"lon":16.570797,"is_passed":false},{"stop_id":"U1343Z4","name":"ARENA BRNO","arrival_time":"11:53:00","departure_time":"11:53:00","lat":49.191574,"lon":16.576353,"is_passed":false},{"stop_id":"U1768Z4","name":"Výstaviště - hlavní vstup","arrival_time":"11:55:00","departure_time":"11:55:00","lat":49.1886,"lon":16.589153,"is_passed":false},{"stop_id":"U1378Z7","name":"Mendlovo náměstí","arrival_time":"11:57:00","departure_time":"12:20:00","lat":49.189919,"lon":16.593687,"is_passed":false}],"57021":[{"stop_id":"U1378Z10","name":"Mendlovo náměstí","arrival_time":"12:20:00","departure_time":"12:20:00","lat":49.190361,"lon":16.593096,"is_passed":false},{"stop_id":"U1768Z3","name":"Výstaviště - hlavní vstup","arrival_time":"12:21:00","departure_time":"12:21:00","lat":49.18958,"lon":16.586471,"is_passed":false},{"stop_id":"U1343Z3","name":"ARENA BRNO","arrival_time":"12:22:00","departure_time":"12:22:00","lat":49.191696,"lon":16.576091,"is_passed":false},{"stop_id":"U1487Z5","name":"Pisárky","arrival_time":"12:23:00","departure_time":"12:23:00","lat":49.193517,"lon":16.571155,"is_passed":false},{"stop_id":"U1007Z3","name":"Anthropos","arrival_time":"12:24:00","departure_time":"12:24:00","lat":49.193146,"lon":16.565715,"is_passed":false},{"stop_id":"U1003Z2","name":"Antonína Procházky","arrival_time":"12:25:00","departure_time":"12:25:00","lat":49.194292,"lon":16.55926,"is_passed":false},{"stop_id":"U1636Z1","name":"Šárka","arrival_time":"12:26:00","departure_time":"12:26:00","lat":49.191567,"lon":16.545721,"is_passed":false},{"stop_id":"U1409Z1","name":"Myslivní","arrival_time":"12:27:00","departure_time":"12:27:00","lat":49.190497,"lon":16.543386,"is_passed":false},{"stop_id":"U1767Z1","name":"Výletní","arrival_time":"12:28:00","departure_time":"12:28:00","lat":49.1916,"lon":16.539376,"is_passed":false},