{"576":[{"stop_id":"U1146Z98","name":"Hlavní nádraží","arrival_time":"4:35:00","departure_time":"4:35:00","lat":49.19035,"lon":16.612342,"is_passed":false},{"stop_id":"U1183Z11","name":"Chrlice, nádraží","arrival_time":"4:43:00","departure_time":"4:47:00","lat":49.132031,"lon":16.657232,"is_passed":false},{"stop_id":"U16149Z11","name":"Sokolnice, železniční stanice","arrival_time":"4:53:00","departure_time":"5:40:00","lat":49.108029,"lon":16.733459,"is_passed":false}],"5760":[{"stop_id":"U15403Z3","name":"Hustopeče, autobusové nádraží","arrival_time":"14:50:00","departure_time":"14:50:00","lat":48.938251,"lon":16.735608,"is_passed":false},{"stop_id":"U15407Z1","name":"Hustopeče, Nádražní","arrival_time":"14:51:00","departure_time":"14:51:00","lat":48.935378,"lon":16.730693,"is_passed":false},{"stop_id":"U15406Z1","name":"Hustopeče, Mostárna","arrival_time":"14:56:00","departure_time":"14:56:00","lat":48.914318,"lon":16.710175,"is_passed":false},{"stop_id":"U15425Z3","name":"Šakvice, železniční stanice","arrival_time":"14:57:00","departure_time":"15:06:00","lat":48.912514,"lon":16.707526,"is_passed":false},{"stop_id":"U15423Z1","name":"Šakvice, horní konec","arrival_time":"15:10:00","departure_time":"15:10:00","lat":48.89914,"lon":16.71285,"is_passed":false},{"stop_id":"U15424Z1","name":"Šakvice, obecní úřad","arrival_time":"15:12:00","departure_time":"15:51:00","lat":48.896812,"lon":16.717432,"is_passed":false}],"5761":[{"stop_id":"U15424Z2","name":"Šakvice, obecní úřad","arrival_time":"15:51:00","departure_time":"15:51:00","lat":48.896868,"lon":16.717445,"is_passed":false},{"stop_id":"U15423Z2","name":"Šakvice, horní konec","arrival_time":"15:53:00","departure_time":"15:53:00","lat":48.899162,"lon":16.712955,"is_passed":false},{"stop_id":"U15425Z2","name":"Šakvice, železniční stanice","arrival_time":"15:57:00","departure_time":"15:59:00","lat":48.912729,"lon":16.707137,"is_passed":false},{"stop_id":"U15406Z2","name":"Hustopeče, Mostárna","arrival_time":"16:00:00","departure_time":"16:00:00","lat":48.914155,"lon":16.710253,"is_passed":false},{"stop_id":"U15407Z2","name":"Hustopeče, Nádražní","arrival_time":"16:04:00","departure_time":"16:04:00","lat":48.935343,"lon":16.731357,"is_passed":false},{"stop_id":"U15403Z51","name":"Hustopeče, autobusové nádraží","arrival_time":"16:06:00","departure_time":"16:06:00","lat":48.938047,"lon":16.735671,"is_passed":false}],"5762":[{"stop_id":"U15403Z6","name":"Hustopeče, autobusové nádraží","arrival_time":"16:27:00","departure_time":"16:27:00","lat":48.938214,"lon":16.735659,"is_passed":false},{"stop_id":"U15409Z2","name":"Hustopeče, strojírny","arrival_time":"16:29:00","departure_time":"16:29:00","lat":48.93334,"lon":16.743946,"is_passed":false},{"stop_id":"U15405Z2","name":"Hustopeče, farma","arrival_time":"16:31:00","departure_time":"16:31:00","lat":48.930202,"lon":16.76548,"is_passed":false},{"stop_id":"U15402Z2","name":"Horní Bojanovice, ZD","arrival_time":"16:35:00","departure_time":"16:35:00","lat":48.940752,"lon":16.797445,"is_passed":false},{"stop_id":"U15400Z2","name":"Horní Bojanovice","arrival_time":"16:37:00","departure_time":"16:37:00","lat":48.94912,"lon":16.800202,"is_passed":false},{"stop_id":"U15401Z2","name":"Horní Bojanovice, rozcestí","arrival_time":"16:39:00","departure_time":"16:39:00","lat":48.950253,"lon":16.810821,"is_passed":false},{"stop_id":"U15344Z3","name":"Boleradice","arrival_time":"16:42:00","departure_time":"16:42:00","lat":48.967457,"lon":16.81428,"is_passed":false},{"stop_id":"U15347Z2","name":"Boleradice, ZD","arrival_time":"16:44:00","departure_time":"16:44:00","lat":48.962962,"lon":16.82575,"is_passed":false},{"stop_id":"U15345Z2","name":"Boleradice, mlýn","arrival_time":"16:45:00","departure_time":"16:45:00","lat":48.962642,"lon":16.833868,"is_passed":false},{"stop_id":"U16354Z2","name":"Morkůvky","arrival_time":"16:50:00","departure_time":"16:50:00","lat":48.965955,"lon":16.861207,"is_passed":false},{"stop_id":"U16349Z2","name":"Klobouky u Brna, samota","arrival_time":"16:51:00","departure_time":"16:51:00","lat":48.97557,"lon":16.862062,"is_passed":false},{"stop_id":"U16346Z2","name":"Klobouky u Brna, ropovod","arrival_time":"16:53:00","departure_time":"16:53:00","lat":48.983575,"lon":16.862818,"is_passed":false},{"stop_id":"U16351Z2","name":"Klobouky u Brna, Wurmova","arrival_time":"16:54:00","departure_time":"16:54:00","lat":48.993705,"lon":16.863788,"is_passed":false},{"stop_id":"U16345Z3","name":"Klobouky u Brna, náměstí","arrival_time":"16:56:00","departure_time":"17:05:00","lat":48.995257,"lon":16.857507,"is_passed":false},{"stop_id":"U16348Z1","name":"Klobouky u Brna, samoobsluha","arrival_time":"17:08:00","departure_time":"17:08:00","lat":48.995079,"lon":16.867518,"is_passed":false},{"stop_id":"U16343Z1","name":"Klobouky u Brna, Nádražní","arrival_time":"17:09:00","departure_time":"17:09:00","lat":48.994411,"lon":16.879339,"is_passed":false},{"stop_id":"U16466Z1","name":"Krumvíř, supermarket","arrival_time":"17:11:00","departure_time":"17:11:00","lat":48.993439,"lon":16.893299,"is_passed":false},{"stop_id":"U16459Z2","name":"Krumvíř, sokolovna","arrival_time":"17:13:00","departure_time":"17:13:00","lat":48.990161,"lon":16.908878,"is_passed":false},{"stop_id":"U16458Z2","name":"Krumvíř, samota Kumstát","arrival_time":"17:15:00","departure_time":"17:15:00","lat":48.996181,"lon":16.900578,"is_passed":false},{"stop_id":"U16303Z1","name":"Klobouky u Brna, Bohumilice","arrival_time":"17:18:00","departure_time":"17:18:00","lat":49.018244,"lon":16.893748,"is_passed":false},{"stop_id":"U16304Z2","name":"Klobouky u Brna, Bohumilice, rozc.","arrival_time":"17:22:00","departure_time":"17:22:00","lat":49.032213,"lon":16.884065,"is_passed":false},{"stop_id":"U16335Z1","name":"Velké Hostěrádky, obecní úřad","arrival_time":"17:24:00","departure_time":"17:40:00","lat":49.031262,"lon":16.871652,"is_passed":false}],"5763":[{"stop_id":"U16335Z2","name":"Velké Hostěrádky, obecní úřad","arrival_time":"17:40:00","departure_time":"17:40:00","lat":49.031262,"lon":16.871652,"is_passed":false},{"stop_id":"U16304Z1","name":"Klobouky u Brna, Bohumilice, rozc.","arrival_time":"17:42:00","departure_time":"17:42:00","lat":49.032132,"lon":16.884158,"is_passed":false},{"stop_id":"U16303Z2","name":"Klobouky u Brna, Bohumilice","arrival_time":"17:45:00","departure_time":"17:45:00","lat":49.018158,"lon":16.893648,"is_passed":false},{"stop_id":"U16458Z1","name":"Krumvíř, samota Kumstát","arrival_time":"17:48:00","departure_time":"17:48:00","lat":48.996064,"lon":16.900578,"is_passed":false},{"stop_id":"U16459Z1","name":"Krumvíř, sokolovna","arrival_time":"17:50:00","departure_time":"17:50:00","lat":48.990172,"lon":16.908733,"is_passed":false},{"stop_id":"U16466Z2","name":"Krumvíř, supermarket","arrival_time":"17:51:00","departure_time":"17:51:00","lat":48.993555,"lon":16.893235,"is_passed":false},{"stop_id":"U16343Z2","name":"Klobouky u Brna, Nádražní","arrival_time":"17:54:00","departure_time":"17:54:00","lat":48.994572,"lon":16.878598,"is_passed":false},{"stop_id":"U16348Z2","name":"Klobouky u Brna, samoobsluha","arrival_time":"17:55:00","departure_time":"17:55:00","lat":48.995153,"lon":16.866834,"is_passed":false},{"stop_id":"U16345Z4","name":"Klobouky u Brna, náměstí","arrival_time":"17:58:00","departure_time":"18:03:00","lat":48.995257,"lon":16.857507,"is_passed":false},{"stop_id":"U16346Z1","name":"Klobouky u Brna, ropovod","arrival_time":"18:05:00","departure_time":"18:05:00","lat":48.983635,"lon":16.862805,"is_passed":false},{"stop_id":"U16349Z1","name":"Klobouky u Brna, samota","arrival_time":"18:06:00","departure_time":"18:06:00","lat":48.97557,"lon":16.862025,"is_passed":false},{"stop_id":"U16354Z1","name":"Morkůvky","arrival_time":"18:09:00","departure_time":"18:09:00","lat":48.966045,"lon":16.86111,"is_passed":false},{"stop_id":"U15345Z1","name":"Boleradice, mlýn","arrival_time":"18:14:00","departure_time":"18:14:00","lat":48.962698,"lon":16.83408,"is_passed":false},{"stop_id":"U15347Z1","name":"Boleradice, ZD","arrival_time":"18:15:00","departure_time":"18:15:00","lat":48.963052,"lon":16.825588,"is_passed":false},{"stop_id":"U15344Z2","name":"Boleradice","arrival_time":"18:17:00","departure_time":"18:17:00","lat":48.967398,"lon":16.814058,"is_passed":false},{"stop_id":"U15401Z1","name":"Horní Bojanovice, rozcestí","arrival_time":"18:20:00","departure_time":"18:20:00","lat":48.950272,"lon":16.811042,"is_passed":false},{"stop_id":"U15400Z1","name":"Horní Bojanovice","arrival_time":"18:22:00","departure_time":"18:22:00","lat":48.948977,"lon":16.800073,"is_passed":false},{"stop_id":"U15402Z1","name":"Horní Bojanovice, ZD","arrival_time":"18:24:00","departure_time":"18:24:00","lat":48.940682,"lon":16.797115,"is_passed":false},{"stop_id":"U15405Z1","name":"Hustopeče, farma","arrival_time":"18:28:00","departure_time":"18:28:00","lat":48.930208,"lon":16.765207,"is_passed":false},{"stop_id":"U15409Z1","name":"Hustopeče, strojírny","arrival_time":"18:30:00","departure_time":"18:30:00","lat":48.933458,"lon":16.743864,"is_passed":false},{"stop_id":"U15403Z51","name":"Hustopeče, autobusové nádraží","arrival_time":"18:32:00","departure_time":"18:32:00","lat":48.938047,"lon":16.735671,"is_passed":false}],"5764":[{"stop_id":"U15403Z3","name":"Hustopeče, autobusové nádraží","arrival_time":"18:50:00","departure_time":"18:50:00","lat":48.938251,"lon":16.735608,"is_passed":false},{"stop_id":"U15407Z1","name":"Hustopeče, Nádražní","arrival_time":"18:51:00","departure_time":"18:51:00","lat":48.935378,"lon":16.730693,"is_passed":false},{"stop_id":"U15406Z1","name":"Hustopeče, Mostárna","arrival_time":"18:56:00","departure_time":"18:56:00","lat":48.914318,"lon":16.710175,"is_passed":false},{"stop_id":"U15425Z3","name":"Šakvice, železniční stanice","arrival_time":"18:57:00","departure_time":"19:00:00","lat":48.912514,"lon":16.707526,"is_passed":false},{"stop_id":"U15423Z1","name":"Šakvice, horní konec","arrival_time":"19:04:00","departure_time":"19:04:00","lat":48.89914,"lon":16.71285,"is_passed":false},{"stop_id":"U15424Z1","name":"Šakvice, obecní úřad","arrival_time":"19:06:00","departure_time":"19:51:00","lat":48.896812,"lon":16.717432,"is_passed":false}],"5765":[{"stop_id":"U15424Z2","name":"Šakvice, obecní úřad","arrival_time":"19:51:00","departure_time":"19:51:00","lat":48.896868,"lon":16.717445,"is_passed":false},{"stop_id":"U15423Z2","name":"Šakvice, horní konec","arrival_time":"19:53:00","departure_time":"19:53:00","lat":48.899162,"lon":16.712955,"is_passed":false},{"stop_id":"U15425Z2","name":"Šakvice, železniční stanice","arrival_time":"19:57:00","departure_time":"20:06:00","lat":48.912729,"lon":16.707137,"is_passed":false}],"5766":[{"stop_id":"U15425Z3","name":"Šakvice, železniční stanice","arrival_time":"20:06:00","departure_time":"20:06:00","lat":48.912514,"lon":16.707526,"is_passed":false},{"stop_id":"U15423Z1","name":"Šakvice, horní konec","arrival_time":"20:10:00","departure_time":"20:10:00","lat":48.89914,"lon":16.71285,"is_passed":false},{"stop_id":"U15424Z1","name":"Šakvice, obecní úřad","arrival_time":"20:12:00","departure_time":"20:46:00","lat":48.896812,"lon":16.717432,"is_passed":false}],"5767":[{"stop_id":"U15424Z2","name":"Šakvice, obecní úřad","arrival_time":"20:46:00","departure_time":"20:46:00","lat":48.896868,"lon":16.717445,"is_passed":false},{"stop_id":"U15423Z2","name":"Šakvice, horní konec","arrival_time":"20:48:00","departure_time":"20:48:00","lat":48.899162,"lon":16.712955,"is_passed":false},{"stop_id":"U15425Z2","name":"Šakvice, železniční stanice","arrival_time":"20:52:00","departure_time":"21:06:00","lat":48.912729,"lon":16.707137,"is_passed":false}],"5768":[{"stop_id":"U15425Z3","name":"Šakvice, železniční stanice","arrival_time":"21:06:00","departure_time":"21:06:00","lat":48.912514,"lon":16.707526,"is_passed":false},{"stop_id":"U15423Z1","name":"Šakvice, horní konec","arrival_time":"21:10:00","departure_time":"21:10:00","lat":48.89914,"lon":16.71285,"is_passed":false},{"stop_id":"U15424Z1","name":"Šakvice, obecní úřad","arrival_time":"21:12:00","departure_time":"21:44:00","lat":48.896812,"lon":16.717432,"is_passed":false}],"5769":[{"stop_id":"U15424Z2","name":"Šakvice, obecní úřad","arrival_time":"21:44:00","departure_time":"21:44:00","lat":48.896868,"lon":16.717445,"is_passed":false},{"stop_id":"U15423Z2","name":"Šakvice, horní konec","arrival_time":"21:46:00","departure_time":"21:46:00","lat":48.899162,"lon":16.712955,"is_passed":false},{"stop_id":"U15425Z2","name":"Šakvice, železniční stanice","arrival_time":"21:50:00","departure_time":"21:50:00","lat":48.912729,"lon":16.707137,"is_passed":false},{"stop_id":"U15406Z2","name":"Hustopeče, Mostárna","arrival_time":"21:51:00","departure_time":"21:51:00","lat":48.914155,"lon":16.710253,"is_passed":false},{"stop_id":"U15407Z2","name":"Hustopeče, Nádražní","arrival_time":"21:54:00","departure_time":"21:54:00","lat":48.935343,"lon":16.731357,"is_passed":false},{"stop_id":"U15403Z51","name":"Hustopeče, autobusové nádraží","arrival_time":"21:56:00","departure_time":"21:56:00","lat":48.938047,"lon":16.735671,"is_passed":false}],"57600":[{"stop_id":"U1361Z1","name":"Mariánské náměstí","arrival_time":"22:43:00","departure_time":"22:43:00","lat":49.176433,"lon":16.622739,"is_passed":false},{"stop_id":"U1256Z5","name":"Komárov","arrival_time":"22:45:00","departure_time":"22:45:00","lat":49.174917,"lon":16.621279,"is_passed":false},{"stop_id":"U1308Z1","name":"Kšírova","arrival_time":"22:46:00","departure_time":"22:46:00","lat":49.17135,"lon":16.615769,"is_passed":false},{"stop_id":"U1156Z1","name":"Horní Heršpice","arrival_time":"22:47:00","departure_time":"22:47:00","lat":49.166342,"lon":16.616562,"is_passed":false},{"stop_id":"U1275Z1","name":"Košuličova","arrival_time":"22:48:00","departure_time":"22:48:00","lat":49.164685,"lon":16.610183,"is_passed":false},{"stop_id":"U1514Z3","name":"Pražákova","arrival_time":"22:49:00","departure_time":"22:49:00","lat":49.162888,"lon":16.602621,"is_passed":false},{"stop_id":"U1031Z5","name":"Bohunická","arrival_time":"22:50:00","departure_time":"22:50:00","lat":49.162871,"lon":16.599483,"is_passed":false},{"stop_id":"U1673Z1","name":"Traťová","arrival_time":"22:51:00","departure_time":"22:51:00","lat":49.163849,"lon":16.595255,"is_passed":false},{"stop_id":"U1122Z3","name":"Gruzínská","arrival_time":"22:52:00","departure_time":"22:52:00","lat":49.166188,"lon":16.585372,"is_passed":false},{"stop_id":"U1763Z2","name":"Vyhlídalova","arrival_time":"22:53:00","departure_time":"22:53:00","lat":49.165134,"lon":16.576558,"is_passed":false},{"stop_id":"U1168Z1","name":"Humenná","arrival_time":"22:55:00","departure_time":"22:55:00","lat":49.1676,"lon":16.572367,"is_passed":false},{"stop_id":"U1273Z1","name":"Kosmonautů","arrival_time":"22:56:00","departure_time":"22:56:00","lat":49.167006,"lon":16.568017,"is_passed":false},{"stop_id":"U1472Z7","name":"Osová","arrival_time":"22:57:00","departure_time":"22:57:00","lat":49.168951,"lon":16.566714,"is_passed":false},{"stop_id":"U1492Z1","name":"Pod nemocnicí","arrival_time":"22:58:00","departure_time":"22:58:00","lat":49.172412,"lon":16.569624,"is_passed":false},{"stop_id":"U1429Z4","name":"Nemocnice Bohunice","arrival_time":"23:00:00","departure_time":"23:00:00","lat":49.176125,"lon":16.567246,"is_passed":false},{"stop_id":"U1699Z1","name":"Univerzitní kampus","arrival_time":"23:01:00","departure_time":"23:01:00","lat":49.178062,"lon":16.566488,"is_passed":false},{"stop_id":"U1078Z2","name":"Čtvrtě","arrival_time":"23:02:00","departure_time":"23:02:00","lat":49.177932,"lon":16.561546,"is_passed":false},{"stop_id":"U1263Z1","name":"Koniklecová","arrival_time":"23:03:00","departure_time":"23:03:00","lat":49.176634,"lon":16.558219,"is_passed":false},{"stop_id":"U1443Z1","name":"Oblá","arrival_time":"23:04:00","departure_time":"23:04:00","lat":49.177573,"lon":16.552766,"is_passed":false},{"stop_id":"U1223Z1","name":"Kamenný vrch","arrival_time":"23:05:00","departure_time":"23:05:00","lat":49.179914,"lon":16.547756,"is_passed":false},{"stop_id":"U1209Z2","name":"Jírovcova","arrival_time":"23:08:00","departure_time":"23:08:00","lat":49.188255,"lon":16.533803,"is_passed":false},{"stop_id":"U1481Z1","name":"Pavlovská","arrival_time":"23:08:00","departure_time":"23:08:00","lat":49.189952,"lon":16.531006,"is_passed":false},{"stop_id":"U1658Z1","name":"Talichova","arrival_time":"23:09:00","departure_time":"23:09:00","lat":49.191443,"lon":16.52996,"is_passed":false},{"stop_id":"U1017Z1","name":"Bellova","arrival_time":"23:10:00","departure_time":"23:10:00","lat":49.194186,"lon":16.531513,"is_passed":false},{"stop_id":"U1248Z2","name":"Kohoutovice, hájenka","arrival_time":"23:12:00","departure_time":"23:12:00","lat":49.19656,"lon":16.530778,"is_passed":false},{"stop_id":"U1608Z2","name":"Stará dálnice","arrival_time":"23:14:00","departure_time":"23:14:00","lat":49.199858,"lon":16.516922,"is_passed":false},{"stop_id":"U1648Z2","name":"Štouračova","arrival_time":"23:16:00","departure_time":"23:16:00","lat":49.21488,"lon":16.521926,"is_passed":false},{"stop_id":"U1004Z2","name":"Adamcova","arrival_time":"23:17:00","departure_time":"23:17:00","lat":49.218427,"lon":16.519896,"is_passed":false},{"stop_id":"U1771Z2","name":"Wollmanova","arrival_time":"23:18:00","departure_time":"23:18:00","lat":49.222108,"lon":16.52284,"is_passed":false},{"stop_id":"U1326Z4","name":"Laštůvkova","arrival_time":"23:18:00","departure_time":"23:18:00","lat":49.220549,"lon":16.526237,"is_passed":false},{"stop_id":"U1752Z2","name":"Vondrákova","arrival_time":"23:19:00","departure_time":"23:19:00","lat":49.221445,"lon":16.528853,"is_passed":false},{"stop_id":"U1796Z6","name":"Zoologická zahrada","arrival_time":"23:21:00","departure_time":"23:23:00","lat":49.227675,"lon":16.531519,"is_passed":false}],"57601":[{"stop_id":"U1689Z2","name":"U Luhu","arrival_time":"23:30:00","departure_time":"23:30:00","lat":49.239053,"lon":16.530136,"is_passed":false},{"stop_id":"U1690Z2","name":"U památníku","arrival_time":"23:31:00","departure_time":"23:31:00","lat":49.235964,"lon":16.527962,"is_passed":false},{"stop_id":"U1494Z2","name":"Pod Mniší horou","arrival_time":"23:32:00","departure_time":"23:32:00","lat":49.227995,"lon":16.533868,"is_passed":false},{"stop_id":"U1226Z4","name":"Kamenolom","arrival_time":"23:33:00","departure_time":"23:33:00","lat":49.221655,"lon":16.536983,"is_passed":false},{"stop_id":"U1493Z4","name":"Podlesí","arrival_time":"23:34:00","departure_time":"23:34:00","lat":49.218759,"lon":16.542623,"is_passed":false},{"stop_id":"U1042Z4","name":"Branka","arrival_time":"23:35:00","departure_time":"23:35:00","lat":49.219193,"lon":16.548512,"is_passed":false},{"stop_id":"U1633Z6","name":"Svratecká","arrival_time":"23:36:00","departure_time":"23:36:00","lat":49.21759,"lon":16.553789,"is_passed":false},{"stop_id":"U1215Z2","name":"Jundrovská","arrival_time":"23:37:00","departure_time":"23:37:00","lat":49.211911,"lon":16.560194,"is_passed":false},{"stop_id":"U1217Z4","name":"Vozovna Komín","arrival_time":"23:38:00","departure_time":"23:38:00","lat":49.214283,"lon":16.559705,"is_passed":false},{"stop_id":"U1143Z2","name":"Hlavní","arrival_time":"23:38:00","departure_time":"23:38:00","lat":49.21715,"lon":16.560506,"is_passed":false},{"stop_id":"U1651Z2","name":"Štursova","arrival_time":"23:39:00","departure_time":"23:39:00","lat":49.215854,"lon":16.564522,"is_passed":false},{"stop_id":"U1758Z2","name":"Vrázova","arrival_time":"23:40:00","departure_time":"23:40:00","lat":49.216977,"lon":16.568646,"is_passed":false},{"stop_id":"U1528Z6","name":"Přívrat","arrival_time":"23:41:00","departure_time":"23:41:00","lat":49.218109,"lon":16.574404,"is_passed":false},{"stop_id":"U1352Z2","name":"Makovského náměstí","arrival_time":"23:41:00","departure_time":"23:41:00","lat":49.217881,"lon":16.576657,"is_passed":false},{"stop_id":"U1426Z2","name":"Náměstí Svornosti","arrival_time":"23:42:00","departure_time":"23:42:00","lat":49.215179,"lon":16.58299,"is_passed":false},{"stop_id":"U1206Z2","name":"Jindřichova","arrival_time":"23:43:00","departure_time":"23:43:00","lat":49.213132,"lon":16.583163,"is_passed":false},{"stop_id":"U1601Z2","name":"Spojovací","arrival_time":"23:44:00","departure_time":"23:44:00","lat":49.211772,"lon":16.58703,"is_passed":false},{"stop_id":"U1279Z2","name":"Kounicovy koleje","arrival_time":"23:45:00","departure_time":"23:45:00","lat":49.20763,"lon":16.582971,"is_passed":false},{"stop_id":"U1371Z4","name":"Náměstí Míru","arrival_time":"23:47:00","departure_time":"23:47:00","lat":49.202111,"lon":16.581823,"is_passed":false},{"stop_id":"U1137Z1","name":"Heinrichova","arrival_time":"23:47:00","departure_time":"23:47:00","lat":49.200413,"lon":16.584511,"is_passed":false},{"stop_id":"U1762Z2","name":"Všetičkova","arrival_time":"23:48:00","departure_time":"23:48:00","lat":49.198648,"lon":16.589335,"is_passed":false},{"stop_id":"U1712Z2","name":"Úvoz","arrival_time":"23:49:00","departure_time":"23:49:00","lat":49.198275,"lon":16.593189,"is_passed":false},{"stop_id":"U1442Z2","name":"Obilní trh","arrival_time":"23:50:00","departure_time":"23:50:00","lat":49.198022,"lon":16.598215,"is_passed":false},{"stop_id":"U1257Z2","name":"Komenského náměstí","arrival_time":"23:51:00","departure_time":"23:51:00","lat":49.197135,"lon":16.602612,"is_passed":false},{"stop_id":"U1637Z1","name":"Šilingrovo náměstí","arrival_time":"23:53:00","departure_time":"23:53:00","lat":49.19171,"lon":16.605355,"is_passed":false},{"stop_id":"U1146Z4","name":"Hlavní nádraží","arrival_time":"23:56:00","departure_time":"24:00:00","lat":49.19125,"lon":16.612674,"is_passed":false},{"stop_id":"U1746Z1","name":"Vlhká","arrival_time":"24:01:00","departure_time":"24:01:00","lat":49.191847,"lon":16.618976,"is_passed":false},{"stop_id":"U1372Z1","name":"Masná","arrival_time":"24:02:00","departure_time":"24:02:00","lat":49.191244,"lon":16.625642,"is_passed":false},{"stop_id":"U1677Z1","name":"Tržní","arrival_time":"24:04:00","departure_time":"24:04:00","lat":49.189973,"lon":16.632193,"is_passed":false},{"stop_id":"U1641Z1","name":"Škroupova","arrival_time":"24:06:00","departure_time":"24:06:00","lat":49.192022,"lon":16.648112,"is_passed":false},{"stop_id":"U1473Z4","name":"Otakara Ševčíka","arrival_time":"24:07:00","departure_time":"24:07:00","lat":49.194988,"lon":16.646643,"is_passed":false},{"stop_id":"U1082Z1","name":"Dělnický dům","arrival_time":"24:08:00","departure_time":"24:08:00","lat":49.195559,"lon":16.650177,"is_passed":false},{"stop_id":"U1496Z1","name":"Podlomní","arrival_time":"24:09:00","departure_time":"24:09:00","lat":49.192252,"lon":16.655367,"is_passed":false},{"stop_id":"U1642Z1","name":"Špačkova","arrival_time":"24:09:00","departure_time":"24:09:00","lat":49.190929,"lon":16.658793,"is_passed":false},{"stop_id":"U1018Z6","name":"Bělohorská","arrival_time":"24:10:00","departure_time":"24:10:00","lat":49.189603,"lon":16.662473,"is_passed":false},{"stop_id":"U1501Z4","name":"Podstránská","arrival_time":"24:10:00","departure_time":"24:10:00","lat":49.186139,"lon":16.667061,"is_passed":false},{"stop_id":"U1068Z1","name":"Černovičky","arrival_time":"24:12:00","departure_time":"24:12:00","lat":49.182244,"lon":16.66894,"is_passed":false},{"stop_id":"U1741Z1","name":"Vlárská","arrival_time":"24:12:00","departure_time":"24:12:00","lat":49.180745,"lon":16.671647,"is_passed":false},{"stop_id":"U1105Z1","name":"Ericha Roučky","arrival_time":"24:14:00","departure_time":"24:14:00","lat":49.174784,"lon":16.66987,"is_passed":false},{"stop_id":"U1064Z1","name":"Černovická terasa I","arrival_time":"24:15:00","departure_time":"24:15:00","lat":49.171172,"lon":16.673495,"is_passed":false},{"stop_id":"U1065Z1","name":"Černovická terasa II","arrival_time":"24:15:00","departure_time":"24:15:00","lat":49.167108,"lon":16.67608,"is_passed":false},{"stop_id":"U1581Z2","name":"Areál Slatina","arrival_time":"24:16:00","departure_time":"24:16:00","lat":49.168677,"lon":16.678416,"is_passed":false},{"stop_id":"U1562Z3","name":"Řípská","arrival_time":"24:17:00","departure_time":"24:17:00","lat":49.172528,"lon":16.682138,"is_passed":false},{"stop_id":"U1640Z1","name":"Šmahova","arrival_time":"24:18:00","departure_time":"24:18:00","lat":49.171448,"lon":16.685105,"is_passed":false},{"stop_id":"U1334Z1","name":"Letiště - logistický areál","arrival_time":"24:20:00","departure_time":"24:20:00","lat":49.15627,"lon":16.698196,"is_passed":false},{"stop_id":"U1335Z1","name":"Letiště - služební vstup","arrival_time":"24:21:00","departure_time":"24:21:00","lat":49.155635,"lon":16.691132,"is_passed":false},{"stop_id":"U1337Z1","name":"Letiště Tuřany - terminál","arrival_time":"24:22:00","departure_time":"24:33:00","lat":49.154815,"lon":16.692296,"is_passed":false}],"57602":[{"stop_id":"U1337Z2","name":"Letiště Tuřany - terminál","arrival_time":"0:33:00","departure_time":"0:33:00","lat":49.154845,"lon":16.692583,"is_passed":false},{"stop_id":"U1334Z2","name":"Letiště - logistický areál","arrival_time":"0:34:00","departure_time":"0:34:00","lat":49.156979,"lon":16.699058,"is_passed":false},{"stop_id":"U1640Z2","name":"Šmahova","arrival_time":"0:36:00","departure_time":"0:36:00","lat":49.172157,"lon":16.684373,"is_passed":false},{"stop_id":"U1562Z4","name":"Řípská","arrival_time":"0:37:00","departure_time":"0:37:00","lat":49.172829,"lon":16.682244,"is_passed":false},{"stop_id":"U1581Z1","name":"Areál Slatina","arrival_time":"0:38:00","departure_time":"0:38:00","lat":49.168614,"lon":16.67804,"is_passed":false},{"stop_id":"U1065Z2","name":"Černovická terasa II","arrival_time":"0:38:00","departure_time":"0:38:00","lat":49.168348,"lon":16.675307,"is_passed":false},{"stop_id":"U1064Z2","name":"Černovická terasa I","arrival_time":"0:39:00","departure_time":"0:39:00","lat":49.171843,"lon":16.673091,"is_passed":false},{"stop_id":"U1105Z2","name":"Ericha Roučky","arrival_time":"0:40:00","departure_time":"0:40:00","lat":49.175109,"lon":16.669439,"is_passed":false},{"stop_id":"U1741Z2","name":"Vlárská","arrival_time":"0:42:00","departure_time":"0:42:00","lat":49.180702,"lon":16.672017,"is_passed":false},{"stop_id":"U1068Z4","name":"Černovičky","arrival_time":"0:43:00","departure_time":"0:43:00","lat":49.183907,"lon":16.668247,"is_passed":false},{"stop_id":"U1501Z3","name":"Podstránská","arrival_time":"0:43:00","departure_time":"0:43:00","lat":49.186855,"lon":16.66649,"is_passed":false},{"stop_id":"U1018Z4","name":"Bělohorská","arrival_time":"0:44:00","departure_time":"0:44:00","lat":49.189904,"lon":16.662135,"is_passed":false},{"stop_id":"U1642Z2","name":"Špačkova","arrival_time":"0:44:00","departure_time":"0:44:00","lat":49.190815,"lon":16.659552,"is_passed":false},{"stop_id":"U1496Z2","name":"Podlomní","arrival_time":"0:45:00","departure_time":"0:45:00","lat":49.192497,"lon":16.654989,"is_passed":false},{"stop_id":"U1082Z2","name":"Dělnický dům","arrival_time":"0:46:00","departure_time":"0:46:00","lat":49.195559,"lon":16.64956,"is_passed":false},{"stop_id":"U1473Z3","name":"Otakara Ševčíka","arrival_time":"0:47:00","departure_time":"0:47:00","lat":49.194578,"lon":16.646459,"is_passed":false},{"stop_id":"U1641Z2","name":"Škroupova","arrival_time":"0:48:00","departure_time":"0:48:00","lat":49.191985,"lon":16.647843,"is_passed":false},{"stop_id":"U1814Z4","name":"Životského","arrival_time":"0:50:00","departure_time":"0:50:00","lat":49.190077,"lon":16.634992,"is_passed":false},{"stop_id":"U1372Z2","name":"Masná","arrival_time":"0:51:00","departure_time":"0:51:00","lat":49.191283,"lon":16.6245,"is_passed":false},{"stop_id":"U1746Z2","name":"Vlhká","arrival_time":"0:52:00","departure_time":"0:52:00","lat":49.191852,"lon":16.619157,"is_passed":false},{"stop_id":"U1146Z1","name":"Hlavní nádraží","arrival_time":"0:55:00","departure_time":"1:00:00","lat":49.191185,"lon":16.611879,"is_passed":false},{"stop_id":"U1637Z2","name":"Šilingrovo náměstí","arrival_time":"1:01:00","departure_time":"1:01:00","lat":49.192027,"lon":16.605234,"is_passed":false},{"stop_id":"U1257Z1","name":"Komenského náměstí","arrival_time":"1:03:00","departure_time":"1:03:00","lat":49.197047,"lon":16.601844,"is_passed":false},{"stop_id":"U1442Z1","name":"Obilní trh","arrival_time":"1:04:00","departure_time":"1:04:00","lat":49.198221,"lon":16.597478,"is_passed":false},{"stop_id":"U1712Z1","name":"Úvoz","arrival_time":"1:05:00","departure_time":"1:05:00","lat":49.19829,"lon":16.59265,"is_passed":false},{"stop_id":"U1762Z1","name":"Všetičkova","arrival_time":"1:05:00","departure_time":"1:05:00","lat":49.198749,"lon":16.588757,"is_passed":false},{"stop_id":"U1371Z1","name":"Náměstí Míru","arrival_time":"1:06:00","departure_time":"1:06:00","lat":49.202197,"lon":16.582014,"is_passed":false},{"stop_id":"U1279Z1","name":"Kounicovy koleje","arrival_time":"1:07:00","departure_time":"1:07:00","lat":49.207874,"lon":16.583463,"is_passed":false},{"stop_id":"U1601Z1","name":"Spojovací","arrival_time":"1:08:00","departure_time":"1:08:00","lat":49.212099,"lon":16.586305,"is_passed":false},{"stop_id":"U1206Z1","name":"Jindřichova","arrival_time":"1:09:00","departure_time":"1:09:00","lat":49.21326,"lon":16.582924,"is_passed":false},{"stop_id":"U1426Z1","name":"Náměstí Svornosti","arrival_time":"1:10:00","departure_time":"1:10:00","lat":49.215585,"lon":16.582,"is_passed":false},{"stop_id":"U1352Z1","name":"Makovského náměstí","arrival_time":"1:11:00","departure_time":"1:11:00","lat":49.217922,"lon":16.576761,"is_passed":false},{"stop_id":"U1528Z5","name":"Přívrat","arrival_time":"1:12:00","departure_time":"1:12:00","lat":49.218247,"lon":16.574102,"is_passed":false},{"stop_id":"U1758Z1","name":"Vrázova","arrival_time":"1:13:00","departure_time":"1:13:00","lat":49.216968,"lon":16.568321,"is_passed":false},{"stop_id":"U1651Z1","name":"Štursova","arrival_time":"1:14:00","departure_time":"1:14:00","lat":49.216462,"lon":16.563614,"is_passed":false},{"stop_id":"U1143Z1","name":"Hlavní","arrival_time":"1:15:00","departure_time":"1:15:00","lat":49.216836,"lon":16.560198,"is_passed":false},{"stop_id":"U1217Z3","name":"Vozovna Komín","arrival_time":"1:15:00","departure_time":"1:15:00","lat":49.214168,"lon":16.559588,"is_passed":false},{"stop_id":"U1215Z1","name":"Jundrovská","arrival_time":"1:16:00","departure_time":"1:16:00","lat":49.211867,"lon":16.560093,"is_passed":false},{"stop_id":"U1633Z5","name":"Svratecká","arrival_time":"1:18:00","departure_time":"1:18:00","lat":49.218278,"lon":16.552802,"is_passed":false},{"stop_id":"U1042Z3","name":"Branka","arrival_time":"1:19:00","departure_time":"1:19:00","lat":49.219505,"lon":16.547256,"is_passed":false},{"stop_id":"U1493Z3","name":"Podlesí","arrival_time":"1:20:00","departure_time":"1:20:00","lat":49.218861,"lon":16.542049,"is_passed":false},{"stop_id":"U1226Z3","name":"Kamenolom","arrival_time":"1:21:00","departure_time":"1:21:00","lat":49.222506,"lon":16.537085,"is_passed":false},{"stop_id":"U1494Z1","name":"Pod Mniší horou","arrival_time":"1:22:00","departure_time":"1:22:00","lat":49.226808,"lon":16.534636,"is_passed":false},{"stop_id":"U1690Z1","name":"U památníku","arrival_time":"1:24:00","departure_time":"1:24:00","lat":49.235993,"lon":16.528027,"is_passed":false},{"stop_id":"U1689Z3","name":"U Luhu","arrival_time":"1:25:00","departure_time":"2:30:00","lat":49.239205,"lon":16.530054,"is_passed":false}],"57603":[{"stop_id":"U1689Z2","name":"U Luhu","arrival_time":"2:30:00","departure_time":"2:30:00","lat":49.239053,"lon":16.530136,"is_passed":false},{"stop_id":"U1690Z2","name":"U památníku","arrival_time":"2:31:00","departure_time":"2:31:00","lat":49.235964,"lon":16.527962,"is_passed":false},{"stop_id":"U1494Z2","name":"Pod Mniší horou","arrival_time":"2:32:00","departure_time":"2:32:00","lat":49.227995,"lon":16.533868,"is_passed":false},{"stop_id":"U1226Z4","name":"Kamenolom","arrival_time":"2:33:00","departure_time":"2:33:00","lat":49.221655,"lon":16.536983,"is_passed":false},{"stop_id":"U1493Z4","name":"Podlesí","arrival_time":"2:34:00","departure_time":"2:34:00","lat":49.218759,"lon":16.542623,"is_passed":false},{"stop_id":"U1042Z4","name":"Branka","arrival_time":"2:35:00","departure_time":"2:35:00","lat":49.219193,"lon":16.548512,"is_passed":false},{"stop_id":"U1633Z6","name":"Svratecká","arrival_time":"2:36:00","departure_time":"2:36:00","lat":49.21759,"lon":16.553789,"is_passed":false},{"stop_id":"U1215Z2","name":"Jundrovská","arrival_time":"2:37:00","departure_time":"2:37:00","lat":49.211911,"lon":16.560194,"is_passed":false},{"stop_id":"U1217Z4","name":"Vozovna Komín","arrival_time":"2:38:00","departure_time":"2:38:00","lat":49.214283,"lon":16.559705,"is_passed":false},{"stop_id":"U1143Z2","name":"Hlavní","arrival_time":"2:38:00","departure_time":"2:38:00","lat":49.21715,"lon":16.560506,"is_passed":false},{"stop_id":"U1651Z2","name":"Štursova","arrival_time":"2:39:00","departure_time":"2:39:00","lat":49.215854,"lon":16.564522,"is_passed":false},{"stop_id":"U1758Z2","name":"Vrázova","arrival_time":"2:40:00","departure_time":"2:40:00","lat":49.216977,"lon":16.568646,"is_passed":false},{"stop_id":"U1528Z6","name":"Přívrat","arrival_time":"2:41:00","departure_time":"2:41:00","lat":49.218109,"lon":16.574404,"is_passed":false},{"stop_id":"U1352Z2","name":"Makovského náměstí","arrival_time":"2:41:00","departure_time":"2:41:00","lat":49.217881,"lon":16.576657,"is_passed":false},{"stop_id":"U1426Z2","name":"Náměstí Svornosti","arrival_time":"2:42:00","departure_time":"2:42:00","lat":49.215179,"lon":16.58299,"is_passed":false},{"stop_id":"U1206Z2","name":"Jindřichova","arrival_time":"2:43:00","departure_time":"2:43:00","lat":49.213132,"lon":16.583163,"is_passed":false},{"stop_id":"U1601Z2","name":"Spojovací","arrival_time":"2:44:00","departure_time":"2:44:00","lat":49.211772,"lon":16.58703,"is_passed":false},{"stop_id":"U1279Z2","name":"Kounicovy koleje","arrival_time":"2:45:00","departure_time":"2:45:00","lat":49.20763,"lon":16.582971,"is_passed":false},{"stop_id":"U1371Z4","name":"Náměstí Míru","arrival_time":"2:47:00","departure_time":"2:47:00","lat":49.202111,"lon":16.581823,"is_passed":false},{"stop_id":"U1137Z1","name":"Heinrichova","arrival_time":"2:47:00","departure_time":"2:47:00","lat":49.200413,"lon":16.584511,"is_passed":false},{"stop_id":"U1762Z2","name":"Všetičkova","arrival_time":"2:48:00","departure_time":"2:48:00","lat":49.198648,"lon":16.589335,"is_passed":false},{"stop_id":"U1712Z2","name":"Úvoz","arrival_time":"2:49:00","departure_time":"2:49:00","lat":49.198275,"lon":16.593189,"is_passed":false},{"stop_id":"U1442Z2","name":"Obilní trh","arrival_time":"2:50:00","departure_time":"2:50:00","lat":49.198022,"lon":16.598215,"is_passed":false},{"stop_id":"U1257Z2","name":"Komenského náměstí","arrival_time":"2:51:00","departure_time":"2:51:00","lat":49.197135,"lon":16.602612,"is_passed":false},{"stop_id":"U1637Z1","name":"Šilingrovo náměstí","arrival_time":"2:53:00","departure_time":"2:53:00","lat":49.19171,"lon":16.605355,"is_passed":false},{"stop_id":"U1146Z4","name":"Hlavní nádraží","arrival_time":"2:56:00","departure_time":"3:00:00","lat":49.19125,"lon":16.612674,"is_passed":false},{"stop_id":"U1746Z1","name":"Vlhká","arrival_time":"3:01:00","departure_time":"3:01:00","lat":49.191847,"lon":16.618976,"is_passed":false},{"stop_id":"U1372Z1","name":"Masná","arrival_time":"3:02:00","departure_time":"3:02:00","lat":49.191244,"lon":16.625642,"is_passed":false},{"stop_id":"U1677Z1","name":"Tržní","arrival_time":"3:04:00","departure_time":"3:04:00","lat":49.189973,"lon":16.632193,"is_passed":false},{"stop_id":"U1641Z1","name":"Škroupova","arrival_time":"3:06:00","departure_time":"3:06:00","lat":49.192022,"lon":16.648112,"is_passed":false},{"stop_id":"U1473Z4","name":"Otakara Ševčíka","arrival_time":"3:07:00","departure_time":"3:07:00","lat":49.194988,"lon":16.646643,"is_passed":false},{"stop_id":"U1082Z1","name":"Dělnický dům","arrival_time":"3:08:00","departure_time":"3:08:00","lat":49.195559,"lon":16.650177,"is_passed":false},{"stop_id":"U1496Z1","name":"Podlomní","arrival_time":"3:09:00","departure_time":"3:09:00","lat":49.192252,"lon":16.655367,"is_passed":false},{"stop_id":"U1642Z1","name":"Špačkova","arrival_time":"3:09:00","departure_time":"3:09:00","lat":49.190929,"lon":16.658793,"is_passed":false},{"stop_id":"U1018Z6","name":"Bělohorská","arrival_time":"3:10:00","departure_time":"3:10:00","lat":49.189603,"lon":16.662473,"is_passed":false},{"stop_id":"U1501Z4","name":"Podstránská","arrival_time":"3:10:00","departure_time":"3:10:00","lat":49.186139,"lon":16.667061,"is_passed":false},{"stop_id":"U1068Z1","name":"Černovičky","arrival_time":"3:12:00","departure_time":"3:12:00","lat":49.182244,"lon":16.66894,"is_passed":false},{"stop_id":"U1741Z1","name":"Vlárská","arrival_time":"3:12:00","departure_time":"3:12:00","lat":49.180745,"lon":16.671647,"is_passed":false},{"stop_id":"U1105Z1","name":"Ericha Roučky","arrival_time":"3:14:00","departure_time":"3:14:00","lat":49.174784,"lon":16.66987,"is_passed":false},{"stop_id":"U1064Z1","name":"Černovická terasa I","arrival_time":"3:15:00","departure_time":"3:15:00","lat":49.171172,"lon":16.673495,"is_passed":false},{"stop_id":"U1065Z1","name":"Černovická terasa II","arrival_time":"3:15:00","departure_time":"3:15:00","lat":49.167108,"lon":16.67608,"is_passed":false},{"stop_id":"U1581Z2","name":"Areál Slatina","arrival_time":"3:16:00","departure_time":"3:16:00","lat":49.168677,"lon":16.678416,"is_passed":false},{"stop_id":"U1562Z3","name":"Řípská","arrival_time":"3:17:00","departure_time":"3:17:00","lat":49.172528,"lon":16.682138,"is_passed":false},{"stop_id":"U1640Z1","name":"Šmahova","arrival_time":"3:18:00","departure_time":"3:18:00","lat":49.171448,"lon":16.685105,"is_passed":false},{"stop_id":"U1334Z1","name":"Letiště - logistický areál","arrival_time":"3:20:00","departure_time":"3:20:00","lat":49.15627,"lon":16.698196,"is_passed":false},{"stop_id":"U1335Z1","name":"Letiště - služební vstup","arrival_time":"3:21:00","departure_time":"3:21:00","lat":49.155635,"lon":16.691132,"is_passed":false},{"stop_id":"U1337Z1","name":"Letiště Tuřany - terminál","arrival_time":"3:22:00","departure_time":"3:25:00","lat":49.154815,"lon":16.692296,"is_passed":false}],"57604":[{"stop_id":"U1098Z2","name":"Dvorska, smyčka","arrival_time":"4:00:00","departure_time":"4:00:00","lat":49.143433,"lon":16.706723,"is_passed":false},{"stop_id":"U1742Z2","name":"Vlčkova","arrival_time":"4:01:00","departure_time":"4:01:00","lat":49.141158,"lon":16.70137,"is_passed":false},{"stop_id":"U1513Z2","name":"Pratecká","arrival_time":"4:03:00","departure_time":"4:03:00","lat":49.146305,"lon":16.681206,"is_passed":false},{"stop_id":"U1738Z2","name":"Vítězná","arrival_time":"4:04:00","departure_time":"4:04:00","lat":49.147316,"lon":16.670949,"is_passed":false},{"stop_id":"U1772Z2","name":"Za křížem","arrival_time":"4:06:00","departure_time":"4:06:00","lat":49.15905,"lon":16.670815,"is_passed":false},{"stop_id":"U1065Z2","name":"Černovická terasa II","arrival_time":"4:08:00","departure_time":"4:08:00","lat":49.168348,"lon":16.675307,"is_passed":false},{"stop_id":"U1064Z2","name":"Černovická terasa I","arrival_time":"4:09:00","departure_time":"4:09:00","lat":49.171843,"lon":16.673091,"is_passed":false},{"stop_id":"U1105Z2","name":"Ericha Roučky","arrival_time":"4:10:00","departure_time":"4:10:00","lat":49.175109,"lon":16.669439,"is_passed":false},{"stop_id":"U1741Z2","name":"Vlárská","arrival_time":"4:12:00","departure_time":"4:12:00","lat":49.180702,"lon":16.672017,"is_passed":false},{"stop_id":"U1068Z4","name":"Černovičky","arrival_time":"4:13:00","departure_time":"4:13:00","lat":49.183907,"lon":16.668247,"is_passed":false},{"stop_id":"U1501Z3","name":"Podstránská","arrival_time":"4:13:00","departure_time":"4:13:00","lat":49.186855,"lon":16.66649,"is_passed":false},{"stop_id":"U1018Z4","name":"Bělohorská","arrival_time":"4:14:00","departure_time":"4:14:00","lat":49.189904,"lon":16.662135,"is_passed":false},{"stop_id":"U1642Z2","name":"Špačkova","arrival_time":"4:14:00","departure_time":"4:14:00","lat":49.190815,"lon":16.659552,"is_passed":false},{"stop_id":"U1496Z2","name":"Podlomní","arrival_time":"4:15:00","departure_time":"4:15:00","lat":49.192497,"lon":16.654989,"is_passed":false},{"stop_id":"U1082Z2","name":"Dělnický dům","arrival_time":"4:16:00","departure_time":"4:16:00","lat":49.195559,"lon":16.64956,"is_passed":false},{"stop_id":"U1473Z3","name":"Otakara Ševčíka","arrival_time":"4:17:00","departure_time":"4:17:00","lat":49.194578,"lon":16.646459,"is_passed":false},{"stop_id":"U1641Z2","name":"Škroupova","arrival_time":"4:18:00","departure_time":"4:18:00","lat":49.191985,"lon":16.647843,"is_passed":false},{"stop_id":"U1814Z4","name":"Životského","arrival_time":"4:20:00","departure_time":"4:20:00","lat":49.190077,"lon":16.634992,"is_passed":false},{"stop_id":"U1372Z2","name":"Masná","arrival_time":"4:21:00","departure_time":"4:21:00","lat":49.191283,"lon":16.6245,"is_passed":false},{"stop_id":"U1746Z2","name":"Vlhká","arrival_time":"4:22:00","departure_time":"4:22:00","lat":49.191852,"lon":16.619157,"is_passed":false},{"stop_id":"U1146Z1","name":"Hlavní nádraží","arrival_time":"4:25:00","departure_time":"4:30:00","lat":49.191185,"lon":16.611879,"is_passed":false},{"stop_id":"U1637Z2","name":"Šilingrovo náměstí","arrival_time":"4:31:00","departure_time":"4:31:00","lat":49.192027,"lon":16.605234,"is_passed":false},{"stop_id":"U1257Z1","name":"Komenského náměstí","arrival_time":"4:33:00","departure_time":"4:33:00","lat":49.197047,"lon":16.601844,"is_passed":false},{"stop_id":"U1442Z1","name":"Obilní trh","arrival_time":"4:34:00","departure_time":"4:34:00","lat":49.198221,"lon":16.597478,"is_passed":false},{"stop_id":"U1712Z1","name":"Úvoz","arrival_time":"4:35:00","departure_time":"4:35:00","lat":49.19829,"lon":16.59265,"is_passed":false},{"stop_id":"U1762Z1","name":"Všetičkova","arrival_time":"4:35:00","departure_time":"4:35:00","lat":49.198749,"lon":16.588757,"is_passed":false},{"stop_id":"U1371Z1","name":"Náměstí Míru","arrival_time":"4:36:00","departure_time":"4:36:00","lat":49.202197,"lon":16.582014,"is_passed":false},{"stop_id":"U1279Z1","name":"Kounicovy koleje","arrival_time":"4:37:00","departure_time":"4:37:00","lat":49.207874,"lon":16.583463,"is_passed":false},{"stop_id":"U1601Z1","name":"Spojovací","arrival_time":"4:38:00","departure_time":"4:38:00","lat":49.212099,"lon":16.586305,"is_passed":false},{"stop_id":"U1206Z1","name":"Jindřichova","arrival_time":"4:39:00","departure_time":"4:39:00","lat":49.21326,"lon":16.582924,"is_passed":false},{"stop_id":"U1426Z1","name":"Náměstí Svornosti","arrival_time":"4:40:00","departure_time":"4:40:00","lat":49.215585,"lon":16.582,"is_passed":false},{"stop_id":"U1352Z1","name":"Makovského náměstí","arrival_time":"4:41:00","departure_time":"4:41:00","lat":49.217922,"lon":16.576761,"is_passed":false},{"stop_id":"U1528Z5","name":"Přívrat","arrival_time":"4:42:00","departure_time":"4:42:00","lat":49.218247,"lon":16.574102,"is_passed":false},{"stop_id":"U1758Z1","name":"Vrázova","arrival_time":"4:43:00","departure_time":"4:43:00","lat":49.216968,"lon":16.568321,"is_passed":false},{"stop_id":"U1651Z1","name":"Štursova","arrival_time":"4:44:00","departure_time":"4:44:00","lat":49.216462,"lon":16.563614,"is_passed":false},{"stop_id":"U1143Z1","name":"Hlavní","arrival_time":"4:45:00","departure_time":"4:45:00","lat":49.216836,"lon":16.560198,"is_passed":false},{"stop_id":"U1217Z3","name":"Vozovna Komín","arrival_time":"4:45:00","departure_time":"4:45:00","lat":49.214168,"lon":16.559588,"is_passed":false},{"stop_id":"U1215Z1","name":"Jundrovská","arrival_time":"4:46:00","departure_time":"4:46:00","lat":49.211867,"lon":16.560093,"is_passed":false},{"stop_id":"U1633Z5","name":"Svratecká","arrival_time":"4:48:00","departure_time":"4:48:00","lat":49.218278,"lon":16.552802,"is_passed":false},{"stop_id":"U1042Z3","name":"Branka","arrival_time":"4:49:00","departure_time":"4:49:00","lat":49.219505,"lon":16.547256,"is_passed":false},{"stop_id":"U1493Z3","name":"Podlesí","arrival_time":"4:50:00","departure_time":"4:50:00","lat":49.218861,"lon":16.542049,"is_passed":false},{"stop_id":"U1226Z3","name":"Kamenolom","arrival_time":"4:51:00","departure_time":"4:51:00","lat":49.222506,"lon":16.537085,"is_passed":false},{"stop_id":"U1494Z1","name":"Pod Mniší horou","arrival_time":"4:52:00","departure_time":"4:52:00","lat":49.226808,"lon":16.534636,"is_passed":false},{"stop_id":"U1690Z1","name":"U památníku","arrival_time":"4:54:00","departure_time":"4:54:00","lat":49.235993,"lon":16.528027,"is_passed":false},{"stop_id":"U1689Z3","name":"U Luhu","arrival_time":"4:55:00","departure_time":"4:55:00","lat":49.239205,"lon":16.530054,"is_passed":false}],"57605":[{"stop_id":"U1689Z2","name":"U Luhu","arrival_time":"4:58:00","departure_time":"4:58:00","lat":49.239053,"lon":16.530136,"is_passed":false},{"stop_id":"U1690Z2","name":"U památníku","arrival_time":"4:59:00","departure_time":"4:59:00","lat":49.235964,"lon":16.527962,"is_passed":false},{"stop_id":"U1494Z2","name":"Pod Mniší horou","arrival_time":"5:00:00","departure_time":"5:00:00","lat":49.227995,"lon":16.533868,"is_passed":false},{"stop_id":"U1796Z6","name":"Zoologická zahrada","arrival_time":"5:03:00","departure_time":"5:03:00","lat":49.227675,"lon":16.531519,"is_passed":false}],"57606":[{"stop_id":"U1796Z7","name":"Zoologická zahrada","arrival_time":"5:07:00","departure_time":"5:07:00","lat":49.227823,"lon":16.531364,"is_passed":false},{"stop_id":"U1417Z1","name":"Náměstí 28. dubna","arrival_time":"5:08:00","departure_time":"5:08:00","lat":49.225188,"lon":16.531132,"is_passed":false},{"stop_id":"U1752Z1","name":"Vondrákova","arrival_time":"5:09:00","departure_time":"5:09:00","lat":49.221303,"lon":16.528376,"is_passed":false},{"stop_id":"U1771Z1","name":"Wollmanova","arrival_time":"5:10:00","departure_time":"5:10:00","lat":49.222275,"lon":16.522436,"is_passed":false},{"stop_id":"U1461Z3","name":"Ondrouškova","arrival_time":"5:11:00","departure_time":"5:11:00","lat":49.217721,"lon":16.517208,"is_passed":false},{"stop_id":"U1102Z3","name":"Ečerova","arrival_time":"5:13:00","departure_time":"5:13:00","lat":49.218746,"lon":16.50885,"is_passed":false},{"stop_id":"U1550Z1","name":"Ruda","arrival_time":"5:14:00","departure_time":"5:14:00","lat":49.220578,"lon":16.502837,"is_passed":false},{"stop_id":"U1559Z51","name":"Říčanská","arrival_time":"5:15:00","departure_time":"5:15:00","lat":49.219414,"lon":16.497216,"is_passed":false},{"stop_id":"U1802Z1","name":"Žebětínský rybník","arrival_time":"5:16:00","departure_time":"5:16:00","lat":49.215096,"lon":16.49364,"is_passed":false},{"stop_id":"U1096Z1","name":"Drdy","arrival_time":"5:17:00","departure_time":"5:17:00","lat":49.209636,"lon":16.492567,"is_passed":false},{"stop_id":"U1302Z1","name":"Křivánkovo náměstí","arrival_time":"5:19:00","departure_time":"5:19:00","lat":49.20718,"lon":16.487513,"is_passed":false},{"stop_id":"U1540Z2","name":"Ríšova","arrival_time":"5:21:00","departure_time":"5:21:00","lat":49.206684,"lon":16.481219,"is_passed":false},{"stop_id":"U1139Z2","name":"Helenčina","arrival_time":"5:22:00","departure_time":"5:22:00","lat":49.206852,"lon":16.486036,"is_passed":false},{"stop_id":"U1800Z1","name":"Žebětín, hřbitov","arrival_time":"5:23:00","departure_time":"5:23:00","lat":49.204634,"lon":16.487304,"is_passed":false},{"stop_id":"U1015Z2","name":"Bartolomějská","arrival_time":"5:24:00","departure_time":"5:24:00","lat":49.203579,"lon":16.489347,"is_passed":false},{"stop_id":"U1302Z2","name":"Křivánkovo náměstí","arrival_time":"5:25:00","departure_time":"5:25:00","lat":49.20688,"lon":16.4876,"is_passed":false},{"stop_id":"U1803Z2","name":"Žebětín, škola","arrival_time":"5:26:00","departure_time":"5:26:00","lat":49.207347,"lon":16.49285,"is_passed":false},{"stop_id":"U1251Z2","name":"Kohoutovická","arrival_time":"5:27:00","departure_time":"5:27:00","lat":49.206969,"lon":16.498211,"is_passed":false},{"stop_id":"U1267Z2","name":"Kopce","arrival_time":"5:28:00","departure_time":"5:28:00","lat":49.20545,"lon":16.509409,"is_passed":false},{"stop_id":"U1608Z1","name":"Stará dálnice","arrival_time":"5:30:00","departure_time":"5:30:00","lat":49.198733,"lon":16.517301,"is_passed":false},{"stop_id":"U1248Z1","name":"Kohoutovice, hájenka","arrival_time":"5:33:00","departure_time":"5:33:00","lat":49.19638,"lon":16.531386,"is_passed":false},{"stop_id":"U1806Z2","name":"Žebětínská","arrival_time":"5:34:00","departure_time":"5:34:00","lat":49.195249,"lon":16.536145,"is_passed":false},{"stop_id":"U1767Z2","name":"Výletní","arrival_time":"5:35:00","departure_time":"5:35:00","lat":49.191443,"lon":16.539596,"is_passed":false},{"stop_id":"U1409Z2","name":"Myslivní","arrival_time":"5:35:00","departure_time":"5:35:00","lat":49.190415,"lon":16.543578,"is_passed":false},{"stop_id":"U1636Z2","name":"Šárka","arrival_time":"5:36:00","departure_time":"5:36:00","lat":49.19131,"lon":16.545929,"is_passed":false},{"stop_id":"U1003Z1","name":"Antonína Procházky","arrival_time":"5:38:00","departure_time":"5:38:00","lat":49.193559,"lon":16.561795,"is_passed":false},{"stop_id":"U1007Z4","name":"Anthropos","arrival_time":"5:39:00","departure_time":"5:39:00","lat":49.193356,"lon":16.56677,"is_passed":false},{"stop_id":"U1487Z6","name":"Pisárky","arrival_time":"5:40:00","departure_time":"5:40:00","lat":49.193537,"lon":16.570797,"is_passed":false},{"stop_id":"U1343Z4","name":"ARENA BRNO","arrival_time":"5:41:00","departure_time":"5:41:00","lat":49.191574,"lon":16.576353,"is_passed":false},{"stop_id":"U1768Z4","name":"Výstaviště - hlavní vstup","arrival_time":"5:43:00","departure_time":"5:43:00","lat":49.1886,"lon":16.589153,"is_passed":false},{"stop_id":"U1378Z7","name":"Mendlovo náměstí","arrival_time":"5:45:00","departure_time":"5:47:00","lat":49.189919,"lon":16.593687,"is_passed":false}],"57607":[{"stop_id":"U1213Z2","name":"Jundrov","arrival_time":"6:15:00","departure_time":"6:15:00","lat":49.211666,"lon":16.550607,"is_passed":false},{"stop_id":"U1462Z2","name":"Optátova","arrival_time":"6:16:00","departure_time":"6:16:00","lat":49.208867,"lon":16.555614,"is_passed":false},{"stop_id":"U1214Z1","name":"Jundrovský most","arrival_time":"6:17:00","departure_time":"6:17:00","lat":49.209437,"lon":16.556755,"is_passed":false},{"stop_id":"U1217Z4","name":"Vozovna Komín","arrival_time":"6:19:00","departure_time":"6:19:00","lat":49.214283,"lon":16.559705,"is_passed":false},{"stop_id":"U1143Z2","name":"Hlavní","arrival_time":"6:20:00","departure_time":"6:20:00","lat":49.21715,"lon":16.560506,"is_passed":false},{"stop_id":"U1651Z2","name":"Štursova","arrival_time":"6:21:00","departure_time":"6:21:00","lat":49.215854,"lon":16.564522,"is_passed":false},{"stop_id":"U1544Z4","name":"Rosického náměstí","arrival_time":"6:22:00","departure_time":"6:22:00","lat":49.214881,"lon":16.568314,"is_passed":false},{"stop_id":"U1528Z4","name":"Přívrat","arrival_time":"6:24:00","departure_time":"6:24:00","lat":49.218647,"lon":16.574085,"is_passed":false},{"stop_id":"U1777Z2","name":"Záhřebská","arrival_time":"6:25:00","departure_time":"6:25:00","lat":49.219845,"lon":16.580415,"is_passed":false},{"stop_id":"U1567Z6","name":"Skácelova","arrival_time":"6:27:00","departure_time":"6:27:00","lat":49.22163,"lon":16.585935,"is_passed":false},{"stop_id":"U1586Z4","name":"Slovanské náměstí","arrival_time":"6:28:00","departure_time":"6:28:00","lat":49.222774,"lon":16.591332,"is_passed":false},{"stop_id":"U1181Z2","name":"Charvatská","arrival_time":"6:29:00","departure_time":"6:29:00","lat":49.219543,"lon":16.592241,"is_passed":false},{"stop_id":"U1643Z2","name":"Štefánikova","arrival_time":"6:31:00","departure_time":"6:31:00","lat":49.21528,"lon":16.599053,"is_passed":false},{"stop_id":"U1535Z2","name":"Reissigova","arrival_time":"6:33:00","departure_time":"6:33:00","lat":49.215925,"lon":16.604659,"is_passed":false},{"stop_id":"U1602Z2","name":"Sportovní","arrival_time":"6:35:00","departure_time":"6:35:00","lat":49.212001,"lon":16.607125,"is_passed":false},{"stop_id":"U1793Z4","name":"Za Lužánkami","arrival_time":"6:37:00","departure_time":"6:37:00","lat":49.208864,"lon":16.609536,"is_passed":false},{"stop_id":"U1177Z2","name":"Schodová","arrival_time":"6:38:00","departure_time":"6:38:00","lat":49.206474,"lon":16.612255,"is_passed":false},{"stop_id":"U1418Z4","name":"Náměstí 28. října","arrival_time":"6:40:00","departure_time":"6:40:00","lat":49.202201,"lon":16.613634,"is_passed":false},{"stop_id":"U1397Z4","name":"Moravské náměstí","arrival_time":"6:42:00","departure_time":"6:42:00","lat":49.199159,"lon":16.608704,"is_passed":false},{"stop_id":"U1193Z4","name":"Janáčkovo divadlo","arrival_time":"6:42:00","departure_time":"6:42:00","lat":49.197997,"lon":16.610307,"is_passed":false},{"stop_id":"U1357Z4","name":"Malinovského náměstí","arrival_time":"6:44:00","departure_time":"6:44:00","lat":49.195612,"lon":16.613248,"is_passed":false},{"stop_id":"U1146Z5","name":"Hlavní nádraží","arrival_time":"6:47:00","departure_time":"6:47:00","lat":49.192074,"lon":16.613923,"is_passed":false},{"stop_id":"U1746Z1","name":"Vlhká","arrival_time":"6:48:00","departure_time":"6:48:00","lat":49.191847,"lon":16.618976,"is_passed":false},{"stop_id":"U1372Z6","name":"Masná","arrival_time":"6:50:00","departure_time":"6:50:00","lat":49.190905,"lon":16.626023,"is_passed":false},{"stop_id":"U1144Z3","name":"Hladíkova","arrival_time":"6:51:00","departure_time":"6:51:00","lat":49.186729,"lon":16.626124,"is_passed":false},{"stop_id":"U1639Z1","name":"Škrobárenská","arrival_time":"6:52:00","departure_time":"6:52:00","lat":49.182466,"lon":16.626261,"is_passed":false},{"stop_id":"U1266Z3","name":"Konopná","arrival_time":"6:54:00","departure_time":"6:54:00","lat":49.180126,"lon":16.621339,"is_passed":false},{"stop_id":"U1256Z3","name":"Komárov","arrival_time":"6:56:00","departure_time":"6:56:00","lat":49.17444,"lon":16.622448,"is_passed":false},{"stop_id":"U1148Z1","name":"Hněvkovského","arrival_time":"6:57:00","departure_time":"6:57:00","lat":49.169807,"lon":16.625991,"is_passed":false},{"stop_id":"U1570Z1","name":"Skandinávská","arrival_time":"7:01:00","departure_time":"7:01:00","lat":49.154716,"lon":16.629354,"is_passed":false},{"stop_id":"U7505Z1","name":"Ikea","arrival_time":"7:02:00","departure_time":"7:02:00","lat":49.156435,"lon":16.628041,"is_passed":false},{"stop_id":"U7524Z1","name":"Avion Shopping Park","arrival_time":"7:04:00","departure_time":"7:36:00","lat":49.158343,"lon":16.627978,"is_passed":false}],"57608":[{"stop_id":"U7524Z2","name":"Avion Shopping Park","arrival_time":"7:36:00","departure_time":"7:36:00","lat":49.158198,"lon":16.627919,"is_passed":false},{"stop_id":"U7505Z2","name":"Ikea","arrival_time":"7:37:00","departure_time":"7:37:00","lat":49.156089,"lon":16.627772,"is_passed":false},{"stop_id":"U1570Z2","name":"Skandinávská","arrival_time":"7:38:00","departure_time":"7:38:00","lat":49.154354,"lon":16.629223,"is_passed":false},{"stop_id":"U1148Z2","name":"Hněvkovského","arrival_time":"7:42:00","departure_time":"7:42:00","lat":49.169618,"lon":16.626335,"is_passed":false},{"stop_id":"U1565Z2","name":"Sazenice","arrival_time":"7:43:00","departure_time":"7:43:00","lat":49.172877,"lon":16.623824,"is_passed":false},{"stop_id":"U1361Z4","name":"Mariánské náměstí","arrival_time":"7:45:00","departure_time":"7:45:00","lat":49.177094,"lon":16.621935,"is_passed":false},{"stop_id":"U1266Z4","name":"Konopná","arrival_time":"7:46:00","departure_time":"7:46:00","lat":49.179332,"lon":16.621811,"is_passed":false},{"stop_id":"U1639Z2","name":"Škrobárenská","arrival_time":"7:48:00","departure_time":"7:48:00","lat":49.183283,"lon":16.626321,"is_passed":false},{"stop_id":"U1144Z4","name":"Hladíkova","arrival_time":"7:49:00","departure_time":"7:49:00","lat":49.18682,"lon":16.626223,"is_passed":false},{"stop_id":"U1372Z2","name":"Masná","arrival_time":"7:51:00","departure_time":"7:51:00","lat":49.191283,"lon":16.6245,"is_passed":false},{"stop_id":"U1746Z2","name":"Vlhká","arrival_time":"7:52:00","departure_time":"7:52:00","lat":49.191852,"lon":16.619157,"is_passed":false},{"stop_id":"U1146Z6","name":"Hlavní nádraží","arrival_time":"7:54:00","departure_time":"7:54:00","lat":49.192214,"lon":16.613823,"is_passed":false},{"stop_id":"U1357Z3","name":"Malinovského náměstí","arrival_time":"7:56:00","departure_time":"7:56:00","lat":49.196131,"lon":16.612953,"is_passed":false},{"stop_id":"U1193Z3","name":"Janáčkovo divadlo","arrival_time":"7:56:00","departure_time":"7:56:00","lat":49.198165,"lon":16.610034,"is_passed":false},{"stop_id":"U1397Z3","name":"Moravské náměstí","arrival_time":"7:57:00","departure_time":"7:57:00","lat":49.199309,"lon":16.609047,"is_passed":false},{"stop_id":"U1418Z3","name":"Náměstí 28. října","arrival_time":"8:00:00","departure_time":"8:00:00","lat":49.201497,"lon":16.614016,"is_passed":false},{"stop_id":"U1177Z1","name":"Schodová","arrival_time":"8:01:00","departure_time":"8:01:00","lat":49.206731,"lon":16.612212,"is_passed":false},{"stop_id":"U1793Z3","name":"Za Lužánkami","arrival_time":"8:02:00","departure_time":"8:02:00","lat":49.208786,"lon":16.609799,"is_passed":false},{"stop_id":"U1602Z1","name":"Sportovní","arrival_time":"8:04:00","departure_time":"8:04:00","lat":49.212234,"lon":16.607184,"is_passed":false},{"stop_id":"U1415Z1","name":"NC Královo Pole","arrival_time":"8:08:00","departure_time":"8:08:00","lat":49.217588,"lon":16.606968,"is_passed":false},{"stop_id":"U1535Z1","name":"Reissigova","arrival_time":"8:09:00","departure_time":"8:09:00","lat":49.21647,"lon":16.603814,"is_passed":false},{"stop_id":"U1643Z1","name":"Štefánikova","arrival_time":"8:11:00","departure_time":"8:11:00","lat":49.215384,"lon":16.599228,"is_passed":false},{"stop_id":"U1181Z1","name":"Charvatská","arrival_time":"8:13:00","departure_time":"8:13:00","lat":49.219239,"lon":16.59252,"is_passed":false},{"stop_id":"U1586Z1","name":"Slovanské náměstí","arrival_time":"8:14:00","departure_time":"8:14:00","lat":49.222659,"lon":16.591882,"is_passed":false},{"stop_id":"U1586Z3","name":"Slovanské náměstí","arrival_time":"8:15:00","departure_time":"8:15:00","lat":49.223525,"lon":16.591009,"is_passed":false},{"stop_id":"U1567Z5","name":"Skácelova","arrival_time":"8:16:00","departure_time":"8:16:00","lat":49.221353,"lon":16.584711,"is_passed":false},{"stop_id":"U1777Z1","name":"Záhřebská","arrival_time":"8:18:00","departure_time":"8:18:00","lat":49.219602,"lon":16.579157,"is_passed":false},{"stop_id":"U1528Z3","name":"Přívrat","arrival_time":"8:19:00","departure_time":"8:19:00","lat":49.218788,"lon":16.574147,"is_passed":false},{"stop_id":"U1544Z3","name":"Rosického náměstí","arrival_time":"8:21:00","departure_time":"8:21:00","lat":49.214882,"lon":16.56907,"is_passed":false},{"stop_id":"U1651Z1","name":"Štursova","arrival_time":"8:22:00","departure_time":"8:22:00","lat":49.216462,"lon":16.563614,"is_passed":false},{"stop_id":"U1143Z1","name":"Hlavní","arrival_time":"8:23:00","departure_time":"8:23:00","lat":49.216836,"lon":16.560198,"is_passed":false},{"stop_id":"U1217Z3","name":"Vozovna Komín","arrival_time":"8:24:00","departure_time":"8:24:00","lat":49.214168,"lon":16.559588,"is_passed":false},{"stop_id":"U1214Z2","name":"Jundrovský most","arrival_time":"8:25:00","departure_time":"8:25:00","lat":49.210699,"lon":16.558163,"is_passed":false},{"stop_id":"U1462Z1","name":"Optátova","arrival_time":"8:26:00","departure_time":"8:26:00","lat":49.208965,"lon":16.555555,"is_passed":false},{"stop_id":"U1416Z1","name":"Nálepkova","arrival_time":"8:27:00","departure_time":"8:27:00","lat":49.208794,"lon":16.55232,"is_passed":false},{"stop_id":"U1213Z1","name":"Jundrov","arrival_time":"8:29:00","departure_time":"8:42:00","lat":49.211836,"lon":16.550693,"is_passed":false}],"57609":[{"stop_id":"U1213Z2","name":"Jundrov","arrival_time":"8:42:00","departure_time":"8:42:00","lat":49.211666,"lon":16.550607,"is_passed":false},{"stop_id":"U1462Z2","name":"Optátova","arrival_time":"8:43:00","departure_time":"8:43:00","lat":49.208867,"lon":16.555614,"is_passed":false},{"stop_id":"U1214Z1","name":"Jundrovský most","arrival_time":"8:44:00","departure_time":"8:44:00","lat":49.209437,"lon":16.556755,"is_passed":false},{"stop_id":"U1217Z4","name":"Vozovna Komín","arrival_time":"8:46:00","departure_time":"8:46:00","lat":49.214283,"lon":16.559705,"is_passed":false},{"stop_id":"U1143Z2","name":"Hlavní","arrival_time":"8:47:00","departure_time":"8:47:00","lat":49.21715,"lon":16.560506,"is_passed":false},{"stop_id":"U1651Z2","name":"Štursova","arrival_time":"8:48:00","departure_time":"8:48:00","lat":49.215854,"lon":16.564522,"is_passed":false},{"stop_id":"U1544Z4","name":"Rosického náměstí","arrival_time":"8:49:00","departure_time":"8:49:00","lat":49.214881,"lon":16.568314,"is_passed":false},{"stop_id":"U1528Z4","name":"Přívrat","arrival_time":"8:51:00","departure_time":"8:51:00","lat":49.218647,"lon":16.574085,"is_passed":false},{"stop_id":"U1777Z2","name":"Záhřebská","arrival_time":"8:52:00","departure_time":"8:52:00","lat":49.219845,"lon":16.580415,"is_passed":false},{"stop_id":"U1567Z6","name":"Skácelova","arrival_time":"8:54:00","departure_time":"8:54:00","lat":49.22163,"lon":16.585935,"is_passed":false},{"stop_id":"U1586Z4","name":"Slovanské náměstí","arrival_time":"8:55:00","departure_time":"8:55:00","lat":49.222774,"lon":16.591332,"is_passed":false},{"stop_id":"U1181Z2","name":"Charvatská","arrival_time":"8:56:00","departure_time":"8:56:00","lat":49.219543,"lon":16.592241,"is_passed":false},{"stop_id":"U1643Z2","name":"Štefánikova","arrival_time":"8:58:00","departure_time":"8:58:00","lat":49.21528,"lon":16.599053,"is_passed":false},{"stop_id":"U1535Z4","name":"Reissigova","arrival_time":"8:59:00","departure_time":"8:59:00","lat":49.21637,"lon":16.60365,"is_passed":false},{"stop_id":"U1415Z2","name":"NC Královo Pole","arrival_time":"9:01:00","departure_time":"9:01:00","lat":49.217553,"lon":16.607232,"is_passed":false},{"stop_id":"U1535Z2","name":"Reissigova","arrival_time":"9:03:00","departure_time":"9:03:00","lat":49.215925,"lon":16.604659,"is_passed":false},{"stop_id":"U1602Z2","name":"Sportovní","arrival_time":"9:05:00","departure_time":"9:05:00","lat":49.212001,"lon":16.607125,"is_passed":false},{"stop_id":"U1793Z4","name":"Za Lužánkami","arrival_time":"9:07:00","departure_time":"9:07:00","lat":49.208864,"lon":16.609536,"is_passed":false},{"stop_id":"U1177Z2","name":"Schodová","arrival_time":"9:08:00","departure_time":"9:08:00","lat":49.206474,"lon":16.612255,"is_passed":false},{"stop_id":"U1418Z4","name":"Náměstí 28. října","arrival_time":"9:10:00","departure_time":"9:10:00","lat":49.202201,"lon":16.613634,"is_passed":false},{"stop_id":"U1397Z4","name":"Moravské náměstí","arrival_time":"9:12:00","departure_time":"9:12:00","lat":49.199159,"lon":16.608704,"is_passed":false},{"stop_id":"U1193Z4","name":"Janáčkovo divadlo","arrival_time":"9:12:00","departure_time":"9:12:00","lat":49.197997,"lon":16.610307,"is_passed":false},{"stop_id":"U1357Z4","name":"Malinovského náměstí","arrival_time":"9:14:00","departure_time":"9:14:00","lat":49.195612,"lon":16.613248,"is_passed":false},{"stop_id":"U1146Z5","name":"Hlavní nádraží","arrival_time":"9:17:00","departure_time":"9:17:00","lat":49.192074,"lon":16.613923,"is_passed":false},{"stop_id":"U1746Z1","name":"Vlhká","arrival_time":"9:18:00","departure_time":"9:18:00","lat":49.191847,"lon":16.618976,"is_passed":false},{"stop_id":"U1372Z6","name":"Masná","arrival_time":"9:20:00","departure_time":"9:20:00","lat":49.190905,"lon":16.626023,"is_passed":false},{"stop_id":"U1144Z3","name":"Hladíkova","arrival_time":"9:21:00","departure_time":"9:21:00","lat":49.186729,"lon":16.626124,"is_passed":false},{"stop_id":"U1639Z1","name":"Škrobárenská","arrival_time":"9:22:00","departure_time":"9:22:00","lat":49.182466,"lon":16.626261,"is_passed":false},{"stop_id":"U1266Z3","name":"Konopná","arrival_time":"9:24:00","departure_time":"9:24:00","lat":49.180126,"lon":16.621339,"is_passed":false},{"stop_id":"U1256Z3","name":"Komárov","arrival_time":"9:26:00","departure_time":"9:26:00","lat":49.17444,"lon":16.622448,"is_passed":false},{"stop_id":"U1148Z1","name":"Hněvkovského","arrival_time":"9:27:00","departure_time":"9:27:00","lat":49.169807,"lon":16.625991,"is_passed":false},{"stop_id":"U1570Z1","name":"Skandinávská","arrival_time":"9:31:00","departure_time":"9:31:00","lat":49.154716,"lon":16.629354,"is_passed":false},{"stop_id":"U7505Z1","name":"Ikea","arrival_time":"9:32:00","departure_time":"9:32:00","lat":49.156435,"lon":16.628041,"is_passed":false},{"stop_id":"U7524Z1","name":"Avion Shopping Park","arrival_time":"9:34:00","departure_time":"9:36:00","lat":49.158343,"lon":16.627978,"is_passed":false}],"57610":[{"stop_id":"U1796Z7","name":"Zoologická zahrada","arrival_time":"21:13:00","departure_time":"21:13:00","lat":49.227823,"lon":16.531364,"is_passed":false},{"stop_id":"U1417Z1","name":"Náměstí 28. dubna","arrival_time":"21:14:00","departure_time":"21:14:00","lat":49.225188,"lon":16.531132,"is_passed":false},{"stop_id":"U1752Z1","name":"Vondrákova","arrival_time":"21:15:00","departure_time":"21:15:00","lat":49.221303,"lon":16.528376,"is_passed":false},{"stop_id":"U1771Z1","name":"Wollmanova","arrival_time":"21:16:00","departure_time":"21:16:00","lat":49.222275,"lon":16.522436,"is_passed":false},{"stop_id":"U1004Z1","name":"Adamcova","arrival_time":"21:17:00","departure_time":"21:17:00","lat":49.21825,"lon":16.520013,"is_passed":false},{"stop_id":"U1648Z1","name":"Štouračova","arrival_time":"21:18:00","departure_time":"21:18:00","lat":49.215562,"lon":16.521438,"is_passed":false},{"stop_id":"U1608Z1","name":"Stará dálnice","arrival_time":"21:20:00","departure_time":"21:20:00","lat":49.198733,"lon":16.517301,"is_passed":false},{"stop_id":"U1248Z1","name":"Kohoutovice, hájenka","arrival_time":"21:23:00","departure_time":"21:23:00","lat":49.19638,"lon":16.531386,"is_passed":false},{"stop_id":"U1017Z2","name":"Bellova","arrival_time":"21:24:00","departure_time":"21:24:00","lat":49.193898,"lon":16.53095,"is_passed":false},{"stop_id":"U1658Z2","name":"Talichova","arrival_time":"21:24:00","departure_time":"21:24:00","lat":49.191695,"lon":16.529784,"is_passed":false},{"stop_id":"U1481Z2","name":"Pavlovská","arrival_time":"21:25:00","departure_time":"21:25:00","lat":49.189569,"lon":16.531348,"is_passed":false},{"stop_id":"U1209Z3","name":"Jírovcova","arrival_time":"21:26:00","departure_time":"21:26:00","lat":49.187316,"lon":16.535309,"is_passed":false},{"stop_id":"U1223Z2","name":"Kamenný vrch","arrival_time":"21:28:00","departure_time":"21:28:00","lat":49.179747,"lon":16.547764,"is_passed":false},{"stop_id":"U1443Z2","name":"Oblá","arrival_time":"21:29:00","departure_time":"21:29:00","lat":49.177425,"lon":16.552647,"is_passed":false},{"stop_id":"U1263Z2","name":"Koniklecová","arrival_time":"21:30:00","departure_time":"21:30:00","lat":49.176417,"lon":16.559347,"is_passed":false},{"stop_id":"U1078Z3","name":"Čtvrtě","arrival_time":"21:31:00","departure_time":"21:31:00","lat":49.17821,"lon":16.563175,"is_passed":false},{"stop_id":"U1699Z2","name":"Univerzitní kampus","arrival_time":"21:32:00","departure_time":"21:32:00","lat":49.177455,"lon":16.567173,"is_passed":false},{"stop_id":"U1429Z5","name":"Nemocnice Bohunice","arrival_time":"21:33:00","departure_time":"21:33:00","lat":49.175206,"lon":16.56694,"is_passed":false},{"stop_id":"U1492Z2","name":"Pod nemocnicí","arrival_time":"21:35:00","departure_time":"21:35:00","lat":49.172338,"lon":16.569417,"is_passed":false},{"stop_id":"U1472Z8","name":"Osová","arrival_time":"21:36:00","departure_time":"21:36:00","lat":49.168617,"lon":16.566306,"is_passed":false},{"stop_id":"U1273Z2","name":"Kosmonautů","arrival_time":"21:36:00","departure_time":"21:36:00","lat":49.167124,"lon":16.56745,"is_passed":false},{"stop_id":"U1168Z2","name":"Humenná","arrival_time":"21:37:00","departure_time":"21:37:00","lat":49.167953,"lon":16.573664,"is_passed":false},{"stop_id":"U1763Z1","name":"Vyhlídalova","arrival_time":"21:38:00","departure_time":"21:38:00","lat":49.165385,"lon":16.577302,"is_passed":false},{"stop_id":"U1122Z4","name":"Gruzínská","arrival_time":"21:39:00","departure_time":"21:39:00","lat":49.166074,"lon":16.585383,"is_passed":false},{"stop_id":"U1774Z2","name":"Za hřbitovem","arrival_time":"21:40:00","departure_time":"21:40:00","lat":49.164318,"lon":16.591448,"is_passed":false},{"stop_id":"U1673Z2","name":"Traťová","arrival_time":"21:41:00","departure_time":"21:41:00","lat":49.163623,"lon":16.595954,"is_passed":false},{"stop_id":"U1031Z6","name":"Bohunická","arrival_time":"21:42:00","departure_time":"21:42:00","lat":49.162697,"lon":16.600443,"is_passed":false},{"stop_id":"U1275Z2","name":"Košuličova","arrival_time":"21:43:00","departure_time":"21:43:00","lat":49.164588,"lon":16.609917,"is_passed":false},{"stop_id":"U1156Z2","name":"Horní Heršpice","arrival_time":"21:44:00","departure_time":"21:44:00","lat":49.167029,"lon":16.616537,"is_passed":false},{"stop_id":"U1308Z2","name":"Kšírova","arrival_time":"21:45:00","departure_time":"21:45:00","lat":49.171726,"lon":16.615746,"is_passed":false},{"stop_id":"U1256Z6","name":"Komárov","arrival_time":"21:47:00","departure_time":"21:47:00","lat":49.174812,"lon":16.620877,"is_passed":false},{"stop_id":"U1361Z4","name":"Mariánské náměstí","arrival_time":"21:49:00","departure_time":"22:13:00","lat":49.177094,"lon":16.621935,"is_passed":false}],"57611":[{"stop_id":"U1361Z1","name":"Mariánské náměstí","arrival_time":"22:13:00","departure_time":"22:13:00","lat":49.176433,"lon":16.622739,"is_passed":false},{"stop_id":"U1256Z5","name":"Komárov","arrival_time":"22:15:00","departure_time":"22:15:00","lat":49.174917,"lon":16.621279,"is_passed":false},{"stop_id":"U1308Z1","name":"Kšírova","arrival_time":"22:16:00","departure_time":"22:16:00","lat":49.17135,"lon":16.615769,"is_passed":false},{"stop_id":"U1156Z1","name":"Horní Heršpice","arrival_time":"22:17:00","departure_time":"22:17:00","lat":49.166342,"lon":16.616562,"is_passed":false},{"stop_id":"U1275Z1","name":"Košuličova","arrival_time":"22:18:00","departure_time":"22:18:00","lat":49.164685,"lon":16.610183,"is_passed":false},{"stop_id":"U1514Z3","name":"Pražákova","arrival_time":"22:19:00","departure_time":"22:19:00","lat":49.162888,"lon":16.602621,"is_passed":false},{"stop_id":"U1031Z5","name":"Bohunická","arrival_time":"22:20:00","departure_time":"22:20:00","lat":49.162871,"lon":16.599483,"is_passed":false},{"stop_id":"U1673Z1","name":"Traťová","arrival_time":"22:21:00","departure_time":"22:21:00","lat":49.163849,"lon":16.595255,"is_passed":false},{"stop_id":"U1122Z3","name":"Gruzínská","arrival_time":"22:22:00","departure_time":"22:22:00","lat":49.166188,"lon":16.585372,"is_passed":false},{"stop_id":"U1763Z2","name":"Vyhlídalova","arrival_time":"22:23:00","departure_time":"22:23:00","lat":49.165134,"lon":16.576558,"is_passed":false},{"stop_id":"U1168Z1","name":"Humenná","arrival_time":"22:25:00","departure_time":"22:25:00","lat":49.1676,"lon":16.572367,"is_passed":false},{"stop_id":"U1273Z1","name":"Kosmonautů","arrival_time":"22:26:00","departure_time":"22:26:00","lat":49.167006,"lon":16.568017,"is_passed":false},{"stop_id":"U1472Z7","name":"Osová","arrival_time":"22:27:00","departure_time":"22:27:00","lat":49.168951,"lon":16.566714,"is_passed":false},{"stop_id":"U1492Z1","name":"Pod nemocnicí","arrival_time":"22:28:00","departure_time":"22:28:00","lat":49.172412,"lon":16.569624,"is_passed":false},{"stop_id":"U1429Z4","name":"Nemocnice Bohunice","arrival_time":"22:30:00","departure_time":"22:30:00","lat":49.176125,"lon":16.567246,"is_passed":false},{"stop_id":"U1699Z1","name":"Univerzitní kampus","arrival_time":"22:31:00","departure_time":"22:31:00","lat":49.178062,"lon":16.566488,"is_passed":false},{"stop_id":"U1078Z2","name":"Čtvrtě","arrival_time":"22:32:00","departure_time":"22:32:00","lat":49.177932,"lon":16.561546,"is_passed":false},{"stop_id":"U1263Z1","name":"Koniklecová","arrival_time":"22:33:00","departure_time":"22:33:00","lat":49.176634,"lon":16.558219,"is_passed":false},{"stop_id":"U1443Z1","name":"Oblá","arrival_time":"22:34:00","departure_time":"22:34:00","lat":49.177573,"lon":16.552766,"is_passed":false},{"stop_id":"U1223Z1","name":"Kamenný vrch","arrival_time":"22:35:00","departure_time":"22:35:00","lat":49.179914,"lon":16.547756,"is_passed":false},{"stop_id":"U1209Z2","name":"Jírovcova","arrival_time":"22:38:00","departure_time":"22:38:00","lat":49.188255,"lon":16.533803,"is_passed":false},{"stop_id":"U1481Z1","name":"Pavlovská","arrival_time":"22:38:00","departure_time":"22:38:00","lat":49.189952,"lon":16.531006,"is_passed":false},{"stop_id":"U1658Z1","name":"Talichova","arrival_time":"22:39:00","departure_time":"22:39:00","lat":49.191443,"lon":16.52996,"is_passed":false},{"stop_id":"U1017Z1","name":"Bellova","arrival_time":"22:40:00","departure_time":"22:40:00","lat":49.194186,"lon":16.531513,"is_passed":false},{"stop_id":"U1248Z2","name":"Kohoutovice, hájenka","arrival_time":"22:42:00","departure_time":"22:42:00","lat":49.19656,"lon":16.530778,"is_passed":false},{"stop_id":"U1608Z2","name":"Stará dálnice","arrival_time":"22:44:00","departure_time":"22:44:00","lat":49.199858,"lon":16.516922,"is_passed":false},{"stop_id":"U1648Z2","name":"Štouračova","arrival_time":"22:46:00","departure_time":"22:46:00","lat":49.21488,"lon":16.521926,"is_passed":false},{"stop_id":"U1004Z2","name":"Adamcova","arrival_time":"22:47:00","departure_time":"22:47:00","lat":49.218427,"lon":16.519896,"is_passed":false},{"stop_id":"U1771Z2","name":"Wollmanova","arrival_time":"22:48:00","departure_time":"22:48:00","lat":49.222108,"lon":16.52284,"is_passed":false},{"stop_id":"U1326Z4","name":"Laštůvkova","arrival_time":"22:48:00","departure_time":"22:48:00","lat":49.220549,"lon":16.526237,"is_passed":false},{"stop_id":"U1752Z2","name":"Vondrákova","arrival_time":"22:49:00","departure_time":"22:49:00","lat":49.221445,"lon":16.528853,"is_passed":false},{"stop_id":"U1796Z6","name":"Zoologická zahrada","arrival_time":"22:51:00","departure_time":"22:53:00","lat":49.227675,"lon":16.531519,"is_passed":false}],"57612":[{"stop_id":"U1062Z2","name":"Černého","arrival_time":"23:30:00","departure_time":"23:30:00","lat":49.213885,"lon":16.523087,"is_passed":false},{"stop_id":"U1107Z2","name":"Filipova","arrival_time":"23:30:00","departure_time":"23:30:00","lat":49.218346,"lon":16.525224,"is_passed":false},{"stop_id":"U1326Z4","name":"Laštůvkova","arrival_time":"23:31:00","departure_time":"23:31:00","lat":49.220549,"lon":16.526237,"is_passed":false},{"stop_id":"U1752Z2","name":"Vondrákova","arrival_time":"23:32:00","departure_time":"23:32:00","lat":49.221445,"lon":16.528853,"is_passed":false},{"stop_id":"U1417Z2","name":"Náměstí 28. dubna","arrival_time":"23:33:00","departure_time":"23:33:00","lat":49.226314,"lon":16.53213,"is_passed":false},{"stop_id":"U1633Z6","name":"Svratecká","arrival_time":"23:36:00","departure_time":"23:36:00","lat":49.21759,"lon":16.553789,"is_passed":false},{"stop_id":"U1215Z2","name":"Jundrovská","arrival_time":"23:37:00","departure_time":"23:37:00","lat":49.211911,"lon":16.560194,"is_passed":false},{"stop_id":"U1217Z4","name":"Vozovna Komín","arrival_time":"23:38:00","departure_time":"23:38:00","lat":49.214283,"lon":16.559705,"is_passed":false},{"stop_id":"U1143Z2","name":"Hlavní","arrival_time":"23:38:00","departure_time":"23:38:00","lat":49.21715,"lon":16.560506,"is_passed":false},{"stop_id":"U1651Z2","name":"Štursova","arrival_time":"23:39:00","departure_time":"23:39:00","lat":49.215854,"lon":16.564522,"is_passed":false},{"stop_id":"U1544Z4","name":"Rosického náměstí","arrival_time":"23:40:00","departure_time":"23:40:00","lat":49.214881,"lon":16.568314,"is_passed":false},{"stop_id":"U1400Z2","name":"Mozolky","arrival_time":"23:41:00","departure_time":"23:41:00","lat":49.21352,"lon":16.575061,"is_passed":false},{"stop_id":"U1047Z2","name":"Burianovo náměstí","arrival_time":"23:42:00","departure_time":"23:42:00","lat":49.212274,"lon":16.578835,"is_passed":false},{"stop_id":"U1657Z2","name":"Tábor","arrival_time":"23:43:00","departure_time":"23:43:00","lat":49.210553,"lon":16.585882,"is_passed":false},{"stop_id":"U1552Z2","name":"Rybkova","arrival_time":"23:44:00","departure_time":"23:44:00","lat":49.206244,"lon":16.593167,"is_passed":false},{"stop_id":"U1262Z2","name":"Konečného náměstí","arrival_time":"23:46:00","departure_time":"23:46:00","lat":49.203961,"lon":16.596051,"is_passed":false},{"stop_id":"U1121Z2","name":"Grohova","arrival_time":"23:47:00","departure_time":"23:47:00","lat":49.201327,"lon":16.59934,"is_passed":false},{"stop_id":"U1073Z3","name":"Česká","arrival_time":"23:49:00","departure_time":"23:49:00","lat":49.197742,"lon":16.605147,"is_passed":false},{"stop_id":"U1637Z1","name":"Šilingrovo náměstí","arrival_time":"23:51:00","departure_time":"23:51:00","lat":49.19171,"lon":16.605355,"is_passed":false},{"stop_id":"U1146Z2","name":"Hlavní nádraží","arrival_time":"23:54:00","departure_time":"24:00:00","lat":49.191394,"lon":16.612548,"is_passed":false},{"stop_id":"U1357Z3","name":"Malinovského náměstí","arrival_time":"24:01:00","departure_time":"24:01:00","lat":49.196131,"lon":16.612953,"is_passed":false},{"stop_id":"U1397Z3","name":"Moravské náměstí","arrival_time":"24:02:00","departure_time":"24:02:00","lat":49.199309,"lon":16.609047,"is_passed":false},{"stop_id":"U1418Z1","name":"Náměstí 28. října","arrival_time":"24:03:00","departure_time":"24:03:00","lat":49.200961,"lon":16.613794,"is_passed":false},{"stop_id":"U1086Z1","name":"Dětská nemocnice","arrival_time":"24:04:00","departure_time":"24:04:00","lat":49.202836,"lon":16.618608,"is_passed":false},{"stop_id":"U1211Z3","name":"Jugoslávská","arrival_time":"24:05:00","departure_time":"24:05:00","lat":49.205084,"lon":16.624442,"is_passed":false},{"stop_id":"U1782Z1","name":"Zdráhalova","arrival_time":"24:06:00","departure_time":"24:06:00","lat":49.209297,"lon":16.623791,"is_passed":false},{"stop_id":"U1731Z1","name":"Venhudova","arrival_time":"24:07:00","departure_time":"24:07:00","lat":49.212094,"lon":16.624955,"is_passed":false},{"stop_id":"U1646Z3","name":"Štefánikova čtvrť","arrival_time":"24:08:00","departure_time":"24:08:00","lat":49.216958,"lon":16.627543,"is_passed":false},{"stop_id":"U1331Z1","name":"Lesná, nádraží","arrival_time":"24:09:00","departure_time":"24:09:00","lat":49.220041,"lon":16.629534,"is_passed":false},{"stop_id":"U1138Z1","name":"Heleny Malířové","arrival_time":"24:10:00","departure_time":"24:10:00","lat":49.223481,"lon":16.629567,"is_passed":false},{"stop_id":"U1008Z1","name":"Arbesova","arrival_time":"24:11:00","departure_time":"24:11:00","lat":49.226286,"lon":16.630842,"is_passed":false},{"stop_id":"U1028Z1","name":"Blažkova","arrival_time":"24:12:00","departure_time":"24:12:00","lat":49.230568,"lon":16.631,"is_passed":false},{"stop_id":"U1043Z1","name":"Brechtova","arrival_time":"24:13:00","departure_time":"24:13:00","lat":49.234039,"lon":16.629206,"is_passed":false},{"stop_id":"U1132Z3","name":"Haškova","arrival_time":"24:14:00","departure_time":"24:14:00","lat":49.233588,"lon":16.623836,"is_passed":false},{"stop_id":"U1348Z2","name":"Loosova","arrival_time":"24:15:00","departure_time":"24:15:00","lat":49.231571,"lon":16.618938,"is_passed":false},{"stop_id":"U1111Z2","name":"Fillova","arrival_time":"24:15:00","departure_time":"24:15:00","lat":49.229347,"lon":16.616979,"is_passed":false},{"stop_id":"U1582Z2","name":"Slavíčkova","arrival_time":"24:16:00","departure_time":"24:16:00","lat":49.225821,"lon":16.617957,"is_passed":false},{"stop_id":"U1128Z4","name":"Halasovo náměstí","arrival_time":"24:17:00","departure_time":"24:37:00","lat":49.22314,"lon":16.622438,"is_passed":false}],"57613":[{"stop_id":"U1128Z3","name":"Halasovo náměstí","arrival_time":"0:37:00","departure_time":"0:37:00","lat":49.223406,"lon":16.622237,"is_passed":false},{"stop_id":"U1582Z1","name":"Slavíčkova","arrival_time":"0:37:00","departure_time":"0:37:00","lat":49.226088,"lon":16.617914,"is_passed":false},{"stop_id":"U1111Z1","name":"Fillova","arrival_time":"0:38:00","departure_time":"0:38:00","lat":49.229105,"lon":16.616814,"is_passed":false},{"stop_id":"U1348Z1","name":"Loosova","arrival_time":"0:39:00","departure_time":"0:39:00","lat":49.232374,"lon":16.619952,"is_passed":false},{"stop_id":"U1132Z1","name":"Haškova","arrival_time":"0:40:00","departure_time":"0:40:00","lat":49.233582,"lon":16.624766,"is_passed":false},{"stop_id":"U1043Z2","name":"Brechtova","arrival_time":"0:41:00","departure_time":"0:41:00","lat":49.233462,"lon":16.629437,"is_passed":false},{"stop_id":"U1028Z2","name":"Blažkova","arrival_time":"0:42:00","departure_time":"0:42:00","lat":49.229597,"lon":16.631063,"is_passed":false},{"stop_id":"U1008Z2","name":"Arbesova","arrival_time":"0:42:00","departure_time":"0:42:00","lat":49.225668,"lon":16.630461,"is_passed":false},{"stop_id":"U1138Z2","name":"Heleny Malířové","arrival_time":"0:43:00","departure_time":"0:43:00","lat":49.223075,"lon":16.629159,"is_passed":false},{"stop_id":"U1331Z2","name":"Lesná, nádraží","arrival_time":"0:44:00","departure_time":"0:44:00","lat":49.220094,"lon":16.62942,"is_passed":false},{"stop_id":"U1646Z4","name":"Štefánikova čtvrť","arrival_time":"0:45:00","departure_time":"0:45:00","lat":49.217288,"lon":16.627693,"is_passed":false},{"stop_id":"U1731Z2","name":"Venhudova","arrival_time":"0:46:00","departure_time":"0:46:00","lat":49.212541,"lon":16.62512,"is_passed":false},{"stop_id":"U1782Z2","name":"Zdráhalova","arrival_time":"0:47:00","departure_time":"0:47:00","lat":49.209742,"lon":16.623799,"is_passed":false},{"stop_id":"U1211Z4","name":"Jugoslávská","arrival_time":"0:48:00","departure_time":"0:48:00","lat":49.204725,"lon":16.624081,"is_passed":false},{"stop_id":"U1086Z2","name":"Dětská nemocnice","arrival_time":"0:49:00","departure_time":"0:49:00","lat":49.203029,"lon":16.619052,"is_passed":false},{"stop_id":"U1418Z2","name":"Náměstí 28. října","arrival_time":"0:50:00","departure_time":"0:50:00","lat":49.200787,"lon":16.613174,"is_passed":false},{"stop_id":"U1397Z4","name":"Moravské náměstí","arrival_time":"0:51:00","departure_time":"0:51:00","lat":49.199159,"lon":16.608704,"is_passed":false},{"stop_id":"U1357Z4","name":"Malinovského náměstí","arrival_time":"0:53:00","departure_time":"0:53:00","lat":49.195612,"lon":16.613248,"is_passed":false},{"stop_id":"U1146Z1","name":"Hlavní nádraží","arrival_time":"0:56:00","departure_time":"1:00:00","lat":49.191185,"lon":16.611879,"is_passed":false},{"stop_id":"U1637Z2","name":"Šilingrovo náměstí","arrival_time":"1:01:00","departure_time":"1:01:00","lat":49.192027,"lon":16.605234,"is_passed":false},{"stop_id":"U1073Z4","name":"Česká","arrival_time":"1:03:00","departure_time":"1:03:00","lat":49.198134,"lon":16.605041,"is_passed":false},{"stop_id":"U1121Z1","name":"Grohova","arrival_time":"1:04:00","departure_time":"1:04:00","lat":49.201153,"lon":16.599729,"is_passed":false},{"stop_id":"U1262Z1","name":"Konečného náměstí","arrival_time":"1:05:00","departure_time":"1:05:00","lat":49.204484,"lon":16.595426,"is_passed":false},{"stop_id":"U1552Z1","name":"Rybkova","arrival_time":"1:06:00","departure_time":"1:06:00","lat":49.205908,"lon":16.593602,"is_passed":false},{"stop_id":"U1657Z1","name":"Tábor","arrival_time":"1:07:00","departure_time":"1:07:00","lat":49.210271,"lon":16.587228,"is_passed":false},{"stop_id":"U1282Z1","name":"Králova","arrival_time":"1:08:00","departure_time":"1:08:00","lat":49.211297,"lon":16.583386,"is_passed":false},{"stop_id":"U1047Z1","name":"Burianovo náměstí","arrival_time":"1:09:00","departure_time":"1:09:00","lat":49.212482,"lon":16.578371,"is_passed":false},{"stop_id":"U1400Z1","name":"Mozolky","arrival_time":"1:10:00","departure_time":"1:10:00","lat":49.213712,"lon":16.574628,"is_passed":false},{"stop_id":"U1544Z3","name":"Rosického náměstí","arrival_time":"1:11:00","departure_time":"1:11:00","lat":49.214882,"lon":16.56907,"is_passed":false},{"stop_id":"U1651Z1","name":"Štursova","arrival_time":"1:12:00","departure_time":"1:12:00","lat":49.216462,"lon":16.563614,"is_passed":false},{"stop_id":"U1143Z1","name":"Hlavní","arrival_time":"1:13:00","departure_time":"1:13:00","lat":49.216836,"lon":16.560198,"is_passed":false},{"stop_id":"U1217Z3","name":"Vozovna Komín","arrival_time":"1:13:00","departure_time":"1:13:00","lat":49.214168,"lon":16.559588,"is_passed":false},{"stop_id":"U1215Z1","name":"Jundrovská","arrival_time":"1:14:00","departure_time":"1:14:00","lat":49.211867,"lon":16.560093,"is_passed":false},{"stop_id":"U1633Z5","name":"Svratecká","arrival_time":"1:18:00","departure_time":"1:18:00","lat":49.218278,"lon":16.552802,"is_passed":false},{"stop_id":"U1417Z1","name":"Náměstí 28. dubna","arrival_time":"1:21:00","departure_time":"1:21:00","lat":49.225188,"lon":16.531132,"is_passed":false},{"stop_id":"U1752Z1","name":"Vondrákova","arrival_time":"1:22:00","departure_time":"1:22:00","lat":49.221303,"lon":16.528376,"is_passed":false},{"stop_id":"U1326Z1","name":"Laštůvkova","arrival_time":"1:23:00","departure_time":"1:23:00","lat":49.220185,"lon":16.525212,"is_passed":false},{"stop_id":"U1107Z1","name":"Filipova","arrival_time":"1:24:00","departure_time":"1:24:00","lat":49.216663,"lon":16.5248,"is_passed":false},{"stop_id":"U1062Z1","name":"Černého","arrival_time":"1:25:00","departure_time":"2:30:00","lat":49.214083,"lon":16.522812,"is_passed":false}],"57614":[{"stop_id":"U1062Z2","name":"Černého","arrival_time":"2:30:00","departure_time":"2:30:00","lat":49.213885,"lon":16.523087,"is_passed":false},{"stop_id":"U1107Z2","name":"Filipova","arrival_time":"2:30:00","departure_time":"2:30:00","lat":49.218346,"lon":16.525224,"is_passed":false},{"stop_id":"U1326Z4","name":"Laštůvkova","arrival_time":"2:31:00","departure_time":"2:31:00","lat":49.220549,"lon":16.526237,"is_passed":false},{"stop_id":"U1752Z2","name":"Vondrákova","arrival_time":"2:32:00","departure_time":"2:32:00","lat":49.221445,"lon":16.528853,"is_passed":false},{"stop_id":"U1417Z2","name":"Náměstí 28. dubna","arrival_time":"2:33:00","departure_time":"2:33:00","lat":49.226314,"lon":16.53213,"is_passed":false},{"stop_id":"U1633Z6","name":"Svratecká","arrival_time":"2:36:00","departure_time":"2:36:00","lat":49.21759,"lon":16.553789,"is_passed":false},{"stop_id":"U1215Z2","name":"Jundrovská","arrival_time":"2:37:00","departure_time":"2:37:00","lat":49.211911,"lon":16.560194,"is_passed":false},{"stop_id":"U1217Z4","name":"Vozovna Komín","arrival_time":"2:38:00","departure_time":"2:38:00","lat":49.214283,"lon":16.559705,"is_passed":false},{"stop_id":"U1143Z2","name":"Hlavní","arrival_time":"2:38:00","departure_time":"2:38:00","lat":49.21715,"lon":16.560506,"is_passed":false},{"stop_id":"U1651Z2","name":"Štursova","arrival_time":"2:39:00","departure_time":"2:39:00","lat":49.215854,"lon":16.564522,"is_passed":false},{"stop_id":"U1544Z4","name":"Rosického náměstí","arrival_time":"2:40:00","departure_time":"2:40:00","lat":49.214881,"lon":16.568314,"is_passed":false},{"stop_id":"U1400Z2","name":"Mozolky","arrival_time":"2:41:00","departure_time":"2:41:00","lat":49.21352,"lon":16.575061,"is_passed":false},{"stop_id":"U1047Z2","name":"Burianovo náměstí","arrival_time":"2:42:00","departure_time":"2:42:00","lat":49.212274,"lon":16.578835,"is_passed":false},{"stop_id":"U1657Z2","name":"Tábor","arrival_time":"2:43:00","departure_time":"2:43:00","lat":49.210553,"lon":16.585882,"is_passed":false},{"stop_id":"U1552Z2","name":"Rybkova","arrival_time":"2:44:00","departure_time":"2:44:00","lat":49.206244,"lon":16.593167,"is_passed":false},{"stop_id":"U1262Z2","name":"Konečného náměstí","arrival_time":"2:46:00","departure_time":"2:46:00","lat":49.203961,"lon":16.596051,"is_passed":false},{"stop_id":"U1121Z2","name":"Grohova","arrival_time":"2:47:00","departure_time":"2:47:00","lat":49.201327,"lon":16.59934,"is_passed":false},{"stop_id":"U1073Z3","name":"Česká","arrival_time":"2:49:00","departure_time":"2:49:00","lat":49.197742,"lon":16.605147,"is_passed":false},{"stop_id":"U1637Z1","name":"Šilingrovo náměstí","arrival_time":"2:51:00","departure_time":"2:51:00","lat":49.19171,"lon":16.605355,"is_passed":false},{"stop_id":"U1146Z2","name":"Hlavní nádraží","arrival_time":"2:54:00","departure_time":"3:00:00","lat":49.191394,"lon":16.612548,"is_passed":false},{"stop_id":"U1357Z3","name":"Malinovského náměstí","arrival_time":"3:01:00","departure_time":"3:01:00","lat":49.196131,"lon":16.612953,"is_passed":false},{"stop_id":"U1397Z3","name":"Moravské náměstí","arrival_time":"3:02:00","departure_time":"3:02:00","lat":49.199309,"lon":16.609047,"is_passed":false},{"stop_id":"U1418Z1","name":"Náměstí 28. října","arrival_time":"3:03:00","departure_time":"3:03:00","lat":49.200961,"lon":16.613794,"is_passed":false},{"stop_id":"U1086Z1","name":"Dětská nemocnice","arrival_time":"3:04:00","departure_time":"3:04:00","lat":49.202836,"lon":16.618608,"is_passed":false},{"stop_id":"U1211Z3","name":"Jugoslávská","arrival_time":"3:05:00","departure_time":"3:05:00","lat":49.205084,"lon":16.624442,"is_passed":false},{"stop_id":"U1782Z1","name":"Zdráhalova","arrival_time":"3:06:00","departure_time":"3:06:00","lat":49.209297,"lon":16.623791,"is_passed":false},{"stop_id":"U1731Z1","name":"Venhudova","arrival_time":"3:07:00","departure_time":"3:07:00","lat":49.212094,"lon":16.624955,"is_passed":false},{"stop_id":"U1646Z3","name":"Štefánikova čtvrť","arrival_time":"3:08:00","departure_time":"3:08:00","lat":49.216958,"lon":16.627543,"is_passed":false},{"stop_id":"U1331Z1","name":"Lesná, nádraží","arrival_time":"3:09:00","departure_time":"3:09:00","lat":49.220041,"lon":16.629534,"is_passed":false},{"stop_id":"U1138Z1","name":"Heleny Malířové","arrival_time":"3:10:00","departure_time":"3:10:00","lat":49.223481,"lon":16.629567,"is_passed":false},{"stop_id":"U1008Z1","name":"Arbesova","arrival_time":"3:11:00","departure_time":"3:11:00","lat":49.226286,"lon":16.630842,"is_passed":false},{"stop_id":"U1028Z1","name":"Blažkova","arrival_time":"3:12:00","departure_time":"3:12:00","lat":49.230568,"lon":16.631,"is_passed":false},{"stop_id":"U1043Z1","name":"Brechtova","arrival_time":"3:13:00","departure_time":"3:13:00","lat":49.234039,"lon":16.629206,"is_passed":false},{"stop_id":"U1132Z3","name":"Haškova","arrival_time":"3:14:00","departure_time":"3:14:00","lat":49.233588,"lon":16.623836,"is_passed":false},{"stop_id":"U1348Z2","name":"Loosova","arrival_time":"3:15:00","departure_time":"3:15:00","lat":49.231571,"lon":16.618938,"is_passed":false},{"stop_id":"U1111Z2","name":"Fillova","arrival_time":"3:15:00","departure_time":"3:15:00","lat":49.229347,"lon":16.616979,"is_passed":false},{"stop_id":"U1582Z2","name":"Slavíčkova","arrival_time":"3:16:00","departure_time":"3:16:00","lat":49.225821,"lon":16.617957,"is_passed":false},{"stop_id":"U1128Z4","name":"Halasovo náměstí","arrival_time":"3:17:00","departure_time":"3:37:00","lat":49.22314,"lon":16.622438,"is_passed":false}],"57615":[{"stop_id":"U1128Z3","name":"Halasovo náměstí","arrival_time":"3:37:00","departure_time":"3:37:00","lat":49.223406,"lon":16.622237,"is_passed":false},{"stop_id":"U1582Z1","name":"Slavíčkova","arrival_time":"3:37:00","departure_time":"3:37:00","lat":49.226088,"lon":16.617914,"is_passed":false},{"stop_id":"U1111Z1","name":"Fillova","arrival_time":"3:38:00","departure_time":"3:38:00","lat":49.229105,"lon":16.616814,"is_passed":false},{"stop_id":"U1348Z1","name":"Loosova","arrival_time":"3:39:00","departure_time":"3:39:00","lat":49.232374,"lon":16.619952,"is_passed":false},{"stop_id":"U1132Z1","name":"Haškova","arrival_time":"3:40:00","departure_time":"3:40:00","lat":49.233582,"lon":16.624766,"is_passed":false},{"stop_id":"U1043Z2","name":"Brechtova","arrival_time":"3:41:00","departure_time":"3:41:00","lat":49.233462,"lon":16.629437,"is_passed":false},{"stop_id":"U1028Z2","name":"Blažkova","arrival_time":"3:42:00","departure_time":"3:42:00","lat":49.229597,"lon":16.631063,"is_passed":false},{"stop_id":"U1008Z2","name":"Arbesova","arrival_time":"3:42:00","departure_time":"3:42:00","lat":49.225668,"lon":16.630461,"is_passed":false},{"stop_id":"U1138Z2","name":"Heleny Malířové","arrival_time":"3:43:00","departure_time":"3:43:00","lat":49.223075,"lon":16.629159,"is_passed":false},{"stop_id":"U1331Z2","name":"Lesná, nádraží","arrival_time":"3:44:00","departure_time":"3:44:00","lat":49.220094,"lon":16.62942,"is_passed":false},{"stop_id":"U1646Z4","name":"Štefánikova čtvrť","arrival_time":"3:45:00","departure_time":"3:45:00","lat":49.217288,"lon":16.627693,"is_passed":false},{"stop_id":"U1731Z2","name":"Venhudova","arrival_time":"3:46:00","departure_time":"3:46:00","lat":49.212541,"lon":16.62512,"is_passed":false},{"stop_id":"U1782Z2","name":"Zdráhalova","arrival_time":"3:47:00","departure_time":"3:47:00","lat":49.209742,"lon":16.623799,"is_passed":false},{"stop_id":"U1211Z4","name":"Jugoslávská","arrival_time":"3:48:00","departure_time":"3:48:00","lat":49.204725,"lon":16.624081,"is_passed":false},{"stop_id":"U1086Z2","name":"Dětská nemocnice","arrival_time":"3:49:00","departure_time":"3:49:00","lat":49.203029,"lon":16.619052,"is_passed":false},{"stop_id":"U1418Z2","name":"Náměstí 28. října","arrival_time":"3:50:00","departure_time":"3:50:00","lat":49.200787,"lon":16.613174,"is_passed":false},{"stop_id":"U1397Z4","name":"Moravské náměstí","arrival_time":"3:51:00","departure_time":"3:51:00","lat":49.199159,"lon":16.608704,"is_passed":false},{"stop_id":"U1357Z4","name":"Malinovského náměstí","arrival_time":"3:53:00","departure_time":"3:53:00","lat":49.195612,"lon":16.613248,"is_passed":false},{"stop_id":"U1146Z1","name":"Hlavní nádraží","arrival_time":"3:56:00","departure_time":"4:00:00","lat":49.191185,"lon":16.611879,"is_passed":false},{"stop_id":"U1637Z2","name":"Šilingrovo náměstí","arrival_time":"4:01:00","departure_time":"4:01:00","lat":49.192027,"lon":16.605234,"is_passed":false},{"stop_id":"U1073Z4","name":"Česká","arrival_time":"4:03:00","departure_time":"4:03:00","lat":49.198134,"lon":16.605041,"is_passed":false},{"stop_id":"U1121Z1","name":"Grohova","arrival_time":"4:04:00","departure_time":"4:04:00","lat":49.201153,"lon":16.599729,"is_passed":false},{"stop_id":"U1262Z1","name":"Konečného náměstí","arrival_time":"4:05:00","departure_time":"4:05:00","lat":49.204484,"lon":16.595426,"is_passed":false},{"stop_id":"U1552Z1","name":"Rybkova","arrival_time":"4:06:00","departure_time":"4:06:00","lat":49.205908,"lon":16.593602,"is_passed":false},{"stop_id":"U1657Z1","name":"Tábor","arrival_time":"4:07:00","departure_time":"4:07:00","lat":49.210271,"lon":16.587228,"is_passed":false},{"stop_id":"U1282Z1","name":"Králova","arrival_time":"4:08:00","departure_time":"4:08:00","lat":49.211297,"lon":16.583386,"is_passed":false},{"stop_id":"U1047Z1","name":"Burianovo náměstí","arrival_time":"4:09:00","departure_time":"4:09:00","lat":49.212482,"lon":16.578371,"is_passed":false},{"stop_id":"U1400Z1","name":"Mozolky","arrival_time":"4:10:00","departure_time":"4:10:00","lat":49.213712,"lon":16.574628,"is_passed":false},{"stop_id":"U1544Z3","name":"Rosického náměstí","arrival_time":"4:11:00","departure_time":"4:11:00","lat":49.214882,"lon":16.56907,"is_passed":false},{"stop_id":"U1651Z1","name":"Štursova","arrival_time":"4:12:00","departure_time":"4:12:00","lat":49.216462,"lon":16.563614,"is_passed":false},{"stop_id":"U1143Z1","name":"Hlavní","arrival_time":"4:13:00","departure_time":"4:13:00","lat":49.216836,"lon":16.560198,"is_passed":false},{"stop_id":"U1217Z3","name":"Vozovna Komín","arrival_time":"4:13:00","departure_time":"4:13:00","lat":49.214168,"lon":16.559588,"is_passed":false},{"stop_id":"U1215Z1","name":"Jundrovská","arrival_time":"4:14:00","departure_time":"4:14:00","lat":49.211867,"lon":16.560093,"is_passed":false},{"stop_id":"U1633Z5","name":"Svratecká","arrival_time":"4:18:00","departure_time":"4:18:00","lat":49.218278,"lon":16.552802,"is_passed":false},{"stop_id":"U1417Z1","name":"Náměstí 28. dubna","arrival_time":"4:21:00","departure_time":"4:21:00","lat":49.225188,"lon":16.531132,"is_passed":false},{"stop_id":"U1752Z1","name":"Vondrákova","arrival_time":"4:22:00","departure_time":"4:22:00","lat":49.221303,"lon":16.528376,"is_passed":false},{"stop_id":"U1326Z1","name":"Laštůvkova","arrival_time":"4:23:00","departure_time":"4:23:00","lat":49.220185,"lon":16.525212,"is_passed":false},{"stop_id":"U1107Z1","name":"Filipova","arrival_time":"4:24:00","departure_time":"4:24:00","lat":49.216663,"lon":16.5248,"is_passed":false},{"stop_id":"U1062Z1","name":"Černého","arrival_time":"4:25:00","departure_time":"4:30:00","lat":49.214083,"lon":16.522812,"is_passed":false}],"57616":[{"stop_id":"U1062Z2","name":"Černého","arrival_time":"4:30:00","departure_time":"4:30:00","lat":49.213885,"lon":16.523087,"is_passed":false},{"stop_id":"U1107Z2","name":"Filipova","arrival_time":"4:30:00","departure_time":"4:30:00","lat":49.218346,"lon":16.525224,"is_passed":false},{"stop_id":"U1326Z4","name":"Laštůvkova","arrival_time":"4:31:00","departure_time":"4:31:00","lat":49.220549,"lon":16.526237,"is_passed":false},{"stop_id":"U1752Z2","name":"Vondrákova","arrival_time":"4:32:00","departure_time":"4:32:00","lat":49.221445,"lon":16.528853,"is_passed":false},{"stop_id":"U1417Z2","name":"Náměstí 28. dubna","arrival_time":"4:33:00","departure_time":"4:33:00","lat":49.226314,"lon":16.53213,"is_passed":false},{"stop_id":"U1633Z6","name":"Svratecká","arrival_time":"4:36:00","departure_time":"4:36:00","lat":49.21759,"lon":16.553789,"is_passed":false},{"stop_id":"U1215Z2","name":"Jundrovská","arrival_time":"4:37:00","departure_time":"4:37:00","lat":49.211911,"lon":16.560194,"is_passed":false},{"stop_id":"U1217Z4","name":"Vozovna Komín","arrival_time":"4:38:00","departure_time":"4:38:00","lat":49.214283,"lon":16.559705,"is_passed":false},{"stop_id":"U1143Z2","name":"Hlavní","arrival_time":"4:38:00","departure_time":"4:38:00","lat":49.21715,"lon":16.560506,"is_passed":false},{"stop_id":"U1651Z2","name":"Štursova","arrival_time":"4:39:00","departure_time":"4:39:00","lat":49.215854,"lon":16.564522,"is_passed":false},{"stop_id":"U1544Z4","name":"Rosického náměstí","arrival_time":"4:40:00","departure_time":"4:40:00","lat":49.214881,"lon":16.568314,"is_passed":false},{"stop_id":"U1400Z2","name":"Mozolky","arrival_time":"4:41:00","departure_time":"4:41:00","lat":49.21352,"lon":16.575061,"is_passed":false},{"stop_id":"U1047Z2","name":"Burianovo náměstí","arrival_time":"4:42:00","departure_time":"4:42:00","lat":49.212274,"lon":16.578835,"is_passed":false},{"stop_id":"U1657Z2","name":"Tábor","arrival_time":"4:43:00","departure_time":"4:43:00","lat":49.210553,"lon":16.585882,"is_passed":false},{"stop_id":"U1552Z2","name":"Rybkova","arrival_time":"4:44:00","departure_time":"4:44:00","lat":49.206244,"lon":16.593167,"is_passed":false},{"stop_id":"U1262Z2","name":"Konečného náměstí","arrival_time":"4:46:00","departure_time":"4:46:00","lat":49.203961,"lon":16.596051,"is_passed":false},{"stop_id":"U1121Z2","name":"Grohova","arrival_time":"4:47:00","departure_time":"4:47:00","lat":49.201327,"lon":16.59934,"is_passed":false},{"stop_id":"U1073Z3","name":"Česká","arrival_time":"4:49:00","departure_time":"4:49:00","lat":49.197742,"lon":16.605147,"is_passed":false},{"stop_id":"U1637Z1","name":"Šilingrovo náměstí","arrival_time":"4:51:00","departure_time":"4:51:00","lat":49.19171,"lon":16.605355,"is_passed":false},{"stop_id":"U1146Z2","name":"Hlavní nádraží","arrival_time":"4:54:00","departure_time":"5:00:00","lat":49.191394,"lon":16.612548,"is_passed":false},{"stop_id":"U1357Z3","name":"Malinovského náměstí","arrival_time":"5:01:00","departure_time":"5:01:00","lat":49.196131,"lon":16.612953,"is_passed":false},{"stop_id":"U1397Z3","name":"Moravské náměstí","arrival_time":"5:02:00","departure_time":"5:02:00","lat":49.199309,"lon":16.609047,"is_passed":false},{"stop_id":"U1418Z1","name":"Náměstí 28. října","arrival_time":"5:03:00","departure_time":"5:03:00","lat":49.200961,"lon":16.613794,"is_passed":false},{"stop_id":"U1086Z1","name":"Dětská nemocnice","arrival_time":"5:04:00","departure_time":"5:04:00","lat":49.202836,"lon":16.618608,"is_passed":false},