[{"stop_id":"U1659Z4","name":"Technologický park","arrival_time":"9:05:00","departure_time":"9:05:00","lat":49.231509,"lon":16.576781,"is_passed":false},{"stop_id":"U1756Z3","name":"Vozovna Medlánky","arrival_time":"9:07:00","departure_time":"9:07:00","lat":49.235779,"lon":16.585218,"is_passed":false},{"stop_id":"U1377Z1","name":"Medlánky, škola","arrival_time":"9:08:00","departure_time":"9:08:00","lat":49.238431,"lon":16.578024,"is_passed":false},{"stop_id":"U1376Z1","name":"Medlánky","arrival_time":"9:09:00","departure_time":"9:09:00","lat":49.240555,"lon":16.573723,"is_passed":false},{"stop_id":"U1719Z1","name":"V Újezdech","arrival_time":"9:09:00","departure_time":"9:09:00","lat":49.241986,"lon":16.573155,"is_passed":false},{"stop_id":"U1414Z2","name":"Nadační","arrival_time":"9:10:00","departure_time":"9:10:00","lat":49.244744,"lon":16.57031,"is_passed":false},{"stop_id":"U1539Z1","name":"Renčova","arrival_time":"9:12:00","departure_time":"9:12:00","lat":49.246696,"lon":16.575244,"is_passed":false},{"stop_id":"U1457Z1","name":"Olšanského","arrival_time":"9:13:00","departure_time":"9:13:00","lat":49.244367,"lon":16.577644,"is_passed":false},{"stop_id":"U1553Z3","name":"Řečkovice","arrival_time":"9:14:00","departure_time":"9:14:00","lat":49.246501,"lon":16.579153,"is_passed":false},{"stop_id":"U1476Z1","name":"Palackého náměstí","arrival_time":"9:15:00","departure_time":"9:15:00","lat":49.25084,"lon":16.581903,"is_passed":false},{"stop_id":"U1556Z1","name":"Řečkovice, hřbitov","arrival_time":"9:17:00","departure_time":"9:21:00","lat":49.253402,"lon":16.582496,"is_passed":false}]