{"577":[{"stop_id":"U12439Z51","name":"Rájec-Jestřebí, železniční stanice","arrival_time":"16:11:00","departure_time":"16:11:00","lat":49.408206,"lon":16.627711,"is_passed":false},{"stop_id":"U22302Z2","name":"Blansko město","arrival_time":"16:15:00","departure_time":"16:16:00","lat":49.360996,"lon":16.639464,"is_passed":false},{"stop_id":"U12342Z29","name":"Blansko, aut. st.","arrival_time":"16:17:00","departure_time":"16:18:00","lat":49.352753,"lon":16.646848,"is_passed":false},{"stop_id":"U12231Z11","name":"Adamov, železniční zastávka","arrival_time":"16:24:00","departure_time":"16:24:00","lat":49.300671,"lon":16.650653,"is_passed":false},{"stop_id":"U12230Z11","name":"Adamov, železniční stanice","arrival_time":"16:26:00","departure_time":"16:27:00","lat":49.295341,"lon":16.663538,"is_passed":false},{"stop_id":"U12158Z11","name":"Bílovice nad Svitavou, žel. stanice","arrival_time":"16:32:00","departure_time":"16:33:00","lat":49.242715,"lon":16.673677,"is_passed":false},{"stop_id":"U1809Z11","name":"Židenice, nádraží","arrival_time":"16:38:00","departure_time":"16:38:00","lat":49.204282,"lon":16.636042,"is_passed":false},{"stop_id":"U1146Z98","name":"Hlavní nádraží","arrival_time":"16:43:00","departure_time":"17:19:00","lat":49.19035,"lon":16.612342,"is_passed":false}],"5770":[{"stop_id":"U15140Z2","name":"Modřice, železniční stanice","arrival_time":"6:35:00","departure_time":"6:35:00","lat":49.1337,"lon":16.606717,"is_passed":false},{"stop_id":"U15134Z2","name":"Modřice, smyčka","arrival_time":"6:40:00","departure_time":"6:40:00","lat":49.126517,"lon":16.604633,"is_passed":false},{"stop_id":"U15137Z4","name":"Modřice, Tyršova","arrival_time":"6:41:00","departure_time":"6:41:00","lat":49.129402,"lon":16.603203,"is_passed":false},{"stop_id":"U15183Z1","name":"Modřice, Bobrava, motel","arrival_time":"6:46:00","departure_time":"6:46:00","lat":49.106888,"lon":16.601436,"is_passed":false},{"stop_id":"U15184Z1","name":"Modřice, Bobrava, střed","arrival_time":"6:48:00","departure_time":"6:49:00","lat":49.105065,"lon":16.601406,"is_passed":false}],"5771":[{"stop_id":"U15183Z1","name":"Modřice, Bobrava, motel","arrival_time":"7:05:00","departure_time":"7:05:00","lat":49.106888,"lon":16.601436,"is_passed":false},{"stop_id":"U15184Z1","name":"Modřice, Bobrava, střed","arrival_time":"7:07:00","departure_time":"7:07:00","lat":49.105065,"lon":16.601406,"is_passed":false},{"stop_id":"U15134Z1","name":"Modřice, smyčka","arrival_time":"7:13:00","departure_time":"7:13:00","lat":49.127138,"lon":16.604706,"is_passed":false},{"stop_id":"U15122Z2","name":"Modřice, Brněnská","arrival_time":"7:14:00","departure_time":"7:14:00","lat":49.129392,"lon":16.604987,"is_passed":false},{"stop_id":"U15140Z1","name":"Modřice, železniční stanice","arrival_time":"7:16:00","departure_time":"9:35:00","lat":49.134137,"lon":16.606734,"is_passed":false}],"5772":[{"stop_id":"U15140Z2","name":"Modřice, železniční stanice","arrival_time":"9:35:00","departure_time":"9:35:00","lat":49.1337,"lon":16.606717,"is_passed":false},{"stop_id":"U15134Z2","name":"Modřice, smyčka","arrival_time":"9:40:00","departure_time":"9:40:00","lat":49.126517,"lon":16.604633,"is_passed":false},{"stop_id":"U15137Z4","name":"Modřice, Tyršova","arrival_time":"9:41:00","departure_time":"9:41:00","lat":49.129402,"lon":16.603203,"is_passed":false},{"stop_id":"U15183Z1","name":"Modřice, Bobrava, motel","arrival_time":"9:46:00","departure_time":"9:46:00","lat":49.106888,"lon":16.601436,"is_passed":false},{"stop_id":"U15184Z1","name":"Modřice, Bobrava, střed","arrival_time":"9:48:00","departure_time":"9:49:00","lat":49.105065,"lon":16.601406,"is_passed":false}],"5773":[{"stop_id":"U15183Z1","name":"Modřice, Bobrava, motel","arrival_time":"10:16:00","departure_time":"10:16:00","lat":49.106888,"lon":16.601436,"is_passed":false},{"stop_id":"U15184Z1","name":"Modřice, Bobrava, střed","arrival_time":"10:18:00","departure_time":"10:18:00","lat":49.105065,"lon":16.601406,"is_passed":false},{"stop_id":"U15134Z1","name":"Modřice, smyčka","arrival_time":"10:24:00","departure_time":"10:24:00","lat":49.127138,"lon":16.604706,"is_passed":false},{"stop_id":"U15122Z2","name":"Modřice, Brněnská","arrival_time":"10:25:00","departure_time":"10:25:00","lat":49.129392,"lon":16.604987,"is_passed":false},{"stop_id":"U15140Z1","name":"Modřice, železniční stanice","arrival_time":"10:27:00","departure_time":"13:05:00","lat":49.134137,"lon":16.606734,"is_passed":false}],"5774":[{"stop_id":"U15140Z2","name":"Modřice, železniční stanice","arrival_time":"13:05:00","departure_time":"13:05:00","lat":49.1337,"lon":16.606717,"is_passed":false},{"stop_id":"U15134Z2","name":"Modřice, smyčka","arrival_time":"13:10:00","departure_time":"13:10:00","lat":49.126517,"lon":16.604633,"is_passed":false},{"stop_id":"U15137Z4","name":"Modřice, Tyršova","arrival_time":"13:11:00","departure_time":"13:11:00","lat":49.129402,"lon":16.603203,"is_passed":false},{"stop_id":"U15183Z1","name":"Modřice, Bobrava, motel","arrival_time":"13:16:00","departure_time":"13:16:00","lat":49.106888,"lon":16.601436,"is_passed":false},{"stop_id":"U15184Z1","name":"Modřice, Bobrava, střed","arrival_time":"13:18:00","departure_time":"13:18:00","lat":49.105065,"lon":16.601406,"is_passed":false}],"5775":[{"stop_id":"U15184Z1","name":"Modřice, Bobrava, střed","arrival_time":"13:18:00","departure_time":"13:18:00","lat":49.105065,"lon":16.601406,"is_passed":false},{"stop_id":"U15134Z1","name":"Modřice, smyčka","arrival_time":"13:24:00","departure_time":"13:24:00","lat":49.127138,"lon":16.604706,"is_passed":false},{"stop_id":"U15122Z2","name":"Modřice, Brněnská","arrival_time":"13:25:00","departure_time":"13:25:00","lat":49.129392,"lon":16.604987,"is_passed":false},{"stop_id":"U15140Z1","name":"Modřice, železniční stanice","arrival_time":"13:27:00","departure_time":"14:05:00","lat":49.134137,"lon":16.606734,"is_passed":false}],"5776":[{"stop_id":"U15140Z2","name":"Modřice, železniční stanice","arrival_time":"14:05:00","departure_time":"14:05:00","lat":49.1337,"lon":16.606717,"is_passed":false},{"stop_id":"U15134Z2","name":"Modřice, smyčka","arrival_time":"14:10:00","departure_time":"14:10:00","lat":49.126517,"lon":16.604633,"is_passed":false},{"stop_id":"U15137Z4","name":"Modřice, Tyršova","arrival_time":"14:11:00","departure_time":"14:11:00","lat":49.129402,"lon":16.603203,"is_passed":false},{"stop_id":"U15183Z1","name":"Modřice, Bobrava, motel","arrival_time":"14:16:00","departure_time":"14:16:00","lat":49.106888,"lon":16.601436,"is_passed":false},{"stop_id":"U15184Z1","name":"Modřice, Bobrava, střed","arrival_time":"14:18:00","departure_time":"14:18:00","lat":49.105065,"lon":16.601406,"is_passed":false}],"5777":[{"stop_id":"U15184Z1","name":"Modřice, Bobrava, střed","arrival_time":"14:18:00","departure_time":"14:18:00","lat":49.105065,"lon":16.601406,"is_passed":false},{"stop_id":"U15134Z1","name":"Modřice, smyčka","arrival_time":"14:24:00","departure_time":"14:24:00","lat":49.127138,"lon":16.604706,"is_passed":false},{"stop_id":"U15122Z2","name":"Modřice, Brněnská","arrival_time":"14:25:00","departure_time":"14:25:00","lat":49.129392,"lon":16.604987,"is_passed":false},{"stop_id":"U15140Z1","name":"Modřice, železniční stanice","arrival_time":"14:27:00","departure_time":"16:05:00","lat":49.134137,"lon":16.606734,"is_passed":false}],"5778":[{"stop_id":"U15140Z2","name":"Modřice, železniční stanice","arrival_time":"16:05:00","departure_time":"16:05:00","lat":49.1337,"lon":16.606717,"is_passed":false},{"stop_id":"U15134Z2","name":"Modřice, smyčka","arrival_time":"16:10:00","departure_time":"16:10:00","lat":49.126517,"lon":16.604633,"is_passed":false},{"stop_id":"U15137Z4","name":"Modřice, Tyršova","arrival_time":"16:11:00","departure_time":"16:11:00","lat":49.129402,"lon":16.603203,"is_passed":false},{"stop_id":"U15183Z1","name":"Modřice, Bobrava, motel","arrival_time":"16:16:00","departure_time":"16:16:00","lat":49.106888,"lon":16.601436,"is_passed":false},{"stop_id":"U15184Z1","name":"Modřice, Bobrava, střed","arrival_time":"16:18:00","departure_time":"16:18:00","lat":49.105065,"lon":16.601406,"is_passed":false}],"5779":[{"stop_id":"U15184Z1","name":"Modřice, Bobrava, střed","arrival_time":"16:18:00","departure_time":"16:18:00","lat":49.105065,"lon":16.601406,"is_passed":false},{"stop_id":"U15134Z1","name":"Modřice, smyčka","arrival_time":"16:24:00","departure_time":"16:24:00","lat":49.127138,"lon":16.604706,"is_passed":false},{"stop_id":"U15122Z2","name":"Modřice, Brněnská","arrival_time":"16:25:00","departure_time":"16:25:00","lat":49.129392,"lon":16.604987,"is_passed":false},{"stop_id":"U15140Z1","name":"Modřice, železniční stanice","arrival_time":"16:27:00","departure_time":"18:05:00","lat":49.134137,"lon":16.606734,"is_passed":false}],"57700":[{"stop_id":"U1556Z2","name":"Řečkovice, hřbitov","arrival_time":"9:21:00","departure_time":"9:21:00","lat":49.253356,"lon":16.582329,"is_passed":false},{"stop_id":"U1476Z2","name":"Palackého náměstí","arrival_time":"9:22:00","departure_time":"9:22:00","lat":49.250816,"lon":16.581773,"is_passed":false},{"stop_id":"U1553Z4","name":"Řečkovice","arrival_time":"9:23:00","departure_time":"9:23:00","lat":49.246674,"lon":16.579384,"is_passed":false},{"stop_id":"U1457Z2","name":"Olšanského","arrival_time":"9:24:00","departure_time":"9:24:00","lat":49.24422,"lon":16.577351,"is_passed":false},{"stop_id":"U1539Z2","name":"Renčova","arrival_time":"9:25:00","departure_time":"9:25:00","lat":49.247214,"lon":16.574968,"is_passed":false},{"stop_id":"U1414Z1","name":"Nadační","arrival_time":"9:26:00","departure_time":"9:26:00","lat":49.245595,"lon":16.571098,"is_passed":false},{"stop_id":"U1719Z2","name":"V Újezdech","arrival_time":"9:27:00","departure_time":"9:27:00","lat":49.241856,"lon":16.573203,"is_passed":false},{"stop_id":"U1376Z2","name":"Medlánky","arrival_time":"9:28:00","departure_time":"9:28:00","lat":49.240459,"lon":16.573676,"is_passed":false},{"stop_id":"U1377Z2","name":"Medlánky, škola","arrival_time":"9:29:00","departure_time":"9:29:00","lat":49.238196,"lon":16.57841,"is_passed":false},{"stop_id":"U1756Z4","name":"Vozovna Medlánky","arrival_time":"9:30:00","departure_time":"9:30:00","lat":49.235569,"lon":16.585596,"is_passed":false},{"stop_id":"U1659Z3","name":"Technologický park","arrival_time":"9:33:00","departure_time":"9:45:00","lat":49.23192,"lon":16.576848,"is_passed":false}],"57701":[{"stop_id":"U1659Z4","name":"Technologický park","arrival_time":"9:45:00","departure_time":"9:45:00","lat":49.231509,"lon":16.576781,"is_passed":false},{"stop_id":"U1756Z3","name":"Vozovna Medlánky","arrival_time":"9:47:00","departure_time":"9:47:00","lat":49.235779,"lon":16.585218,"is_passed":false},{"stop_id":"U1377Z1","name":"Medlánky, škola","arrival_time":"9:48:00","departure_time":"9:48:00","lat":49.238431,"lon":16.578024,"is_passed":false},{"stop_id":"U1376Z1","name":"Medlánky","arrival_time":"9:49:00","departure_time":"9:49:00","lat":49.240555,"lon":16.573723,"is_passed":false},{"stop_id":"U1719Z1","name":"V Újezdech","arrival_time":"9:49:00","departure_time":"9:49:00","lat":49.241986,"lon":16.573155,"is_passed":false},{"stop_id":"U1414Z2","name":"Nadační","arrival_time":"9:50:00","departure_time":"9:50:00","lat":49.244744,"lon":16.57031,"is_passed":false},{"stop_id":"U1539Z1","name":"Renčova","arrival_time":"9:52:00","departure_time":"9:52:00","lat":49.246696,"lon":16.575244,"is_passed":false},{"stop_id":"U1457Z1","name":"Olšanského","arrival_time":"9:53:00","departure_time":"9:53:00","lat":49.244367,"lon":16.577644,"is_passed":false},{"stop_id":"U1553Z3","name":"Řečkovice","arrival_time":"9:54:00","departure_time":"9:54:00","lat":49.246501,"lon":16.579153,"is_passed":false},{"stop_id":"U1476Z1","name":"Palackého náměstí","arrival_time":"9:55:00","departure_time":"9:55:00","lat":49.25084,"lon":16.581903,"is_passed":false},{"stop_id":"U1556Z1","name":"Řečkovice, hřbitov","arrival_time":"9:57:00","departure_time":"10:01:00","lat":49.253402,"lon":16.582496,"is_passed":false}],"57702":[{"stop_id":"U1556Z2","name":"Řečkovice, hřbitov","arrival_time":"10:01:00","departure_time":"10:01:00","lat":49.253356,"lon":16.582329,"is_passed":false},{"stop_id":"U1476Z2","name":"Palackého náměstí","arrival_time":"10:02:00","departure_time":"10:02:00","lat":49.250816,"lon":16.581773,"is_passed":false},{"stop_id":"U1553Z4","name":"Řečkovice","arrival_time":"10:03:00","departure_time":"10:03:00","lat":49.246674,"lon":16.579384,"is_passed":false},{"stop_id":"U1457Z2","name":"Olšanského","arrival_time":"10:04:00","departure_time":"10:04:00","lat":49.24422,"lon":16.577351,"is_passed":false},{"stop_id":"U1539Z2","name":"Renčova","arrival_time":"10:05:00","departure_time":"10:05:00","lat":49.247214,"lon":16.574968,"is_passed":false},{"stop_id":"U1414Z1","name":"Nadační","arrival_time":"10:06:00","departure_time":"10:06:00","lat":49.245595,"lon":16.571098,"is_passed":false},{"stop_id":"U1719Z2","name":"V Újezdech","arrival_time":"10:07:00","departure_time":"10:07:00","lat":49.241856,"lon":16.573203,"is_passed":false},{"stop_id":"U1376Z2","name":"Medlánky","arrival_time":"10:08:00","departure_time":"10:08:00","lat":49.240459,"lon":16.573676,"is_passed":false},{"stop_id":"U1377Z2","name":"Medlánky, škola","arrival_time":"10:09:00","departure_time":"10:09:00","lat":49.238196,"lon":16.57841,"is_passed":false},{"stop_id":"U1756Z4","name":"Vozovna Medlánky","arrival_time":"10:10:00","departure_time":"10:10:00","lat":49.235569,"lon":16.585596,"is_passed":false},{"stop_id":"U1659Z3","name":"Technologický park","arrival_time":"10:13:00","departure_time":"10:25:00","lat":49.23192,"lon":16.576848,"is_passed":false}],"57703":[{"stop_id":"U1659Z4","name":"Technologický park","arrival_time":"10:25:00","departure_time":"10:25:00","lat":49.231509,"lon":16.576781,"is_passed":false},{"stop_id":"U1756Z3","name":"Vozovna Medlánky","arrival_time":"10:27:00","departure_time":"10:27:00","lat":49.235779,"lon":16.585218,"is_passed":false},{"stop_id":"U1377Z1","name":"Medlánky, škola","arrival_time":"10:28:00","departure_time":"10:28:00","lat":49.238431,"lon":16.578024,"is_passed":false},{"stop_id":"U1376Z1","name":"Medlánky","arrival_time":"10:29:00","departure_time":"10:29:00","lat":49.240555,"lon":16.573723,"is_passed":false},{"stop_id":"U1719Z1","name":"V Újezdech","arrival_time":"10:29:00","departure_time":"10:29:00","lat":49.241986,"lon":16.573155,"is_passed":false},{"stop_id":"U1414Z2","name":"Nadační","arrival_time":"10:30:00","departure_time":"10:30:00","lat":49.244744,"lon":16.57031,"is_passed":false},{"stop_id":"U1539Z1","name":"Renčova","arrival_time":"10:32:00","departure_time":"10:32:00","lat":49.246696,"lon":16.575244,"is_passed":false},{"stop_id":"U1457Z1","name":"Olšanského","arrival_time":"10:33:00","departure_time":"10:33:00","lat":49.244367,"lon":16.577644,"is_passed":false},{"stop_id":"U1553Z3","name":"Řečkovice","arrival_time":"10:34:00","departure_time":"10:34:00","lat":49.246501,"lon":16.579153,"is_passed":false},{"stop_id":"U1476Z1","name":"Palackého náměstí","arrival_time":"10:35:00","departure_time":"10:35:00","lat":49.25084,"lon":16.581903,"is_passed":false},{"stop_id":"U1556Z1","name":"Řečkovice, hřbitov","arrival_time":"10:37:00","departure_time":"10:41:00","lat":49.253402,"lon":16.582496,"is_passed":false}],"57704":[{"stop_id":"U1556Z2","name":"Řečkovice, hřbitov","arrival_time":"10:41:00","departure_time":"10:41:00","lat":49.253356,"lon":16.582329,"is_passed":false},{"stop_id":"U1476Z2","name":"Palackého náměstí","arrival_time":"10:42:00","departure_time":"10:42:00","lat":49.250816,"lon":16.581773,"is_passed":false},{"stop_id":"U1553Z4","name":"Řečkovice","arrival_time":"10:43:00","departure_time":"10:43:00","lat":49.246674,"lon":16.579384,"is_passed":false},{"stop_id":"U1457Z2","name":"Olšanského","arrival_time":"10:44:00","departure_time":"10:44:00","lat":49.24422,"lon":16.577351,"is_passed":false},{"stop_id":"U1539Z2","name":"Renčova","arrival_time":"10:45:00","departure_time":"10:45:00","lat":49.247214,"lon":16.574968,"is_passed":false},{"stop_id":"U1414Z1","name":"Nadační","arrival_time":"10:46:00","departure_time":"10:46:00","lat":49.245595,"lon":16.571098,"is_passed":false},{"stop_id":"U1719Z2","name":"V Újezdech","arrival_time":"10:47:00","departure_time":"10:47:00","lat":49.241856,"lon":16.573203,"is_passed":false},{"stop_id":"U1376Z2","name":"Medlánky","arrival_time":"10:48:00","departure_time":"10:48:00","lat":49.240459,"lon":16.573676,"is_passed":false},{"stop_id":"U1377Z2","name":"Medlánky, škola","arrival_time":"10:49:00","departure_time":"10:49:00","lat":49.238196,"lon":16.57841,"is_passed":false},{"stop_id":"U1756Z4","name":"Vozovna Medlánky","arrival_time":"10:50:00","departure_time":"10:50:00","lat":49.235569,"lon":16.585596,"is_passed":false},{"stop_id":"U1659Z4","name":"Technologický park","arrival_time":"10:53:00","departure_time":"10:53:00","lat":49.231509,"lon":16.576781,"is_passed":false}],"57705":[{"stop_id":"U1659Z4","name":"Technologický park","arrival_time":"10:53:00","departure_time":"10:53:00","lat":49.231509,"lon":16.576781,"is_passed":false},{"stop_id":"U1104Z1","name":"Edisonova","arrival_time":"10:53:00","departure_time":"10:53:00","lat":49.22828,"lon":16.576461,"is_passed":false},{"stop_id":"U1499Z2","name":"Podnikatelská","arrival_time":"10:54:00","departure_time":"10:54:00","lat":49.227023,"lon":16.576248,"is_passed":false},{"stop_id":"U1660Z2","name":"Technická","arrival_time":"10:55:00","departure_time":"10:55:00","lat":49.22302,"lon":16.578608,"is_passed":false},{"stop_id":"U1155Z2","name":"Horská","arrival_time":"10:56:00","departure_time":"10:56:00","lat":49.221604,"lon":16.579463,"is_passed":false},{"stop_id":"U1777Z2","name":"Záhřebská","arrival_time":"10:57:00","departure_time":"10:57:00","lat":49.219845,"lon":16.580415,"is_passed":false},{"stop_id":"U1567Z6","name":"Skácelova","arrival_time":"10:59:00","departure_time":"10:59:00","lat":49.22163,"lon":16.585935,"is_passed":false},{"stop_id":"U1586Z4","name":"Slovanské náměstí","arrival_time":"11:00:00","departure_time":"11:00:00","lat":49.222774,"lon":16.591332,"is_passed":false},{"stop_id":"U1171Z3","name":"Husitská","arrival_time":"11:01:00","departure_time":"11:01:00","lat":49.223851,"lon":16.594116,"is_passed":false},{"stop_id":"U1566Z4","name":"Semilasso","arrival_time":"11:03:00","departure_time":"11:03:00","lat":49.228055,"lon":16.593438,"is_passed":false},{"stop_id":"U1286Z8","name":"Královo Pole, nádraží","arrival_time":"11:05:00","departure_time":"11:51:00","lat":49.230335,"lon":16.595523,"is_passed":false}],"57706":[{"stop_id":"U1286Z5","name":"Královo Pole, nádraží","arrival_time":"11:51:00","departure_time":"11:51:00","lat":49.229633,"lon":16.595447,"is_passed":false},{"stop_id":"U1566Z6","name":"Semilasso","arrival_time":"11:52:00","departure_time":"11:52:00","lat":49.228248,"lon":16.593466,"is_passed":false},{"stop_id":"U1171Z4","name":"Husitská","arrival_time":"11:54:00","departure_time":"11:54:00","lat":49.224063,"lon":16.593994,"is_passed":false},{"stop_id":"U1586Z3","name":"Slovanské náměstí","arrival_time":"11:55:00","departure_time":"11:55:00","lat":49.223525,"lon":16.591009,"is_passed":false},{"stop_id":"U1567Z5","name":"Skácelova","arrival_time":"11:56:00","departure_time":"11:56:00","lat":49.221353,"lon":16.584711,"is_passed":false},{"stop_id":"U1777Z3","name":"Záhřebská","arrival_time":"11:58:00","departure_time":"11:58:00","lat":49.22001,"lon":16.579572,"is_passed":false},{"stop_id":"U1155Z1","name":"Horská","arrival_time":"11:58:00","departure_time":"11:58:00","lat":49.221621,"lon":16.579517,"is_passed":false},{"stop_id":"U1475Z2","name":"Palackého vrch","arrival_time":"12:00:00","departure_time":"12:00:00","lat":49.224173,"lon":16.573374,"is_passed":false},{"stop_id":"U1660Z3","name":"Technická","arrival_time":"12:01:00","departure_time":"12:01:00","lat":49.223701,"lon":16.578091,"is_passed":false},{"stop_id":"U1499Z1","name":"Podnikatelská","arrival_time":"12:02:00","departure_time":"12:02:00","lat":49.227371,"lon":16.576366,"is_passed":false},{"stop_id":"U1252Z2","name":"Kolejní","arrival_time":"12:03:00","departure_time":"12:03:00","lat":49.230641,"lon":16.57191,"is_passed":false},{"stop_id":"U1733Z1","name":"Vědeckotechnický park","arrival_time":"12:04:00","departure_time":"12:04:00","lat":49.2326,"lon":16.574806,"is_passed":false},{"stop_id":"U1659Z4","name":"Technologický park","arrival_time":"12:05:00","departure_time":"12:05:00","lat":49.231509,"lon":16.576781,"is_passed":false}],"57707":[{"stop_id":"U1659Z4","name":"Technologický park","arrival_time":"12:05:00","departure_time":"12:05:00","lat":49.231509,"lon":16.576781,"is_passed":false},{"stop_id":"U1756Z3","name":"Vozovna Medlánky","arrival_time":"12:07:00","departure_time":"12:07:00","lat":49.235779,"lon":16.585218,"is_passed":false},{"stop_id":"U1377Z1","name":"Medlánky, škola","arrival_time":"12:08:00","departure_time":"12:08:00","lat":49.238431,"lon":16.578024,"is_passed":false},{"stop_id":"U1376Z1","name":"Medlánky","arrival_time":"12:09:00","departure_time":"12:09:00","lat":49.240555,"lon":16.573723,"is_passed":false},{"stop_id":"U1719Z1","name":"V Újezdech","arrival_time":"12:09:00","departure_time":"12:09:00","lat":49.241986,"lon":16.573155,"is_passed":false},{"stop_id":"U1414Z2","name":"Nadační","arrival_time":"12:10:00","departure_time":"12:10:00","lat":49.244744,"lon":16.57031,"is_passed":false},{"stop_id":"U1539Z1","name":"Renčova","arrival_time":"12:12:00","departure_time":"12:12:00","lat":49.246696,"lon":16.575244,"is_passed":false},{"stop_id":"U1457Z1","name":"Olšanského","arrival_time":"12:13:00","departure_time":"12:13:00","lat":49.244367,"lon":16.577644,"is_passed":false},{"stop_id":"U1553Z3","name":"Řečkovice","arrival_time":"12:14:00","departure_time":"12:14:00","lat":49.246501,"lon":16.579153,"is_passed":false},{"stop_id":"U1476Z1","name":"Palackého náměstí","arrival_time":"12:15:00","departure_time":"12:15:00","lat":49.25084,"lon":16.581903,"is_passed":false},{"stop_id":"U1556Z1","name":"Řečkovice, hřbitov","arrival_time":"12:17:00","departure_time":"12:21:00","lat":49.253402,"lon":16.582496,"is_passed":false}],"57708":[{"stop_id":"U1556Z2","name":"Řečkovice, hřbitov","arrival_time":"12:21:00","departure_time":"12:21:00","lat":49.253356,"lon":16.582329,"is_passed":false},{"stop_id":"U1476Z2","name":"Palackého náměstí","arrival_time":"12:22:00","departure_time":"12:22:00","lat":49.250816,"lon":16.581773,"is_passed":false},{"stop_id":"U1553Z4","name":"Řečkovice","arrival_time":"12:23:00","departure_time":"12:23:00","lat":49.246674,"lon":16.579384,"is_passed":false},{"stop_id":"U1457Z2","name":"Olšanského","arrival_time":"12:24:00","departure_time":"12:24:00","lat":49.24422,"lon":16.577351,"is_passed":false},{"stop_id":"U1539Z2","name":"Renčova","arrival_time":"12:25:00","departure_time":"12:25:00","lat":49.247214,"lon":16.574968,"is_passed":false},{"stop_id":"U1414Z1","name":"Nadační","arrival_time":"12:26:00","departure_time":"12:26:00","lat":49.245595,"lon":16.571098,"is_passed":false},{"stop_id":"U1719Z2","name":"V Újezdech","arrival_time":"12:27:00","departure_time":"12:27:00","lat":49.241856,"lon":16.573203,"is_passed":false},{"stop_id":"U1376Z2","name":"Medlánky","arrival_time":"12:28:00","departure_time":"12:28:00","lat":49.240459,"lon":16.573676,"is_passed":false},{"stop_id":"U1377Z2","name":"Medlánky, škola","arrival_time":"12:29:00","departure_time":"12:29:00","lat":49.238196,"lon":16.57841,"is_passed":false},{"stop_id":"U1756Z4","name":"Vozovna Medlánky","arrival_time":"12:30:00","departure_time":"12:30:00","lat":49.235569,"lon":16.585596,"is_passed":false},{"stop_id":"U1659Z3","name":"Technologický park","arrival_time":"12:33:00","departure_time":"12:45:00","lat":49.23192,"lon":16.576848,"is_passed":false}],"57709":[{"stop_id":"U1659Z4","name":"Technologický park","arrival_time":"12:45:00","departure_time":"12:45:00","lat":49.231509,"lon":16.576781,"is_passed":false},{"stop_id":"U1756Z3","name":"Vozovna Medlánky","arrival_time":"12:47:00","departure_time":"12:47:00","lat":49.235779,"lon":16.585218,"is_passed":false},{"stop_id":"U1377Z1","name":"Medlánky, škola","arrival_time":"12:48:00","departure_time":"12:48:00","lat":49.238431,"lon":16.578024,"is_passed":false},{"stop_id":"U1376Z1","name":"Medlánky","arrival_time":"12:49:00","departure_time":"12:49:00","lat":49.240555,"lon":16.573723,"is_passed":false},{"stop_id":"U1719Z1","name":"V Újezdech","arrival_time":"12:49:00","departure_time":"12:49:00","lat":49.241986,"lon":16.573155,"is_passed":false},{"stop_id":"U1414Z2","name":"Nadační","arrival_time":"12:50:00","departure_time":"12:50:00","lat":49.244744,"lon":16.57031,"is_passed":false},{"stop_id":"U1539Z1","name":"Renčova","arrival_time":"12:52:00","departure_time":"12:52:00","lat":49.246696,"lon":16.575244,"is_passed":false},{"stop_id":"U1457Z1","name":"Olšanského","arrival_time":"12:53:00","departure_time":"12:53:00","lat":49.244367,"lon":16.577644,"is_passed":false},{"stop_id":"U1553Z3","name":"Řečkovice","arrival_time":"12:54:00","departure_time":"12:54:00","lat":49.246501,"lon":16.579153,"is_passed":false},{"stop_id":"U1476Z1","name":"Palackého náměstí","arrival_time":"12:55:00","departure_time":"12:55:00","lat":49.25084,"lon":16.581903,"is_passed":false},{"stop_id":"U1556Z1","name":"Řečkovice, hřbitov","arrival_time":"12:57:00","departure_time":"13:01:00","lat":49.253402,"lon":16.582496,"is_passed":false}],"57710":[{"stop_id":"U1556Z2","name":"Řečkovice, hřbitov","arrival_time":"13:01:00","departure_time":"13:01:00","lat":49.253356,"lon":16.582329,"is_passed":false},{"stop_id":"U1476Z2","name":"Palackého náměstí","arrival_time":"13:02:00","departure_time":"13:02:00","lat":49.250816,"lon":16.581773,"is_passed":false},{"stop_id":"U1553Z4","name":"Řečkovice","arrival_time":"13:03:00","departure_time":"13:03:00","lat":49.246674,"lon":16.579384,"is_passed":false},{"stop_id":"U1457Z2","name":"Olšanského","arrival_time":"13:04:00","departure_time":"13:04:00","lat":49.24422,"lon":16.577351,"is_passed":false},{"stop_id":"U1539Z2","name":"Renčova","arrival_time":"13:05:00","departure_time":"13:05:00","lat":49.247214,"lon":16.574968,"is_passed":false},{"stop_id":"U1414Z1","name":"Nadační","arrival_time":"13:06:00","departure_time":"13:06:00","lat":49.245595,"lon":16.571098,"is_passed":false},{"stop_id":"U1719Z2","name":"V Újezdech","arrival_time":"13:07:00","departure_time":"13:07:00","lat":49.241856,"lon":16.573203,"is_passed":false},{"stop_id":"U1376Z2","name":"Medlánky","arrival_time":"13:08:00","departure_time":"13:08:00","lat":49.240459,"lon":16.573676,"is_passed":false},{"stop_id":"U1377Z2","name":"Medlánky, škola","arrival_time":"13:09:00","departure_time":"13:09:00","lat":49.238196,"lon":16.57841,"is_passed":false},{"stop_id":"U1756Z4","name":"Vozovna Medlánky","arrival_time":"13:10:00","departure_time":"13:10:00","lat":49.235569,"lon":16.585596,"is_passed":false},{"stop_id":"U1659Z3","name":"Technologický park","arrival_time":"13:13:00","departure_time":"13:25:00","lat":49.23192,"lon":16.576848,"is_passed":false}],"57711":[{"stop_id":"U1659Z4","name":"Technologický park","arrival_time":"13:25:00","departure_time":"13:25:00","lat":49.231509,"lon":16.576781,"is_passed":false},{"stop_id":"U1756Z3","name":"Vozovna Medlánky","arrival_time":"13:27:00","departure_time":"13:27:00","lat":49.235779,"lon":16.585218,"is_passed":false},{"stop_id":"U1377Z1","name":"Medlánky, škola","arrival_time":"13:28:00","departure_time":"13:28:00","lat":49.238431,"lon":16.578024,"is_passed":false},{"stop_id":"U1376Z1","name":"Medlánky","arrival_time":"13:29:00","departure_time":"13:29:00","lat":49.240555,"lon":16.573723,"is_passed":false},{"stop_id":"U1719Z1","name":"V Újezdech","arrival_time":"13:29:00","departure_time":"13:29:00","lat":49.241986,"lon":16.573155,"is_passed":false},{"stop_id":"U1414Z2","name":"Nadační","arrival_time":"13:30:00","departure_time":"13:30:00","lat":49.244744,"lon":16.57031,"is_passed":false},{"stop_id":"U1539Z1","name":"Renčova","arrival_time":"13:32:00","departure_time":"13:32:00","lat":49.246696,"lon":16.575244,"is_passed":false},{"stop_id":"U1457Z1","name":"Olšanského","arrival_time":"13:33:00","departure_time":"13:33:00","lat":49.244367,"lon":16.577644,"is_passed":false},{"stop_id":"U1553Z3","name":"Řečkovice","arrival_time":"13:34:00","departure_time":"13:34:00","lat":49.246501,"lon":16.579153,"is_passed":false},{"stop_id":"U1476Z1","name":"Palackého náměstí","arrival_time":"13:35:00","departure_time":"13:35:00","lat":49.25084,"lon":16.581903,"is_passed":false},{"stop_id":"U1556Z1","name":"Řečkovice, hřbitov","arrival_time":"13:37:00","departure_time":"13:41:00","lat":49.253402,"lon":16.582496,"is_passed":false}],"57712":[{"stop_id":"U1556Z2","name":"Řečkovice, hřbitov","arrival_time":"13:41:00","departure_time":"13:41:00","lat":49.253356,"lon":16.582329,"is_passed":false},{"stop_id":"U1476Z2","name":"Palackého náměstí","arrival_time":"13:42:00","departure_time":"13:42:00","lat":49.250816,"lon":16.581773,"is_passed":false},{"stop_id":"U1553Z4","name":"Řečkovice","arrival_time":"13:43:00","departure_time":"13:43:00","lat":49.246674,"lon":16.579384,"is_passed":false},{"stop_id":"U1457Z2","name":"Olšanského","arrival_time":"13:44:00","departure_time":"13:44:00","lat":49.24422,"lon":16.577351,"is_passed":false},{"stop_id":"U1539Z2","name":"Renčova","arrival_time":"13:45:00","departure_time":"13:45:00","lat":49.247214,"lon":16.574968,"is_passed":false},{"stop_id":"U1414Z1","name":"Nadační","arrival_time":"13:46:00","departure_time":"13:46:00","lat":49.245595,"lon":16.571098,"is_passed":false},{"stop_id":"U1719Z2","name":"V Újezdech","arrival_time":"13:47:00","departure_time":"13:47:00","lat":49.241856,"lon":16.573203,"is_passed":false},{"stop_id":"U1376Z2","name":"Medlánky","arrival_time":"13:48:00","departure_time":"13:48:00","lat":49.240459,"lon":16.573676,"is_passed":false},{"stop_id":"U1377Z2","name":"Medlánky, škola","arrival_time":"13:49:00","departure_time":"13:49:00","lat":49.238196,"lon":16.57841,"is_passed":false},{"stop_id":"U1756Z4","name":"Vozovna Medlánky","arrival_time":"13:50:00","departure_time":"13:50:00","lat":49.235569,"lon":16.585596,"is_passed":false},{"stop_id":"U1659Z4","name":"Technologický park","arrival_time":"13:53:00","departure_time":"13:53:00","lat":49.231509,"lon":16.576781,"is_passed":false}],"57713":[{"stop_id":"U1659Z4","name":"Technologický park","arrival_time":"13:53:00","departure_time":"13:53:00","lat":49.231509,"lon":16.576781,"is_passed":false},{"stop_id":"U1104Z1","name":"Edisonova","arrival_time":"13:53:00","departure_time":"13:53:00","lat":49.22828,"lon":16.576461,"is_passed":false},{"stop_id":"U1499Z2","name":"Podnikatelská","arrival_time":"13:54:00","departure_time":"13:54:00","lat":49.227023,"lon":16.576248,"is_passed":false},{"stop_id":"U1660Z2","name":"Technická","arrival_time":"13:55:00","departure_time":"13:55:00","lat":49.22302,"lon":16.578608,"is_passed":false},{"stop_id":"U1155Z2","name":"Horská","arrival_time":"13:56:00","departure_time":"13:56:00","lat":49.221604,"lon":16.579463,"is_passed":false},{"stop_id":"U1777Z2","name":"Záhřebská","arrival_time":"13:57:00","departure_time":"13:57:00","lat":49.219845,"lon":16.580415,"is_passed":false},{"stop_id":"U1567Z6","name":"Skácelova","arrival_time":"13:59:00","departure_time":"13:59:00","lat":49.22163,"lon":16.585935,"is_passed":false},{"stop_id":"U1586Z4","name":"Slovanské náměstí","arrival_time":"14:00:00","departure_time":"14:00:00","lat":49.222774,"lon":16.591332,"is_passed":false},{"stop_id":"U1171Z3","name":"Husitská","arrival_time":"14:01:00","departure_time":"14:01:00","lat":49.223851,"lon":16.594116,"is_passed":false},{"stop_id":"U1566Z4","name":"Semilasso","arrival_time":"14:03:00","departure_time":"14:03:00","lat":49.228055,"lon":16.593438,"is_passed":false},{"stop_id":"U1286Z8","name":"Královo Pole, nádraží","arrival_time":"14:05:00","departure_time":"14:51:00","lat":49.230335,"lon":16.595523,"is_passed":false}],"57714":[{"stop_id":"U1286Z5","name":"Královo Pole, nádraží","arrival_time":"14:51:00","departure_time":"14:51:00","lat":49.229633,"lon":16.595447,"is_passed":false},{"stop_id":"U1566Z6","name":"Semilasso","arrival_time":"14:52:00","departure_time":"14:52:00","lat":49.228248,"lon":16.593466,"is_passed":false},{"stop_id":"U1171Z4","name":"Husitská","arrival_time":"14:54:00","departure_time":"14:54:00","lat":49.224063,"lon":16.593994,"is_passed":false},{"stop_id":"U1586Z3","name":"Slovanské náměstí","arrival_time":"14:55:00","departure_time":"14:55:00","lat":49.223525,"lon":16.591009,"is_passed":false},{"stop_id":"U1567Z5","name":"Skácelova","arrival_time":"14:56:00","departure_time":"14:56:00","lat":49.221353,"lon":16.584711,"is_passed":false},{"stop_id":"U1777Z3","name":"Záhřebská","arrival_time":"14:58:00","departure_time":"14:58:00","lat":49.22001,"lon":16.579572,"is_passed":false},{"stop_id":"U1155Z1","name":"Horská","arrival_time":"14:58:00","departure_time":"14:58:00","lat":49.221621,"lon":16.579517,"is_passed":false},{"stop_id":"U1475Z2","name":"Palackého vrch","arrival_time":"15:00:00","departure_time":"15:00:00","lat":49.224173,"lon":16.573374,"is_passed":false},{"stop_id":"U1660Z3","name":"Technická","arrival_time":"15:01:00","departure_time":"15:01:00","lat":49.223701,"lon":16.578091,"is_passed":false},{"stop_id":"U1499Z1","name":"Podnikatelská","arrival_time":"15:02:00","departure_time":"15:02:00","lat":49.227371,"lon":16.576366,"is_passed":false},{"stop_id":"U1252Z2","name":"Kolejní","arrival_time":"15:03:00","departure_time":"15:03:00","lat":49.230641,"lon":16.57191,"is_passed":false},{"stop_id":"U1733Z1","name":"Vědeckotechnický park","arrival_time":"15:04:00","departure_time":"15:04:00","lat":49.2326,"lon":16.574806,"is_passed":false},{"stop_id":"U1659Z4","name":"Technologický park","arrival_time":"15:05:00","departure_time":"15:05:00","lat":49.231509,"lon":16.576781,"is_passed":false}],"57715":[{"stop_id":"U1659Z4","name":"Technologický park","arrival_time":"15:05:00","departure_time":"15:05:00","lat":49.231509,"lon":16.576781,"is_passed":false},{"stop_id":"U1756Z3","name":"Vozovna Medlánky","arrival_time":"15:07:00","departure_time":"15:07:00","lat":49.235779,"lon":16.585218,"is_passed":false},{"stop_id":"U1377Z1","name":"Medlánky, škola","arrival_time":"15:08:00","departure_time":"15:08:00","lat":49.238431,"lon":16.578024,"is_passed":false},{"stop_id":"U1376Z1","name":"Medlánky","arrival_time":"15:09:00","departure_time":"15:09:00","lat":49.240555,"lon":16.573723,"is_passed":false},{"stop_id":"U1719Z1","name":"V Újezdech","arrival_time":"15:09:00","departure_time":"15:09:00","lat":49.241986,"lon":16.573155,"is_passed":false},{"stop_id":"U1414Z2","name":"Nadační","arrival_time":"15:10:00","departure_time":"15:10:00","lat":49.244744,"lon":16.57031,"is_passed":false},{"stop_id":"U1539Z1","name":"Renčova","arrival_time":"15:12:00","departure_time":"15:12:00","lat":49.246696,"lon":16.575244,"is_passed":false},{"stop_id":"U1457Z1","name":"Olšanského","arrival_time":"15:13:00","departure_time":"15:13:00","lat":49.244367,"lon":16.577644,"is_passed":false},{"stop_id":"U1553Z3","name":"Řečkovice","arrival_time":"15:14:00","departure_time":"15:14:00","lat":49.246501,"lon":16.579153,"is_passed":false},{"stop_id":"U1476Z1","name":"Palackého náměstí","arrival_time":"15:15:00","departure_time":"15:15:00","lat":49.25084,"lon":16.581903,"is_passed":false},{"stop_id":"U1556Z1","name":"Řečkovice, hřbitov","arrival_time":"15:17:00","departure_time":"15:21:00","lat":49.253402,"lon":16.582496,"is_passed":false}],"57716":[{"stop_id":"U1556Z2","name":"Řečkovice, hřbitov","arrival_time":"15:21:00","departure_time":"15:21:00","lat":49.253356,"lon":16.582329,"is_passed":false},{"stop_id":"U1476Z2","name":"Palackého náměstí","arrival_time":"15:22:00","departure_time":"15:22:00","lat":49.250816,"lon":16.581773,"is_passed":false},{"stop_id":"U1553Z4","name":"Řečkovice","arrival_time":"15:23:00","departure_time":"15:23:00","lat":49.246674,"lon":16.579384,"is_passed":false},{"stop_id":"U1457Z2","name":"Olšanského","arrival_time":"15:24:00","departure_time":"15:24:00","lat":49.24422,"lon":16.577351,"is_passed":false},{"stop_id":"U1539Z2","name":"Renčova","arrival_time":"15:25:00","departure_time":"15:25:00","lat":49.247214,"lon":16.574968,"is_passed":false},{"stop_id":"U1414Z1","name":"Nadační","arrival_time":"15:26:00","departure_time":"15:26:00","lat":49.245595,"lon":16.571098,"is_passed":false},{"stop_id":"U1719Z2","name":"V Újezdech","arrival_time":"15:27:00","departure_time":"15:27:00","lat":49.241856,"lon":16.573203,"is_passed":false},{"stop_id":"U1376Z2","name":"Medlánky","arrival_time":"15:28:00","departure_time":"15:28:00","lat":49.240459,"lon":16.573676,"is_passed":false},{"stop_id":"U1377Z2","name":"Medlánky, škola","arrival_time":"15:29:00","departure_time":"15:29:00","lat":49.238196,"lon":16.57841,"is_passed":false},{"stop_id":"U1756Z4","name":"Vozovna Medlánky","arrival_time":"15:30:00","departure_time":"15:30:00","lat":49.235569,"lon":16.585596,"is_passed":false},{"stop_id":"U1659Z3","name":"Technologický park","arrival_time":"15:33:00","departure_time":"15:45:00","lat":49.23192,"lon":16.576848,"is_passed":false}],"57717":[{"stop_id":"U1659Z4","name":"Technologický park","arrival_time":"15:45:00","departure_time":"15:45:00","lat":49.231509,"lon":16.576781,"is_passed":false},{"stop_id":"U1756Z3","name":"Vozovna Medlánky","arrival_time":"15:47:00","departure_time":"15:47:00","lat":49.235779,"lon":16.585218,"is_passed":false},{"stop_id":"U1377Z1","name":"Medlánky, škola","arrival_time":"15:48:00","departure_time":"15:48:00","lat":49.238431,"lon":16.578024,"is_passed":false},{"stop_id":"U1376Z1","name":"Medlánky","arrival_time":"15:49:00","departure_time":"15:49:00","lat":49.240555,"lon":16.573723,"is_passed":false},{"stop_id":"U1719Z1","name":"V Újezdech","arrival_time":"15:49:00","departure_time":"15:49:00","lat":49.241986,"lon":16.573155,"is_passed":false},{"stop_id":"U1414Z2","name":"Nadační","arrival_time":"15:50:00","departure_time":"15:50:00","lat":49.244744,"lon":16.57031,"is_passed":false},{"stop_id":"U1539Z1","name":"Renčova","arrival_time":"15:52:00","departure_time":"15:52:00","lat":49.246696,"lon":16.575244,"is_passed":false},{"stop_id":"U1457Z1","name":"Olšanského","arrival_time":"15:53:00","departure_time":"15:53:00","lat":49.244367,"lon":16.577644,"is_passed":false},{"stop_id":"U1553Z3","name":"Řečkovice","arrival_time":"15:54:00","departure_time":"15:54:00","lat":49.246501,"lon":16.579153,"is_passed":false},{"stop_id":"U1476Z1","name":"Palackého náměstí","arrival_time":"15:55:00","departure_time":"15:55:00","lat":49.25084,"lon":16.581903,"is_passed":false},{"stop_id":"U1556Z1","name":"Řečkovice, hřbitov","arrival_time":"15:57:00","departure_time":"16:01:00","lat":49.253402,"lon":16.582496,"is_passed":false}],"57718":[{"stop_id":"U1556Z2","name":"Řečkovice, hřbitov","arrival_time":"16:01:00","departure_time":"16:01:00","lat":49.253356,"lon":16.582329,"is_passed":false},{"stop_id":"U1476Z2","name":"Palackého náměstí","arrival_time":"16:02:00","departure_time":"16:02:00","lat":49.250816,"lon":16.581773,"is_passed":false},{"stop_id":"U1553Z4","name":"Řečkovice","arrival_time":"16:03:00","departure_time":"16:03:00","lat":49.246674,"lon":16.579384,"is_passed":false},{"stop_id":"U1457Z2","name":"Olšanského","arrival_time":"16:04:00","departure_time":"16:04:00","lat":49.24422,"lon":16.577351,"is_passed":false},{"stop_id":"U1539Z2","name":"Renčova","arrival_time":"16:05:00","departure_time":"16:05:00","lat":49.247214,"lon":16.574968,"is_passed":false},{"stop_id":"U1414Z1","name":"Nadační","arrival_time":"16:06:00","departure_time":"16:06:00","lat":49.245595,"lon":16.571098,"is_passed":false},{"stop_id":"U1719Z2","name":"V Újezdech","arrival_time":"16:07:00","departure_time":"16:07:00","lat":49.241856,"lon":16.573203,"is_passed":false},{"stop_id":"U1376Z2","name":"Medlánky","arrival_time":"16:08:00","departure_time":"16:08:00","lat":49.240459,"lon":16.573676,"is_passed":false},{"stop_id":"U1377Z2","name":"Medlánky, škola","arrival_time":"16:09:00","departure_time":"16:09:00","lat":49.238196,"lon":16.57841,"is_passed":false},{"stop_id":"U1756Z4","name":"Vozovna Medlánky","arrival_time":"16:10:00","departure_time":"16:10:00","lat":49.235569,"lon":16.585596,"is_passed":false},{"stop_id":"U1659Z3","name":"Technologický park","arrival_time":"16:13:00","departure_time":"16:25:00","lat":49.23192,"lon":16.576848,"is_passed":false}],"57719":[{"stop_id":"U1659Z4","name":"Technologický park","arrival_time":"16:25:00","departure_time":"16:25:00","lat":49.231509,"lon":16.576781,"is_passed":false},{"stop_id":"U1756Z3","name":"Vozovna Medlánky","arrival_time":"16:27:00","departure_time":"16:27:00","lat":49.235779,"lon":16.585218,"is_passed":false},{"stop_id":"U1377Z1","name":"Medlánky, škola","arrival_time":"16:28:00","departure_time":"16:28:00","lat":49.238431,"lon":16.578024,"is_passed":false},{"stop_id":"U1376Z1","name":"Medlánky","arrival_time":"16:29:00","departure_time":"16:29:00","lat":49.240555,"lon":16.573723,"is_passed":false},{"stop_id":"U1719Z1","name":"V Újezdech","arrival_time":"16:29:00","departure_time":"16:29:00","lat":49.241986,"lon":16.573155,"is_passed":false},{"stop_id":"U1414Z2","name":"Nadační","arrival_time":"16:30:00","departure_time":"16:30:00","lat":49.244744,"lon":16.57031,"is_passed":false},{"stop_id":"U1539Z1","name":"Renčova","arrival_time":"16:32:00","departure_time":"16:32:00","lat":49.246696,"lon":16.575244,"is_passed":false},{"stop_id":"U1457Z1","name":"Olšanského","arrival_time":"16:33:00","departure_time":"16:33:00","lat":49.244367,"lon":16.577644,"is_passed":false},{"stop_id":"U1553Z3","name":"Řečkovice","arrival_time":"16:34:00","departure_time":"16:34:00","lat":49.246501,"lon":16.579153,"is_passed":false},{"stop_id":"U1476Z1","name":"Palackého náměstí","arrival_time":"16:35:00","departure_time":"16:35:00","lat":49.25084,"lon":16.581903,"is_passed":false},{"stop_id":"U1556Z1","name":"Řečkovice, hřbitov","arrival_time":"16:37:00","departure_time":"16:41:00","lat":49.253402,"lon":16.582496,"is_passed":false}],"57720":[{"stop_id":"U1556Z2","name":"Řečkovice, hřbitov","arrival_time":"16:41:00","departure_time":"16:41:00","lat":49.253356,"lon":16.582329,"is_passed":false},{"stop_id":"U1476Z2","name":"Palackého náměstí","arrival_time":"16:42:00","departure_time":"16:42:00","lat":49.250816,"lon":16.581773,"is_passed":false},{"stop_id":"U1553Z4","name":"Řečkovice","arrival_time":"16:43:00","departure_time":"16:43:00","lat":49.246674,"lon":16.579384,"is_passed":false},{"stop_id":"U1457Z2","name":"Olšanského","arrival_time":"16:44:00","departure_time":"16:44:00","lat":49.24422,"lon":16.577351,"is_passed":false},{"stop_id":"U1539Z2","name":"Renčova","arrival_time":"16:45:00","departure_time":"16:45:00","lat":49.247214,"lon":16.574968,"is_passed":false},{"stop_id":"U1414Z1","name":"Nadační","arrival_time":"16:46:00","departure_time":"16:46:00","lat":49.245595,"lon":16.571098,"is_passed":false},{"stop_id":"U1719Z2","name":"V Újezdech","arrival_time":"16:47:00","departure_time":"16:47:00","lat":49.241856,"lon":16.573203,"is_passed":false},{"stop_id":"U1376Z2","name":"Medlánky","arrival_time":"16:48:00","departure_time":"16:48:00","lat":49.240459,"lon":16.573676,"is_passed":false},{"stop_id":"U1377Z2","name":"Medlánky, škola","arrival_time":"16:49:00","departure_time":"16:49:00","lat":49.238196,"lon":16.57841,"is_passed":false},{"stop_id":"U1756Z4","name":"Vozovna Medlánky","arrival_time":"16:50:00","departure_time":"16:50:00","lat":49.235569,"lon":16.585596,"is_passed":false},{"stop_id":"U1659Z4","name":"Technologický park","arrival_time":"16:53:00","departure_time":"16:53:00","lat":49.231509,"lon":16.576781,"is_passed":false}],"57721":[{"stop_id":"U1659Z4","name":"Technologický park","arrival_time":"16:53:00","departure_time":"16:53:00","lat":49.231509,"lon":16.576781,"is_passed":false},{"stop_id":"U1104Z1","name":"Edisonova","arrival_time":"16:53:00","departure_time":"16:53:00","lat":49.22828,"lon":16.576461,"is_passed":false},{"stop_id":"U1499Z2","name":"Podnikatelská","arrival_time":"16:54:00","departure_time":"16:54:00","lat":49.227023,"lon":16.576248,"is_passed":false},{"stop_id":"U1660Z2","name":"Technická","arrival_time":"16:55:00","departure_time":"16:55:00","lat":49.22302,"lon":16.578608,"is_passed":false},{"stop_id":"U1155Z2","name":"Horská","arrival_time":"16:56:00","departure_time":"16:56:00","lat":49.221604,"lon":16.579463,"is_passed":false},{"stop_id":"U1777Z2","name":"Záhřebská","arrival_time":"16:57:00","departure_time":"16:57:00","lat":49.219845,"lon":16.580415,"is_passed":false},{"stop_id":"U1567Z6","name":"Skácelova","arrival_time":"16:59:00","departure_time":"16:59:00","lat":49.22163,"lon":16.585935,"is_passed":false},{"stop_id":"U1586Z4","name":"Slovanské náměstí","arrival_time":"17:00:00","departure_time":"17:00:00","lat":49.222774,"lon":16.591332,"is_passed":false},{"stop_id":"U1171Z3","name":"Husitská","arrival_time":"17:01:00","departure_time":"17:01:00","lat":49.223851,"lon":16.594116,"is_passed":false},{"stop_id":"U1566Z4","name":"Semilasso","arrival_time":"17:03:00","departure_time":"17:03:00","lat":49.228055,"lon":16.593438,"is_passed":false},{"stop_id":"U1286Z8","name":"Královo Pole, nádraží","arrival_time":"17:05:00","departure_time":"17:51:00","lat":49.230335,"lon":16.595523,"is_passed":false}],"57722":[{"stop_id":"U1286Z5","name":"Královo Pole, nádraží","arrival_time":"17:51:00","departure_time":"17:51:00","lat":49.229633,"lon":16.595447,"is_passed":false},{"stop_id":"U1566Z6","name":"Semilasso","arrival_time":"17:52:00","departure_time":"17:52:00","lat":49.228248,"lon":16.593466,"is_passed":false},{"stop_id":"U1171Z4","name":"Husitská","arrival_time":"17:54:00","departure_time":"17:54:00","lat":49.224063,"lon":16.593994,"is_passed":false},{"stop_id":"U1586Z3","name":"Slovanské náměstí","arrival_time":"17:55:00","departure_time":"17:55:00","lat":49.223525,"lon":16.591009,"is_passed":false},{"stop_id":"U1567Z5","name":"Skácelova","arrival_time":"17:56:00","departure_time":"17:56:00","lat":49.221353,"lon":16.584711,"is_passed":false},{"stop_id":"U1777Z3","name":"Záhřebská","arrival_time":"17:58:00","departure_time":"17:58:00","lat":49.22001,"lon":16.579572,"is_passed":false},{"stop_id":"U1155Z1","name":"Horská","arrival_time":"17:58:00","departure_time":"17:58:00","lat":49.221621,"lon":16.579517,"is_passed":false},{"stop_id":"U1475Z2","name":"Palackého vrch","arrival_time":"18:00:00","departure_time":"18:00:00","lat":49.224173,"lon":16.573374,"is_passed":false},{"stop_id":"U1660Z3","name":"Technická","arrival_time":"18:01:00","departure_time":"18:01:00","lat":49.223701,"lon":16.578091,"is_passed":false},{"stop_id":"U1499Z1","name":"Podnikatelská","arrival_time":"18:02:00","departure_time":"18:02:00","lat":49.227371,"lon":16.576366,"is_passed":false},{"stop_id":"U1252Z2","name":"Kolejní","arrival_time":"18:03:00","departure_time":"18:03:00","lat":49.230641,"lon":16.57191,"is_passed":false},{"stop_id":"U1733Z1","name":"Vědeckotechnický park","arrival_time":"18:04:00","departure_time":"18:04:00","lat":49.2326,"lon":16.574806,"is_passed":false},{"stop_id":"U1659Z4","name":"Technologický park","arrival_time":"18:05:00","departure_time":"18:05:00","lat":49.231509,"lon":16.576781,"is_passed":false}],"57723":[{"stop_id":"U1659Z4","name":"Technologický park","arrival_time":"18:05:00","departure_time":"18:05:00","lat":49.231509,"lon":16.576781,"is_passed":false},{"stop_id":"U1756Z3","name":"Vozovna Medlánky","arrival_time":"18:07:00","departure_time":"18:07:00","lat":49.235779,"lon":16.585218,"is_passed":false},{"stop_id":"U1377Z1","name":"Medlánky, škola","arrival_time":"18:08:00","departure_time":"18:08:00","lat":49.238431,"lon":16.578024,"is_passed":false},{"stop_id":"U1376Z1","name":"Medlánky","arrival_time":"18:09:00","departure_time":"18:09:00","lat":49.240555,"lon":16.573723,"is_passed":false},{"stop_id":"U1719Z1","name":"V Újezdech","arrival_time":"18:09:00","departure_time":"18:09:00","lat":49.241986,"lon":16.573155,"is_passed":false},{"stop_id":"U1414Z2","name":"Nadační","arrival_time":"18:10:00","departure_time":"18:10:00","lat":49.244744,"lon":16.57031,"is_passed":false},{"stop_id":"U1539Z1","name":"Renčova","arrival_time":"18:12:00","departure_time":"18:12:00","lat":49.246696,"lon":16.575244,"is_passed":false},{"stop_id":"U1457Z1","name":"Olšanského","arrival_time":"18:13:00","departure_time":"18:13:00","lat":49.244367,"lon":16.577644,"is_passed":false},{"stop_id":"U1553Z3","name":"Řečkovice","arrival_time":"18:14:00","departure_time":"18:14:00","lat":49.246501,"lon":16.579153,"is_passed":false},{"stop_id":"U1476Z1","name":"Palackého náměstí","arrival_time":"18:15:00","departure_time":"18:15:00","lat":49.25084,"lon":16.581903,"is_passed":false},{"stop_id":"U1556Z1","name":"Řečkovice, hřbitov","arrival_time":"18:17:00","departure_time":"18:21:00","lat":49.253402,"lon":16.582496,"is_passed":false}],"57724":[{"stop_id":"U1556Z2","name":"Řečkovice, hřbitov","arrival_time":"18:21:00","departure_time":"18:21:00","lat":49.253356,"lon":16.582329,"is_passed":false},{"stop_id":"U1476Z2","name":"Palackého náměstí","arrival_time":"18:22:00","departure_time":"18:22:00","lat":49.250816,"lon":16.581773,"is_passed":false},{"stop_id":"U1553Z4","name":"Řečkovice","arrival_time":"18:23:00","departure_time":"18:23:00","lat":49.246674,"lon":16.579384,"is_passed":false},{"stop_id":"U1457Z2","name":"Olšanského","arrival_time":"18:24:00","departure_time":"18:24:00","lat":49.24422,"lon":16.577351,"is_passed":false},{"stop_id":"U1539Z2","name":"Renčova","arrival_time":"18:25:00","departure_time":"18:25:00","lat":49.247214,"lon":16.574968,"is_passed":false},{"stop_id":"U1414Z1","name":"Nadační","arrival_time":"18:26:00","departure_time":"18:26:00","lat":49.245595,"lon":16.571098,"is_passed":false},{"stop_id":"U1719Z2","name":"V Újezdech","arrival_time":"18:27:00","departure_time":"18:27:00","lat":49.241856,"lon":16.573203,"is_passed":false},{"stop_id":"U1376Z2","name":"Medlánky","arrival_time":"18:28:00","departure_time":"18:28:00","lat":49.240459,"lon":16.573676,"is_passed":false},{"stop_id":"U1377Z2","name":"Medlánky, škola","arrival_time":"18:29:00","departure_time":"18:29:00","lat":49.238196,"lon":16.57841,"is_passed":false},{"stop_id":"U1756Z4","name":"Vozovna Medlánky","arrival_time":"18:30:00","departure_time":"18:30:00","lat":49.235569,"lon":16.585596,"is_passed":false},{"stop_id":"U1659Z3","name":"Technologický park","arrival_time":"18:33:00","departure_time":"18:45:00","lat":49.23192,"lon":16.576848,"is_passed":false}],"57725":[{"stop_id":"U1659Z4","name":"Technologický park","arrival_time":"18:45:00","departure_time":"18:45:00","lat":49.231509,"lon":16.576781,"is_passed":false},{"stop_id":"U1756Z3","name":"Vozovna Medlánky","arrival_time":"18:47:00","departure_time":"18:47:00","lat":49.235779,"lon":16.585218,"is_passed":false},{"stop_id":"U1377Z1","name":"Medlánky, škola","arrival_time":"18:48:00","departure_time":"18:48:00","lat":49.238431,"lon":16.578024,"is_passed":false},{"stop_id":"U1376Z1","name":"Medlánky","arrival_time":"18:49:00","departure_time":"18:49:00","lat":49.240555,"lon":16.573723,"is_passed":false},{"stop_id":"U1719Z1","name":"V Újezdech","arrival_time":"18:49:00","departure_time":"18:49:00","lat":49.241986,"lon":16.573155,"is_passed":false},{"stop_id":"U1414Z2","name":"Nadační","arrival_time":"18:50:00","departure_time":"18:50:00","lat":49.244744,"lon":16.57031,"is_passed":false},{"stop_id":"U1539Z1","name":"Renčova","arrival_time":"18:52:00","departure_time":"18:52:00","lat":49.246696,"lon":16.575244,"is_passed":false},{"stop_id":"U1457Z1","name":"Olšanského","arrival_time":"18:53:00","departure_time":"18:53:00","lat":49.244367,"lon":16.577644,"is_passed":false},{"stop_id":"U1553Z3","name":"Řečkovice","arrival_time":"18:54:00","departure_time":"18:54:00","lat":49.246501,"lon":16.579153,"is_passed":false},{"stop_id":"U1476Z1","name":"Palackého náměstí","arrival_time":"18:55:00","departure_time":"18:55:00","lat":49.25084,"lon":16.581903,"is_passed":false},{"stop_id":"U1556Z1","name":"Řečkovice, hřbitov","arrival_time":"18:57:00","departure_time":"19:01:00","lat":49.253402,"lon":16.582496,"is_passed":false}],"57726":[{"stop_id":"U1556Z2","name":"Řečkovice, hřbitov","arrival_time":"19:01:00","departure_time":"19:01:00","lat":49.253356,"lon":16.582329,"is_passed":false},{"stop_id":"U1476Z2","name":"Palackého náměstí","arrival_time":"19:02:00","departure_time":"19:02:00","lat":49.250816,"lon":16.581773,"is_passed":false},{"stop_id":"U1553Z4","name":"Řečkovice","arrival_time":"19:03:00","departure_time":"19:03:00","lat":49.246674,"lon":16.579384,"is_passed":false},{"stop_id":"U1457Z2","name":"Olšanského","arrival_time":"19:04:00","departure_time":"19:04:00","lat":49.24422,"lon":16.577351,"is_passed":false},{"stop_id":"U1539Z2","name":"Renčova","arrival_time":"19:05:00","departure_time":"19:05:00","lat":49.247214,"lon":16.574968,"is_passed":false},{"stop_id":"U1414Z1","name":"Nadační","arrival_time":"19:06:00","departure_time":"19:06:00","lat":49.245595,"lon":16.571098,"is_passed":false},{"stop_id":"U1719Z2","name":"V Újezdech","arrival_time":"19:07:00","departure_time":"19:07:00","lat":49.241856,"lon":16.573203,"is_passed":false},{"stop_id":"U1376Z2","name":"Medlánky","arrival_time":"19:08:00","departure_time":"19:08:00","lat":49.240459,"lon":16.573676,"is_passed":false},{"stop_id":"U1377Z2","name":"Medlánky, škola","arrival_time":"19:09:00","departure_time":"19:09:00","lat":49.238196,"lon":16.57841,"is_passed":false},{"stop_id":"U1756Z4","name":"Vozovna Medlánky","arrival_time":"19:10:00","departure_time":"19:10:00","lat":49.235569,"lon":16.585596,"is_passed":false},{"stop_id":"U1659Z3","name":"Technologický park","arrival_time":"19:13:00","departure_time":"19:25:00","lat":49.23192,"lon":16.576848,"is_passed":false}],"57727":[{"stop_id":"U1659Z4","name":"Technologický park","arrival_time":"19:25:00","departure_time":"19:25:00","lat":49.231509,"lon":16.576781,"is_passed":false},{"stop_id":"U1756Z3","name":"Vozovna Medlánky","arrival_time":"19:27:00","departure_time":"19:27:00","lat":49.235779,"lon":16.585218,"is_passed":false},{"stop_id":"U1377Z1","name":"Medlánky, škola","arrival_time":"19:28:00","departure_time":"19:28:00","lat":49.238431,"lon":16.578024,"is_passed":false},{"stop_id":"U1376Z1","name":"Medlánky","arrival_time":"19:29:00","departure_time":"19:29:00","lat":49.240555,"lon":16.573723,"is_passed":false},{"stop_id":"U1719Z1","name":"V Újezdech","arrival_time":"19:29:00","departure_time":"19:29:00","lat":49.241986,"lon":16.573155,"is_passed":false},{"stop_id":"U1414Z2","name":"Nadační","arrival_time":"19:30:00","departure_time":"19:30:00","lat":49.244744,"lon":16.57031,"is_passed":false},{"stop_id":"U1539Z1","name":"Renčova","arrival_time":"19:32:00","departure_time":"19:32:00","lat":49.246696,"lon":16.575244,"is_passed":false},{"stop_id":"U1457Z1","name":"Olšanského","arrival_time":"19:33:00","departure_time":"19:33:00","lat":49.244367,"lon":16.577644,"is_passed":false},{"stop_id":"U1553Z3","name":"Řečkovice","arrival_time":"19:34:00","departure_time":"19:34:00","lat":49.246501,"lon":16.579153,"is_passed":false},{"stop_id":"U1476Z1","name":"Palackého náměstí","arrival_time":"19:35:00","departure_time":"19:35:00","lat":49.25084,"lon":16.581903,"is_passed":false},{"stop_id":"U1556Z1","name":"Řečkovice, hřbitov","arrival_time":"19:37:00","departure_time":"19:41:00","lat":49.253402,"lon":16.582496,"is_passed":false}],"57728":[{"stop_id":"U1556Z2","name":"Řečkovice, hřbitov","arrival_time":"19:41:00","departure_time":"19:41:00","lat":49.253356,"lon":16.582329,"is_passed":false},{"stop_id":"U1476Z2","name":"Palackého náměstí","arrival_time":"19:42:00","departure_time":"19:42:00","lat":49.250816,"lon":16.581773,"is_passed":false},{"stop_id":"U1553Z4","name":"Řečkovice","arrival_time":"19:43:00","departure_time":"19:43:00","lat":49.246674,"lon":16.579384,"is_passed":false},{"stop_id":"U1457Z2","name":"Olšanského","arrival_time":"19:44:00","departure_time":"19:44:00","lat":49.24422,"lon":16.577351,"is_passed":false},{"stop_id":"U1539Z2","name":"Renčova","arrival_time":"19:45:00","departure_time":"19:45:00","lat":49.247214,"lon":16.574968,"is_passed":false},{"stop_id":"U1414Z1","name":"Nadační","arrival_time":"19:46:00","departure_time":"19:46:00","lat":49.245595,"lon":16.571098,"is_passed":false},{"stop_id":"U1719Z2","name":"V Újezdech","arrival_time":"19:47:00","departure_time":"19:47:00","lat":49.241856,"lon":16.573203,"is_passed":false},{"stop_id":"U1376Z2","name":"Medlánky","arrival_time":"19:48:00","departure_time":"19:48:00","lat":49.240459,"lon":16.573676,"is_passed":false},{"stop_id":"U1377Z2","name":"Medlánky, škola","arrival_time":"19:49:00","departure_time":"19:49:00","lat":49.238196,"lon":16.57841,"is_passed":false},{"stop_id":"U1756Z4","name":"Vozovna Medlánky","arrival_time":"19:50:00","departure_time":"19:50:00","lat":49.235569,"lon":16.585596,"is_passed":false},{"stop_id":"U1659Z4","name":"Technologický park","arrival_time":"19:53:00","departure_time":"19:53:00","lat":49.231509,"lon":16.576781,"is_passed":false}],"57729":[{"stop_id":"U1659Z4","name":"Technologický park","arrival_time":"19:53:00","departure_time":"19:53:00","lat":49.231509,"lon":16.576781,"is_passed":false},{"stop_id":"U1104Z1","name":"Edisonova","arrival_time":"19:53:00","departure_time":"19:53:00","lat":49.22828,"lon":16.576461,"is_passed":false},{"stop_id":"U1499Z2","name":"Podnikatelská","arrival_time":"19:54:00","departure_time":"19:54:00","lat":49.227023,"lon":16.576248,"is_passed":false},{"stop_id":"U1660Z2","name":"Technická","arrival_time":"19:55:00","departure_time":"19:55:00","lat":49.22302,"lon":16.578608,"is_passed":false},{"stop_id":"U1155Z2","name":"Horská","arrival_time":"19:56:00","departure_time":"19:56:00","lat":49.221604,"lon":16.579463,"is_passed":false},{"stop_id":"U1777Z2","name":"Záhřebská","arrival_time":"19:57:00","departure_time":"19:57:00","lat":49.219845,"lon":16.580415,"is_passed":false},{"stop_id":"U1567Z6","name":"Skácelova","arrival_time":"19:59:00","departure_time":"19:59:00","lat":49.22163,"lon":16.585935,"is_passed":false},{"stop_id":"U1586Z4","name":"Slovanské náměstí","arrival_time":"20:00:00","departure_time":"20:00:00","lat":49.222774,"lon":16.591332,"is_passed":false},{"stop_id":"U1171Z3","name":"Husitská","arrival_time":"20:01:00","departure_time":"20:01:00","lat":49.223851,"lon":16.594116,"is_passed":false},{"stop_id":"U1566Z4","name":"Semilasso","arrival_time":"20:03:00","departure_time":"20:03:00","lat":49.228055,"lon":16.593438,"is_passed":false},{"stop_id":"U1286Z8","name":"Královo Pole, nádraží","arrival_time":"20:05:00","departure_time":"20:51:00","lat":49.230335,"lon":16.595523,"is_passed":false}],"57730":[{"stop_id":"U1286Z5","name":"Královo Pole, nádraží","arrival_time":"20:51:00","departure_time":"20:51:00","lat":49.229633,"lon":16.595447,"is_passed":false},{"stop_id":"U1566Z6","name":"Semilasso","arrival_time":"20:52:00","departure_time":"20:52:00","lat":49.228248,"lon":16.593466,"is_passed":false},{"stop_id":"U1171Z4","name":"Husitská","arrival_time":"20:53:00","departure_time":"20:53:00","lat":49.224063,"lon":16.593994,"is_passed":false},{"stop_id":"U1586Z3","name":"Slovanské náměstí","arrival_time":"20:54:00","departure_time":"20:54:00","lat":49.223525,"lon":16.591009,"is_passed":false},{"stop_id":"U1567Z5","name":"Skácelova","arrival_time":"20:55:00","departure_time":"20:55:00","lat":49.221353,"lon":16.584711,"is_passed":false},{"stop_id":"U1777Z3","name":"Záhřebská","arrival_time":"20:57:00","departure_time":"20:57:00","lat":49.22001,"lon":16.579572,"is_passed":false},{"stop_id":"U1155Z1","name":"Horská","arrival_time":"20:57:00","departure_time":"20:57:00","lat":49.221621,"lon":16.579517,"is_passed":false},{"stop_id":"U1660Z3","name":"Technická","arrival_time":"20:58:00","departure_time":"20:58:00","lat":49.223701,"lon":16.578091,"is_passed":false},{"stop_id":"U1499Z1","name":"Podnikatelská","arrival_time":"20:59:00","departure_time":"20:59:00","lat":49.227371,"lon":16.576366,"is_passed":false},{"stop_id":"U1252Z2","name":"Kolejní","arrival_time":"21:00:00","departure_time":"21:00:00","lat":49.230641,"lon":16.57191,"is_passed":false},{"stop_id":"U1733Z1","name":"Vědeckotechnický park","arrival_time":"21:01:00","departure_time":"21:01:00","lat":49.2326,"lon":16.574806,"is_passed":false},{"stop_id":"U1659Z3","name":"Technologický park","arrival_time":"21:02:00","departure_time":"21:04:00","lat":49.23192,"lon":16.576848,"is_passed":false}],"57731":[{"stop_id":"U1189Z2","name":"Ivanovice, Globus","arrival_time":"21:28:00","departure_time":"21:28:00","lat":49.26279,"lon":16.57768,"is_passed":false},{"stop_id":"U1351Z1","name":"Mácova","arrival_time":"21:31:00","departure_time":"21:31:00","lat":49.265819,"lon":16.569345,"is_passed":false},{"stop_id":"U1280Z1","name":"Kouty","arrival_time":"21:32:00","departure_time":"21:32:00","lat":49.264372,"lon":16.565032,"is_passed":false},{"stop_id":"U1526Z1","name":"Příjezdová","arrival_time":"21:32:00","departure_time":"21:32:00","lat":49.261553,"lon":16.569939,"is_passed":false},{"stop_id":"U1063Z2","name":"Černohorská","arrival_time":"21:33:00","departure_time":"21:33:00","lat":49.258654,"lon":16.57133,"is_passed":false},{"stop_id":"U1085Z2","name":"Díly","arrival_time":"21:34:00","departure_time":"21:34:00","lat":49.25425,"lon":16.574421,"is_passed":false},{"stop_id":"U1812Z2","name":"Žilkova","arrival_time":"21:35:00","departure_time":"21:35:00","lat":49.252181,"lon":16.576027,"is_passed":false},{"stop_id":"U1553Z4","name":"Řečkovice","arrival_time":"21:36:00","departure_time":"21:36:00","lat":49.246674,"lon":16.579384,"is_passed":false},{"stop_id":"U1457Z2","name":"Olšanského","arrival_time":"21:37:00","departure_time":"21:37:00","lat":49.24422,"lon":16.577351,"is_passed":false},{"stop_id":"U1376Z2","name":"Medlánky","arrival_time":"21:38:00","departure_time":"21:38:00","lat":49.240459,"lon":16.573676,"is_passed":false},{"stop_id":"U1377Z2","name":"Medlánky, škola","arrival_time":"21:39:00","departure_time":"21:39:00","lat":49.238196,"lon":16.57841,"is_passed":false},{"stop_id":"U1756Z4","name":"Vozovna Medlánky","arrival_time":"21:40:00","departure_time":"21:40:00","lat":49.235569,"lon":16.585596,"is_passed":false},{"stop_id":"U1683Z4","name":"Tylova","arrival_time":"21:41:00","departure_time":"21:41:00","lat":49.231926,"lon":16.589459,"is_passed":false},{"stop_id":"U1566Z4","name":"Semilasso","arrival_time":"21:42:00","departure_time":"21:42:00","lat":49.228055,"lon":16.593438,"is_passed":false},{"stop_id":"U1286Z8","name":"Královo Pole, nádraží","arrival_time":"21:44:00","departure_time":"22:34:00","lat":49.230335,"lon":16.595523,"is_passed":false}],"57732":[{"stop_id":"U1286Z5","name":"Královo Pole, nádraží","arrival_time":"22:34:00","departure_time":"22:34:00","lat":49.229633,"lon":16.595447,"is_passed":false},{"stop_id":"U1566Z6","name":"Semilasso","arrival_time":"22:35:00","departure_time":"22:35:00","lat":49.228248,"lon":16.593466,"is_passed":false},{"stop_id":"U1683Z3","name":"Tylova","arrival_time":"22:36:00","departure_time":"22:36:00","lat":49.23069,"lon":16.590539,"is_passed":false},{"stop_id":"U1167Z1","name":"Hudcova","arrival_time":"22:37:00","departure_time":"22:38:00","lat":49.235202,"lon":16.587471,"is_passed":false},{"stop_id":"U1756Z3","name":"Vozovna Medlánky","arrival_time":"22:38:00","departure_time":"22:38:00","lat":49.235779,"lon":16.585218,"is_passed":false},{"stop_id":"U1377Z1","name":"Medlánky, škola","arrival_time":"22:39:00","departure_time":"22:39:00","lat":49.238431,"lon":16.578024,"is_passed":false},{"stop_id":"U1376Z1","name":"Medlánky","arrival_time":"22:40:00","departure_time":"22:40:00","lat":49.240555,"lon":16.573723,"is_passed":false},{"stop_id":"U1457Z1","name":"Olšanského","arrival_time":"22:41:00","departure_time":"22:41:00","lat":49.244367,"lon":16.577644,"is_passed":false},{"stop_id":"U1553Z3","name":"Řečkovice","arrival_time":"22:42:00","departure_time":"22:42:00","lat":49.246501,"lon":16.579153,"is_passed":false},{"stop_id":"U1812Z1","name":"Žilkova","arrival_time":"22:44:00","departure_time":"22:44:00","lat":49.253039,"lon":16.575488,"is_passed":false},{"stop_id":"U1063Z1","name":"Černohorská","arrival_time":"22:45:00","departure_time":"22:45:00","lat":49.258761,"lon":16.571447,"is_passed":false},{"stop_id":"U1351Z1","name":"Mácova","arrival_time":"22:46:00","departure_time":"22:46:00","lat":49.265819,"lon":16.569345,"is_passed":false}],"57733":[{"stop_id":"U1351Z1","name":"Mácova","arrival_time":"22:46:00","departure_time":"22:46:00","lat":49.265819,"lon":16.569345,"is_passed":false},{"stop_id":"U1280Z1","name":"Kouty","arrival_time":"22:47:00","departure_time":"22:47:00","lat":49.264372,"lon":16.565032,"is_passed":false},{"stop_id":"U1526Z1","name":"Příjezdová","arrival_time":"22:47:00","departure_time":"22:47:00","lat":49.261553,"lon":16.569939,"is_passed":false},{"stop_id":"U1063Z2","name":"Černohorská","arrival_time":"22:48:00","departure_time":"22:48:00","lat":49.258654,"lon":16.57133,"is_passed":false},{"stop_id":"U1085Z2","name":"Díly","arrival_time":"22:49:00","departure_time":"22:49:00","lat":49.25425,"lon":16.574421,"is_passed":false},{"stop_id":"U1812Z2","name":"Žilkova","arrival_time":"22:50:00","departure_time":"22:50:00","lat":49.252181,"lon":16.576027,"is_passed":false},{"stop_id":"U1553Z4","name":"Řečkovice","arrival_time":"22:51:00","departure_time":"22:51:00","lat":49.246674,"lon":16.579384,"is_passed":false},{"stop_id":"U1457Z2","name":"Olšanského","arrival_time":"22:52:00","departure_time":"22:52:00","lat":49.24422,"lon":16.577351,"is_passed":false},{"stop_id":"U1376Z2","name":"Medlánky","arrival_time":"22:53:00","departure_time":"22:53:00","lat":49.240459,"lon":16.573676,"is_passed":false},{"stop_id":"U1377Z2","name":"Medlánky, škola","arrival_time":"22:54:00","departure_time":"22:54:00","lat":49.238196,"lon":16.57841,"is_passed":false},{"stop_id":"U1756Z4","name":"Vozovna Medlánky","arrival_time":"22:55:00","departure_time":"22:57:00","lat":49.235569,"lon":16.585596,"is_passed":false}],"57734":[{"stop_id":"U1189Z2","name":"Ivanovice, Globus","arrival_time":"7:14:00","departure_time":"7:14:00","lat":49.26279,"lon":16.57768,"is_passed":false},{"stop_id":"U1367Z2","name":"Maříkova","arrival_time":"7:15:00","departure_time":"7:15:00","lat":49.259514,"lon":16.579139,"is_passed":false},{"stop_id":"U1283Z2","name":"Královka","arrival_time":"7:16:00","departure_time":"7:16:00","lat":49.256124,"lon":16.586215,"is_passed":false},{"stop_id":"U1298Z1","name":"Kronova","arrival_time":"7:17:00","departure_time":"7:17:00","lat":49.25118,"lon":16.588181,"is_passed":false},{"stop_id":"U1476Z2","name":"Palackého náměstí","arrival_time":"7:18:00","departure_time":"7:18:00","lat":49.250816,"lon":16.581773,"is_passed":false},{"stop_id":"U1153Z2","name":"Horácké náměstí","arrival_time":"7:19:00","departure_time":"7:19:00","lat":49.247353,"lon":16.582415,"is_passed":false},{"stop_id":"U1338Z2","name":"Letovická","arrival_time":"7:20:00","departure_time":"7:20:00","lat":49.244996,"lon":16.588131,"is_passed":false},{"stop_id":"U1813Z2","name":"Žitná","arrival_time":"7:21:00","departure_time":"7:21:00","lat":49.239848,"lon":16.588552,"is_passed":false},{"stop_id":"U1286Z5","name":"Královo Pole, nádraží","arrival_time":"7:24:00","departure_time":"7:24:00","lat":49.229633,"lon":16.595447,"is_passed":false}],"57735":[{"stop_id":"U1286Z5","name":"Královo Pole, nádraží","arrival_time":"7:24:00","departure_time":"7:24:00","lat":49.229633,"lon":16.595447,"is_passed":false},{"stop_id":"U1566Z6","name":"Semilasso","arrival_time":"7:25:00","departure_time":"7:25:00","lat":49.228248,"lon":16.593466,"is_passed":false},{"stop_id":"U1683Z3","name":"Tylova","arrival_time":"7:26:00","departure_time":"7:26:00","lat":49.23069,"lon":16.590539,"is_passed":false},{"stop_id":"U1167Z1","name":"Hudcova","arrival_time":"7:27:00","departure_time":"7:27:00","lat":49.235202,"lon":16.587471,"is_passed":false},{"stop_id":"U1272Z3","name":"Kořískova","arrival_time":"7:28:00","departure_time":"7:28:00","lat":49.238699,"lon":16.586215,"is_passed":false},{"stop_id":"U1813Z1","name":"Žitná","arrival_time":"7:29:00","departure_time":"7:29:00","lat":49.240327,"lon":16.58827,"is_passed":false},{"stop_id":"U1338Z1","name":"Letovická","arrival_time":"7:30:00","departure_time":"7:30:00","lat":49.246793,"lon":16.587057,"is_passed":false},{"stop_id":"U1153Z1","name":"Horácké náměstí","arrival_time":"7:31:00","departure_time":"7:31:00","lat":49.248178,"lon":16.58231,"is_passed":false},{"stop_id":"U1476Z1","name":"Palackého náměstí","arrival_time":"7:32:00","departure_time":"7:32:00","lat":49.25084,"lon":16.581903,"is_passed":false},{"stop_id":"U1298Z2","name":"Kronova","arrival_time":"7:33:00","departure_time":"7:33:00","lat":49.251441,"lon":16.589012,"is_passed":false},{"stop_id":"U1196Z1","name":"Jandáskova","arrival_time":"7:34:00","departure_time":"7:34:00","lat":49.255764,"lon":16.589854,"is_passed":false},{"stop_id":"U1391Z1","name":"Mokrá Hora","arrival_time":"7:35:00","departure_time":"7:35:00","lat":49.258421,"lon":16.593716,"is_passed":false},{"stop_id":"U1572Z1","name":"Skrejš","arrival_time":"7:36:00","departure_time":"7:36:00","lat":49.262541,"lon":16.595778,"is_passed":false},{"stop_id":"U1237Z1","name":"Kleštínek","arrival_time":"7:37:00","departure_time":"7:37:00","lat":49.269597,"lon":16.596029,"is_passed":false},{"stop_id":"U1198Z1","name":"Jehnice","arrival_time":"7:37:00","departure_time":"7:37:00","lat":49.271252,"lon":16.595823,"is_passed":false},{"stop_id":"U1468Z1","name":"Ořešínská","arrival_time":"7:38:00","departure_time":"7:38:00","lat":49.273359,"lon":16.599601,"is_passed":false},{"stop_id":"U1485Z1","name":"Pluháčkova","arrival_time":"7:39:00","departure_time":"7:39:00","lat":49.27541,"lon":16.604264,"is_passed":false},{"stop_id":"U1467Z1","name":"Ořešín","arrival_time":"7:40:00","departure_time":"7:42:00","lat":49.276531,"lon":16.606752,"is_passed":false}],"57736":[{"stop_id":"U1556Z2","name":"Řečkovice, hřbitov","arrival_time":"8:41:00","departure_time":"8:41:00","lat":49.253356,"lon":16.582329,"is_passed":false},{"stop_id":"U1476Z2","name":"Palackého náměstí","arrival_time":"8:42:00","departure_time":"8:42:00","lat":49.250816,"lon":16.581773,"is_passed":false},{"stop_id":"U1553Z4","name":"Řečkovice","arrival_time":"8:43:00","departure_time":"8:43:00","lat":49.246674,"lon":16.579384,"is_passed":false},{"stop_id":"U1457Z2","name":"Olšanského","arrival_time":"8:44:00","departure_time":"8:44:00","lat":49.24422,"lon":16.577351,"is_passed":false},{"stop_id":"U1539Z2","name":"Renčova","arrival_time":"8:45:00","departure_time":"8:45:00","lat":49.247214,"lon":16.574968,"is_passed":false},{"stop_id":"U1414Z1","name":"Nadační","arrival_time":"8:46:00","departure_time":"8:46:00","lat":49.245595,"lon":16.571098,"is_passed":false},{"stop_id":"U1719Z2","name":"V Újezdech","arrival_time":"8:47:00","departure_time":"8:47:00","lat":49.241856,"lon":16.573203,"is_passed":false},{"stop_id":"U1376Z2","name":"Medlánky","arrival_time":"8:48:00","departure_time":"8:48:00","lat":49.240459,"lon":16.573676,"is_passed":false},{"stop_id":"U1377Z2","name":"Medlánky, škola","arrival_time":"8:49:00","departure_time":"8:49:00","lat":49.238196,"lon":16.57841,"is_passed":false},{"stop_id":"U1756Z4","name":"Vozovna Medlánky","arrival_time":"8:50:00","departure_time":"8:50:00","lat":49.235569,"lon":16.585596,"is_passed":false},{"stop_id":"U1659Z4","name":"Technologický park","arrival_time":"8:53:00","departure_time":"8:53:00","lat":49.231509,"lon":16.576781,"is_passed":false}],"57737":[{"stop_id":"U1659Z4","name":"Technologický park","arrival_time":"8:53:00","departure_time":"8:53:00","lat":49.231509,"lon":16.576781,"is_passed":false},{"stop_id":"U1104Z1","name":"Edisonova","arrival_time":"8:53:00","departure_time":"8:53:00","lat":49.22828,"lon":16.576461,"is_passed":false},{"stop_id":"U1499Z2","name":"Podnikatelská","arrival_time":"8:54:00","departure_time":"8:54:00","lat":49.227023,"lon":16.576248,"is_passed":false},{"stop_id":"U1660Z2","name":"Technická","arrival_time":"8:55:00","departure_time":"8:55:00","lat":49.22302,"lon":16.578608,"is_passed":false},{"stop_id":"U1155Z2","name":"Horská","arrival_time":"8:56:00","departure_time":"8:56:00","lat":49.221604,"lon":16.579463,"is_passed":false},{"stop_id":"U1777Z2","name":"Záhřebská","arrival_time":"8:57:00","departure_time":"8:57:00","lat":49.219845,"lon":16.580415,"is_passed":false},{"stop_id":"U1567Z6","name":"Skácelova","arrival_time":"8:59:00","departure_time":"8:59:00","lat":49.22163,"lon":16.585935,"is_passed":false},{"stop_id":"U1586Z4","name":"Slovanské náměstí","arrival_time":"9:00:00","departure_time":"9:00:00","lat":49.222774,"lon":16.591332,"is_passed":false},{"stop_id":"U1171Z3","name":"Husitská","arrival_time":"9:01:00","departure_time":"9:01:00","lat":49.223851,"lon":16.594116,"is_passed":false},{"stop_id":"U1566Z4","name":"Semilasso","arrival_time":"9:03:00","departure_time":"9:03:00","lat":49.228055,"lon":16.593438,"is_passed":false},{"stop_id":"U1286Z8","name":"Královo Pole, nádraží","arrival_time":"9:05:00","departure_time":"9:51:00","lat":49.230335,"lon":16.595523,"is_passed":false}],"57738":[{"stop_id":"U1286Z5","name":"Královo Pole, nádraží","arrival_time":"9:51:00","departure_time":"9:51:00","lat":49.229633,"lon":16.595447,"is_passed":false},{"stop_id":"U1566Z6","name":"Semilasso","arrival_time":"9:52:00","departure_time":"9:52:00","lat":49.228248,"lon":16.593466,"is_passed":false},{"stop_id":"U1171Z4","name":"Husitská","arrival_time":"9:54:00","departure_time":"9:54:00","lat":49.224063,"lon":16.593994,"is_passed":false},{"stop_id":"U1586Z3","name":"Slovanské náměstí","arrival_time":"9:55:00","departure_time":"9:55:00","lat":49.223525,"lon":16.591009,"is_passed":false},{"stop_id":"U1567Z5","name":"Skácelova","arrival_time":"9:56:00","departure_time":"9:56:00","lat":49.221353,"lon":16.584711,"is_passed":false},{"stop_id":"U1777Z3","name":"Záhřebská","arrival_time":"9:58:00","departure_time":"9:58:00","lat":49.22001,"lon":16.579572,"is_passed":false},{"stop_id":"U1155Z1","name":"Horská","arrival_time":"9:58:00","departure_time":"9:58:00","lat":49.221621,"lon":16.579517,"is_passed":false},{"stop_id":"U1475Z2","name":"Palackého vrch","arrival_time":"10:00:00","departure_time":"10:00:00","lat":49.224173,"lon":16.573374,"is_passed":false},{"stop_id":"U1660Z3","name":"Technická","arrival_time":"10:01:00","departure_time":"10:01:00","lat":49.223701,"lon":16.578091,"is_passed":false},{"stop_id":"U1499Z1","name":"Podnikatelská","arrival_time":"10:02:00","departure_time":"10:02:00","lat":49.227371,"lon":16.576366,"is_passed":false},{"stop_id":"U1252Z2","name":"Kolejní","arrival_time":"10:03:00","departure_time":"10:03:00","lat":49.230641,"lon":16.57191,"is_passed":false},{"stop_id":"U1733Z1","name":"Vědeckotechnický park","arrival_time":"10:04:00","departure_time":"10:04:00","lat":49.2326,"lon":16.574806,"is_passed":false},{"stop_id":"U1659Z4","name":"Technologický park","arrival_time":"10:05:00","departure_time":"10:05:00","lat":49.231509,"lon":16.576781,"is_passed":false}],"57739":[{"stop_id":"U1659Z4","name":"Technologický park","arrival_time":"10:05:00","departure_time":"10:05:00","lat":49.231509,"lon":16.576781,"is_passed":false},{"stop_id":"U1756Z3","name":"Vozovna Medlánky","arrival_time":"10:07:00","departure_time":"10:07:00","lat":49.235779,"lon":16.585218,"is_passed":false},{"stop_id":"U1377Z1","name":"Medlánky, škola","arrival_time":"10:08:00","departure_time":"10:08:00","lat":49.238431,"lon":16.578024,"is_passed":false},{"stop_id":"U1376Z1","name":"Medlánky","arrival_time":"10:09:00","departure_time":"10:09:00","lat":49.240555,"lon":16.573723,"is_passed":false},{"stop_id":"U1719Z1","name":"V Újezdech","arrival_time":"10:09:00","departure_time":"10:09:00","lat":49.241986,"lon":16.573155,"is_passed":false},{"stop_id":"U1414Z2","name":"Nadační","arrival_time":"10:10:00","departure_time":"10:10:00","lat":49.244744,"lon":16.57031,"is_passed":false},{"stop_id":"U1539Z1","name":"Renčova","arrival_time":"10:12:00","departure_time":"10:12:00","lat":49.246696,"lon":16.575244,"is_passed":false},{"stop_id":"U1457Z1","name":"Olšanského","arrival_time":"10:13:00","departure_time":"10:13:00","lat":49.244367,"lon":16.577644,"is_passed":false},{"stop_id":"U1553Z3","name":"Řečkovice","arrival_time":"10:14:00","departure_time":"10:14:00","lat":49.246501,"lon":16.579153,"is_passed":false},{"stop_id":"U1476Z1","name":"Palackého náměstí","arrival_time":"10:15:00","departure_time":"10:15:00","lat":49.25084,"lon":16.581903,"is_passed":false},{"stop_id":"U1556Z1","name":"Řečkovice, hřbitov","arrival_time":"10:17:00","departure_time":"10:21:00","lat":49.253402,"lon":16.582496,"is_passed":false}],"57740":[{"stop_id":"U1556Z2","name":"Řečkovice, hřbitov","arrival_time":"10:21:00","departure_time":"10:21:00","lat":49.253356,"lon":16.582329,"is_passed":false},{"stop_id":"U1476Z2","name":"Palackého náměstí","arrival_time":"10:22:00","departure_time":"10:22:00","lat":49.250816,"lon":16.581773,"is_passed":false},{"stop_id":"U1553Z4","name":"Řečkovice","arrival_time":"10:23:00","departure_time":"10:23:00","lat":49.246674,"lon":16.579384,"is_passed":false},{"stop_id":"U1457Z2","name":"Olšanského","arrival_time":"10:24:00","departure_time":"10:24:00","lat":49.24422,"lon":16.577351,"is_passed":false},{"stop_id":"U1539Z2","name":"Renčova","arrival_time":"10:25:00","departure_time":"10:25:00","lat":49.247214,"lon":16.574968,"is_passed":false},{"stop_id":"U1414Z1","name":"Nadační","arrival_time":"10:26:00","departure_time":"10:26:00","lat":49.245595,"lon":16.571098,"is_passed":false},{"stop_id":"U1719Z2","name":"V Újezdech","arrival_time":"10:27:00","departure_time":"10:27:00","lat":49.241856,"lon":16.573203,"is_passed":false},{"stop_id":"U1376Z2","name":"Medlánky","arrival_time":"10:28:00","departure_time":"10:28:00","lat":49.240459,"lon":16.573676,"is_passed":false},{"stop_id":"U1377Z2","name":"Medlánky, škola","arrival_time":"10:29:00","departure_time":"10:29:00","lat":49.238196,"lon":16.57841,"is_passed":false},{"stop_id":"U1756Z4","name":"Vozovna Medlánky","arrival_time":"10:30:00","departure_time":"10:30:00","lat":49.235569,"lon":16.585596,"is_passed":false},{"stop_id":"U1659Z3","name":"Technologický park","arrival_time":"10:33:00","departure_time":"10:45:00","lat":49.23192,"lon":16.576848,"is_passed":false}],"57741":[{"stop_id":"U1659Z4","name":"Technologický park","arrival_time":"10:45:00","departure_time":"10:45:00","lat":49.231509,"lon":16.576781,"is_passed":false},{"stop_id":"U1756Z3","name":"Vozovna Medlánky","arrival_time":"10:47:00","departure_time":"10:47:00","lat":49.235779,"lon":16.585218,"is_passed":false},{"stop_id":"U1377Z1","name":"Medlánky, škola","arrival_time":"10:48:00","departure_time":"10:48:00","lat":49.238431,"lon":16.578024,"is_passed":false},{"stop_id":"U1376Z1","name":"Medlánky","arrival_time":"10:49:00","departure_time":"10:49:00","lat":49.240555,"lon":16.573723,"is_passed":false},{"stop_id":"U1719Z1","name":"V Újezdech","arrival_time":"10:49:00","departure_time":"10:49:00","lat":49.241986,"lon":16.573155,"is_passed":false},{"stop_id":"U1414Z2","name":"Nadační","arrival_time":"10:50:00","departure_time":"10:50:00","lat":49.244744,"lon":16.57031,"is_passed":false},{"stop_id":"U1539Z1","name":"Renčova","arrival_time":"10:52:00","departure_time":"10:52:00","lat":49.246696,"lon":16.575244,"is_passed":false},{"stop_id":"U1457Z1","name":"Olšanského","arrival_time":"10:53:00","departure_time":"10:53:00","lat":49.244367,"lon":16.577644,"is_passed":false},{"stop_id":"U1553Z3","name":"Řečkovice","arrival_time":"10:54:00","departure_time":"10:54:00","lat":49.246501,"lon":16.579153,"is_passed":false},{"stop_id":"U1476Z1","name":"Palackého náměstí","arrival_time":"10:55:00","departure_time":"10:55:00","lat":49.25084,"lon":16.581903,"is_passed":false},{"stop_id":"U1556Z1","name":"Řečkovice, hřbitov","arrival_time":"10:57:00","departure_time":"11:01:00","lat":49.253402,"lon":16.582496,"is_passed":false}],"57742":[{"stop_id":"U1556Z2","name":"Řečkovice, hřbitov","arrival_time":"11:01:00","departure_time":"11:01:00","lat":49.253356,"lon":16.582329,"is_passed":false},{"stop_id":"U1476Z2","name":"Palackého náměstí","arrival_time":"11:02:00","departure_time":"11:02:00","lat":49.250816,"lon":16.581773,"is_passed":false},{"stop_id":"U1553Z4","name":"Řečkovice","arrival_time":"11:03:00","departure_time":"11:03:00","lat":49.246674,"lon":16.579384,"is_passed":false},{"stop_id":"U1457Z2","name":"Olšanského","arrival_time":"11:04:00","departure_time":"11:04:00","lat":49.24422,"lon":16.577351,"is_passed":false},{"stop_id":"U1539Z2","name":"Renčova","arrival_time":"11:05:00","departure_time":"11:05:00","lat":49.247214,"lon":16.574968,"is_passed":false},{"stop_id":"U1414Z1","name":"Nadační","arrival_time":"11:06:00","departure_time":"11:06:00","lat":49.245595,"lon":16.571098,"is_passed":false},{"stop_id":"U1719Z2","name":"V Újezdech","arrival_time":"11:07:00","departure_time":"11:07:00","lat":49.241856,"lon":16.573203,"is_passed":false},{"stop_id":"U1376Z2","name":"Medlánky","arrival_time":"11:08:00","departure_time":"11:08:00","lat":49.240459,"lon":16.573676,"is_passed":false},{"stop_id":"U1377Z2","name":"Medlánky, škola","arrival_time":"11:09:00","departure_time":"11:09:00","lat":49.238196,"lon":16.57841,"is_passed":false},{"stop_id":"U1756Z4","name":"Vozovna Medlánky","arrival_time":"11:10:00","departure_time":"11:10:00","lat":49.235569,"lon":16.585596,"is_passed":false},{"stop_id":"U1659Z3","name":"Technologický park","arrival_time":"11:13:00","departure_time":"11:25:00","lat":49.23192,"lon":16.576848,"is_passed":false}],"57743":[{"stop_id":"U1659Z4","name":"Technologický park","arrival_time":"11:25:00","departure_time":"11:25:00","lat":49.231509,"lon":16.576781,"is_passed":false},{"stop_id":"U1756Z3","name":"Vozovna Medlánky","arrival_time":"11:27:00","departure_time":"11:27:00","lat":49.235779,"lon":16.585218,"is_passed":false},{"stop_id":"U1377Z1","name":"Medlánky, škola","arrival_time":"11:28:00","departure_time":"11:28:00","lat":49.238431,"lon":16.578024,"is_passed":false},{"stop_id":"U1376Z1","name":"Medlánky","arrival_time":"11:29:00","departure_time":"11:29:00","lat":49.240555,"lon":16.573723,"is_passed":false},{"stop_id":"U1719Z1","name":"V Újezdech","arrival_time":"11:29:00","departure_time":"11:29:00","lat":49.241986,"lon":16.573155,"is_passed":false},{"stop_id":"U1414Z2","name":"Nadační","arrival_time":"11:30:00","departure_time":"11:30:00","lat":49.244744,"lon":16.57031,"is_passed":false},{"stop_id":"U1539Z1","name":"Renčova","arrival_time":"11:32:00","departure_time":"11:32:00","lat":49.246696,"lon":16.575244,"is_passed":false},{"stop_id":"U1457Z1","name":"Olšanského","arrival_time":"11:33:00","departure_time":"11:33:00","lat":49.244367,"lon":16.577644,"is_passed":false},{"stop_id":"U1553Z3","name":"Řečkovice","arrival_time":"11:34:00","departure_time":"11:34:00","lat":49.246501,"lon":16.579153,"is_passed":false},{"stop_id":"U1476Z1","name":"Palackého náměstí","arrival_time":"11:35:00","departure_time":"11:35:00","lat":49.25084,"lon":16.581903,"is_passed":false},{"stop_id":"U1556Z1","name":"Řečkovice, hřbitov","arrival_time":"11:37:00","departure_time":"11:41:00","lat":49.253402,"lon":16.582496,"is_passed":false}],"57744":[{"stop_id":"U1556Z2","name":"Řečkovice, hřbitov","arrival_time":"11:41:00","departure_time":"11:41:00","lat":49.253356,"lon":16.582329,"is_passed":false},{"stop_id":"U1476Z2","name":"Palackého náměstí","arrival_time":"11:42:00","departure_time":"11:42:00","lat":49.250816,"lon":16.581773,"is_passed":false},{"stop_id":"U1553Z4","name":"Řečkovice","arrival_time":"11:43:00","departure_time":"11:43:00","lat":49.246674,"lon":16.579384,"is_passed":false},{"stop_id":"U1457Z2","name":"Olšanského","arrival_time":"11:44:00","departure_time":"11:44:00","lat":49.24422,"lon":16.577351,"is_passed":false},{"stop_id":"U1539Z2","name":"Renčova","arrival_time":"11:45:00","departure_time":"11:45:00","lat":49.247214,"lon":16.574968,"is_passed":false},{"stop_id":"U1414Z1","name":"Nadační","arrival_time":"11:46:00","departure_time":"11:46:00","lat":49.245595,"lon":16.571098,"is_passed":false},{"stop_id":"U1719Z2","name":"V Újezdech","arrival_time":"11:47:00","departure_time":"11:47:00","lat":49.241856,"lon":16.573203,"is_passed":false},{"stop_id":"U1376Z2","name":"Medlánky","arrival_time":"11:48:00","departure_time":"11:48:00","lat":49.240459,"lon":16.573676,"is_passed":false},{"stop_id":"U1377Z2","name":"Medlánky, škola","arrival_time":"11:49:00","departure_time":"11:49:00","lat":49.238196,"lon":16.57841,"is_passed":false},{"stop_id":"U1756Z4","name":"Vozovna Medlánky","arrival_time":"11:50:00","departure_time":"11:50:00","lat":49.235569,"lon":16.585596,"is_passed":false},{"stop_id":"U1659Z4","name":"Technologický park","arrival_time":"11:53:00","departure_time":"11:53:00","lat":49.231509,"lon":16.576781,"is_passed":false}],"57745":[{"stop_id":"U1659Z4","name":"Technologický park","arrival_time":"11:53:00","departure_time":"11:53:00","lat":49.231509,"lon":16.576781,"is_passed":false},{"stop_id":"U1104Z1","name":"Edisonova","arrival_time":"11:53:00","departure_time":"11:53:00","lat":49.22828,"lon":16.576461,"is_passed":false},{"stop_id":"U1499Z2","name":"Podnikatelská","arrival_time":"11:54:00","departure_time":"11:54:00","lat":49.227023,"lon":16.576248,"is_passed":false},{"stop_id":"U1660Z2","name":"Technická","arrival_time":"11:55:00","departure_time":"11:55:00","lat":49.22302,"lon":16.578608,"is_passed":false},{"stop_id":"U1155Z2","name":"Horská","arrival_time":"11:56:00","departure_time":"11:56:00","lat":49.221604,"lon":16.579463,"is_passed":false},{"stop_id":"U1777Z2","name":"Záhřebská","arrival_time":"11:57:00","departure_time":"11:57:00","lat":49.219845,"lon":16.580415,"is_passed":false},{"stop_id":"U1567Z6","name":"Skácelova","arrival_time":"11:59:00","departure_time":"11:59:00","lat":49.22163,"lon":16.585935,"is_passed":false},{"stop_id":"U1586Z4","name":"Slovanské náměstí","arrival_time":"12:00:00","departure_time":"12:00:00","lat":49.222774,"lon":16.591332,"is_passed":false},{"stop_id":"U1171Z3","name":"Husitská","arrival_time":"12:01:00","departure_time":"12:01:00","lat":49.223851,"lon":16.594116,"is_passed":false},{"stop_id":"U1566Z4","name":"Semilasso","arrival_time":"12:03:00","departure_time":"12:03:00","lat":49.228055,"lon":16.593438,"is_passed":false},{"stop_id":"U1286Z8","name":"Královo Pole, nádraží","arrival_time":"12:05:00","departure_time":"12:51:00","lat":49.230335,"lon":16.595523,"is_passed":false}],"57746":[{"stop_id":"U1286Z5","name":"Královo Pole, nádraží","arrival_time":"12:51:00","departure_time":"12:51:00","lat":49.229633,"lon":16.595447,"is_passed":false},{"stop_id":"U1566Z6","name":"Semilasso","arrival_time":"12:52:00","departure_time":"12:52:00","lat":49.228248,"lon":16.593466,"is_passed":false},{"stop_id":"U1171Z4","name":"Husitská","arrival_time":"12:54:00","departure_time":"12:54:00","lat":49.224063,"lon":16.593994,"is_passed":false},{"stop_id":"U1586Z3","name":"Slovanské náměstí","arrival_time":"12:55:00","departure_time":"12:55:00","lat":49.223525,"lon":16.591009,"is_passed":false},{"stop_id":"U1567Z5","name":"Skácelova","arrival_time":"12:56:00","departure_time":"12:56:00","lat":49.221353,"lon":16.584711,"is_passed":false},{"stop_id":"U1777Z3","name":"Záhřebská","arrival_time":"12:58:00","departure_time":"12:58:00","lat":49.22001,"lon":16.579572,"is_passed":false},{"stop_id":"U1155Z1","name":"Horská","arrival_time":"12:58:00","departure_time":"12:58:00","lat":49.221621,"lon":16.579517,"is_passed":false},{"stop_id":"U1475Z2","name":"Palackého vrch","arrival_time":"13:00:00","departure_time":"13:00:00","lat":49.224173,"lon":16.573374,"is_passed":false},{"stop_id":"U1660Z3","name":"Technická","arrival_time":"13:01:00","departure_time":"13:01:00","lat":49.223701,"lon":16.578091,"is_passed":false},{"stop_id":"U1499Z1","name":"Podnikatelská","arrival_time":"13:02:00","departure_time":"13:02:00","lat":49.227371,"lon":16.576366,"is_passed":false},{"stop_id":"U1252Z2","name":"Kolejní","arrival_time":"13:03:00","departure_time":"13:03:00","lat":49.230641,"lon":16.57191,"is_passed":false},{"stop_id":"U1733Z1","name":"Vědeckotechnický park","arrival_time":"13:04:00","departure_time":"13:04:00","lat":49.2326,"lon":16.574806,"is_passed":false},{"stop_id":"U1659Z4","name":"Technologický park","arrival_time":"13:05:00","departure_time":"13:05:00","lat":49.231509,"lon":16.576781,"is_passed":false}],"57747":[{"stop_id":"U1659Z4","name":"Technologický park","arrival_time":"13:05:00","departure_time":"13:05:00","lat":49.231509,"lon":16.576781,"is_passed":false},{"stop_id":"U1756Z3","name":"Vozovna Medlánky","arrival_time":"13:07:00","departure_time":"13:07:00","lat":49.235779,"lon":16.585218,"is_passed":false},{"stop_id":"U1377Z1","name":"Medlánky, škola","arrival_time":"13:08:00","departure_time":"13:08:00","lat":49.238431,"lon":16.578024,"is_passed":false},{"stop_id":"U1376Z1","name":"Medlánky","arrival_time":"13:09:00","departure_time":"13:09:00","lat":49.240555,"lon":16.573723,"is_passed":false},{"stop_id":"U1719Z1","name":"V Újezdech","arrival_time":"13:09:00","departure_time":"13:09:00","lat":49.241986,"lon":16.573155,"is_passed":false},{"stop_id":"U1414Z2","name":"Nadační","arrival_time":"13:10:00","departure_time":"13:10:00","lat":49.244744,"lon":16.57031,"is_passed":false},{"stop_id":"U1539Z1","name":"Renčova","arrival_time":"13:12:00","departure_time":"13:12:00","lat":49.246696,"lon":16.575244,"is_passed":false},{"stop_id":"U1457Z1","name":"Olšanského","arrival_time":"13:13:00","departure_time":"13:13:00","lat":49.244367,"lon":16.577644,"is_passed":false},{"stop_id":"U1553Z3","name":"Řečkovice","arrival_time":"13:14:00","departure_time":"13:14:00","lat":49.246501,"lon":16.579153,"is_passed":false},{"stop_id":"U1476Z1","name":"Palackého náměstí","arrival_time":"13:15:00","departure_time":"13:15:00","lat":49.25084,"lon":16.581903,"is_passed":false},{"stop_id":"U1556Z1","name":"Řečkovice, hřbitov","arrival_time":"13:17:00","departure_time":"13:21:00","lat":49.253402,"lon":16.582496,"is_passed":false}],"57748":[{"stop_id":"U1556Z2","name":"Řečkovice, hřbitov","arrival_time":"13:21:00","departure_time":"13:21:00","lat":49.253356,"lon":16.582329,"is_passed":false},{"stop_id":"U1476Z2","name":"Palackého náměstí","arrival_time":"13:22:00","departure_time":"13:22:00","lat":49.250816,"lon":16.581773,"is_passed":false},{"stop_id":"U1553Z4","name":"Řečkovice","arrival_time":"13:23:00","departure_time":"13:23:00","lat":49.246674,"lon":16.579384,"is_passed":false},{"stop_id":"U1457Z2","name":"Olšanského","arrival_time":"13:24:00","departure_time":"13:24:00","lat":49.24422,"lon":16.577351,"is_passed":false},{"stop_id":"U1539Z2","name":"Renčova","arrival_time":"13:25:00","departure_time":"13:25:00","lat":49.247214,"lon":16.574968,"is_passed":false},{"stop_id":"U1414Z1","name":"Nadační","arrival_time":"13:26:00","departure_time":"13:26:00","lat":49.245595,"lon":16.571098,"is_passed":false},{"stop_id":"U1719Z2","name":"V Újezdech","arrival_time":"13:27:00","departure_time":"13:27:00","lat":49.241856,"lon":16.573203,"is_passed":false},{"stop_id":"U1376Z2","name":"Medlánky","arrival_time":"13:28:00","departure_time":"13:28:00","lat":49.240459,"lon":16.573676,"is_passed":false},{"stop_id":"U1377Z2","name":"Medlánky, škola","arrival_time":"13:29:00","departure_time":"13:29:00","lat":49.238196,"lon":16.57841,"is_passed":false},{"stop_id":"U1756Z4","name":"Vozovna Medlánky","arrival_time":"13:30:00","departure_time":"13:30:00","lat":49.235569,"lon":16.585596,"is_passed":false},{"stop_id":"U1659Z3","name":"Technologický park","arrival_time":"13:33:00","departure_time":"13:45:00","lat":49.23192,"lon":16.576848,"is_passed":false}],"57749":[{"stop_id":"U1659Z4","name":"Technologický park","arrival_time":"13:45:00","departure_time":"13:45:00","lat":49.231509,"lon":16.576781,"is_passed":false},{"stop_id":"U1756Z3","name":"Vozovna Medlánky","arrival_time":"13:47:00","departure_time":"13:47:00","lat":49.235779,"lon":16.585218,"is_passed":false},{"stop_id":"U1377Z1","name":"Medlánky, škola","arrival_time":"13:48:00","departure_time":"13:48:00","lat":49.238431,"lon":16.578024,"is_passed":false},{"stop_id":"U1376Z1","name":"Medlánky","arrival_time":"13:49:00","departure_time":"13:49:00","lat":49.240555,"lon":16.573723,"is_passed":false},{"stop_id":"U1719Z1","name":"V Újezdech","arrival_time":"13:49:00","departure_time":"13:49:00","lat":49.241986,"lon":16.573155,"is_passed":false},{"stop_id":"U1414Z2","name":"Nadační","arrival_time":"13:50:00","departure_time":"13:50:00","lat":49.244744,"lon":16.57031,"is_passed":false},{"stop_id":"U1539Z1","name":"Renčova","arrival_time":"13:52:00","departure_time":"13:52:00","lat":49.246696,"lon":16.575244,"is_passed":false},{"stop_id":"U1457Z1","name":"Olšanského","arrival_time":"13:53:00","departure_time":"13:53:00","lat":49.244367,"lon":16.577644,"is_passed":false},{"stop_id":"U1553Z3","name":"Řečkovice","arrival_time":"13:54:00","departure_time":"13:54:00","lat":49.246501,"lon":16.579153,"is_passed":false},{"stop_id":"U1476Z1","name":"Palackého náměstí","arrival_time":"13:55:00","departure_time":"13:55:00","lat":49.25084,"lon":16.581903,"is_passed":false},{"stop_id":"U1556Z1","name":"Řečkovice, hřbitov","arrival_time":"13:57:00","departure_time":"14:01:00","lat":49.253402,"lon":16.582496,"is_passed":false}],"57750":[{"stop_id":"U1556Z2","name":"Řečkovice, hřbitov","arrival_time":"14:01:00","departure_time":"14:01:00","lat":49.253356,"lon":16.582329,"is_passed":false},{"stop_id":"U1476Z2","name":"Palackého náměstí","arrival_time":"14:02:00","departure_time":"14:02:00","lat":49.250816,"lon":16.581773,"is_passed":false},{"stop_id":"U1553Z4","name":"Řečkovice","arrival_time":"14:03:00","departure_time":"14:03:00","lat":49.246674,"lon":16.579384,"is_passed":false},{"stop_id":"U1457Z2","name":"Olšanského","arrival_time":"14:04:00","departure_time":"14:04:00","lat":49.24422,"lon":16.577351,"is_passed":false},{"stop_id":"U1539Z2","name":"Renčova","arrival_time":"14:05:00","departure_time":"14:05:00","lat":49.247214,"lon":16.574968,"is_passed":false},{"stop_id":"U1414Z1","name":"Nadační","arrival_time":"14:06:00","departure_time":"14:06:00","lat":49.245595,"lon":16.571098,"is_passed":false},{"stop_id":"U1719Z2","name":"V Újezdech","arrival_time":"14:07:00","departure_time":"14:07:00","lat":49.241856,"lon":16.573203,"is_passed":false},{"stop_id":"U1376Z2","name":"Medlánky","arrival_time":"14:08:00","departure_time":"14:08:00","lat":49.240459,"lon":16.573676,"is_passed":false},{"stop_id":"U1377Z2","name":"Medlánky, škola","arrival_time":"14:09:00","departure_time":"14:09:00","lat":49.238196,"lon":16.57841,"is_passed":false},{"stop_id":"U1756Z4","name":"Vozovna Medlánky","arrival_time":"14:10:00","departure_time":"14:10:00","lat":49.235569,"lon":16.585596,"is_passed":false},{"stop_id":"U1659Z3","name":"Technologický park","arrival_time":"14:13:00","departure_time":"14:25:00","lat":49.23192,"lon":16.576848,"is_passed":false}],"57751":[{"stop_id":"U1659Z4","name":"Technologický park","arrival_time":"14:25:00","departure_time":"14:25:00","lat":49.231509,"lon":16.576781,"is_passed":false},{"stop_id":"U1756Z3","name":"Vozovna Medlánky","arrival_time":"14:27:00","departure_time":"14:27:00","lat":49.235779,"lon":16.585218,"is_passed":false},{"stop_id":"U1377Z1","name":"Medlánky, škola","arrival_time":"14:28:00","departure_time":"14:28:00","lat":49.238431,"lon":16.578024,"is_passed":false},{"stop_id":"U1376Z1","name":"Medlánky","arrival_time":"14:29:00","departure_time":"14:29:00","lat":49.240555,"lon":16.573723,"is_passed":false},{"stop_id":"U1719Z1","name":"V Újezdech","arrival_time":"14:29:00","departure_time":"14:29:00","lat":49.241986,"lon":16.573155,"is_passed":false},{"stop_id":"U1414Z2","name":"Nadační","arrival_time":"14:30:00","departure_time":"14:30:00","lat":49.244744,"lon":16.57031,"is_passed":false},{"stop_id":"U1539Z1","name":"Renčova","arrival_time":"14:32:00","departure_time":"14:32:00","lat":49.246696,"lon":16.575244,"is_passed":false},{"stop_id":"U1457Z1","name":"Olšanského","arrival_time":"14:33:00","departure_time":"14:33:00","lat":49.244367,"lon":16.577644,"is_passed":false},{"stop_id":"U1553Z3","name":"Řečkovice","arrival_time":"14:34:00","departure_time":"14:34:00","lat":49.246501,"lon":16.579153,"is_passed":false},{"stop_id":"U1476Z1","name":"Palackého náměstí","arrival_time":"14:35:00","departure_time":"14:35:00","lat":49.25084,"lon":16.581903,"is_passed":false},{"stop_id":"U1556Z1","name":"Řečkovice, hřbitov","arrival_time":"14:37:00","departure_time":"14:41:00","lat":49.253402,"lon":16.582496,"is_passed":false}],"57752":[{"stop_id":"U1556Z2","name":"Řečkovice, hřbitov","arrival_time":"14:41:00","departure_time":"14:41:00","lat":49.253356,"lon":16.582329,"is_passed":false},{"stop_id":"U1476Z2","name":"Palackého náměstí","arrival_time":"14:42:00","departure_time":"14:42:00","lat":49.250816,"lon":16.581773,"is_passed":false},{"stop_id":"U1553Z4","name":"Řečkovice","arrival_time":"14:43:00","departure_time":"14:43:00","lat":49.246674,"lon":16.579384,"is_passed":false},{"stop_id":"U1457Z2","name":"Olšanského","arrival_time":"14:44:00","departure_time":"14:44:00","lat":49.24422,"lon":16.577351,"is_passed":false},{"stop_id":"U1539Z2","name":"Renčova","arrival_time":"14:45:00","departure_time":"14:45:00","lat":49.247214,"lon":16.574968,"is_passed":false},{"stop_id":"U1414Z1","name":"Nadační","arrival_time":"14:46:00","departure_time":"14:46:00","lat":49.245595,"lon":16.571098,"is_passed":false},{"stop_id":"U1719Z2","name":"V Újezdech","arrival_time":"14:47:00","departure_time":"14:47:00","lat":49.241856,"lon":16.573203,"is_passed":false},{"stop_id":"U1376Z2","name":"Medlánky","arrival_time":"14:48:00","departure_time":"14:48:00","lat":49.240459,"lon":16.573676,"is_passed":false},{"stop_id":"U1377Z2","name":"Medlánky, škola","arrival_time":"14:49:00","departure_time":"14:49:00","lat":49.238196,"lon":16.57841,"is_passed":false},{"stop_id":"U1756Z4","name":"Vozovna Medlánky","arrival_time":"14:50:00","departure_time":"14:50:00","lat":49.235569,"lon":16.585596,"is_passed":false},{"stop_id":"U1659Z4","name":"Technologický park","arrival_time":"14:53:00","departure_time":"14:53:00","lat":49.231509,"lon":16.576781,"is_passed":false}],"57753":[{"stop_id":"U1659Z4","name":"Technologický park","arrival_time":"14:53:00","departure_time":"14:53:00","lat":49.231509,"lon":16.576781,"is_passed":false},{"stop_id":"U1104Z1","name":"Edisonova","arrival_time":"14:53:00","departure_time":"14:53:00","lat":49.22828,"lon":16.576461,"is_passed":false},{"stop_id":"U1499Z2","name":"Podnikatelská","arrival_time":"14:54:00","departure_time":"14:54:00","lat":49.227023,"lon":16.576248,"is_passed":false},{"stop_id":"U1660Z2","name":"Technická","arrival_time":"14:55:00","departure_time":"14:55:00","lat":49.22302,"lon":16.578608,"is_passed":false},{"stop_id":"U1155Z2","name":"Horská","arrival_time":"14:56:00","departure_time":"14:56:00","lat":49.221604,"lon":16.579463,"is_passed":false},{"stop_id":"U1777Z2","name":"Záhřebská","arrival_time":"14:57:00","departure_time":"14:57:00","lat":49.219845,"lon":16.580415,"is_passed":false},{"stop_id":"U1567Z6","name":"Skácelova","arrival_time":"14:59:00","departure_time":"14:59:00","lat":49.22163,"lon":16.585935,"is_passed":false},{"stop_id":"U1586Z4","name":"Slovanské náměstí","arrival_time":"15:00:00","departure_time":"15:00:00","lat":49.222774,"lon":16.591332,"is_passed":false},{"stop_id":"U1171Z3","name":"Husitská","arrival_time":"15:01:00","departure_time":"15:01:00","lat":49.223851,"lon":16.594116,"is_passed":false},{"stop_id":"U1566Z4","name":"Semilasso","arrival_time":"15:03:00","departure_time":"15:03:00","lat":49.228055,"lon":16.593438,"is_passed":false},