[{"stop_id":"U12439Z51","name":"Rájec-Jestřebí, železniční stanice","arrival_time":"7:11:00","departure_time":"7:11:00","lat":49.408206,"lon":16.627711,"is_passed":false},{"stop_id":"U22302Z2","name":"Blansko město","arrival_time":"7:15:00","departure_time":"7:16:00","lat":49.360996,"lon":16.639464,"is_passed":false},{"stop_id":"U12342Z29","name":"Blansko, aut. st.","arrival_time":"7:17:00","departure_time":"7:18:00","lat":49.352753,"lon":16.646848,"is_passed":false},{"stop_id":"U12231Z11","name":"Adamov, železniční zastávka","arrival_time":"7:24:00","departure_time":"7:24:00","lat":49.300671,"lon":16.650653,"is_passed":false},{"stop_id":"U12230Z11","name":"Adamov, železniční stanice","arrival_time":"7:26:00","departure_time":"7:27:00","lat":49.295341,"lon":16.663538,"is_passed":false},{"stop_id":"U12158Z11","name":"Bílovice nad Svitavou, žel. stanice","arrival_time":"7:32:00","departure_time":"7:33:00","lat":49.242715,"lon":16.673677,"is_passed":false},{"stop_id":"U1809Z11","name":"Židenice, nádraží","arrival_time":"7:39:00","departure_time":"7:39:00","lat":49.204282,"lon":16.636042,"is_passed":false},{"stop_id":"U1146Z98","name":"Hlavní nádraží","arrival_time":"7:44:00","departure_time":"7:44:00","lat":49.19035,"lon":16.612342,"is_passed":false}]