[{"stop_id":"U15130Z2","name":"Modřice, Olympia","arrival_time":"22:40:00","departure_time":"22:40:00","lat":49.139255,"lon":16.634291,"is_passed":false},{"stop_id":"U15132Z2","name":"Modřice, Olympia jih","arrival_time":"22:41:00","departure_time":"22:41:00","lat":49.135069,"lon":16.633864,"is_passed":false},{"stop_id":"U1781Z2","name":"Zámecká","arrival_time":"22:43:00","departure_time":"22:43:00","lat":49.132518,"lon":16.642875,"is_passed":false},{"stop_id":"U1644Z2","name":"Šromova","arrival_time":"22:44:00","departure_time":"22:44:00","lat":49.13398,"lon":16.651446,"is_passed":false},{"stop_id":"U1187Z4","name":"Chrlické náměstí","arrival_time":"22:45:00","departure_time":"22:45:00","lat":49.135767,"lon":16.653213,"is_passed":false},{"stop_id":"U1693Z2","name":"U viaduktu","arrival_time":"22:46:00","departure_time":"22:46:00","lat":49.139248,"lon":16.66101,"is_passed":false},{"stop_id":"U1186Z2","name":"Chrlická","arrival_time":"22:47:00","departure_time":"22:47:00","lat":49.143983,"lon":16.665097,"is_passed":false},{"stop_id":"U1131Z2","name":"Hanácká","arrival_time":"22:48:00","departure_time":"22:48:00","lat":49.146706,"lon":16.667371,"is_passed":false},{"stop_id":"U1772Z2","name":"Za křížem","arrival_time":"22:49:00","departure_time":"22:49:00","lat":49.15905,"lon":16.670815,"is_passed":false},{"stop_id":"U1581Z2","name":"Areál Slatina","arrival_time":"22:51:00","departure_time":"22:51:00","lat":49.168677,"lon":16.678416,"is_passed":false},{"stop_id":"U1562Z3","name":"Řípská","arrival_time":"22:52:00","departure_time":"22:52:00","lat":49.172528,"lon":16.682138,"is_passed":false},{"stop_id":"U1300Z1","name":"Křehlíkova","arrival_time":"22:53:00","departure_time":"22:53:00","lat":49.174839,"lon":16.685145,"is_passed":false},{"stop_id":"U1525Z1","name":"Přemyslovo náměstí","arrival_time":"22:54:00","departure_time":"22:54:00","lat":49.176289,"lon":16.687296,"is_passed":false},{"stop_id":"U1292Z1","name":"Krejčího","arrival_time":"22:55:00","departure_time":"22:55:00","lat":49.177441,"lon":16.690968,"is_passed":false},{"stop_id":"U1576Z2","name":"Slatina, rozcestí","arrival_time":"22:57:00","departure_time":"22:57:00","lat":49.183366,"lon":16.691884,"is_passed":false},{"stop_id":"U1356Z2","name":"Malečkova","arrival_time":"22:57:00","departure_time":"22:57:00","lat":49.185667,"lon":16.692678,"is_passed":false},{"stop_id":"U1152Z2","name":"Holzova","arrival_time":"22:58:00","departure_time":"22:58:00","lat":49.194897,"lon":16.696973,"is_passed":false},{"stop_id":"U1339Z2","name":"Letecká","arrival_time":"22:59:00","departure_time":"22:59:00","lat":49.197812,"lon":16.695816,"is_passed":false},{"stop_id":"U1406Z2","name":"Muzeum dopravy","arrival_time":"23:00:00","departure_time":"23:00:00","lat":49.201777,"lon":16.694455,"is_passed":false},{"stop_id":"U1421Z1","name":"Náměstí Karla IV.","arrival_time":"23:01:00","departure_time":"23:01:00","lat":49.206363,"lon":16.694621,"is_passed":false},{"stop_id":"U1384Z3","name":"Mifkova","arrival_time":"23:01:00","departure_time":"23:01:00","lat":49.20716,"lon":16.692152,"is_passed":false},{"stop_id":"U1208Z3","name":"Jírova","arrival_time":"23:03:00","departure_time":"23:05:00","lat":49.208886,"lon":16.687979,"is_passed":false}]