[{"stop_id":"U1146Z99","name":"Hlavní nádraží","arrival_time":"7:13:00","departure_time":"7:13:00","lat":49.19035,"lon":16.612342,"is_passed":false},{"stop_id":"U1809Z10","name":"Židenice, nádraží","arrival_time":"7:16:00","departure_time":"7:17:00","lat":49.204282,"lon":16.636042,"is_passed":false},{"stop_id":"U12158Z10","name":"Bílovice nad Svitavou, žel. stanice","arrival_time":"7:22:00","departure_time":"7:22:00","lat":49.242715,"lon":16.673677,"is_passed":false},{"stop_id":"U12230Z10","name":"Adamov, železniční stanice","arrival_time":"7:28:00","departure_time":"7:32:00","lat":49.295341,"lon":16.663538,"is_passed":false},{"stop_id":"U12231Z10","name":"Adamov, železniční zastávka","arrival_time":"7:34:00","departure_time":"7:34:00","lat":49.300671,"lon":16.650653,"is_passed":false},{"stop_id":"U12342Z30","name":"Blansko, aut. st.","arrival_time":"7:40:00","departure_time":"7:42:00","lat":49.352753,"lon":16.646848,"is_passed":false},{"stop_id":"U22302Z1","name":"Blansko město","arrival_time":"7:44:00","departure_time":"7:45:00","lat":49.360996,"lon":16.639464,"is_passed":false},{"stop_id":"U12439Z50","name":"Rájec-Jestřebí, železniční stanice","arrival_time":"7:58:00","departure_time":"8:08:00","lat":49.408206,"lon":16.627711,"is_passed":false}]