[{"stop_id":"U1611Z2","name":"Stará osada","arrival_time":"8:35:00","departure_time":"8:35:00","lat":49.20214,"lon":16.641417,"is_passed":false},{"stop_id":"U1313Z2","name":"Kuldova","arrival_time":"8:36:00","departure_time":"8:36:00","lat":49.201319,"lon":16.634551,"is_passed":false},{"stop_id":"U1773Z2","name":"Vojenská nemocnice","arrival_time":"8:37:00","departure_time":"8:37:00","lat":49.202306,"lon":16.62966,"is_passed":false},{"stop_id":"U1211Z8","name":"Jugoslávská","arrival_time":"8:40:00","departure_time":"8:40:00","lat":49.204197,"lon":16.624075,"is_passed":false},{"stop_id":"U1086Z2","name":"Dětská nemocnice","arrival_time":"8:42:00","departure_time":"8:42:00","lat":49.203029,"lon":16.619052,"is_passed":false},{"stop_id":"U1418Z2","name":"Náměstí 28. října","arrival_time":"8:43:00","departure_time":"8:43:00","lat":49.200787,"lon":16.613174,"is_passed":false},{"stop_id":"U1397Z4","name":"Moravské náměstí","arrival_time":"8:45:00","departure_time":"8:45:00","lat":49.199159,"lon":16.608704,"is_passed":false},{"stop_id":"U1073Z4","name":"Česká","arrival_time":"8:48:00","departure_time":"8:48:00","lat":49.198134,"lon":16.605041,"is_passed":false},{"stop_id":"U1121Z1","name":"Grohova","arrival_time":"8:49:00","departure_time":"8:49:00","lat":49.201153,"lon":16.599729,"is_passed":false},{"stop_id":"U1262Z1","name":"Konečného náměstí","arrival_time":"8:51:00","departure_time":"8:51:00","lat":49.204484,"lon":16.595426,"is_passed":false}]