[{"stop_id":"U1619Z2","name":"Stránská skála - smyčka","arrival_time":"18:26:00","departure_time":"18:26:00","lat":49.192783,"lon":16.6773,"is_passed":false},{"stop_id":"U1618Z2","name":"Stránská skála","arrival_time":"18:26:00","departure_time":"18:26:00","lat":49.191704,"lon":16.673622,"is_passed":false},{"stop_id":"U1501Z2","name":"Podstránská","arrival_time":"18:28:00","departure_time":"18:28:00","lat":49.18765,"lon":16.665957,"is_passed":false},{"stop_id":"U1291Z2","name":"Krásného","arrival_time":"18:30:00","departure_time":"18:30:00","lat":49.19067,"lon":16.649391,"is_passed":false},{"stop_id":"U1810Z2","name":"Židovský hřbitov","arrival_time":"18:31:00","departure_time":"18:31:00","lat":49.191517,"lon":16.641078,"is_passed":false},{"stop_id":"U1116Z2","name":"Geislerova","arrival_time":"18:32:00","departure_time":"18:32:00","lat":49.192754,"lon":16.634757,"is_passed":false},{"stop_id":"U1814Z2","name":"Životského","arrival_time":"18:34:00","departure_time":"18:34:00","lat":49.190687,"lon":16.633889,"is_passed":false},{"stop_id":"U1372Z2","name":"Masná","arrival_time":"18:36:00","departure_time":"18:36:00","lat":49.191283,"lon":16.6245,"is_passed":false},{"stop_id":"U1746Z2","name":"Vlhká","arrival_time":"18:37:00","departure_time":"18:37:00","lat":49.191852,"lon":16.619157,"is_passed":false},{"stop_id":"U1146Z3","name":"Hlavní nádraží","arrival_time":"18:40:00","departure_time":"18:40:00","lat":49.191063,"lon":16.611972,"is_passed":false},{"stop_id":"U1436Z1","name":"Nové sady","arrival_time":"18:41:00","departure_time":"18:41:00","lat":49.190116,"lon":16.609025,"is_passed":false},{"stop_id":"U1637Z2","name":"Šilingrovo náměstí","arrival_time":"18:42:00","departure_time":"18:42:00","lat":49.192027,"lon":16.605234,"is_passed":false},{"stop_id":"U1073Z4","name":"Česká","arrival_time":"18:46:00","departure_time":"18:46:00","lat":49.198134,"lon":16.605041,"is_passed":false},{"stop_id":"U1121Z1","name":"Grohova","arrival_time":"18:47:00","departure_time":"18:47:00","lat":49.201153,"lon":16.599729,"is_passed":false},{"stop_id":"U1262Z1","name":"Konečného náměstí","arrival_time":"18:49:00","departure_time":"18:49:00","lat":49.204484,"lon":16.595426,"is_passed":false}]