{"590":[{"stop_id":"U1146Z99","name":"Hlavní nádraží","arrival_time":"14:40:00","departure_time":"14:40:00","lat":49.19035,"lon":16.612342,"is_passed":false},{"stop_id":"U1809Z10","name":"Židenice, nádraží","arrival_time":"14:43:00","departure_time":"14:44:00","lat":49.204282,"lon":16.636042,"is_passed":false},{"stop_id":"U12158Z10","name":"Bílovice nad Svitavou, žel. stanice","arrival_time":"14:49:00","departure_time":"14:49:00","lat":49.242715,"lon":16.673677,"is_passed":false},{"stop_id":"U12230Z10","name":"Adamov, železniční stanice","arrival_time":"14:55:00","departure_time":"15:01:00","lat":49.295341,"lon":16.663538,"is_passed":false},{"stop_id":"U12231Z10","name":"Adamov, železniční zastávka","arrival_time":"15:02:00","departure_time":"15:03:00","lat":49.300671,"lon":16.650653,"is_passed":false},{"stop_id":"U12342Z30","name":"Blansko, aut. st.","arrival_time":"15:08:00","departure_time":"15:09:00","lat":49.352753,"lon":16.646848,"is_passed":false},{"stop_id":"U22302Z1","name":"Blansko město","arrival_time":"15:11:00","departure_time":"15:11:00","lat":49.360996,"lon":16.639464,"is_passed":false},{"stop_id":"U12439Z50","name":"Rájec-Jestřebí, železniční stanice","arrival_time":"15:16:00","departure_time":"15:36:00","lat":49.408206,"lon":16.627711,"is_passed":false}],"5900":[{"stop_id":"U15214Z1","name":"Blučina, náměstí","arrival_time":"10:37:00","departure_time":"10:37:00","lat":49.054872,"lon":16.646478,"is_passed":false},{"stop_id":"U15213Z1","name":"Blučina, Komenského","arrival_time":"10:39:00","departure_time":"10:39:00","lat":49.055353,"lon":16.635147,"is_passed":false},{"stop_id":"U15217Z1","name":"Blučina, ZD","arrival_time":"10:40:00","departure_time":"10:40:00","lat":49.053207,"lon":16.626305,"is_passed":false},{"stop_id":"U15239Z1","name":"Židlochovice, sídliště","arrival_time":"10:42:00","departure_time":"10:42:00","lat":49.040799,"lon":16.617612,"is_passed":false},{"stop_id":"U15229Z8","name":"Židlochovice, aut. st.","arrival_time":"10:45:00","departure_time":"10:45:00","lat":49.035879,"lon":16.614708,"is_passed":false},{"stop_id":"U15241Z51","name":"Židlochovice, železniční stanice","arrival_time":"10:46:00","departure_time":"10:46:00","lat":49.033692,"lon":16.616779,"is_passed":false}],"5901":[{"stop_id":"U15241Z3","name":"Židlochovice, železniční stanice","arrival_time":"11:00:00","departure_time":"11:00:00","lat":49.033474,"lon":16.617066,"is_passed":false},{"stop_id":"U15229Z1","name":"Židlochovice, aut. st.","arrival_time":"11:02:00","departure_time":"11:02:00","lat":49.036171,"lon":16.614705,"is_passed":false},{"stop_id":"U15251Z1","name":"Vojkovice","arrival_time":"11:06:00","departure_time":"11:06:00","lat":49.052413,"lon":16.607022,"is_passed":false},{"stop_id":"U15252Z1","name":"Vojkovice, sídliště","arrival_time":"11:07:00","departure_time":"11:07:00","lat":49.056112,"lon":16.604022,"is_passed":false},{"stop_id":"U15156Z1","name":"Holasice","arrival_time":"11:10:00","departure_time":"11:10:00","lat":49.078553,"lon":16.604218,"is_passed":false},{"stop_id":"U15181Z1","name":"Rajhrad, železniční stanice","arrival_time":"11:13:00","departure_time":"11:13:00","lat":49.084495,"lon":16.605152,"is_passed":false}],"5902":[{"stop_id":"U15181Z3","name":"Rajhrad, železniční stanice","arrival_time":"11:30:00","departure_time":"11:30:00","lat":49.084335,"lon":16.60514,"is_passed":false},{"stop_id":"U15149Z2","name":"Rajhrad, Městečko","arrival_time":"11:31:00","departure_time":"11:31:00","lat":49.089079,"lon":16.606333,"is_passed":false},{"stop_id":"U15179Z1","name":"Rajhrad, klášter","arrival_time":"11:32:00","departure_time":"11:32:00","lat":49.091127,"lon":16.615325,"is_passed":false},{"stop_id":"U15136Z1","name":"Rajhradice, Loučka","arrival_time":"11:34:00","departure_time":"11:34:00","lat":49.092543,"lon":16.621718,"is_passed":false},{"stop_id":"U15144Z1","name":"Rajhradice, váha","arrival_time":"11:38:00","departure_time":"11:38:00","lat":49.093623,"lon":16.63553,"is_passed":false},{"stop_id":"U15143Z1","name":"Rajhradice, obecní úřad","arrival_time":"11:39:00","departure_time":"11:39:00","lat":49.091617,"lon":16.633897,"is_passed":false},{"stop_id":"U15131Z1","name":"Opatovice","arrival_time":"11:42:00","departure_time":"12:12:00","lat":49.075921,"lon":16.640909,"is_passed":false}],"5903":[{"stop_id":"U15131Z2","name":"Opatovice","arrival_time":"12:12:00","departure_time":"12:12:00","lat":49.076023,"lon":16.641239,"is_passed":false},{"stop_id":"U15143Z2","name":"Rajhradice, obecní úřad","arrival_time":"12:16:00","departure_time":"12:16:00","lat":49.091715,"lon":16.633972,"is_passed":false},{"stop_id":"U15144Z2","name":"Rajhradice, váha","arrival_time":"12:18:00","departure_time":"12:18:00","lat":49.09362,"lon":16.635452,"is_passed":false},{"stop_id":"U15136Z2","name":"Rajhradice, Loučka","arrival_time":"12:19:00","departure_time":"12:19:00","lat":49.09259,"lon":16.6217,"is_passed":false},{"stop_id":"U15179Z2","name":"Rajhrad, klášter","arrival_time":"12:21:00","departure_time":"12:21:00","lat":49.090645,"lon":16.614513,"is_passed":false},{"stop_id":"U15149Z1","name":"Rajhrad, Městečko","arrival_time":"12:22:00","departure_time":"12:22:00","lat":49.08927,"lon":16.605748,"is_passed":false},{"stop_id":"U15181Z9","name":"Rajhrad, železniční stanice","arrival_time":"12:27:00","departure_time":"12:30:00","lat":49.084167,"lon":16.605135,"is_passed":false}],"5904":[{"stop_id":"U15181Z3","name":"Rajhrad, železniční stanice","arrival_time":"12:30:00","departure_time":"12:30:00","lat":49.084335,"lon":16.60514,"is_passed":false},{"stop_id":"U15149Z2","name":"Rajhrad, Městečko","arrival_time":"12:31:00","departure_time":"12:31:00","lat":49.089079,"lon":16.606333,"is_passed":false},{"stop_id":"U15179Z1","name":"Rajhrad, klášter","arrival_time":"12:32:00","departure_time":"12:32:00","lat":49.091127,"lon":16.615325,"is_passed":false},{"stop_id":"U15136Z1","name":"Rajhradice, Loučka","arrival_time":"12:34:00","departure_time":"12:34:00","lat":49.092543,"lon":16.621718,"is_passed":false},{"stop_id":"U15144Z1","name":"Rajhradice, váha","arrival_time":"12:38:00","departure_time":"12:38:00","lat":49.093623,"lon":16.63553,"is_passed":false},{"stop_id":"U15143Z1","name":"Rajhradice, obecní úřad","arrival_time":"12:39:00","departure_time":"12:39:00","lat":49.091617,"lon":16.633897,"is_passed":false},{"stop_id":"U15131Z1","name":"Opatovice","arrival_time":"12:42:00","departure_time":"13:12:00","lat":49.075921,"lon":16.640909,"is_passed":false}],"5905":[{"stop_id":"U15131Z2","name":"Opatovice","arrival_time":"13:12:00","departure_time":"13:12:00","lat":49.076023,"lon":16.641239,"is_passed":false},{"stop_id":"U15143Z2","name":"Rajhradice, obecní úřad","arrival_time":"13:16:00","departure_time":"13:16:00","lat":49.091715,"lon":16.633972,"is_passed":false},{"stop_id":"U15144Z2","name":"Rajhradice, váha","arrival_time":"13:18:00","departure_time":"13:18:00","lat":49.09362,"lon":16.635452,"is_passed":false},{"stop_id":"U15136Z2","name":"Rajhradice, Loučka","arrival_time":"13:19:00","departure_time":"13:19:00","lat":49.09259,"lon":16.6217,"is_passed":false},{"stop_id":"U15179Z2","name":"Rajhrad, klášter","arrival_time":"13:21:00","departure_time":"13:21:00","lat":49.090645,"lon":16.614513,"is_passed":false},{"stop_id":"U15149Z1","name":"Rajhrad, Městečko","arrival_time":"13:22:00","departure_time":"13:22:00","lat":49.08927,"lon":16.605748,"is_passed":false},{"stop_id":"U15181Z9","name":"Rajhrad, železniční stanice","arrival_time":"13:27:00","departure_time":"13:28:00","lat":49.084167,"lon":16.605135,"is_passed":false}],"5906":[{"stop_id":"U15181Z3","name":"Rajhrad, železniční stanice","arrival_time":"13:28:00","departure_time":"13:28:00","lat":49.084335,"lon":16.60514,"is_passed":false},{"stop_id":"U15149Z2","name":"Rajhrad, Městečko","arrival_time":"13:29:00","departure_time":"13:29:00","lat":49.089079,"lon":16.606333,"is_passed":false},{"stop_id":"U15179Z1","name":"Rajhrad, klášter","arrival_time":"13:30:00","departure_time":"13:30:00","lat":49.091127,"lon":16.615325,"is_passed":false},{"stop_id":"U15136Z1","name":"Rajhradice, Loučka","arrival_time":"13:32:00","departure_time":"13:32:00","lat":49.092543,"lon":16.621718,"is_passed":false},{"stop_id":"U15144Z1","name":"Rajhradice, váha","arrival_time":"13:36:00","departure_time":"13:36:00","lat":49.093623,"lon":16.63553,"is_passed":false},{"stop_id":"U15143Z1","name":"Rajhradice, obecní úřad","arrival_time":"13:37:00","departure_time":"13:37:00","lat":49.091617,"lon":16.633897,"is_passed":false},{"stop_id":"U15131Z1","name":"Opatovice","arrival_time":"13:40:00","departure_time":"13:44:00","lat":49.075921,"lon":16.640909,"is_passed":false}],"5907":[{"stop_id":"U15131Z2","name":"Opatovice","arrival_time":"13:44:00","departure_time":"13:44:00","lat":49.076023,"lon":16.641239,"is_passed":false},{"stop_id":"U15143Z2","name":"Rajhradice, obecní úřad","arrival_time":"13:48:00","departure_time":"13:48:00","lat":49.091715,"lon":16.633972,"is_passed":false},{"stop_id":"U15144Z2","name":"Rajhradice, váha","arrival_time":"13:50:00","departure_time":"13:50:00","lat":49.09362,"lon":16.635452,"is_passed":false},{"stop_id":"U15136Z2","name":"Rajhradice, Loučka","arrival_time":"13:51:00","departure_time":"13:51:00","lat":49.09259,"lon":16.6217,"is_passed":false},{"stop_id":"U15179Z2","name":"Rajhrad, klášter","arrival_time":"13:53:00","departure_time":"13:53:00","lat":49.090645,"lon":16.614513,"is_passed":false},{"stop_id":"U15149Z1","name":"Rajhrad, Městečko","arrival_time":"13:54:00","departure_time":"13:54:00","lat":49.08927,"lon":16.605748,"is_passed":false},{"stop_id":"U15181Z4","name":"Rajhrad, železniční stanice","arrival_time":"13:58:00","departure_time":"13:58:00","lat":49.084167,"lon":16.605135,"is_passed":false},{"stop_id":"U15138Z1","name":"Rajhrad, hospic","arrival_time":"14:00:00","departure_time":"14:10:00","lat":49.086062,"lon":16.598458,"is_passed":false}],"5908":[{"stop_id":"U15138Z2","name":"Rajhrad, hospic","arrival_time":"14:10:00","departure_time":"14:10:00","lat":49.086062,"lon":16.598458,"is_passed":false},{"stop_id":"U15181Z3","name":"Rajhrad, železniční stanice","arrival_time":"14:13:00","departure_time":"14:13:00","lat":49.084335,"lon":16.60514,"is_passed":false},{"stop_id":"U15149Z2","name":"Rajhrad, Městečko","arrival_time":"14:14:00","departure_time":"14:14:00","lat":49.089079,"lon":16.606333,"is_passed":false},{"stop_id":"U15179Z1","name":"Rajhrad, klášter","arrival_time":"14:15:00","departure_time":"14:15:00","lat":49.091127,"lon":16.615325,"is_passed":false},{"stop_id":"U15136Z1","name":"Rajhradice, Loučka","arrival_time":"14:17:00","departure_time":"14:17:00","lat":49.092543,"lon":16.621718,"is_passed":false},{"stop_id":"U15144Z1","name":"Rajhradice, váha","arrival_time":"14:21:00","departure_time":"14:21:00","lat":49.093623,"lon":16.63553,"is_passed":false},{"stop_id":"U15143Z1","name":"Rajhradice, obecní úřad","arrival_time":"14:22:00","departure_time":"14:22:00","lat":49.091617,"lon":16.633897,"is_passed":false},{"stop_id":"U15131Z1","name":"Opatovice","arrival_time":"14:25:00","departure_time":"14:26:00","lat":49.075921,"lon":16.640909,"is_passed":false}],"5909":[{"stop_id":"U15131Z2","name":"Opatovice","arrival_time":"14:26:00","departure_time":"14:26:00","lat":49.076023,"lon":16.641239,"is_passed":false},{"stop_id":"U15143Z2","name":"Rajhradice, obecní úřad","arrival_time":"14:30:00","departure_time":"14:30:00","lat":49.091715,"lon":16.633972,"is_passed":false},{"stop_id":"U15144Z2","name":"Rajhradice, váha","arrival_time":"14:32:00","departure_time":"14:32:00","lat":49.09362,"lon":16.635452,"is_passed":false},{"stop_id":"U15136Z2","name":"Rajhradice, Loučka","arrival_time":"14:33:00","departure_time":"14:33:00","lat":49.09259,"lon":16.6217,"is_passed":false},{"stop_id":"U15179Z2","name":"Rajhrad, klášter","arrival_time":"14:35:00","departure_time":"14:35:00","lat":49.090645,"lon":16.614513,"is_passed":false},{"stop_id":"U15149Z1","name":"Rajhrad, Městečko","arrival_time":"14:36:00","departure_time":"14:36:00","lat":49.08927,"lon":16.605748,"is_passed":false},{"stop_id":"U15181Z9","name":"Rajhrad, železniční stanice","arrival_time":"14:41:00","departure_time":"15:13:00","lat":49.084167,"lon":16.605135,"is_passed":false}],"59000":[{"stop_id":"U1286Z3","name":"Královo Pole, nádraží","arrival_time":"16:15:00","departure_time":"16:15:00","lat":49.229218,"lon":16.596271,"is_passed":false},{"stop_id":"U1007Z3","name":"Anthropos","arrival_time":"16:21:00","departure_time":"16:21:00","lat":49.193146,"lon":16.565715,"is_passed":false},{"stop_id":"U1699Z2","name":"Univerzitní kampus","arrival_time":"16:25:00","departure_time":"16:25:00","lat":49.177455,"lon":16.567173,"is_passed":false},{"stop_id":"U1429Z3","name":"Nemocnice Bohunice","arrival_time":"16:27:00","departure_time":"16:45:00","lat":49.175844,"lon":16.567503,"is_passed":false}],"59001":[{"stop_id":"U1429Z4","name":"Nemocnice Bohunice","arrival_time":"16:45:00","departure_time":"16:45:00","lat":49.176125,"lon":16.567246,"is_passed":false},{"stop_id":"U1487Z7","name":"Pisárky","arrival_time":"16:49:00","departure_time":"16:49:00","lat":49.193452,"lon":16.569802,"is_passed":false},{"stop_id":"U1286Z4","name":"Královo Pole, nádraží","arrival_time":"16:57:00","departure_time":"17:00:00","lat":49.230229,"lon":16.595629,"is_passed":false}],"59002":[{"stop_id":"U1286Z3","name":"Královo Pole, nádraží","arrival_time":"17:00:00","departure_time":"17:00:00","lat":49.229218,"lon":16.596271,"is_passed":false},{"stop_id":"U1007Z3","name":"Anthropos","arrival_time":"17:06:00","departure_time":"17:06:00","lat":49.193146,"lon":16.565715,"is_passed":false},{"stop_id":"U1699Z2","name":"Univerzitní kampus","arrival_time":"17:10:00","departure_time":"17:10:00","lat":49.177455,"lon":16.567173,"is_passed":false},{"stop_id":"U1429Z3","name":"Nemocnice Bohunice","arrival_time":"17:12:00","departure_time":"17:30:00","lat":49.175844,"lon":16.567503,"is_passed":false}],"59003":[{"stop_id":"U1429Z4","name":"Nemocnice Bohunice","arrival_time":"17:30:00","departure_time":"17:30:00","lat":49.176125,"lon":16.567246,"is_passed":false},{"stop_id":"U1487Z7","name":"Pisárky","arrival_time":"17:34:00","departure_time":"17:34:00","lat":49.193452,"lon":16.569802,"is_passed":false},{"stop_id":"U1286Z4","name":"Královo Pole, nádraží","arrival_time":"17:42:00","departure_time":"18:00:00","lat":49.230229,"lon":16.595629,"is_passed":false}],"59004":[{"stop_id":"U1286Z3","name":"Královo Pole, nádraží","arrival_time":"18:00:00","departure_time":"18:00:00","lat":49.229218,"lon":16.596271,"is_passed":false},{"stop_id":"U1007Z3","name":"Anthropos","arrival_time":"18:06:00","departure_time":"18:06:00","lat":49.193146,"lon":16.565715,"is_passed":false},{"stop_id":"U1699Z2","name":"Univerzitní kampus","arrival_time":"18:10:00","departure_time":"18:10:00","lat":49.177455,"lon":16.567173,"is_passed":false},{"stop_id":"U1429Z3","name":"Nemocnice Bohunice","arrival_time":"18:12:00","departure_time":"18:43:00","lat":49.175844,"lon":16.567503,"is_passed":false}],"59005":[{"stop_id":"U1429Z4","name":"Nemocnice Bohunice","arrival_time":"18:43:00","departure_time":"18:43:00","lat":49.176125,"lon":16.567246,"is_passed":false},{"stop_id":"U1487Z7","name":"Pisárky","arrival_time":"18:47:00","departure_time":"18:47:00","lat":49.193452,"lon":16.569802,"is_passed":false},{"stop_id":"U1286Z4","name":"Královo Pole, nádraží","arrival_time":"18:55:00","departure_time":"18:58:00","lat":49.230229,"lon":16.595629,"is_passed":false}],"59006":[{"stop_id":"U1286Z3","name":"Královo Pole, nádraží","arrival_time":"5:15:00","departure_time":"5:15:00","lat":49.229218,"lon":16.596271,"is_passed":false},{"stop_id":"U1007Z3","name":"Anthropos","arrival_time":"5:21:00","departure_time":"5:21:00","lat":49.193146,"lon":16.565715,"is_passed":false},{"stop_id":"U1699Z2","name":"Univerzitní kampus","arrival_time":"5:24:00","departure_time":"5:24:00","lat":49.177455,"lon":16.567173,"is_passed":false},{"stop_id":"U1429Z3","name":"Nemocnice Bohunice","arrival_time":"5:26:00","departure_time":"5:30:00","lat":49.175844,"lon":16.567503,"is_passed":false}],"59007":[{"stop_id":"U1429Z4","name":"Nemocnice Bohunice","arrival_time":"5:30:00","departure_time":"5:30:00","lat":49.176125,"lon":16.567246,"is_passed":false},{"stop_id":"U1487Z7","name":"Pisárky","arrival_time":"5:34:00","departure_time":"5:34:00","lat":49.193452,"lon":16.569802,"is_passed":false},{"stop_id":"U1286Z4","name":"Královo Pole, nádraží","arrival_time":"5:42:00","departure_time":"5:45:00","lat":49.230229,"lon":16.595629,"is_passed":false}],"59008":[{"stop_id":"U1286Z3","name":"Královo Pole, nádraží","arrival_time":"5:45:00","departure_time":"5:45:00","lat":49.229218,"lon":16.596271,"is_passed":false},{"stop_id":"U1007Z3","name":"Anthropos","arrival_time":"5:51:00","departure_time":"5:51:00","lat":49.193146,"lon":16.565715,"is_passed":false},{"stop_id":"U1699Z2","name":"Univerzitní kampus","arrival_time":"5:54:00","departure_time":"5:54:00","lat":49.177455,"lon":16.567173,"is_passed":false},{"stop_id":"U1429Z3","name":"Nemocnice Bohunice","arrival_time":"5:56:00","departure_time":"6:15:00","lat":49.175844,"lon":16.567503,"is_passed":false}],"59009":[{"stop_id":"U1429Z4","name":"Nemocnice Bohunice","arrival_time":"6:15:00","departure_time":"6:15:00","lat":49.176125,"lon":16.567246,"is_passed":false},{"stop_id":"U1487Z7","name":"Pisárky","arrival_time":"6:19:00","departure_time":"6:19:00","lat":49.193452,"lon":16.569802,"is_passed":false},{"stop_id":"U1286Z4","name":"Královo Pole, nádraží","arrival_time":"6:27:00","departure_time":"6:30:00","lat":49.230229,"lon":16.595629,"is_passed":false}],"59010":[{"stop_id":"U1286Z3","name":"Královo Pole, nádraží","arrival_time":"6:30:00","departure_time":"6:30:00","lat":49.229218,"lon":16.596271,"is_passed":false},{"stop_id":"U1007Z3","name":"Anthropos","arrival_time":"6:36:00","departure_time":"6:36:00","lat":49.193146,"lon":16.565715,"is_passed":false},{"stop_id":"U1699Z2","name":"Univerzitní kampus","arrival_time":"6:40:00","departure_time":"6:40:00","lat":49.177455,"lon":16.567173,"is_passed":false},{"stop_id":"U1429Z3","name":"Nemocnice Bohunice","arrival_time":"6:42:00","departure_time":"7:00:00","lat":49.175844,"lon":16.567503,"is_passed":false}],"59011":[{"stop_id":"U1429Z4","name":"Nemocnice Bohunice","arrival_time":"7:00:00","departure_time":"7:00:00","lat":49.176125,"lon":16.567246,"is_passed":false},{"stop_id":"U1487Z7","name":"Pisárky","arrival_time":"7:04:00","departure_time":"7:04:00","lat":49.193452,"lon":16.569802,"is_passed":false},{"stop_id":"U1286Z4","name":"Královo Pole, nádraží","arrival_time":"7:12:00","departure_time":"7:15:00","lat":49.230229,"lon":16.595629,"is_passed":false}],"59012":[{"stop_id":"U1286Z3","name":"Královo Pole, nádraží","arrival_time":"7:15:00","departure_time":"7:15:00","lat":49.229218,"lon":16.596271,"is_passed":false},{"stop_id":"U1007Z3","name":"Anthropos","arrival_time":"7:21:00","departure_time":"7:21:00","lat":49.193146,"lon":16.565715,"is_passed":false},{"stop_id":"U1699Z2","name":"Univerzitní kampus","arrival_time":"7:25:00","departure_time":"7:25:00","lat":49.177455,"lon":16.567173,"is_passed":false},{"stop_id":"U1429Z3","name":"Nemocnice Bohunice","arrival_time":"7:27:00","departure_time":"7:45:00","lat":49.175844,"lon":16.567503,"is_passed":false}],"59013":[{"stop_id":"U1429Z4","name":"Nemocnice Bohunice","arrival_time":"7:45:00","departure_time":"7:45:00","lat":49.176125,"lon":16.567246,"is_passed":false},{"stop_id":"U1487Z7","name":"Pisárky","arrival_time":"7:49:00","departure_time":"7:49:00","lat":49.193452,"lon":16.569802,"is_passed":false},{"stop_id":"U1286Z4","name":"Královo Pole, nádraží","arrival_time":"7:57:00","departure_time":"8:15:00","lat":49.230229,"lon":16.595629,"is_passed":false}],"59014":[{"stop_id":"U1286Z3","name":"Královo Pole, nádraží","arrival_time":"8:15:00","departure_time":"8:15:00","lat":49.229218,"lon":16.596271,"is_passed":false},{"stop_id":"U1007Z3","name":"Anthropos","arrival_time":"8:21:00","departure_time":"8:21:00","lat":49.193146,"lon":16.565715,"is_passed":false},{"stop_id":"U1699Z2","name":"Univerzitní kampus","arrival_time":"8:25:00","departure_time":"8:25:00","lat":49.177455,"lon":16.567173,"is_passed":false},{"stop_id":"U1429Z3","name":"Nemocnice Bohunice","arrival_time":"8:27:00","departure_time":"8:45:00","lat":49.175844,"lon":16.567503,"is_passed":false}],"59015":[{"stop_id":"U1429Z4","name":"Nemocnice Bohunice","arrival_time":"8:45:00","departure_time":"8:45:00","lat":49.176125,"lon":16.567246,"is_passed":false},{"stop_id":"U1487Z7","name":"Pisárky","arrival_time":"8:49:00","departure_time":"8:49:00","lat":49.193452,"lon":16.569802,"is_passed":false},{"stop_id":"U1286Z4","name":"Královo Pole, nádraží","arrival_time":"8:57:00","departure_time":"8:59:00","lat":49.230229,"lon":16.595629,"is_passed":false}],"59016":[{"stop_id":"U1286Z3","name":"Královo Pole, nádraží","arrival_time":"14:15:00","departure_time":"14:15:00","lat":49.229218,"lon":16.596271,"is_passed":false},{"stop_id":"U1007Z3","name":"Anthropos","arrival_time":"14:21:00","departure_time":"14:21:00","lat":49.193146,"lon":16.565715,"is_passed":false},{"stop_id":"U1699Z2","name":"Univerzitní kampus","arrival_time":"14:25:00","departure_time":"14:25:00","lat":49.177455,"lon":16.567173,"is_passed":false},{"stop_id":"U1429Z3","name":"Nemocnice Bohunice","arrival_time":"14:27:00","departure_time":"14:45:00","lat":49.175844,"lon":16.567503,"is_passed":false}],"59017":[{"stop_id":"U1429Z4","name":"Nemocnice Bohunice","arrival_time":"14:45:00","departure_time":"14:45:00","lat":49.176125,"lon":16.567246,"is_passed":false},{"stop_id":"U1487Z7","name":"Pisárky","arrival_time":"14:49:00","departure_time":"14:49:00","lat":49.193452,"lon":16.569802,"is_passed":false},{"stop_id":"U1286Z4","name":"Královo Pole, nádraží","arrival_time":"14:57:00","departure_time":"15:00:00","lat":49.230229,"lon":16.595629,"is_passed":false}],"59018":[{"stop_id":"U1286Z3","name":"Královo Pole, nádraží","arrival_time":"15:00:00","departure_time":"15:00:00","lat":49.229218,"lon":16.596271,"is_passed":false},{"stop_id":"U1007Z3","name":"Anthropos","arrival_time":"15:06:00","departure_time":"15:06:00","lat":49.193146,"lon":16.565715,"is_passed":false},{"stop_id":"U1699Z2","name":"Univerzitní kampus","arrival_time":"15:10:00","departure_time":"15:10:00","lat":49.177455,"lon":16.567173,"is_passed":false},{"stop_id":"U1429Z3","name":"Nemocnice Bohunice","arrival_time":"15:12:00","departure_time":"15:30:00","lat":49.175844,"lon":16.567503,"is_passed":false}],"59019":[{"stop_id":"U1429Z4","name":"Nemocnice Bohunice","arrival_time":"15:30:00","departure_time":"15:30:00","lat":49.176125,"lon":16.567246,"is_passed":false},{"stop_id":"U1487Z7","name":"Pisárky","arrival_time":"15:34:00","departure_time":"15:34:00","lat":49.193452,"lon":16.569802,"is_passed":false},{"stop_id":"U1286Z4","name":"Královo Pole, nádraží","arrival_time":"15:42:00","departure_time":"15:45:00","lat":49.230229,"lon":16.595629,"is_passed":false}],"59020":[{"stop_id":"U1286Z3","name":"Královo Pole, nádraží","arrival_time":"15:45:00","departure_time":"15:45:00","lat":49.229218,"lon":16.596271,"is_passed":false},{"stop_id":"U1007Z3","name":"Anthropos","arrival_time":"15:51:00","departure_time":"15:51:00","lat":49.193146,"lon":16.565715,"is_passed":false},{"stop_id":"U1699Z2","name":"Univerzitní kampus","arrival_time":"15:55:00","departure_time":"15:55:00","lat":49.177455,"lon":16.567173,"is_passed":false},{"stop_id":"U1429Z3","name":"Nemocnice Bohunice","arrival_time":"15:57:00","departure_time":"16:15:00","lat":49.175844,"lon":16.567503,"is_passed":false}],"59021":[{"stop_id":"U1429Z4","name":"Nemocnice Bohunice","arrival_time":"16:15:00","departure_time":"16:15:00","lat":49.176125,"lon":16.567246,"is_passed":false},{"stop_id":"U1487Z7","name":"Pisárky","arrival_time":"16:19:00","departure_time":"16:19:00","lat":49.193452,"lon":16.569802,"is_passed":false},{"stop_id":"U1286Z4","name":"Královo Pole, nádraží","arrival_time":"16:27:00","departure_time":"16:30:00","lat":49.230229,"lon":16.595629,"is_passed":false}],"59022":[{"stop_id":"U1286Z3","name":"Královo Pole, nádraží","arrival_time":"16:30:00","departure_time":"16:30:00","lat":49.229218,"lon":16.596271,"is_passed":false},{"stop_id":"U1007Z3","name":"Anthropos","arrival_time":"16:36:00","departure_time":"16:36:00","lat":49.193146,"lon":16.565715,"is_passed":false},{"stop_id":"U1699Z2","name":"Univerzitní kampus","arrival_time":"16:40:00","departure_time":"16:40:00","lat":49.177455,"lon":16.567173,"is_passed":false},{"stop_id":"U1429Z3","name":"Nemocnice Bohunice","arrival_time":"16:42:00","departure_time":"17:00:00","lat":49.175844,"lon":16.567503,"is_passed":false}],"59023":[{"stop_id":"U1429Z4","name":"Nemocnice Bohunice","arrival_time":"17:00:00","departure_time":"17:00:00","lat":49.176125,"lon":16.567246,"is_passed":false},{"stop_id":"U1487Z7","name":"Pisárky","arrival_time":"17:04:00","departure_time":"17:04:00","lat":49.193452,"lon":16.569802,"is_passed":false},{"stop_id":"U1286Z4","name":"Královo Pole, nádraží","arrival_time":"17:12:00","departure_time":"17:15:00","lat":49.230229,"lon":16.595629,"is_passed":false}],"59024":[{"stop_id":"U1286Z3","name":"Královo Pole, nádraží","arrival_time":"17:15:00","departure_time":"17:15:00","lat":49.229218,"lon":16.596271,"is_passed":false},{"stop_id":"U1007Z3","name":"Anthropos","arrival_time":"17:21:00","departure_time":"17:21:00","lat":49.193146,"lon":16.565715,"is_passed":false},{"stop_id":"U1699Z2","name":"Univerzitní kampus","arrival_time":"17:25:00","departure_time":"17:25:00","lat":49.177455,"lon":16.567173,"is_passed":false},{"stop_id":"U1429Z3","name":"Nemocnice Bohunice","arrival_time":"17:27:00","departure_time":"17:45:00","lat":49.175844,"lon":16.567503,"is_passed":false}],"59025":[{"stop_id":"U1429Z4","name":"Nemocnice Bohunice","arrival_time":"17:45:00","departure_time":"17:45:00","lat":49.176125,"lon":16.567246,"is_passed":false},{"stop_id":"U1487Z7","name":"Pisárky","arrival_time":"17:49:00","departure_time":"17:49:00","lat":49.193452,"lon":16.569802,"is_passed":false},{"stop_id":"U1286Z4","name":"Královo Pole, nádraží","arrival_time":"17:57:00","departure_time":"17:59:00","lat":49.230229,"lon":16.595629,"is_passed":false}],"59026":[{"stop_id":"U1577Z2","name":"Slatina, sídliště","arrival_time":"4:33:00","departure_time":"4:33:00","lat":49.181605,"lon":16.690121,"is_passed":false},{"stop_id":"U1297Z1","name":"Kroměřížská","arrival_time":"4:34:00","departure_time":"4:34:00","lat":49.178307,"lon":16.688244,"is_passed":false},{"stop_id":"U1382Z1","name":"Mikulčická","arrival_time":"4:34:00","departure_time":"4:34:00","lat":49.178464,"lon":16.683602,"is_passed":false},{"stop_id":"U1323Z1","name":"Langrova","arrival_time":"4:35:00","departure_time":"4:35:00","lat":49.180031,"lon":16.680806,"is_passed":false},{"stop_id":"U1173Z1","name":"Hviezdoslavova","arrival_time":"4:36:00","departure_time":"4:36:00","lat":49.18219,"lon":16.676025,"is_passed":false},{"stop_id":"U1757Z1","name":"Vozovna Slatina","arrival_time":"4:37:00","departure_time":"4:37:00","lat":49.183032,"lon":16.672807,"is_passed":false},{"stop_id":"U1068Z1","name":"Černovičky","arrival_time":"4:38:00","departure_time":"4:38:00","lat":49.182244,"lon":16.66894,"is_passed":false},{"stop_id":"U1741Z1","name":"Vlárská","arrival_time":"4:38:00","departure_time":"4:38:00","lat":49.180745,"lon":16.671647,"is_passed":false},{"stop_id":"U1105Z4","name":"Ericha Roučky","arrival_time":"4:40:00","departure_time":"4:40:00","lat":49.175789,"lon":16.668403,"is_passed":false},{"stop_id":"U1739Z2","name":"Vlastimila Pecha","arrival_time":"4:41:00","departure_time":"4:41:00","lat":49.179751,"lon":16.662407,"is_passed":false},{"stop_id":"U1665Z2","name":"Těžební","arrival_time":"4:42:00","departure_time":"4:42:00","lat":49.182639,"lon":16.656437,"is_passed":false},{"stop_id":"U1455Z2","name":"Olomoucká - u školy","arrival_time":"4:43:00","departure_time":"4:43:00","lat":49.186437,"lon":16.652477,"is_passed":false},{"stop_id":"U1598Z2","name":"Spáčilova","arrival_time":"4:44:00","departure_time":"4:44:00","lat":49.188617,"lon":16.641569,"is_passed":false},{"stop_id":"U1814Z4","name":"Životského","arrival_time":"4:45:00","departure_time":"4:45:00","lat":49.190077,"lon":16.634992,"is_passed":false},{"stop_id":"U1372Z2","name":"Masná","arrival_time":"4:46:00","departure_time":"4:46:00","lat":49.191283,"lon":16.6245,"is_passed":false},{"stop_id":"U1746Z2","name":"Vlhká","arrival_time":"4:47:00","departure_time":"4:47:00","lat":49.191852,"lon":16.619157,"is_passed":false},{"stop_id":"U1146Z3","name":"Hlavní nádraží","arrival_time":"4:50:00","departure_time":"4:58:00","lat":49.191063,"lon":16.611972,"is_passed":false},{"stop_id":"U1596Z3","name":"Soukenická","arrival_time":"4:59:00","departure_time":"4:59:00","lat":49.188374,"lon":16.60657,"is_passed":false},{"stop_id":"U1301Z3","name":"Křídlovická","arrival_time":"5:00:00","departure_time":"5:00:00","lat":49.185812,"lon":16.603614,"is_passed":false},{"stop_id":"U1622Z2","name":"Strážní","arrival_time":"5:01:00","departure_time":"5:01:00","lat":49.178477,"lon":16.603646,"is_passed":false},{"stop_id":"U1141Z1","name":"Heršpická","arrival_time":"5:02:00","departure_time":"5:02:00","lat":49.170255,"lon":16.599363,"is_passed":false},{"stop_id":"U1466Z5","name":"Ořechovská","arrival_time":"5:04:00","departure_time":"5:05:00","lat":49.156238,"lon":16.599375,"is_passed":false}],"59027":[{"stop_id":"U1703Z7","name":"Ústřední hřbitov","arrival_time":"5:24:00","departure_time":"5:24:00","lat":49.170741,"lon":16.597834,"is_passed":false},{"stop_id":"U1293Z5","name":"Krematorium","arrival_time":"5:26:00","departure_time":"5:26:00","lat":49.172914,"lon":16.590082,"is_passed":false},{"stop_id":"U1714Z3","name":"Uzbecká","arrival_time":"5:27:00","departure_time":"5:27:00","lat":49.173362,"lon":16.581961,"is_passed":false},{"stop_id":"U1610Z1","name":"Stará nemocnice","arrival_time":"5:28:00","departure_time":"5:28:00","lat":49.173643,"lon":16.577115,"is_passed":false},{"stop_id":"U1429Z4","name":"Nemocnice Bohunice","arrival_time":"5:30:00","departure_time":"5:30:00","lat":49.176125,"lon":16.567246,"is_passed":false}],"59028":[{"stop_id":"U1429Z4","name":"Nemocnice Bohunice","arrival_time":"6:00:00","departure_time":"6:00:00","lat":49.176125,"lon":16.567246,"is_passed":false},{"stop_id":"U1487Z7","name":"Pisárky","arrival_time":"6:04:00","departure_time":"6:04:00","lat":49.193452,"lon":16.569802,"is_passed":false},{"stop_id":"U1286Z4","name":"Královo Pole, nádraží","arrival_time":"6:12:00","departure_time":"6:15:00","lat":49.230229,"lon":16.595629,"is_passed":false}],"59029":[{"stop_id":"U1286Z3","name":"Královo Pole, nádraží","arrival_time":"6:15:00","departure_time":"6:15:00","lat":49.229218,"lon":16.596271,"is_passed":false},{"stop_id":"U1007Z3","name":"Anthropos","arrival_time":"6:21:00","departure_time":"6:21:00","lat":49.193146,"lon":16.565715,"is_passed":false},{"stop_id":"U1699Z2","name":"Univerzitní kampus","arrival_time":"6:24:00","departure_time":"6:24:00","lat":49.177455,"lon":16.567173,"is_passed":false},{"stop_id":"U1429Z3","name":"Nemocnice Bohunice","arrival_time":"6:26:00","departure_time":"6:45:00","lat":49.175844,"lon":16.567503,"is_passed":false}],"59030":[{"stop_id":"U1429Z4","name":"Nemocnice Bohunice","arrival_time":"6:45:00","departure_time":"6:45:00","lat":49.176125,"lon":16.567246,"is_passed":false},{"stop_id":"U1487Z7","name":"Pisárky","arrival_time":"6:49:00","departure_time":"6:49:00","lat":49.193452,"lon":16.569802,"is_passed":false},{"stop_id":"U1286Z4","name":"Královo Pole, nádraží","arrival_time":"6:57:00","departure_time":"7:00:00","lat":49.230229,"lon":16.595629,"is_passed":false}],"59031":[{"stop_id":"U1286Z3","name":"Královo Pole, nádraží","arrival_time":"7:00:00","departure_time":"7:00:00","lat":49.229218,"lon":16.596271,"is_passed":false},{"stop_id":"U1007Z3","name":"Anthropos","arrival_time":"7:06:00","departure_time":"7:06:00","lat":49.193146,"lon":16.565715,"is_passed":false},{"stop_id":"U1699Z2","name":"Univerzitní kampus","arrival_time":"7:10:00","departure_time":"7:10:00","lat":49.177455,"lon":16.567173,"is_passed":false},{"stop_id":"U1429Z3","name":"Nemocnice Bohunice","arrival_time":"7:12:00","departure_time":"7:30:00","lat":49.175844,"lon":16.567503,"is_passed":false}],"59032":[{"stop_id":"U1429Z4","name":"Nemocnice Bohunice","arrival_time":"7:30:00","departure_time":"7:30:00","lat":49.176125,"lon":16.567246,"is_passed":false},{"stop_id":"U1487Z7","name":"Pisárky","arrival_time":"7:34:00","departure_time":"7:34:00","lat":49.193452,"lon":16.569802,"is_passed":false},{"stop_id":"U1286Z4","name":"Královo Pole, nádraží","arrival_time":"7:42:00","departure_time":"7:45:00","lat":49.230229,"lon":16.595629,"is_passed":false}],"59033":[{"stop_id":"U1286Z3","name":"Královo Pole, nádraží","arrival_time":"7:45:00","departure_time":"7:45:00","lat":49.229218,"lon":16.596271,"is_passed":false},{"stop_id":"U1007Z3","name":"Anthropos","arrival_time":"7:51:00","departure_time":"7:51:00","lat":49.193146,"lon":16.565715,"is_passed":false},{"stop_id":"U1699Z2","name":"Univerzitní kampus","arrival_time":"7:55:00","departure_time":"7:55:00","lat":49.177455,"lon":16.567173,"is_passed":false},{"stop_id":"U1429Z3","name":"Nemocnice Bohunice","arrival_time":"7:57:00","departure_time":"8:15:00","lat":49.175844,"lon":16.567503,"is_passed":false}],"59034":[{"stop_id":"U1429Z4","name":"Nemocnice Bohunice","arrival_time":"8:15:00","departure_time":"8:15:00","lat":49.176125,"lon":16.567246,"is_passed":false},{"stop_id":"U1487Z7","name":"Pisárky","arrival_time":"8:19:00","departure_time":"8:19:00","lat":49.193452,"lon":16.569802,"is_passed":false},{"stop_id":"U1286Z4","name":"Královo Pole, nádraží","arrival_time":"8:27:00","departure_time":"8:45:00","lat":49.230229,"lon":16.595629,"is_passed":false}],"59035":[{"stop_id":"U1286Z3","name":"Královo Pole, nádraží","arrival_time":"8:45:00","departure_time":"8:45:00","lat":49.229218,"lon":16.596271,"is_passed":false},{"stop_id":"U1007Z3","name":"Anthropos","arrival_time":"8:51:00","departure_time":"8:51:00","lat":49.193146,"lon":16.565715,"is_passed":false},{"stop_id":"U1699Z2","name":"Univerzitní kampus","arrival_time":"8:55:00","departure_time":"8:55:00","lat":49.177455,"lon":16.567173,"is_passed":false},{"stop_id":"U1429Z3","name":"Nemocnice Bohunice","arrival_time":"8:57:00","departure_time":"9:15:00","lat":49.175844,"lon":16.567503,"is_passed":false}],"59036":[{"stop_id":"U1429Z4","name":"Nemocnice Bohunice","arrival_time":"9:15:00","departure_time":"9:15:00","lat":49.176125,"lon":16.567246,"is_passed":false},{"stop_id":"U1487Z7","name":"Pisárky","arrival_time":"9:19:00","departure_time":"9:19:00","lat":49.193452,"lon":16.569802,"is_passed":false},{"stop_id":"U1286Z4","name":"Královo Pole, nádraží","arrival_time":"9:27:00","departure_time":"9:29:00","lat":49.230229,"lon":16.595629,"is_passed":false}],"59037":[{"stop_id":"U1286Z3","name":"Královo Pole, nádraží","arrival_time":"8:30:00","departure_time":"8:30:00","lat":49.229218,"lon":16.596271,"is_passed":false},{"stop_id":"U1007Z3","name":"Anthropos","arrival_time":"8:36:00","departure_time":"8:36:00","lat":49.193146,"lon":16.565715,"is_passed":false},{"stop_id":"U1699Z2","name":"Univerzitní kampus","arrival_time":"8:40:00","departure_time":"8:40:00","lat":49.177455,"lon":16.567173,"is_passed":false},{"stop_id":"U1429Z3","name":"Nemocnice Bohunice","arrival_time":"8:42:00","departure_time":"9:00:00","lat":49.175844,"lon":16.567503,"is_passed":false}],"59038":[{"stop_id":"U1429Z4","name":"Nemocnice Bohunice","arrival_time":"9:00:00","departure_time":"9:00:00","lat":49.176125,"lon":16.567246,"is_passed":false},{"stop_id":"U1487Z7","name":"Pisárky","arrival_time":"9:04:00","departure_time":"9:04:00","lat":49.193452,"lon":16.569802,"is_passed":false},{"stop_id":"U1286Z4","name":"Královo Pole, nádraží","arrival_time":"9:12:00","departure_time":"9:28:00","lat":49.230229,"lon":16.595629,"is_passed":false}],"59039":[{"stop_id":"U1286Z3","name":"Královo Pole, nádraží","arrival_time":"9:28:00","departure_time":"9:28:00","lat":49.229218,"lon":16.596271,"is_passed":false},{"stop_id":"U1007Z3","name":"Anthropos","arrival_time":"9:34:00","departure_time":"9:34:00","lat":49.193146,"lon":16.565715,"is_passed":false},{"stop_id":"U1699Z2","name":"Univerzitní kampus","arrival_time":"9:38:00","departure_time":"9:38:00","lat":49.177455,"lon":16.567173,"is_passed":false},{"stop_id":"U1429Z3","name":"Nemocnice Bohunice","arrival_time":"9:40:00","departure_time":"10:13:00","lat":49.175844,"lon":16.567503,"is_passed":false}],"59040":[{"stop_id":"U1429Z4","name":"Nemocnice Bohunice","arrival_time":"10:13:00","departure_time":"10:13:00","lat":49.176125,"lon":16.567246,"is_passed":false},{"stop_id":"U1487Z7","name":"Pisárky","arrival_time":"10:17:00","departure_time":"10:17:00","lat":49.193452,"lon":16.569802,"is_passed":false},{"stop_id":"U1286Z4","name":"Královo Pole, nádraží","arrival_time":"10:25:00","departure_time":"10:28:00","lat":49.230229,"lon":16.595629,"is_passed":false}],"59041":[{"stop_id":"U1286Z3","name":"Královo Pole, nádraží","arrival_time":"10:28:00","departure_time":"10:28:00","lat":49.229218,"lon":16.596271,"is_passed":false},{"stop_id":"U1007Z3","name":"Anthropos","arrival_time":"10:34:00","departure_time":"10:34:00","lat":49.193146,"lon":16.565715,"is_passed":false},{"stop_id":"U1699Z2","name":"Univerzitní kampus","arrival_time":"10:38:00","departure_time":"10:38:00","lat":49.177455,"lon":16.567173,"is_passed":false},{"stop_id":"U1429Z3","name":"Nemocnice Bohunice","arrival_time":"10:40:00","departure_time":"11:13:00","lat":49.175844,"lon":16.567503,"is_passed":false}],"59042":[{"stop_id":"U1429Z4","name":"Nemocnice Bohunice","arrival_time":"11:13:00","departure_time":"11:13:00","lat":49.176125,"lon":16.567246,"is_passed":false},{"stop_id":"U1487Z7","name":"Pisárky","arrival_time":"11:17:00","departure_time":"11:17:00","lat":49.193452,"lon":16.569802,"is_passed":false},{"stop_id":"U1286Z4","name":"Královo Pole, nádraží","arrival_time":"11:25:00","departure_time":"11:28:00","lat":49.230229,"lon":16.595629,"is_passed":false}],"59043":[{"stop_id":"U1286Z3","name":"Královo Pole, nádraží","arrival_time":"11:28:00","departure_time":"11:28:00","lat":49.229218,"lon":16.596271,"is_passed":false},{"stop_id":"U1007Z3","name":"Anthropos","arrival_time":"11:34:00","departure_time":"11:34:00","lat":49.193146,"lon":16.565715,"is_passed":false},{"stop_id":"U1699Z2","name":"Univerzitní kampus","arrival_time":"11:38:00","departure_time":"11:38:00","lat":49.177455,"lon":16.567173,"is_passed":false},{"stop_id":"U1429Z3","name":"Nemocnice Bohunice","arrival_time":"11:40:00","departure_time":"12:13:00","lat":49.175844,"lon":16.567503,"is_passed":false}],"59044":[{"stop_id":"U1429Z4","name":"Nemocnice Bohunice","arrival_time":"12:13:00","departure_time":"12:13:00","lat":49.176125,"lon":16.567246,"is_passed":false},{"stop_id":"U1487Z7","name":"Pisárky","arrival_time":"12:17:00","departure_time":"12:17:00","lat":49.193452,"lon":16.569802,"is_passed":false},{"stop_id":"U1286Z4","name":"Královo Pole, nádraží","arrival_time":"12:25:00","departure_time":"12:28:00","lat":49.230229,"lon":16.595629,"is_passed":false}],"59045":[{"stop_id":"U1286Z3","name":"Královo Pole, nádraží","arrival_time":"12:28:00","departure_time":"12:28:00","lat":49.229218,"lon":16.596271,"is_passed":false},{"stop_id":"U1007Z3","name":"Anthropos","arrival_time":"12:34:00","departure_time":"12:34:00","lat":49.193146,"lon":16.565715,"is_passed":false},{"stop_id":"U1699Z2","name":"Univerzitní kampus","arrival_time":"12:38:00","departure_time":"12:38:00","lat":49.177455,"lon":16.567173,"is_passed":false},{"stop_id":"U1429Z3","name":"Nemocnice Bohunice","arrival_time":"12:40:00","departure_time":"13:13:00","lat":49.175844,"lon":16.567503,"is_passed":false}],"59046":[{"stop_id":"U1429Z4","name":"Nemocnice Bohunice","arrival_time":"13:13:00","departure_time":"13:13:00","lat":49.176125,"lon":16.567246,"is_passed":false},{"stop_id":"U1487Z7","name":"Pisárky","arrival_time":"13:17:00","departure_time":"13:17:00","lat":49.193452,"lon":16.569802,"is_passed":false},{"stop_id":"U1286Z4","name":"Královo Pole, nádraží","arrival_time":"13:25:00","departure_time":"13:28:00","lat":49.230229,"lon":16.595629,"is_passed":false}],"59047":[{"stop_id":"U1286Z3","name":"Královo Pole, nádraží","arrival_time":"13:28:00","departure_time":"13:28:00","lat":49.229218,"lon":16.596271,"is_passed":false},{"stop_id":"U1007Z3","name":"Anthropos","arrival_time":"13:34:00","departure_time":"13:34:00","lat":49.193146,"lon":16.565715,"is_passed":false},{"stop_id":"U1699Z2","name":"Univerzitní kampus","arrival_time":"13:38:00","departure_time":"13:38:00","lat":49.177455,"lon":16.567173,"is_passed":false},{"stop_id":"U1429Z3","name":"Nemocnice Bohunice","arrival_time":"13:40:00","departure_time":"14:13:00","lat":49.175844,"lon":16.567503,"is_passed":false}],"59048":[{"stop_id":"U1429Z4","name":"Nemocnice Bohunice","arrival_time":"14:13:00","departure_time":"14:13:00","lat":49.176125,"lon":16.567246,"is_passed":false},{"stop_id":"U1487Z7","name":"Pisárky","arrival_time":"14:17:00","departure_time":"14:17:00","lat":49.193452,"lon":16.569802,"is_passed":false},{"stop_id":"U1286Z4","name":"Královo Pole, nádraží","arrival_time":"14:25:00","departure_time":"14:30:00","lat":49.230229,"lon":16.595629,"is_passed":false}],"59049":[{"stop_id":"U1286Z3","name":"Královo Pole, nádraží","arrival_time":"14:30:00","departure_time":"14:30:00","lat":49.229218,"lon":16.596271,"is_passed":false},{"stop_id":"U1007Z3","name":"Anthropos","arrival_time":"14:36:00","departure_time":"14:36:00","lat":49.193146,"lon":16.565715,"is_passed":false},{"stop_id":"U1699Z2","name":"Univerzitní kampus","arrival_time":"14:40:00","departure_time":"14:40:00","lat":49.177455,"lon":16.567173,"is_passed":false},{"stop_id":"U1429Z3","name":"Nemocnice Bohunice","arrival_time":"14:42:00","departure_time":"15:00:00","lat":49.175844,"lon":16.567503,"is_passed":false}],"59050":[{"stop_id":"U1429Z4","name":"Nemocnice Bohunice","arrival_time":"15:00:00","departure_time":"15:00:00","lat":49.176125,"lon":16.567246,"is_passed":false},{"stop_id":"U1487Z7","name":"Pisárky","arrival_time":"15:04:00","departure_time":"15:04:00","lat":49.193452,"lon":16.569802,"is_passed":false},{"stop_id":"U1286Z4","name":"Královo Pole, nádraží","arrival_time":"15:12:00","departure_time":"15:15:00","lat":49.230229,"lon":16.595629,"is_passed":false}],"59051":[{"stop_id":"U1286Z3","name":"Královo Pole, nádraží","arrival_time":"15:15:00","departure_time":"15:15:00","lat":49.229218,"lon":16.596271,"is_passed":false},{"stop_id":"U1007Z3","name":"Anthropos","arrival_time":"15:21:00","departure_time":"15:21:00","lat":49.193146,"lon":16.565715,"is_passed":false},{"stop_id":"U1699Z2","name":"Univerzitní kampus","arrival_time":"15:25:00","departure_time":"15:25:00","lat":49.177455,"lon":16.567173,"is_passed":false},{"stop_id":"U1429Z3","name":"Nemocnice Bohunice","arrival_time":"15:27:00","departure_time":"15:45:00","lat":49.175844,"lon":16.567503,"is_passed":false}],"59052":[{"stop_id":"U1429Z4","name":"Nemocnice Bohunice","arrival_time":"15:45:00","departure_time":"15:45:00","lat":49.176125,"lon":16.567246,"is_passed":false},{"stop_id":"U1487Z7","name":"Pisárky","arrival_time":"15:49:00","departure_time":"15:49:00","lat":49.193452,"lon":16.569802,"is_passed":false},{"stop_id":"U1286Z4","name":"Královo Pole, nádraží","arrival_time":"15:57:00","departure_time":"16:00:00","lat":49.230229,"lon":16.595629,"is_passed":false}],"59053":[{"stop_id":"U1286Z3","name":"Královo Pole, nádraží","arrival_time":"16:00:00","departure_time":"16:00:00","lat":49.229218,"lon":16.596271,"is_passed":false},{"stop_id":"U1007Z3","name":"Anthropos","arrival_time":"16:06:00","departure_time":"16:06:00","lat":49.193146,"lon":16.565715,"is_passed":false},{"stop_id":"U1699Z2","name":"Univerzitní kampus","arrival_time":"16:10:00","departure_time":"16:10:00","lat":49.177455,"lon":16.567173,"is_passed":false},{"stop_id":"U1429Z3","name":"Nemocnice Bohunice","arrival_time":"16:12:00","departure_time":"16:30:00","lat":49.175844,"lon":16.567503,"is_passed":false}],"59054":[{"stop_id":"U1429Z4","name":"Nemocnice Bohunice","arrival_time":"16:30:00","departure_time":"16:30:00","lat":49.176125,"lon":16.567246,"is_passed":false},{"stop_id":"U1487Z7","name":"Pisárky","arrival_time":"16:34:00","departure_time":"16:34:00","lat":49.193452,"lon":16.569802,"is_passed":false},{"stop_id":"U1286Z4","name":"Královo Pole, nádraží","arrival_time":"16:42:00","departure_time":"16:45:00","lat":49.230229,"lon":16.595629,"is_passed":false}],"59055":[{"stop_id":"U1286Z3","name":"Královo Pole, nádraží","arrival_time":"16:45:00","departure_time":"16:45:00","lat":49.229218,"lon":16.596271,"is_passed":false},{"stop_id":"U1007Z3","name":"Anthropos","arrival_time":"16:51:00","departure_time":"16:51:00","lat":49.193146,"lon":16.565715,"is_passed":false},{"stop_id":"U1699Z2","name":"Univerzitní kampus","arrival_time":"16:55:00","departure_time":"16:55:00","lat":49.177455,"lon":16.567173,"is_passed":false},{"stop_id":"U1429Z3","name":"Nemocnice Bohunice","arrival_time":"16:57:00","departure_time":"17:15:00","lat":49.175844,"lon":16.567503,"is_passed":false}],"59056":[{"stop_id":"U1429Z4","name":"Nemocnice Bohunice","arrival_time":"17:15:00","departure_time":"17:15:00","lat":49.176125,"lon":16.567246,"is_passed":false},{"stop_id":"U1487Z7","name":"Pisárky","arrival_time":"17:19:00","departure_time":"17:19:00","lat":49.193452,"lon":16.569802,"is_passed":false},{"stop_id":"U1286Z4","name":"Královo Pole, nádraží","arrival_time":"17:27:00","departure_time":"17:30:00","lat":49.230229,"lon":16.595629,"is_passed":false}],"59057":[{"stop_id":"U1286Z3","name":"Královo Pole, nádraží","arrival_time":"17:30:00","departure_time":"17:30:00","lat":49.229218,"lon":16.596271,"is_passed":false},{"stop_id":"U1007Z3","name":"Anthropos","arrival_time":"17:36:00","departure_time":"17:36:00","lat":49.193146,"lon":16.565715,"is_passed":false},{"stop_id":"U1699Z2","name":"Univerzitní kampus","arrival_time":"17:40:00","departure_time":"17:40:00","lat":49.177455,"lon":16.567173,"is_passed":false},{"stop_id":"U1429Z3","name":"Nemocnice Bohunice","arrival_time":"17:42:00","departure_time":"18:13:00","lat":49.175844,"lon":16.567503,"is_passed":false}],"59058":[{"stop_id":"U1429Z4","name":"Nemocnice Bohunice","arrival_time":"18:13:00","departure_time":"18:13:00","lat":49.176125,"lon":16.567246,"is_passed":false},{"stop_id":"U1487Z7","name":"Pisárky","arrival_time":"18:17:00","departure_time":"18:17:00","lat":49.193452,"lon":16.569802,"is_passed":false},{"stop_id":"U1286Z4","name":"Královo Pole, nádraží","arrival_time":"18:25:00","departure_time":"18:30:00","lat":49.230229,"lon":16.595629,"is_passed":false}],"59059":[{"stop_id":"U1286Z3","name":"Královo Pole, nádraží","arrival_time":"18:30:00","departure_time":"18:30:00","lat":49.229218,"lon":16.596271,"is_passed":false},{"stop_id":"U1007Z3","name":"Anthropos","arrival_time":"18:36:00","departure_time":"18:36:00","lat":49.193146,"lon":16.565715,"is_passed":false},{"stop_id":"U1699Z2","name":"Univerzitní kampus","arrival_time":"18:39:00","departure_time":"18:39:00","lat":49.177455,"lon":16.567173,"is_passed":false},{"stop_id":"U1429Z3","name":"Nemocnice Bohunice","arrival_time":"18:41:00","departure_time":"19:13:00","lat":49.175844,"lon":16.567503,"is_passed":false}],"59060":[{"stop_id":"U1429Z4","name":"Nemocnice Bohunice","arrival_time":"19:13:00","departure_time":"19:13:00","lat":49.176125,"lon":16.567246,"is_passed":false},{"stop_id":"U1487Z7","name":"Pisárky","arrival_time":"19:17:00","departure_time":"19:17:00","lat":49.193452,"lon":16.569802,"is_passed":false},{"stop_id":"U1286Z4","name":"Královo Pole, nádraží","arrival_time":"19:25:00","departure_time":"19:28:00","lat":49.230229,"lon":16.595629,"is_passed":false}],"59061":[{"stop_id":"U13187Z2","name":"Vranov, smyčka","arrival_time":"5:37:00","departure_time":"5:37:00","lat":49.31124,"lon":16.611894,"is_passed":false},{"stop_id":"U13183Z2","name":"Vranov, křižovatka","arrival_time":"5:38:00","departure_time":"5:38:00","lat":49.31021,"lon":16.612492,"is_passed":false},{"stop_id":"U13185Z2","name":"Vranov, myslivna","arrival_time":"5:41:00","departure_time":"5:41:00","lat":49.308239,"lon":16.621915,"is_passed":false},{"stop_id":"U13181Z2","name":"Vranov, hřbitov","arrival_time":"5:41:00","departure_time":"5:41:00","lat":49.305733,"lon":16.622556,"is_passed":false},{"stop_id":"U1707Z4","name":"Útěchov","arrival_time":"5:45:00","departure_time":"5:45:00","lat":49.288098,"lon":16.630755,"is_passed":false},{"stop_id":"U1554Z2","name":"Rozcestí","arrival_time":"5:45:00","departure_time":"5:45:00","lat":49.285548,"lon":16.631807,"is_passed":false},{"stop_id":"U1684Z2","name":"U buku","arrival_time":"5:47:00","departure_time":"5:47:00","lat":49.276379,"lon":16.630333,"is_passed":false},{"stop_id":"U1694Z2","name":"U jezírka","arrival_time":"5:48:00","departure_time":"5:48:00","lat":49.269918,"lon":16.629017,"is_passed":false},{"stop_id":"U1333Z2","name":"Lesní školka","arrival_time":"5:49:00","departure_time":"5:49:00","lat":49.26305,"lon":16.625897,"is_passed":false},{"stop_id":"U1355Z2","name":"Malinová","arrival_time":"5:50:00","departure_time":"5:50:00","lat":49.259186,"lon":16.623587,"is_passed":false},{"stop_id":"U1235Z2","name":"Klarisky","arrival_time":"5:52:00","departure_time":"5:53:00","lat":49.257223,"lon":16.622493,"is_passed":false},{"stop_id":"U1548Z2","name":"Rozárka","arrival_time":"5:53:00","departure_time":"5:53:00","lat":49.254088,"lon":16.622556,"is_passed":false},{"stop_id":"U1647Z2","name":"Štěpánkova","arrival_time":"5:54:00","departure_time":"5:54:00","lat":49.251234,"lon":16.623308,"is_passed":false},{"stop_id":"U1479Z2","name":"Panská lícha","arrival_time":"5:55:00","departure_time":"5:55:00","lat":49.245102,"lon":16.624834,"is_passed":false},{"stop_id":"U1691Z2","name":"U rozvodny","arrival_time":"5:56:00","departure_time":"5:56:00","lat":49.24075,"lon":16.627342,"is_passed":false},{"stop_id":"U1317Z2","name":"Kupkova","arrival_time":"5:57:00","departure_time":"5:57:00","lat":49.236128,"lon":16.627756,"is_passed":false},{"stop_id":"U1132Z3","name":"Haškova","arrival_time":"5:59:00","departure_time":"5:59:00","lat":49.233588,"lon":16.623836,"is_passed":false},{"stop_id":"U1348Z2","name":"Loosova","arrival_time":"6:00:00","departure_time":"6:00:00","lat":49.231571,"lon":16.618938,"is_passed":false},{"stop_id":"U1111Z2","name":"Fillova","arrival_time":"6:01:00","departure_time":"6:01:00","lat":49.229347,"lon":16.616979,"is_passed":false},{"stop_id":"U1582Z2","name":"Slavíčkova","arrival_time":"6:02:00","departure_time":"6:02:00","lat":49.225821,"lon":16.617957,"is_passed":false},{"stop_id":"U1128Z4","name":"Halasovo náměstí","arrival_time":"6:03:00","departure_time":"6:03:00","lat":49.22314,"lon":16.622438,"is_passed":false},{"stop_id":"U1506Z2","name":"Poliklinika Lesná","arrival_time":"6:04:00","departure_time":"6:04:00","lat":49.222411,"lon":16.625672,"is_passed":false},{"stop_id":"U1331Z2","name":"Lesná, nádraží","arrival_time":"6:05:00","departure_time":"6:05:00","lat":49.220094,"lon":16.62942,"is_passed":false},{"stop_id":"U1646Z4","name":"Štefánikova čtvrť","arrival_time":"6:06:00","departure_time":"6:06:00","lat":49.217288,"lon":16.627693,"is_passed":false},{"stop_id":"U1381Z1","name":"Merhautova","arrival_time":"6:07:00","departure_time":"6:07:00","lat":49.21485,"lon":16.627477,"is_passed":false},{"stop_id":"U1668Z1","name":"Tomkovo náměstí","arrival_time":"6:09:00","departure_time":"6:09:00","lat":49.214035,"lon":16.636587,"is_passed":false},{"stop_id":"U1358Z5","name":"Maloměřický most","arrival_time":"6:10:00","departure_time":"6:10:00","lat":49.2152,"lon":16.643926,"is_passed":false}],"59062":[{"stop_id":"U1358Z5","name":"Maloměřický most","arrival_time":"6:10:00","departure_time":"6:10:00","lat":49.2152,"lon":16.643926,"is_passed":false},{"stop_id":"U1231Z2","name":"Karlova","arrival_time":"6:11:00","departure_time":"6:11:00","lat":49.212343,"lon":16.643285,"is_passed":false},{"stop_id":"U1668Z4","name":"Tomkovo náměstí","arrival_time":"6:13:00","departure_time":"6:13:00","lat":49.214128,"lon":16.634545,"is_passed":false},{"stop_id":"U1381Z2","name":"Merhautova","arrival_time":"6:14:00","departure_time":"6:14:00","lat":49.215,"lon":16.627633,"is_passed":false},{"stop_id":"U1646Z3","name":"Štefánikova čtvrť","arrival_time":"6:15:00","departure_time":"6:15:00","lat":49.216958,"lon":16.627543,"is_passed":false},{"stop_id":"U1331Z1","name":"Lesná, nádraží","arrival_time":"6:16:00","departure_time":"6:16:00","lat":49.220041,"lon":16.629534,"is_passed":false},{"stop_id":"U1506Z1","name":"Poliklinika Lesná","arrival_time":"6:17:00","departure_time":"6:17:00","lat":49.222513,"lon":16.625643,"is_passed":false},{"stop_id":"U1128Z3","name":"Halasovo náměstí","arrival_time":"6:18:00","departure_time":"6:19:00","lat":49.223406,"lon":16.622237,"is_passed":false},{"stop_id":"U1582Z1","name":"Slavíčkova","arrival_time":"6:20:00","departure_time":"6:20:00","lat":49.226088,"lon":16.617914,"is_passed":false},{"stop_id":"U1111Z1","name":"Fillova","arrival_time":"6:21:00","departure_time":"6:21:00","lat":49.229105,"lon":16.616814,"is_passed":false},{"stop_id":"U1348Z1","name":"Loosova","arrival_time":"6:22:00","departure_time":"6:22:00","lat":49.232374,"lon":16.619952,"is_passed":false},{"stop_id":"U1132Z1","name":"Haškova","arrival_time":"6:23:00","departure_time":"6:23:00","lat":49.233582,"lon":16.624766,"is_passed":false},{"stop_id":"U1317Z1","name":"Kupkova","arrival_time":"6:24:00","departure_time":"6:24:00","lat":49.236519,"lon":16.627603,"is_passed":false},{"stop_id":"U1691Z1","name":"U rozvodny","arrival_time":"6:25:00","departure_time":"6:25:00","lat":49.240973,"lon":16.62736,"is_passed":false},{"stop_id":"U1479Z1","name":"Panská lícha","arrival_time":"6:26:00","departure_time":"6:26:00","lat":49.24527,"lon":16.624807,"is_passed":false},{"stop_id":"U1647Z1","name":"Štěpánkova","arrival_time":"6:27:00","departure_time":"6:27:00","lat":49.251649,"lon":16.62312,"is_passed":false},{"stop_id":"U1548Z1","name":"Rozárka","arrival_time":"6:28:00","departure_time":"6:28:00","lat":49.254486,"lon":16.622791,"is_passed":false},{"stop_id":"U1235Z1","name":"Klarisky","arrival_time":"6:30:00","departure_time":"6:31:00","lat":49.256961,"lon":16.622588,"is_passed":false},{"stop_id":"U1355Z1","name":"Malinová","arrival_time":"6:31:00","departure_time":"6:31:00","lat":49.259433,"lon":16.624027,"is_passed":false},{"stop_id":"U1333Z1","name":"Lesní školka","arrival_time":"6:32:00","departure_time":"6:32:00","lat":49.263185,"lon":16.625985,"is_passed":false},{"stop_id":"U1694Z1","name":"U jezírka","arrival_time":"6:33:00","departure_time":"6:33:00","lat":49.269695,"lon":16.6293,"is_passed":false},{"stop_id":"U1684Z1","name":"U buku","arrival_time":"6:34:00","departure_time":"6:34:00","lat":49.276348,"lon":16.630361,"is_passed":false},{"stop_id":"U1554Z1","name":"Rozcestí","arrival_time":"6:36:00","departure_time":"6:36:00","lat":49.285805,"lon":16.63179,"is_passed":false},{"stop_id":"U1707Z3","name":"Útěchov","arrival_time":"6:37:00","departure_time":"6:37:00","lat":49.289637,"lon":16.630401,"is_passed":false},{"stop_id":"U13181Z1","name":"Vranov, hřbitov","arrival_time":"6:40:00","departure_time":"6:40:00","lat":49.305827,"lon":16.622567,"is_passed":false},{"stop_id":"U13185Z1","name":"Vranov, myslivna","arrival_time":"6:41:00","departure_time":"6:41:00","lat":49.308583,"lon":16.621781,"is_passed":false},{"stop_id":"U13183Z1","name":"Vranov, křižovatka","arrival_time":"6:42:00","departure_time":"6:42:00","lat":49.31025,"lon":16.612232,"is_passed":false},{"stop_id":"U13187Z1","name":"Vranov, smyčka","arrival_time":"6:44:00","departure_time":"7:09:00","lat":49.310984,"lon":16.612105,"is_passed":false}],"59063":[{"stop_id":"U13187Z2","name":"Vranov, smyčka","arrival_time":"7:09:00","departure_time":"7:09:00","lat":49.31124,"lon":16.611894,"is_passed":false},{"stop_id":"U13183Z2","name":"Vranov, křižovatka","arrival_time":"7:10:00","departure_time":"7:10:00","lat":49.31021,"lon":16.612492,"is_passed":false},{"stop_id":"U13185Z2","name":"Vranov, myslivna","arrival_time":"7:13:00","departure_time":"7:13:00","lat":49.308239,"lon":16.621915,"is_passed":false},{"stop_id":"U13181Z2","name":"Vranov, hřbitov","arrival_time":"7:13:00","departure_time":"7:13:00","lat":49.305733,"lon":16.622556,"is_passed":false},{"stop_id":"U1707Z4","name":"Útěchov","arrival_time":"7:17:00","departure_time":"7:17:00","lat":49.288098,"lon":16.630755,"is_passed":false},{"stop_id":"U1554Z2","name":"Rozcestí","arrival_time":"7:17:00","departure_time":"7:17:00","lat":49.285548,"lon":16.631807,"is_passed":false},{"stop_id":"U1684Z2","name":"U buku","arrival_time":"7:19:00","departure_time":"7:19:00","lat":49.276379,"lon":16.630333,"is_passed":false},{"stop_id":"U1694Z2","name":"U jezírka","arrival_time":"7:20:00","departure_time":"7:20:00","lat":49.269918,"lon":16.629017,"is_passed":false},{"stop_id":"U1333Z2","name":"Lesní školka","arrival_time":"7:21:00","departure_time":"7:21:00","lat":49.26305,"lon":16.625897,"is_passed":false},{"stop_id":"U1355Z2","name":"Malinová","arrival_time":"7:22:00","departure_time":"7:22:00","lat":49.259186,"lon":16.623587,"is_passed":false},{"stop_id":"U1235Z2","name":"Klarisky","arrival_time":"7:24:00","departure_time":"7:24:00","lat":49.257223,"lon":16.622493,"is_passed":false},{"stop_id":"U1548Z2","name":"Rozárka","arrival_time":"7:24:00","departure_time":"7:24:00","lat":49.254088,"lon":16.622556,"is_passed":false},{"stop_id":"U1647Z2","name":"Štěpánkova","arrival_time":"7:25:00","departure_time":"7:25:00","lat":49.251234,"lon":16.623308,"is_passed":false},{"stop_id":"U1479Z2","name":"Panská lícha","arrival_time":"7:26:00","departure_time":"7:26:00","lat":49.245102,"lon":16.624834,"is_passed":false},{"stop_id":"U1691Z2","name":"U rozvodny","arrival_time":"7:27:00","departure_time":"7:27:00","lat":49.24075,"lon":16.627342,"is_passed":false},{"stop_id":"U1317Z2","name":"Kupkova","arrival_time":"7:28:00","departure_time":"7:28:00","lat":49.236128,"lon":16.627756,"is_passed":false},{"stop_id":"U1132Z3","name":"Haškova","arrival_time":"7:30:00","departure_time":"7:30:00","lat":49.233588,"lon":16.623836,"is_passed":false},{"stop_id":"U1348Z2","name":"Loosova","arrival_time":"7:31:00","departure_time":"7:31:00","lat":49.231571,"lon":16.618938,"is_passed":false},{"stop_id":"U1111Z2","name":"Fillova","arrival_time":"7:32:00","departure_time":"7:32:00","lat":49.229347,"lon":16.616979,"is_passed":false},{"stop_id":"U1582Z2","name":"Slavíčkova","arrival_time":"7:33:00","departure_time":"7:33:00","lat":49.225821,"lon":16.617957,"is_passed":false},{"stop_id":"U1128Z4","name":"Halasovo náměstí","arrival_time":"7:34:00","departure_time":"7:34:00","lat":49.22314,"lon":16.622438,"is_passed":false},{"stop_id":"U1506Z2","name":"Poliklinika Lesná","arrival_time":"7:35:00","departure_time":"7:35:00","lat":49.222411,"lon":16.625672,"is_passed":false},{"stop_id":"U1331Z2","name":"Lesná, nádraží","arrival_time":"7:36:00","departure_time":"7:36:00","lat":49.220094,"lon":16.62942,"is_passed":false},{"stop_id":"U1646Z4","name":"Štefánikova čtvrť","arrival_time":"7:37:00","departure_time":"7:37:00","lat":49.217288,"lon":16.627693,"is_passed":false},{"stop_id":"U1381Z1","name":"Merhautova","arrival_time":"7:39:00","departure_time":"7:39:00","lat":49.21485,"lon":16.627477,"is_passed":false},{"stop_id":"U1668Z1","name":"Tomkovo náměstí","arrival_time":"7:41:00","departure_time":"7:41:00","lat":49.214035,"lon":16.636587,"is_passed":false},{"stop_id":"U1358Z5","name":"Maloměřický most","arrival_time":"7:42:00","departure_time":"7:42:00","lat":49.2152,"lon":16.643926,"is_passed":false}],"59064":[{"stop_id":"U1358Z5","name":"Maloměřický most","arrival_time":"7:42:00","departure_time":"7:42:00","lat":49.2152,"lon":16.643926,"is_passed":false},{"stop_id":"U1231Z2","name":"Karlova","arrival_time":"7:43:00","departure_time":"7:43:00","lat":49.212343,"lon":16.643285,"is_passed":false},{"stop_id":"U1668Z4","name":"Tomkovo náměstí","arrival_time":"7:45:00","departure_time":"7:46:00","lat":49.214128,"lon":16.634545,"is_passed":false},{"stop_id":"U1381Z2","name":"Merhautova","arrival_time":"7:47:00","departure_time":"7:47:00","lat":49.215,"lon":16.627633,"is_passed":false},{"stop_id":"U1646Z3","name":"Štefánikova čtvrť","arrival_time":"7:48:00","departure_time":"7:48:00","lat":49.216958,"lon":16.627543,"is_passed":false},{"stop_id":"U1331Z1","name":"Lesná, nádraží","arrival_time":"7:49:00","departure_time":"7:49:00","lat":49.220041,"lon":16.629534,"is_passed":false},{"stop_id":"U1506Z1","name":"Poliklinika Lesná","arrival_time":"7:50:00","departure_time":"7:50:00","lat":49.222513,"lon":16.625643,"is_passed":false},{"stop_id":"U1128Z3","name":"Halasovo náměstí","arrival_time":"7:51:00","departure_time":"7:52:00","lat":49.223406,"lon":16.622237,"is_passed":false},{"stop_id":"U1582Z1","name":"Slavíčkova","arrival_time":"7:53:00","departure_time":"7:53:00","lat":49.226088,"lon":16.617914,"is_passed":false},{"stop_id":"U1111Z1","name":"Fillova","arrival_time":"7:54:00","departure_time":"7:54:00","lat":49.229105,"lon":16.616814,"is_passed":false},{"stop_id":"U1348Z1","name":"Loosova","arrival_time":"7:55:00","departure_time":"7:55:00","lat":49.232374,"lon":16.619952,"is_passed":false},{"stop_id":"U1132Z1","name":"Haškova","arrival_time":"7:56:00","departure_time":"7:56:00","lat":49.233582,"lon":16.624766,"is_passed":false},{"stop_id":"U1317Z1","name":"Kupkova","arrival_time":"7:58:00","departure_time":"7:58:00","lat":49.236519,"lon":16.627603,"is_passed":false},{"stop_id":"U1691Z1","name":"U rozvodny","arrival_time":"7:59:00","departure_time":"7:59:00","lat":49.240973,"lon":16.62736,"is_passed":false},{"stop_id":"U1479Z1","name":"Panská lícha","arrival_time":"8:00:00","departure_time":"8:00:00","lat":49.24527,"lon":16.624807,"is_passed":false},{"stop_id":"U1647Z1","name":"Štěpánkova","arrival_time":"8:01:00","departure_time":"8:01:00","lat":49.251649,"lon":16.62312,"is_passed":false},{"stop_id":"U1548Z1","name":"Rozárka","arrival_time":"8:02:00","departure_time":"8:02:00","lat":49.254486,"lon":16.622791,"is_passed":false},{"stop_id":"U1235Z1","name":"Klarisky","arrival_time":"8:04:00","departure_time":"8:04:00","lat":49.256961,"lon":16.622588,"is_passed":false},{"stop_id":"U1355Z1","name":"Malinová","arrival_time":"8:04:00","departure_time":"8:04:00","lat":49.259433,"lon":16.624027,"is_passed":false},{"stop_id":"U1333Z1","name":"Lesní školka","arrival_time":"8:05:00","departure_time":"8:05:00","lat":49.263185,"lon":16.625985,"is_passed":false},{"stop_id":"U1694Z1","name":"U jezírka","arrival_time":"8:06:00","departure_time":"8:06:00","lat":49.269695,"lon":16.6293,"is_passed":false},{"stop_id":"U1684Z1","name":"U buku","arrival_time":"8:07:00","departure_time":"8:07:00","lat":49.276348,"lon":16.630361,"is_passed":false},{"stop_id":"U1554Z1","name":"Rozcestí","arrival_time":"8:09:00","departure_time":"8:09:00","lat":49.285805,"lon":16.63179,"is_passed":false},{"stop_id":"U1707Z3","name":"Útěchov","arrival_time":"8:10:00","departure_time":"8:10:00","lat":49.289637,"lon":16.630401,"is_passed":false},{"stop_id":"U13181Z1","name":"Vranov, hřbitov","arrival_time":"8:13:00","departure_time":"8:13:00","lat":49.305827,"lon":16.622567,"is_passed":false},{"stop_id":"U13185Z1","name":"Vranov, myslivna","arrival_time":"8:14:00","departure_time":"8:14:00","lat":49.308583,"lon":16.621781,"is_passed":false},{"stop_id":"U13183Z1","name":"Vranov, křižovatka","arrival_time":"8:15:00","departure_time":"8:15:00","lat":49.31025,"lon":16.612232,"is_passed":false},{"stop_id":"U13187Z1","name":"Vranov, smyčka","arrival_time":"8:17:00","departure_time":"8:39:00","lat":49.310984,"lon":16.612105,"is_passed":false}],"59065":[{"stop_id":"U13187Z2","name":"Vranov, smyčka","arrival_time":"8:39:00","departure_time":"8:39:00","lat":49.31124,"lon":16.611894,"is_passed":false},{"stop_id":"U13183Z2","name":"Vranov, křižovatka","arrival_time":"8:40:00","departure_time":"8:40:00","lat":49.31021,"lon":16.612492,"is_passed":false},{"stop_id":"U13185Z2","name":"Vranov, myslivna","arrival_time":"8:43:00","departure_time":"8:43:00","lat":49.308239,"lon":16.621915,"is_passed":false},{"stop_id":"U13181Z2","name":"Vranov, hřbitov","arrival_time":"8:43:00","departure_time":"8:43:00","lat":49.305733,"lon":16.622556,"is_passed":false},{"stop_id":"U1707Z4","name":"Útěchov","arrival_time":"8:47:00","departure_time":"8:47:00","lat":49.288098,"lon":16.630755,"is_passed":false},{"stop_id":"U1554Z2","name":"Rozcestí","arrival_time":"8:47:00","departure_time":"8:47:00","lat":49.285548,"lon":16.631807,"is_passed":false},{"stop_id":"U1684Z2","name":"U buku","arrival_time":"8:49:00","departure_time":"8:49:00","lat":49.276379,"lon":16.630333,"is_passed":false},{"stop_id":"U1694Z2","name":"U jezírka","arrival_time":"8:50:00","departure_time":"8:50:00","lat":49.269918,"lon":16.629017,"is_passed":false},{"stop_id":"U1333Z2","name":"Lesní školka","arrival_time":"8:51:00","departure_time":"8:51:00","lat":49.26305,"lon":16.625897,"is_passed":false},{"stop_id":"U1355Z2","name":"Malinová","arrival_time":"8:52:00","departure_time":"8:52:00","lat":49.259186,"lon":16.623587,"is_passed":false},{"stop_id":"U1235Z2","name":"Klarisky","arrival_time":"8:54:00","departure_time":"8:54:00","lat":49.257223,"lon":16.622493,"is_passed":false},{"stop_id":"U1548Z2","name":"Rozárka","arrival_time":"8:54:00","departure_time":"8:54:00","lat":49.254088,"lon":16.622556,"is_passed":false},{"stop_id":"U1647Z2","name":"Štěpánkova","arrival_time":"8:55:00","departure_time":"8:55:00","lat":49.251234,"lon":16.623308,"is_passed":false},{"stop_id":"U1479Z2","name":"Panská lícha","arrival_time":"8:56:00","departure_time":"8:56:00","lat":49.245102,"lon":16.624834,"is_passed":false},{"stop_id":"U1691Z2","name":"U rozvodny","arrival_time":"8:57:00","departure_time":"8:57:00","lat":49.24075,"lon":16.627342,"is_passed":false},{"stop_id":"U1317Z2","name":"Kupkova","arrival_time":"8:58:00","departure_time":"8:58:00","lat":49.236128,"lon":16.627756,"is_passed":false},{"stop_id":"U1132Z3","name":"Haškova","arrival_time":"9:00:00","departure_time":"9:00:00","lat":49.233588,"lon":16.623836,"is_passed":false},{"stop_id":"U1348Z2","name":"Loosova","arrival_time":"9:01:00","departure_time":"9:01:00","lat":49.231571,"lon":16.618938,"is_passed":false},{"stop_id":"U1111Z2","name":"Fillova","arrival_time":"9:02:00","departure_time":"9:02:00","lat":49.229347,"lon":16.616979,"is_passed":false},{"stop_id":"U1582Z2","name":"Slavíčkova","arrival_time":"9:03:00","departure_time":"9:03:00","lat":49.225821,"lon":16.617957,"is_passed":false},{"stop_id":"U1128Z4","name":"Halasovo náměstí","arrival_time":"9:04:00","departure_time":"9:04:00","lat":49.22314,"lon":16.622438,"is_passed":false},{"stop_id":"U1506Z2","name":"Poliklinika Lesná","arrival_time":"9:05:00","departure_time":"9:05:00","lat":49.222411,"lon":16.625672,"is_passed":false},{"stop_id":"U1331Z2","name":"Lesná, nádraží","arrival_time":"9:06:00","departure_time":"9:06:00","lat":49.220094,"lon":16.62942,"is_passed":false},{"stop_id":"U1646Z4","name":"Štefánikova čtvrť","arrival_time":"9:07:00","departure_time":"9:07:00","lat":49.217288,"lon":16.627693,"is_passed":false},{"stop_id":"U1381Z1","name":"Merhautova","arrival_time":"9:09:00","departure_time":"9:09:00","lat":49.21485,"lon":16.627477,"is_passed":false},{"stop_id":"U1668Z1","name":"Tomkovo náměstí","arrival_time":"9:11:00","departure_time":"9:11:00","lat":49.214035,"lon":16.636587,"is_passed":false},{"stop_id":"U1358Z5","name":"Maloměřický most","arrival_time":"9:12:00","departure_time":"9:12:00","lat":49.2152,"lon":16.643926,"is_passed":false}],"59066":[{"stop_id":"U1358Z5","name":"Maloměřický most","arrival_time":"9:12:00","departure_time":"9:12:00","lat":49.2152,"lon":16.643926,"is_passed":false},{"stop_id":"U1231Z2","name":"Karlova","arrival_time":"9:13:00","departure_time":"9:13:00","lat":49.212343,"lon":16.643285,"is_passed":false},{"stop_id":"U1668Z4","name":"Tomkovo náměstí","arrival_time":"9:15:00","departure_time":"9:16:00","lat":49.214128,"lon":16.634545,"is_passed":false},{"stop_id":"U1381Z2","name":"Merhautova","arrival_time":"9:17:00","departure_time":"9:17:00","lat":49.215,"lon":16.627633,"is_passed":false},{"stop_id":"U1646Z3","name":"Štefánikova čtvrť","arrival_time":"9:18:00","departure_time":"9:18:00","lat":49.216958,"lon":16.627543,"is_passed":false},{"stop_id":"U1331Z1","name":"Lesná, nádraží","arrival_time":"9:19:00","departure_time":"9:19:00","lat":49.220041,"lon":16.629534,"is_passed":false},{"stop_id":"U1506Z1","name":"Poliklinika Lesná","arrival_time":"9:20:00","departure_time":"9:20:00","lat":49.222513,"lon":16.625643,"is_passed":false},{"stop_id":"U1128Z3","name":"Halasovo náměstí","arrival_time":"9:21:00","departure_time":"9:22:00","lat":49.223406,"lon":16.622237,"is_passed":false},{"stop_id":"U1582Z1","name":"Slavíčkova","arrival_time":"9:23:00","departure_time":"9:23:00","lat":49.226088,"lon":16.617914,"is_passed":false},{"stop_id":"U1111Z1","name":"Fillova","arrival_time":"9:24:00","departure_time":"9:24:00","lat":49.229105,"lon":16.616814,"is_passed":false},{"stop_id":"U1348Z1","name":"Loosova","arrival_time":"9:25:00","departure_time":"9:25:00","lat":49.232374,"lon":16.619952,"is_passed":false},{"stop_id":"U1132Z1","name":"Haškova","arrival_time":"9:26:00","departure_time":"9:26:00","lat":49.233582,"lon":16.624766,"is_passed":false},{"stop_id":"U1317Z1","name":"Kupkova","arrival_time":"9:28:00","departure_time":"9:28:00","lat":49.236519,"lon":16.627603,"is_passed":false},{"stop_id":"U1691Z1","name":"U rozvodny","arrival_time":"9:29:00","departure_time":"9:29:00","lat":49.240973,"lon":16.62736,"is_passed":false},{"stop_id":"U1479Z1","name":"Panská lícha","arrival_time":"9:30:00","departure_time":"9:30:00","lat":49.24527,"lon":16.624807,"is_passed":false},{"stop_id":"U1647Z1","name":"Štěpánkova","arrival_time":"9:31:00","departure_time":"9:31:00","lat":49.251649,"lon":16.62312,"is_passed":false},{"stop_id":"U1548Z1","name":"Rozárka","arrival_time":"9:32:00","departure_time":"9:32:00","lat":49.254486,"lon":16.622791,"is_passed":false},{"stop_id":"U1235Z1","name":"Klarisky","arrival_time":"9:34:00","departure_time":"9:34:00","lat":49.256961,"lon":16.622588,"is_passed":false},{"stop_id":"U1355Z1","name":"Malinová","arrival_time":"9:34:00","departure_time":"9:34:00","lat":49.259433,"lon":16.624027,"is_passed":false},{"stop_id":"U1333Z1","name":"Lesní školka","arrival_time":"9:35:00","departure_time":"9:35:00","lat":49.263185,"lon":16.625985,"is_passed":false},{"stop_id":"U1694Z1","name":"U jezírka","arrival_time":"9:36:00","departure_time":"9:36:00","lat":49.269695,"lon":16.6293,"is_passed":false},{"stop_id":"U1684Z1","name":"U buku","arrival_time":"9:37:00","departure_time":"9:37:00","lat":49.276348,"lon":16.630361,"is_passed":false},{"stop_id":"U1554Z1","name":"Rozcestí","arrival_time":"9:39:00","departure_time":"9:39:00","lat":49.285805,"lon":16.63179,"is_passed":false},{"stop_id":"U1707Z1","name":"Útěchov","arrival_time":"9:40:00","departure_time":"10:17:00","lat":49.288456,"lon":16.630493,"is_passed":false}],"59067":[{"stop_id":"U1707Z2","name":"Útěchov","arrival_time":"10:17:00","departure_time":"10:17:00","lat":49.28821,"lon":16.630705,"is_passed":false},{"stop_id":"U1554Z2","name":"Rozcestí","arrival_time":"10:17:00","departure_time":"10:17:00","lat":49.285548,"lon":16.631807,"is_passed":false},{"stop_id":"U1684Z2","name":"U buku","arrival_time":"10:19:00","departure_time":"10:19:00","lat":49.276379,"lon":16.630333,"is_passed":false},{"stop_id":"U1694Z2","name":"U jezírka","arrival_time":"10:20:00","departure_time":"10:20:00","lat":49.269918,"lon":16.629017,"is_passed":false},{"stop_id":"U1333Z2","name":"Lesní školka","arrival_time":"10:21:00","departure_time":"10:21:00","lat":49.26305,"lon":16.625897,"is_passed":false},{"stop_id":"U1355Z2","name":"Malinová","arrival_time":"10:22:00","departure_time":"10:22:00","lat":49.259186,"lon":16.623587,"is_passed":false},{"stop_id":"U1235Z2","name":"Klarisky","arrival_time":"10:24:00","departure_time":"10:24:00","lat":49.257223,"lon":16.622493,"is_passed":false},{"stop_id":"U1548Z2","name":"Rozárka","arrival_time":"10:24:00","departure_time":"10:24:00","lat":49.254088,"lon":16.622556,"is_passed":false},{"stop_id":"U1647Z2","name":"Štěpánkova","arrival_time":"10:25:00","departure_time":"10:25:00","lat":49.251234,"lon":16.623308,"is_passed":false},{"stop_id":"U1479Z2","name":"Panská lícha","arrival_time":"10:26:00","departure_time":"10:26:00","lat":49.245102,"lon":16.624834,"is_passed":false},{"stop_id":"U1691Z2","name":"U rozvodny","arrival_time":"10:27:00","departure_time":"10:27:00","lat":49.24075,"lon":16.627342,"is_passed":false},{"stop_id":"U1317Z2","name":"Kupkova","arrival_time":"10:28:00","departure_time":"10:28:00","lat":49.236128,"lon":16.627756,"is_passed":false},{"stop_id":"U1132Z3","name":"Haškova","arrival_time":"10:30:00","departure_time":"10:30:00","lat":49.233588,"lon":16.623836,"is_passed":false},{"stop_id":"U1348Z2","name":"Loosova","arrival_time":"10:31:00","departure_time":"10:31:00","lat":49.231571,"lon":16.618938,"is_passed":false},{"stop_id":"U1111Z2","name":"Fillova","arrival_time":"10:32:00","departure_time":"10:32:00","lat":49.229347,"lon":16.616979,"is_passed":false},{"stop_id":"U1582Z2","name":"Slavíčkova","arrival_time":"10:33:00","departure_time":"10:33:00","lat":49.225821,"lon":16.617957,"is_passed":false},{"stop_id":"U1128Z4","name":"Halasovo náměstí","arrival_time":"10:34:00","departure_time":"10:34:00","lat":49.22314,"lon":16.622438,"is_passed":false},{"stop_id":"U1506Z2","name":"Poliklinika Lesná","arrival_time":"10:35:00","departure_time":"10:35:00","lat":49.222411,"lon":16.625672,"is_passed":false},{"stop_id":"U1331Z2","name":"Lesná, nádraží","arrival_time":"10:36:00","departure_time":"10:36:00","lat":49.220094,"lon":16.62942,"is_passed":false},{"stop_id":"U1646Z4","name":"Štefánikova čtvrť","arrival_time":"10:37:00","departure_time":"10:37:00","lat":49.217288,"lon":16.627693,"is_passed":false},{"stop_id":"U1381Z1","name":"Merhautova","arrival_time":"10:39:00","departure_time":"10:39:00","lat":49.21485,"lon":16.627477,"is_passed":false},{"stop_id":"U1668Z1","name":"Tomkovo náměstí","arrival_time":"10:41:00","departure_time":"10:41:00","lat":49.214035,"lon":16.636587,"is_passed":false},{"stop_id":"U1358Z5","name":"Maloměřický most","arrival_time":"10:42:00","departure_time":"10:42:00","lat":49.2152,"lon":16.643926,"is_passed":false}],"59068":[{"stop_id":"U1358Z5","name":"Maloměřický most","arrival_time":"10:42:00","departure_time":"10:42:00","lat":49.2152,"lon":16.643926,"is_passed":false},{"stop_id":"U1231Z2","name":"Karlova","arrival_time":"10:43:00","departure_time":"10:43:00","lat":49.212343,"lon":16.643285,"is_passed":false},{"stop_id":"U1668Z4","name":"Tomkovo náměstí","arrival_time":"10:45:00","departure_time":"10:46:00","lat":49.214128,"lon":16.634545,"is_passed":false},{"stop_id":"U1381Z2","name":"Merhautova","arrival_time":"10:47:00","departure_time":"10:47:00","lat":49.215,"lon":16.627633,"is_passed":false},{"stop_id":"U1646Z3","name":"Štefánikova čtvrť","arrival_time":"10:48:00","departure_time":"10:48:00","lat":49.216958,"lon":16.627543,"is_passed":false},{"stop_id":"U1331Z1","name":"Lesná, nádraží","arrival_time":"10:49:00","departure_time":"10:49:00","lat":49.220041,"lon":16.629534,"is_passed":false},{"stop_id":"U1506Z1","name":"Poliklinika Lesná","arrival_time":"10:50:00","departure_time":"10:50:00","lat":49.222513,"lon":16.625643,"is_passed":false},{"stop_id":"U1128Z3","name":"Halasovo náměstí","arrival_time":"10:51:00","departure_time":"10:52:00","lat":49.223406,"lon":16.622237,"is_passed":false},{"stop_id":"U1582Z1","name":"Slavíčkova","arrival_time":"10:53:00","departure_time":"10:53:00","lat":49.226088,"lon":16.617914,"is_passed":false},{"stop_id":"U1111Z1","name":"Fillova","arrival_time":"10:54:00","departure_time":"10:54:00","lat":49.229105,"lon":16.616814,"is_passed":false},{"stop_id":"U1348Z1","name":"Loosova","arrival_time":"10:55:00","departure_time":"10:55:00","lat":49.232374,"lon":16.619952,"is_passed":false},{"stop_id":"U1132Z1","name":"Haškova","arrival_time":"10:56:00","departure_time":"10:56:00","lat":49.233582,"lon":16.624766,"is_passed":false},{"stop_id":"U1317Z1","name":"Kupkova","arrival_time":"10:58:00","departure_time":"10:58:00","lat":49.236519,"lon":16.627603,"is_passed":false},{"stop_id":"U1691Z1","name":"U rozvodny","arrival_time":"10:59:00","departure_time":"10:59:00","lat":49.240973,"lon":16.62736,"is_passed":false},{"stop_id":"U1479Z1","name":"Panská lícha","arrival_time":"11:00:00","departure_time":"11:00:00","lat":49.24527,"lon":16.624807,"is_passed":false},{"stop_id":"U1647Z1","name":"Štěpánkova","arrival_time":"11:01:00","departure_time":"11:01:00","lat":49.251649,"lon":16.62312,"is_passed":false},{"stop_id":"U1548Z1","name":"Rozárka","arrival_time":"11:02:00","departure_time":"11:02:00","lat":49.254486,"lon":16.622791,"is_passed":false},{"stop_id":"U1235Z1","name":"Klarisky","arrival_time":"11:04:00","departure_time":"11:04:00","lat":49.256961,"lon":16.622588,"is_passed":false},{"stop_id":"U1355Z1","name":"Malinová","arrival_time":"11:04:00","departure_time":"11:04:00","lat":49.259433,"lon":16.624027,"is_passed":false},{"stop_id":"U1333Z1","name":"Lesní školka","arrival_time":"11:05:00","departure_time":"11:05:00","lat":49.263185,"lon":16.625985,"is_passed":false},{"stop_id":"U1694Z1","name":"U jezírka","arrival_time":"11:06:00","departure_time":"11:06:00","lat":49.269695,"lon":16.6293,"is_passed":false},{"stop_id":"U1684Z1","name":"U buku","arrival_time":"11:07:00","departure_time":"11:07:00","lat":49.276348,"lon":16.630361,"is_passed":false},{"stop_id":"U1554Z1","name":"Rozcestí","arrival_time":"11:09:00","departure_time":"11:09:00","lat":49.285805,"lon":16.63179,"is_passed":false},{"stop_id":"U1707Z3","name":"Útěchov","arrival_time":"11:10:00","departure_time":"11:10:00","lat":49.289637,"lon":16.630401,"is_passed":false},{"stop_id":"U13181Z1","name":"Vranov, hřbitov","arrival_time":"11:13:00","departure_time":"11:13:00","lat":49.305827,"lon":16.622567,"is_passed":false},{"stop_id":"U13185Z1","name":"Vranov, myslivna","arrival_time":"11:14:00","departure_time":"11:14:00","lat":49.308583,"lon":16.621781,"is_passed":false},{"stop_id":"U13183Z1","name":"Vranov, křižovatka","arrival_time":"11:15:00","departure_time":"11:15:00","lat":49.31025,"lon":16.612232,"is_passed":false},{"stop_id":"U13187Z1","name":"Vranov, smyčka","arrival_time":"11:17:00","departure_time":"11:39:00","lat":49.310984,"lon":16.612105,"is_passed":false}],"59069":[{"stop_id":"U13187Z2","name":"Vranov, smyčka","arrival_time":"11:39:00","departure_time":"11:39:00","lat":49.31124,"lon":16.611894,"is_passed":false},{"stop_id":"U13183Z2","name":"Vranov, křižovatka","arrival_time":"11:40:00","departure_time":"11:40:00","lat":49.31021,"lon":16.612492,"is_passed":false},{"stop_id":"U13185Z2","name":"Vranov, myslivna","arrival_time":"11:43:00","departure_time":"11:43:00","lat":49.308239,"lon":16.621915,"is_passed":false},{"stop_id":"U13181Z2","name":"Vranov, hřbitov","arrival_time":"11:43:00","departure_time":"11:43:00","lat":49.305733,"lon":16.622556,"is_passed":false},{"stop_id":"U1707Z4","name":"Útěchov","arrival_time":"11:47:00","departure_time":"11:47:00","lat":49.288098,"lon":16.630755,"is_passed":false},{"stop_id":"U1554Z2","name":"Rozcestí","arrival_time":"11:47:00","departure_time":"11:47:00","lat":49.285548,"lon":16.631807,"is_passed":false},{"stop_id":"U1684Z2","name":"U buku","arrival_time":"11:49:00","departure_time":"11:49:00","lat":49.276379,"lon":16.630333,"is_passed":false},{"stop_id":"U1694Z2","name":"U jezírka","arrival_time":"11:50:00","departure_time":"11:50:00","lat":49.269918,"lon":16.629017,"is_passed":false},{"stop_id":"U1333Z2","name":"Lesní školka","arrival_time":"11:51:00","departure_time":"11:51:00","lat":49.26305,"lon":16.625897,"is_passed":false},{"stop_id":"U1355Z2","name":"Malinová","arrival_time":"11:52:00","departure_time":"11:52:00","lat":49.259186,"lon":16.623587,"is_passed":false},{"stop_id":"U1235Z2","name":"Klarisky","arrival_time":"11:54:00","departure_time":"11:54:00","lat":49.257223,"lon":16.622493,"is_passed":false},{"stop_id":"U1548Z2","name":"Rozárka","arrival_time":"11:54:00","departure_time":"11:54:00","lat":49.254088,"lon":16.622556,"is_passed":false},{"stop_id":"U1647Z2","name":"Štěpánkova","arrival_time":"11:55:00","departure_time":"11:55:00","lat":49.251234,"lon":16.623308,"is_passed":false},{"stop_id":"U1479Z2","name":"Panská lícha","arrival_time":"11:56:00","departure_time":"11:56:00","lat":49.245102,"lon":16.624834,"is_passed":false},{"stop_id":"U1691Z2","name":"U rozvodny","arrival_time":"11:57:00","departure_time":"11:57:00","lat":49.24075,"lon":16.627342,"is_passed":false},{"stop_id":"U1317Z2","name":"Kupkova","arrival_time":"11:58:00","departure_time":"11:58:00","lat":49.236128,"lon":16.627756,"is_passed":false},{"stop_id":"U1132Z3","name":"Haškova","arrival_time":"12:00:00","departure_time":"12:00:00","lat":49.233588,"lon":16.623836,"is_passed":false},{"stop_id":"U1348Z2","name":"Loosova","arrival_time":"12:01:00","departure_time":"12:01:00","lat":49.231571,"lon":16.618938,"is_passed":false},{"stop_id":"U1111Z2","name":"Fillova","arrival_time":"12:02:00","departure_time":"12:02:00","lat":49.229347,"lon":16.616979,"is_passed":false},{"stop_id":"U1582Z2","name":"Slavíčkova","arrival_time":"12:03:00","departure_time":"12:03:00","lat":49.225821,"lon":16.617957,"is_passed":false},{"stop_id":"U1128Z4","name":"Halasovo náměstí","arrival_time":"12:04:00","departure_time":"12:04:00","lat":49.22314,"lon":16.622438,"is_passed":false},{"stop_id":"U1506Z2","name":"Poliklinika Lesná","arrival_time":"12:05:00","departure_time":"12:05:00","lat":49.222411,"lon":16.625672,"is_passed":false},{"stop_id":"U1331Z2","name":"Lesná, nádraží","arrival_time":"12:06:00","departure_time":"12:06:00","lat":49.220094,"lon":16.62942,"is_passed":false},{"stop_id":"U1646Z4","name":"Štefánikova čtvrť","arrival_time":"12:07:00","departure_time":"12:07:00","lat":49.217288,"lon":16.627693,"is_passed":false},{"stop_id":"U1381Z1","name":"Merhautova","arrival_time":"12:09:00","departure_time":"12:09:00","lat":49.21485,"lon":16.627477,"is_passed":false},{"stop_id":"U1668Z1","name":"Tomkovo náměstí","arrival_time":"12:11:00","departure_time":"12:11:00","lat":49.214035,"lon":16.636587,"is_passed":false},{"stop_id":"U1358Z5","name":"Maloměřický most","arrival_time":"12:12:00","departure_time":"12:12:00","lat":49.2152,"lon":16.643926,"is_passed":false}],"59070":[{"stop_id":"U1358Z5","name":"Maloměřický most","arrival_time":"12:12:00","departure_time":"12:12:00","lat":49.2152,"lon":16.643926,"is_passed":false},{"stop_id":"U1231Z2","name":"Karlova","arrival_time":"12:13:00","departure_time":"12:13:00","lat":49.212343,"lon":16.643285,"is_passed":false},{"stop_id":"U1668Z4","name":"Tomkovo náměstí","arrival_time":"12:15:00","departure_time":"12:16:00","lat":49.214128,"lon":16.634545,"is_passed":false},{"stop_id":"U1381Z2","name":"Merhautova","arrival_time":"12:17:00","departure_time":"12:17:00","lat":49.215,"lon":16.627633,"is_passed":false},{"stop_id":"U1646Z3","name":"Štefánikova čtvrť","arrival_time":"12:18:00","departure_time":"12:18:00","lat":49.216958,"lon":16.627543,"is_passed":false},{"stop_id":"U1331Z1","name":"Lesná, nádraží","arrival_time":"12:19:00","departure_time":"12:19:00","lat":49.220041,"lon":16.629534,"is_passed":false},{"stop_id":"U1506Z1","name":"Poliklinika Lesná","arrival_time":"12:20:00","departure_time":"12:20:00","lat":49.222513,"lon":16.625643,"is_passed":false},{"stop_id":"U1128Z3","name":"Halasovo náměstí","arrival_time":"12:21:00","departure_time":"12:22:00","lat":49.223406,"lon":16.622237,"is_passed":false},{"stop_id":"U1582Z1","name":"Slavíčkova","arrival_time":"12:23:00","departure_time":"12:23:00","lat":49.226088,"lon":16.617914,"is_passed":false},{"stop_id":"U1111Z1","name":"Fillova","arrival_time":"12:24:00","departure_time":"12:24:00","lat":49.229105,"lon":16.616814,"is_passed":false},{"stop_id":"U1348Z1","name":"Loosova","arrival_time":"12:25:00","departure_time":"12:25:00","lat":49.232374,"lon":16.619952,"is_passed":false},{"stop_id":"U1132Z1","name":"Haškova","arrival_time":"12:26:00","departure_time":"12:26:00","lat":49.233582,"lon":16.624766,"is_passed":false},{"stop_id":"U1317Z1","name":"Kupkova","arrival_time":"12:28:00","departure_time":"12:28:00","lat":49.236519,"lon":16.627603,"is_passed":false},{"stop_id":"U1691Z1","name":"U rozvodny","arrival_time":"12:29:00","departure_time":"12:29:00","lat":49.240973,"lon":16.62736,"is_passed":false},{"stop_id":"U1479Z1","name":"Panská lícha","arrival_time":"12:30:00","departure_time":"12:30:00","lat":49.24527,"lon":16.624807,"is_passed":false},{"stop_id":"U1647Z1","name":"Štěpánkova","arrival_time":"12:31:00","departure_time":"12:31:00","lat":49.251649,"lon":16.62312,"is_passed":false},{"stop_id":"U1548Z1","name":"Rozárka","arrival_time":"12:32:00","departure_time":"12:32:00","lat":49.254486,"lon":16.622791,"is_passed":false},{"stop_id":"U1235Z1","name":"Klarisky","arrival_time":"12:34:00","departure_time":"12:34:00","lat":49.256961,"lon":16.622588,"is_passed":false},{"stop_id":"U1355Z1","name":"Malinová","arrival_time":"12:34:00","departure_time":"12:34:00","lat":49.259433,"lon":16.624027,"is_passed":false},{"stop_id":"U1333Z1","name":"Lesní školka","arrival_time":"12:35:00","departure_time":"12:35:00","lat":49.263185,"lon":16.625985,"is_passed":false},{"stop_id":"U1694Z1","name":"U jezírka","arrival_time":"12:36:00","departure_time":"12:36:00","lat":49.269695,"lon":16.6293,"is_passed":false},{"stop_id":"U1684Z1","name":"U buku","arrival_time":"12:37:00","departure_time":"12:37:00","lat":49.276348,"lon":16.630361,"is_passed":false},{"stop_id":"U1554Z1","name":"Rozcestí","arrival_time":"12:39:00","departure_time":"12:39:00","lat":49.285805,"lon":16.63179,"is_passed":false},{"stop_id":"U1707Z1","name":"Útěchov","arrival_time":"12:40:00","departure_time":"13:17:00","lat":49.288456,"lon":16.630493,"is_passed":false}],"59071":[{"stop_id":"U1707Z2","name":"Útěchov","arrival_time":"13:17:00","departure_time":"13:17:00","lat":49.28821,"lon":16.630705,"is_passed":false},{"stop_id":"U1554Z2","name":"Rozcestí","arrival_time":"13:17:00","departure_time":"13:17:00","lat":49.285548,"lon":16.631807,"is_passed":false},{"stop_id":"U1684Z2","name":"U buku","arrival_time":"13:19:00","departure_time":"13:19:00","lat":49.276379,"lon":16.630333,"is_passed":false},{"stop_id":"U1694Z2","name":"U jezírka","arrival_time":"13:20:00","departure_time":"13:20:00","lat":49.269918,"lon":16.629017,"is_passed":false},{"stop_id":"U1333Z2","name":"Lesní školka","arrival_time":"13:21:00","departure_time":"13:21:00","lat":49.26305,"lon":16.625897,"is_passed":false},{"stop_id":"U1355Z2","name":"Malinová","arrival_time":"13:22:00","departure_time":"13:22:00","lat":49.259186,"lon":16.623587,"is_passed":false},{"stop_id":"U1235Z2","name":"Klarisky","arrival_time":"13:24:00","departure_time":"13:24:00","lat":49.257223,"lon":16.622493,"is_passed":false},{"stop_id":"U1548Z2","name":"Rozárka","arrival_time":"13:24:00","departure_time":"13:24:00","lat":49.254088,"lon":16.622556,"is_passed":false},{"stop_id":"U1647Z2","name":"Štěpánkova","arrival_time":"13:25:00","departure_time":"13:25:00","lat":49.251234,"lon":16.623308,"is_passed":false},{"stop_id":"U1479Z2","name":"Panská lícha","arrival_time":"13:26:00","departure_time":"13:26:00","lat":49.245102,"lon":16.624834,"is_passed":false},{"stop_id":"U1691Z2","name":"U rozvodny","arrival_time":"13:27:00","departure_time":"13:27:00","lat":49.24075,"lon":16.627342,"is_passed":false},{"stop_id":"U1317Z2","name":"Kupkova","arrival_time":"13:28:00","departure_time":"13:28:00","lat":49.236128,"lon":16.627756,"is_passed":false},{"stop_id":"U1132Z3","name":"Haškova","arrival_time":"13:30:00","departure_time":"13:30:00","lat":49.233588,"lon":16.623836,"is_passed":false},{"stop_id":"U1348Z2","name":"Loosova","arrival_time":"13:31:00","departure_time":"13:31:00","lat":49.231571,"lon":16.618938,"is_passed":false},{"stop_id":"U1111Z2","name":"Fillova","arrival_time":"13:32:00","departure_time":"13:32:00","lat":49.229347,"lon":16.616979,"is_passed":false},{"stop_id":"U1582Z2","name":"Slavíčkova","arrival_time":"13:33:00","departure_time":"13:33:00","lat":49.225821,"lon":16.617957,"is_passed":false},{"stop_id":"U1128Z4","name":"Halasovo náměstí","arrival_time":"13:34:00","departure_time":"13:34:00","lat":49.22314,"lon":16.622438,"is_passed":false},{"stop_id":"U1506Z2","name":"Poliklinika Lesná","arrival_time":"13:35:00","departure_time":"13:35:00","lat":49.222411,"lon":16.625672,"is_passed":false},{"stop_id":"U1331Z2","name":"Lesná, nádraží","arrival_time":"13:36:00","departure_time":"13:36:00","lat":49.220094,"lon":16.62942,"is_passed":false},{"stop_id":"U1646Z4","name":"Štefánikova čtvrť","arrival_time":"13:37:00","departure_time":"13:37:00","lat":49.217288,"lon":16.627693,"is_passed":false},{"stop_id":"U1381Z1","name":"Merhautova","arrival_time":"13:39:00","departure_time":"13:39:00","lat":49.21485,"lon":16.627477,"is_passed":false},{"stop_id":"U1668Z1","name":"Tomkovo náměstí","arrival_time":"13:41:00","departure_time":"13:41:00","lat":49.214035,"lon":16.636587,"is_passed":false},{"stop_id":"U1358Z5","name":"Maloměřický most","arrival_time":"13:42:00","departure_time":"13:42:00","lat":49.2152,"lon":16.643926,"is_passed":false}],"59072":[{"stop_id":"U1358Z5","name":"Maloměřický most","arrival_time":"13:42:00","departure_time":"13:42:00","lat":49.2152,"lon":16.643926,"is_passed":false},{"stop_id":"U1231Z2","name":"Karlova","arrival_time":"13:43:00","departure_time":"13:43:00","lat":49.212343,"lon":16.643285,"is_passed":false},{"stop_id":"U1668Z4","name":"Tomkovo náměstí","arrival_time":"13:45:00","departure_time":"13:46:00","lat":49.214128,"lon":16.634545,"is_passed":false},{"stop_id":"U1381Z2","name":"Merhautova","arrival_time":"13:47:00","departure_time":"13:47:00","lat":49.215,"lon":16.627633,"is_passed":false},{"stop_id":"U1646Z3","name":"Štefánikova čtvrť","arrival_time":"13:48:00","departure_time":"13:48:00","lat":49.216958,"lon":16.627543,"is_passed":false},{"stop_id":"U1331Z1","name":"Lesná, nádraží","arrival_time":"13:49:00","departure_time":"13:49:00","lat":49.220041,"lon":16.629534,"is_passed":false},{"stop_id":"U1506Z1","name":"Poliklinika Lesná","arrival_time":"13:50:00","departure_time":"13:50:00","lat":49.222513,"lon":16.625643,"is_passed":false},{"stop_id":"U1128Z3","name":"Halasovo náměstí","arrival_time":"13:51:00","departure_time":"13:52:00","lat":49.223406,"lon":16.622237,"is_passed":false},{"stop_id":"U1582Z1","name":"Slavíčkova","arrival_time":"13:53:00","departure_time":"13:53:00","lat":49.226088,"lon":16.617914,"is_passed":false},{"stop_id":"U1111Z1","name":"Fillova","arrival_time":"13:54:00","departure_time":"13:54:00","lat":49.229105,"lon":16.616814,"is_passed":false},{"stop_id":"U1348Z1","name":"Loosova","arrival_time":"13:55:00","departure_time":"13:55:00","lat":49.232374,"lon":16.619952,"is_passed":false},{"stop_id":"U1132Z1","name":"Haškova","arrival_time":"13:56:00","departure_time":"13:56:00","lat":49.233582,"lon":16.624766,"is_passed":false},{"stop_id":"U1317Z1","name":"Kupkova","arrival_time":"13:58:00","departure_time":"13:58:00","lat":49.236519,"lon":16.627603,"is_passed":false},{"stop_id":"U1691Z1","name":"U rozvodny","arrival_time":"13:59:00","departure_time":"13:59:00","lat":49.240973,"lon":16.62736,"is_passed":false},{"stop_id":"U1479Z1","name":"Panská lícha","arrival_time":"14:00:00","departure_time":"14:00:00","lat":49.24527,"lon":16.624807,"is_passed":false},{"stop_id":"U1647Z1","name":"Štěpánkova","arrival_time":"14:01:00","departure_time":"14:01:00","lat":49.251649,"lon":16.62312,"is_passed":false},{"stop_id":"U1548Z1","name":"Rozárka","arrival_time":"14:02:00","departure_time":"14:02:00","lat":49.254486,"lon":16.622791,"is_passed":false},{"stop_id":"U1235Z1","name":"Klarisky","arrival_time":"14:04:00","departure_time":"14:04:00","lat":49.256961,"lon":16.622588,"is_passed":false},{"stop_id":"U1355Z1","name":"Malinová","arrival_time":"14:04:00","departure_time":"14:04:00","lat":49.259433,"lon":16.624027,"is_passed":false},{"stop_id":"U1333Z1","name":"Lesní školka","arrival_time":"14:05:00","departure_time":"14:05:00","lat":49.263185,"lon":16.625985,"is_passed":false},{"stop_id":"U1694Z1","name":"U jezírka","arrival_time":"14:06:00","departure_time":"14:06:00","lat":49.269695,"lon":16.6293,"is_passed":false},{"stop_id":"U1684Z1","name":"U buku","arrival_time":"14:07:00","departure_time":"14:07:00","lat":49.276348,"lon":16.630361,"is_passed":false},{"stop_id":"U1554Z1","name":"Rozcestí","arrival_time":"14:09:00","departure_time":"14:09:00","lat":49.285805,"lon":16.63179,"is_passed":false},{"stop_id":"U1707Z3","name":"Útěchov","arrival_time":"14:10:00","departure_time":"14:10:00","lat":49.289637,"lon":16.630401,"is_passed":false},{"stop_id":"U13181Z1","name":"Vranov, hřbitov","arrival_time":"14:13:00","departure_time":"14:13:00","lat":49.305827,"lon":16.622567,"is_passed":false},{"stop_id":"U13185Z1","name":"Vranov, myslivna","arrival_time":"14:14:00","departure_time":"14:14:00","lat":49.308583,"lon":16.621781,"is_passed":false},{"stop_id":"U13183Z1","name":"Vranov, křižovatka","arrival_time":"14:15:00","departure_time":"14:15:00","lat":49.31025,"lon":16.612232,"is_passed":false},{"stop_id":"U13187Z1","name":"Vranov, smyčka","arrival_time":"14:17:00","departure_time":"14:39:00","lat":49.310984,"lon":16.612105,"is_passed":false}],"59073":[{"stop_id":"U13187Z2","name":"Vranov, smyčka","arrival_time":"14:39:00","departure_time":"14:39:00","lat":49.31124,"lon":16.611894,"is_passed":false},{"stop_id":"U13183Z2","name":"Vranov, křižovatka","arrival_time":"14:40:00","departure_time":"14:40:00","lat":49.31021,"lon":16.612492,"is_passed":false},{"stop_id":"U13185Z2","name":"Vranov, myslivna","arrival_time":"14:43:00","departure_time":"14:43:00","lat":49.308239,"lon":16.621915,"is_passed":false},{"stop_id":"U13181Z2","name":"Vranov, hřbitov","arrival_time":"14:43:00","departure_time":"14:43:00","lat":49.305733,"lon":16.622556,"is_passed":false},{"stop_id":"U1707Z4","name":"Útěchov","arrival_time":"14:47:00","departure_time":"14:47:00","lat":49.288098,"lon":16.630755,"is_passed":false},{"stop_id":"U1554Z2","name":"Rozcestí","arrival_time":"14:47:00","departure_time":"14:47:00","lat":49.285548,"lon":16.631807,"is_passed":false},{"stop_id":"U1684Z2","name":"U buku","arrival_time":"14:49:00","departure_time":"14:49:00","lat":49.276379,"lon":16.630333,"is_passed":false},{"stop_id":"U1694Z2","name":"U jezírka","arrival_time":"14:50:00","departure_time":"14:50:00","lat":49.269918,"lon":16.629017,"is_passed":false},{"stop_id":"U1333Z2","name":"Lesní školka","arrival_time":"14:51:00","departure_time":"14:51:00","lat":49.26305,"lon":16.625897,"is_passed":false},{"stop_id":"U1355Z2","name":"Malinová","arrival_time":"14:52:00","departure_time":"14:52:00","lat":49.259186,"lon":16.623587,"is_passed":false},{"stop_id":"U1235Z2","name":"Klarisky","arrival_time":"14:54:00","departure_time":"14:54:00","lat":49.257223,"lon":16.622493,"is_passed":false},{"stop_id":"U1548Z2","name":"Rozárka","arrival_time":"14:54:00","departure_time":"14:54:00","lat":49.254088,"lon":16.622556,"is_passed":false},{"stop_id":"U1647Z2","name":"Štěpánkova","arrival_time":"14:55:00","departure_time":"14:55:00","lat":49.251234,"lon":16.623308,"is_passed":false},{"stop_id":"U1479Z2","name":"Panská lícha","arrival_time":"14:56:00","departure_time":"14:56:00","lat":49.245102,"lon":16.624834,"is_passed":false},{"stop_id":"U1691Z2","name":"U rozvodny","arrival_time":"14:57:00","departure_time":"14:57:00","lat":49.24075,"lon":16.627342,"is_passed":false},{"stop_id":"U1317Z2","name":"Kupkova","arrival_time":"14:58:00","departure_time":"14:58:00","lat":49.236128,"lon":16.627756,"is_passed":false},{"stop_id":"U1132Z3","name":"Haškova","arrival_time":"15:00:00","departure_time":"15:00:00","lat":49.233588,"lon":16.623836,"is_passed":false},{"stop_id":"U1348Z2","name":"Loosova","arrival_time":"15:01:00","departure_time":"15:01:00","lat":49.231571,"lon":16.618938,"is_passed":false},{"stop_id":"U1111Z2","name":"Fillova","arrival_time":"15:02:00","departure_time":"15:02:00","lat":49.229347,"lon":16.616979,"is_passed":false},{"stop_id":"U1582Z2","name":"Slavíčkova","arrival_time":"15:03:00","departure_time":"15:03:00","lat":49.225821,"lon":16.617957,"is_passed":false},{"stop_id":"U1128Z4","name":"Halasovo náměstí","arrival_time":"15:04:00","departure_time":"15:04:00","lat":49.22314,"lon":16.622438,"is_passed":false},{"stop_id":"U1506Z2","name":"Poliklinika Lesná","arrival_time":"15:05:00","departure_time":"15:05:00","lat":49.222411,"lon":16.625672,"is_passed":false},{"stop_id":"U1331Z2","name":"Lesná, nádraží","arrival_time":"15:06:00","departure_time":"15:06:00","lat":49.220094,"lon":16.62942,"is_passed":false},{"stop_id":"U1646Z4","name":"Štefánikova čtvrť","arrival_time":"15:07:00","departure_time":"15:07:00","lat":49.217288,"lon":16.627693,"is_passed":false},{"stop_id":"U1381Z1","name":"Merhautova","arrival_time":"15:09:00","departure_time":"15:09:00","lat":49.21485,"lon":16.627477,"is_passed":false},{"stop_id":"U1668Z1","name":"Tomkovo náměstí","arrival_time":"15:11:00","departure_time":"15:11:00","lat":49.214035,"lon":16.636587,"is_passed":false},{"stop_id":"U1358Z5","name":"Maloměřický most","arrival_time":"15:12:00","departure_time":"15:12:00","lat":49.2152,"lon":16.643926,"is_passed":false}],"59074":[{"stop_id":"U1358Z5","name":"Maloměřický most","arrival_time":"15:12:00","departure_time":"15:12:00","lat":49.2152,"lon":16.643926,"is_passed":false},{"stop_id":"U1231Z2","name":"Karlova","arrival_time":"15:13:00","departure_time":"15:13:00","lat":49.212343,"lon":16.643285,"is_passed":false},{"stop_id":"U1668Z4","name":"Tomkovo náměstí","arrival_time":"15:15:00","departure_time":"15:16:00","lat":49.214128,"lon":16.634545,"is_passed":false},{"stop_id":"U1381Z2","name":"Merhautova","arrival_time":"15:17:00","departure_time":"15:17:00","lat":49.215,"lon":16.627633,"is_passed":false},{"stop_id":"U1646Z3","name":"Štefánikova čtvrť","arrival_time":"15:18:00","departure_time":"15:18:00","lat":49.216958,"lon":16.627543,"is_passed":false},{"stop_id":"U1331Z1","name":"Lesná, nádraží","arrival_time":"15:19:00","departure_time":"15:19:00","lat":49.220041,"lon":16.629534,"is_passed":false},{"stop_id":"U1506Z1","name":"Poliklinika Lesná","arrival_time":"15:20:00","departure_time":"15:20:00","lat":49.222513,"lon":16.625643,"is_passed":false},{"stop_id":"U1128Z3","name":"Halasovo náměstí","arrival_time":"15:21:00","departure_time":"15:22:00","lat":49.223406,"lon":16.622237,"is_passed":false},{"stop_id":"U1582Z1","name":"Slavíčkova","arrival_time":"15:23:00","departure_time":"15:23:00","lat":49.226088,"lon":16.617914,"is_passed":false},{"stop_id":"U1111Z1","name":"Fillova","arrival_time":"15:24:00","departure_time":"15:24:00","lat":49.229105,"lon":16.616814,"is_passed":false},{"stop_id":"U1348Z1","name":"Loosova","arrival_time":"15:25:00","departure_time":"15:25:00","lat":49.232374,"lon":16.619952,"is_passed":false},{"stop_id":"U1132Z1","name":"Haškova","arrival_time":"15:26:00","departure_time":"15:26:00","lat":49.233582,"lon":16.624766,"is_passed":false},{"stop_id":"U1317Z1","name":"Kupkova","arrival_time":"15:28:00","departure_time":"15:28:00","lat":49.236519,"lon":16.627603,"is_passed":false},{"stop_id":"U1691Z1","name":"U rozvodny","arrival_time":"15:29:00","departure_time":"15:29:00","lat":49.240973,"lon":16.62736,"is_passed":false},{"stop_id":"U1479Z1","name":"Panská lícha","arrival_time":"15:30:00","departure_time":"15:30:00","lat":49.24527,"lon":16.624807,"is_passed":false},