[{"stop_id":"U1146Z99","name":"Hlavní nádraží","arrival_time":"16:49:00","departure_time":"16:49:00","lat":49.19035,"lon":16.612342,"is_passed":false},{"stop_id":"U1809Z10","name":"Židenice, nádraží","arrival_time":"16:52:00","departure_time":"16:53:00","lat":49.204282,"lon":16.636042,"is_passed":false},{"stop_id":"U12158Z10","name":"Bílovice nad Svitavou, žel. stanice","arrival_time":"16:58:00","departure_time":"16:58:00","lat":49.242715,"lon":16.673677,"is_passed":false},{"stop_id":"U12230Z10","name":"Adamov, železniční stanice","arrival_time":"17:04:00","departure_time":"17:04:00","lat":49.295341,"lon":16.663538,"is_passed":false},{"stop_id":"U12231Z10","name":"Adamov, železniční zastávka","arrival_time":"17:06:00","departure_time":"17:06:00","lat":49.300671,"lon":16.650653,"is_passed":false},{"stop_id":"U12342Z30","name":"Blansko, aut. st.","arrival_time":"17:12:00","departure_time":"17:18:00","lat":49.352753,"lon":16.646848,"is_passed":false},{"stop_id":"U22302Z1","name":"Blansko město","arrival_time":"17:20:00","departure_time":"17:21:00","lat":49.360996,"lon":16.639464,"is_passed":false},{"stop_id":"U12439Z50","name":"Rájec-Jestřebí, železniční stanice","arrival_time":"17:27:00","departure_time":"17:27:00","lat":49.408206,"lon":16.627711,"is_passed":false}]