[{"stop_id":"U1286Z5","name":"Královo Pole, nádraží","arrival_time":"21:39:00","departure_time":"21:39:00","lat":49.229633,"lon":16.595447,"is_passed":false},{"stop_id":"U1566Z6","name":"Semilasso","arrival_time":"21:40:00","departure_time":"21:40:00","lat":49.228248,"lon":16.593466,"is_passed":false},{"stop_id":"U1171Z4","name":"Husitská","arrival_time":"21:41:00","departure_time":"21:41:00","lat":49.224063,"lon":16.593994,"is_passed":false},{"stop_id":"U1586Z3","name":"Slovanské náměstí","arrival_time":"21:42:00","departure_time":"21:42:00","lat":49.223525,"lon":16.591009,"is_passed":false},{"stop_id":"U1567Z5","name":"Skácelova","arrival_time":"21:43:00","departure_time":"21:43:00","lat":49.221353,"lon":16.584711,"is_passed":false},{"stop_id":"U1777Z3","name":"Záhřebská","arrival_time":"21:45:00","departure_time":"21:45:00","lat":49.22001,"lon":16.579572,"is_passed":false},{"stop_id":"U1155Z1","name":"Horská","arrival_time":"21:45:00","departure_time":"21:45:00","lat":49.221621,"lon":16.579517,"is_passed":false},{"stop_id":"U1660Z3","name":"Technická","arrival_time":"21:46:00","departure_time":"21:46:00","lat":49.223701,"lon":16.578091,"is_passed":false},{"stop_id":"U1499Z1","name":"Podnikatelská","arrival_time":"21:47:00","departure_time":"21:47:00","lat":49.227371,"lon":16.576366,"is_passed":false},{"stop_id":"U1252Z2","name":"Kolejní","arrival_time":"21:48:00","departure_time":"21:48:00","lat":49.230641,"lon":16.57191,"is_passed":false},{"stop_id":"U1733Z1","name":"Vědeckotechnický park","arrival_time":"21:49:00","departure_time":"21:49:00","lat":49.2326,"lon":16.574806,"is_passed":false},{"stop_id":"U1659Z4","name":"Technologický park","arrival_time":"21:50:00","departure_time":"21:50:00","lat":49.231509,"lon":16.576781,"is_passed":false}]