[{"stop_id":"U15241Z7","name":"Židlochovice, železniční stanice","arrival_time":"21:10:00","departure_time":"21:10:00","lat":49.033614,"lon":16.616961,"is_passed":false},{"stop_id":"U15229Z4","name":"Židlochovice, aut. st.","arrival_time":"21:12:00","departure_time":"21:12:00","lat":49.03593,"lon":16.614853,"is_passed":false},{"stop_id":"U15231Z1","name":"Židlochovice, nábřeží","arrival_time":"21:13:00","departure_time":"21:13:00","lat":49.032892,"lon":16.620158,"is_passed":false},{"stop_id":"U15330Z1","name":"Nosislav, Kroužek","arrival_time":"21:17:00","departure_time":"21:17:00","lat":49.014059,"lon":16.652319,"is_passed":false},{"stop_id":"U15331Z1","name":"Nosislav, Městečko","arrival_time":"21:19:00","departure_time":"21:19:00","lat":49.010795,"lon":16.658187,"is_passed":false},{"stop_id":"U15332Z1","name":"Nosislav, Pod kopcem","arrival_time":"21:20:00","departure_time":"21:20:00","lat":49.008562,"lon":16.666158,"is_passed":false},{"stop_id":"U15337Z1","name":"Velké Němčice, Boudky","arrival_time":"21:21:00","departure_time":"21:21:00","lat":49.00547,"lon":16.67088,"is_passed":false},{"stop_id":"U15336Z1","name":"Velké Němčice","arrival_time":"21:23:00","departure_time":"21:23:00","lat":48.994787,"lon":16.67533,"is_passed":false},{"stop_id":"U15353Z1","name":"Křepice, škola","arrival_time":"21:27:00","departure_time":"21:27:00","lat":48.998568,"lon":16.717495,"is_passed":false},{"stop_id":"U15403Z51","name":"Hustopeče, autobusové nádraží","arrival_time":"21:59:00","departure_time":"21:59:00","lat":48.938047,"lon":16.735671,"is_passed":false}]