{"611":[{"stop_id":"U12676Z50","name":"Skalice nad Svitavou, žel.st.","arrival_time":"11:27:00","departure_time":"11:27:00","lat":49.480123,"lon":16.609726,"is_passed":false},{"stop_id":"U12635Z50","name":"Boskovice, aut.st.","arrival_time":"11:34:00","departure_time":"12:19:00","lat":49.491667,"lon":16.651778,"is_passed":false}],"6110":[{"stop_id":"U15214Z1","name":"Blučina, náměstí","arrival_time":"19:37:00","departure_time":"19:37:00","lat":49.054872,"lon":16.646478,"is_passed":false},{"stop_id":"U15213Z1","name":"Blučina, Komenského","arrival_time":"19:39:00","departure_time":"19:39:00","lat":49.055353,"lon":16.635147,"is_passed":false},{"stop_id":"U15217Z1","name":"Blučina, ZD","arrival_time":"19:40:00","departure_time":"19:40:00","lat":49.053207,"lon":16.626305,"is_passed":false},{"stop_id":"U15239Z1","name":"Židlochovice, sídliště","arrival_time":"19:42:00","departure_time":"19:42:00","lat":49.040799,"lon":16.617612,"is_passed":false},{"stop_id":"U15229Z8","name":"Židlochovice, aut. st.","arrival_time":"19:45:00","departure_time":"19:45:00","lat":49.035879,"lon":16.614708,"is_passed":false},{"stop_id":"U15241Z51","name":"Židlochovice, železniční stanice","arrival_time":"19:46:00","departure_time":"19:46:00","lat":49.033692,"lon":16.616779,"is_passed":false}],"6111":[{"stop_id":"U15310Z2","name":"Ivaň","arrival_time":"4:08:00","departure_time":"4:08:00","lat":48.92928,"lon":16.57525,"is_passed":false},{"stop_id":"U15311Z2","name":"Ivaň, hájenka Plaček","arrival_time":"4:10:00","departure_time":"4:10:00","lat":48.946588,"lon":16.589232,"is_passed":false},{"stop_id":"U15307Z51","name":"Vranovice, žel.st.","arrival_time":"4:15:00","departure_time":"4:15:00","lat":48.964208,"lon":16.60495,"is_passed":false}],"6112":[{"stop_id":"U15307Z1","name":"Vranovice, žel.st.","arrival_time":"4:15:00","departure_time":"4:15:00","lat":48.964061,"lon":16.60506,"is_passed":false},{"stop_id":"U15311Z1","name":"Ivaň, hájenka Plaček","arrival_time":"4:19:00","departure_time":"4:19:00","lat":48.946617,"lon":16.589183,"is_passed":false},{"stop_id":"U15310Z1","name":"Ivaň","arrival_time":"4:22:00","departure_time":"4:38:00","lat":48.92928,"lon":16.57525,"is_passed":false}],"6113":[{"stop_id":"U15310Z2","name":"Ivaň","arrival_time":"4:38:00","departure_time":"4:38:00","lat":48.92928,"lon":16.57525,"is_passed":false},{"stop_id":"U15311Z2","name":"Ivaň, hájenka Plaček","arrival_time":"4:40:00","departure_time":"4:40:00","lat":48.946588,"lon":16.589232,"is_passed":false},{"stop_id":"U15307Z51","name":"Vranovice, žel.st.","arrival_time":"4:45:00","departure_time":"4:45:00","lat":48.964208,"lon":16.60495,"is_passed":false}],"6114":[{"stop_id":"U15307Z1","name":"Vranovice, žel.st.","arrival_time":"4:45:00","departure_time":"4:45:00","lat":48.964061,"lon":16.60506,"is_passed":false},{"stop_id":"U15311Z1","name":"Ivaň, hájenka Plaček","arrival_time":"4:49:00","departure_time":"4:49:00","lat":48.946617,"lon":16.589183,"is_passed":false},{"stop_id":"U15310Z1","name":"Ivaň","arrival_time":"4:52:00","departure_time":"4:52:00","lat":48.92928,"lon":16.57525,"is_passed":false},{"stop_id":"U15427Z1","name":"Pasohlávky, rozcestí Ivaň","arrival_time":"4:55:00","departure_time":"4:55:00","lat":48.918193,"lon":16.556709,"is_passed":false},{"stop_id":"U15428Z1","name":"Pasohlávky, u kostela","arrival_time":"4:58:00","departure_time":"4:58:00","lat":48.90308,"lon":16.54164,"is_passed":false},{"stop_id":"U15565Z1","name":"Brod nad Dyjí, obecní úřad","arrival_time":"5:04:00","departure_time":"5:04:00","lat":48.876305,"lon":16.536722,"is_passed":false},{"stop_id":"U15558Z4","name":"Drnholec","arrival_time":"5:10:00","departure_time":"5:50:00","lat":48.857435,"lon":16.487133,"is_passed":false}],"6115":[{"stop_id":"U15558Z3","name":"Drnholec","arrival_time":"5:50:00","departure_time":"5:50:00","lat":48.857435,"lon":16.487133,"is_passed":false},{"stop_id":"U15565Z2","name":"Brod nad Dyjí, obecní úřad","arrival_time":"5:56:00","departure_time":"5:56:00","lat":48.876282,"lon":16.536815,"is_passed":false},{"stop_id":"U15428Z2","name":"Pasohlávky, u kostela","arrival_time":"6:02:00","departure_time":"6:02:00","lat":48.90308,"lon":16.54164,"is_passed":false},{"stop_id":"U15427Z4","name":"Pasohlávky, rozcestí Ivaň","arrival_time":"6:05:00","departure_time":"6:05:00","lat":48.918173,"lon":16.556767,"is_passed":false},{"stop_id":"U15310Z2","name":"Ivaň","arrival_time":"6:08:00","departure_time":"6:08:00","lat":48.92928,"lon":16.57525,"is_passed":false},{"stop_id":"U15311Z2","name":"Ivaň, hájenka Plaček","arrival_time":"6:10:00","departure_time":"6:10:00","lat":48.946588,"lon":16.589232,"is_passed":false},{"stop_id":"U15307Z51","name":"Vranovice, žel.st.","arrival_time":"6:15:00","departure_time":"6:15:00","lat":48.964208,"lon":16.60495,"is_passed":false}],"6116":[{"stop_id":"U15307Z1","name":"Vranovice, žel.st.","arrival_time":"6:15:00","departure_time":"6:15:00","lat":48.964061,"lon":16.60506,"is_passed":false},{"stop_id":"U15311Z1","name":"Ivaň, hájenka Plaček","arrival_time":"6:19:00","departure_time":"6:19:00","lat":48.946617,"lon":16.589183,"is_passed":false},{"stop_id":"U15310Z1","name":"Ivaň","arrival_time":"6:22:00","departure_time":"6:38:00","lat":48.92928,"lon":16.57525,"is_passed":false}],"6117":[{"stop_id":"U15310Z2","name":"Ivaň","arrival_time":"6:38:00","departure_time":"6:38:00","lat":48.92928,"lon":16.57525,"is_passed":false},{"stop_id":"U15311Z2","name":"Ivaň, hájenka Plaček","arrival_time":"6:40:00","departure_time":"6:40:00","lat":48.946588,"lon":16.589232,"is_passed":false},{"stop_id":"U15307Z51","name":"Vranovice, žel.st.","arrival_time":"6:45:00","departure_time":"6:46:00","lat":48.964208,"lon":16.60495,"is_passed":false}],"6118":[{"stop_id":"U15307Z1","name":"Vranovice, žel.st.","arrival_time":"6:46:00","departure_time":"6:46:00","lat":48.964061,"lon":16.60506,"is_passed":false},{"stop_id":"U15311Z1","name":"Ivaň, hájenka Plaček","arrival_time":"6:50:00","departure_time":"6:50:00","lat":48.946617,"lon":16.589183,"is_passed":false},{"stop_id":"U15310Z1","name":"Ivaň","arrival_time":"6:53:00","departure_time":"6:53:00","lat":48.92928,"lon":16.57525,"is_passed":false},{"stop_id":"U15427Z1","name":"Pasohlávky, rozcestí Ivaň","arrival_time":"6:56:00","departure_time":"6:56:00","lat":48.918193,"lon":16.556709,"is_passed":false},{"stop_id":"U15428Z1","name":"Pasohlávky, u kostela","arrival_time":"7:00:00","departure_time":"7:00:00","lat":48.90308,"lon":16.54164,"is_passed":false},{"stop_id":"U15565Z1","name":"Brod nad Dyjí, obecní úřad","arrival_time":"7:06:00","departure_time":"7:06:00","lat":48.876305,"lon":16.536722,"is_passed":false},{"stop_id":"U15559Z1","name":"Drnholec, škola","arrival_time":"7:13:00","departure_time":"7:13:00","lat":48.859678,"lon":16.486008,"is_passed":false},{"stop_id":"U15558Z4","name":"Drnholec","arrival_time":"7:15:00","departure_time":"7:15:00","lat":48.857435,"lon":16.487133,"is_passed":false}],"6119":[{"stop_id":"U15558Z2","name":"Drnholec","arrival_time":"7:16:00","departure_time":"7:16:00","lat":48.857435,"lon":16.487133,"is_passed":false},{"stop_id":"U15562Z2","name":"Novosedly, cihelna","arrival_time":"7:21:00","departure_time":"7:21:00","lat":48.835602,"lon":16.511033,"is_passed":false},{"stop_id":"U15642Z2","name":"Dobré Pole","arrival_time":"7:24:00","departure_time":"7:24:00","lat":48.825967,"lon":16.535573,"is_passed":false},{"stop_id":"U15641Z2","name":"Březí","arrival_time":"7:28:00","departure_time":"7:28:00","lat":48.821337,"lon":16.563325,"is_passed":false},{"stop_id":"U15790Z2","name":"Mikulov, Průmyslová zóna, točna","arrival_time":"7:33:00","departure_time":"7:33:00","lat":48.813859,"lon":16.620388,"is_passed":false},{"stop_id":"U15702Z1","name":"Mikulov, Brněnská","arrival_time":"7:35:00","departure_time":"7:35:00","lat":48.812088,"lon":16.630516,"is_passed":false},{"stop_id":"U15703Z1","name":"Mikulov, 22. dubna","arrival_time":"7:36:00","departure_time":"7:36:00","lat":48.805487,"lon":16.633496,"is_passed":false},{"stop_id":"U15709Z1","name":"Mikulov, u parku","arrival_time":"7:38:00","departure_time":"7:40:00","lat":48.802145,"lon":16.634375,"is_passed":false}],"61100":[{"stop_id":"U1703Z6","name":"Ústřední hřbitov","arrival_time":"5:14:00","departure_time":"5:14:00","lat":49.170744,"lon":16.597612,"is_passed":false},{"stop_id":"U1673Z1","name":"Traťová","arrival_time":"5:15:00","departure_time":"5:15:00","lat":49.163849,"lon":16.595255,"is_passed":false},{"stop_id":"U1122Z1","name":"Gruzínská","arrival_time":"5:17:00","departure_time":"5:17:00","lat":49.167041,"lon":16.586433,"is_passed":false},{"stop_id":"U1701Z1","name":"Ukrajinská","arrival_time":"5:18:00","departure_time":"5:18:00","lat":49.170325,"lon":16.585437,"is_passed":false},{"stop_id":"U1714Z2","name":"Uzbecká","arrival_time":"5:19:00","departure_time":"5:19:00","lat":49.172173,"lon":16.583374,"is_passed":false},{"stop_id":"U1411Z2","name":"Mýtná","arrival_time":"5:20:00","departure_time":"5:20:00","lat":49.175186,"lon":16.582128,"is_passed":false},{"stop_id":"U1222Z4","name":"Kamenice","arrival_time":"5:21:00","departure_time":"5:21:00","lat":49.177782,"lon":16.57232,"is_passed":false},{"stop_id":"U1699Z4","name":"Univerzitní kampus","arrival_time":"5:22:00","departure_time":"5:22:00","lat":49.17846,"lon":16.567533,"is_passed":false},{"stop_id":"U1624Z2","name":"Studentská","arrival_time":"5:23:00","departure_time":"5:23:00","lat":49.179291,"lon":16.570244,"is_passed":false},{"stop_id":"U1699Z2","name":"Univerzitní kampus","arrival_time":"5:25:00","departure_time":"5:25:00","lat":49.177455,"lon":16.567173,"is_passed":false},{"stop_id":"U1429Z5","name":"Nemocnice Bohunice","arrival_time":"5:26:00","departure_time":"5:26:00","lat":49.175206,"lon":16.56694,"is_passed":false},{"stop_id":"U1492Z2","name":"Pod nemocnicí","arrival_time":"5:28:00","departure_time":"5:28:00","lat":49.172338,"lon":16.569417,"is_passed":false},{"stop_id":"U1472Z8","name":"Osová","arrival_time":"5:29:00","departure_time":"5:29:00","lat":49.168617,"lon":16.566306,"is_passed":false},{"stop_id":"U1273Z2","name":"Kosmonautů","arrival_time":"5:29:00","departure_time":"5:29:00","lat":49.167124,"lon":16.56745,"is_passed":false},{"stop_id":"U1627Z1","name":"Svah","arrival_time":"5:30:00","departure_time":"5:30:00","lat":49.165199,"lon":16.567969,"is_passed":false},{"stop_id":"U1061Z1","name":"Čermákova","arrival_time":"5:30:00","departure_time":"5:30:00","lat":49.164336,"lon":16.565516,"is_passed":false},{"stop_id":"U1666Z1","name":"Točná","arrival_time":"5:31:00","departure_time":"5:31:00","lat":49.16476,"lon":16.561692,"is_passed":false},{"stop_id":"U1687Z1","name":"U hřiště","arrival_time":"5:32:00","departure_time":"5:32:00","lat":49.166214,"lon":16.558668,"is_passed":false},{"stop_id":"U1097Z5","name":"Dunajská","arrival_time":"5:33:00","departure_time":"5:33:00","lat":49.169618,"lon":16.555308,"is_passed":false},{"stop_id":"U1616Z5","name":"Starý Lískovec, smyčka","arrival_time":"5:34:00","departure_time":"5:34:00","lat":49.172309,"lon":16.553313,"is_passed":false},{"stop_id":"U1202Z1","name":"Jemelkova","arrival_time":"5:35:00","departure_time":"5:35:00","lat":49.173333,"lon":16.548692,"is_passed":false},{"stop_id":"U1568Z1","name":"Skalní","arrival_time":"5:37:00","departure_time":"5:37:00","lat":49.174278,"lon":16.534362,"is_passed":false},{"stop_id":"U1161Z1","name":"Hoštická","arrival_time":"5:38:00","departure_time":"5:38:00","lat":49.173864,"lon":16.528044,"is_passed":false},{"stop_id":"U1037Z1","name":"Bosonohy","arrival_time":"5:40:00","departure_time":"5:42:00","lat":49.17652,"lon":16.525792,"is_passed":false}],"61101":[{"stop_id":"U1015Z2","name":"Bartolomějská","arrival_time":"6:44:00","departure_time":"6:44:00","lat":49.203579,"lon":16.489347,"is_passed":false},{"stop_id":"U1302Z2","name":"Křivánkovo náměstí","arrival_time":"6:45:00","departure_time":"6:45:00","lat":49.20688,"lon":16.4876,"is_passed":false},{"stop_id":"U1803Z2","name":"Žebětín, škola","arrival_time":"6:46:00","departure_time":"6:46:00","lat":49.207347,"lon":16.49285,"is_passed":false},{"stop_id":"U1251Z2","name":"Kohoutovická","arrival_time":"6:47:00","departure_time":"6:47:00","lat":49.206969,"lon":16.498211,"is_passed":false},{"stop_id":"U1267Z2","name":"Kopce","arrival_time":"6:48:00","departure_time":"6:48:00","lat":49.20545,"lon":16.509409,"is_passed":false},{"stop_id":"U1608Z1","name":"Stará dálnice","arrival_time":"6:50:00","departure_time":"6:50:00","lat":49.198733,"lon":16.517301,"is_passed":false},{"stop_id":"U1248Z1","name":"Kohoutovice, hájenka","arrival_time":"6:53:00","departure_time":"6:53:00","lat":49.19638,"lon":16.531386,"is_passed":false},{"stop_id":"U1806Z2","name":"Žebětínská","arrival_time":"6:54:00","departure_time":"6:54:00","lat":49.195249,"lon":16.536145,"is_passed":false},{"stop_id":"U1767Z2","name":"Výletní","arrival_time":"6:55:00","departure_time":"6:55:00","lat":49.191443,"lon":16.539596,"is_passed":false},{"stop_id":"U1409Z2","name":"Myslivní","arrival_time":"6:55:00","departure_time":"6:55:00","lat":49.190415,"lon":16.543578,"is_passed":false},{"stop_id":"U1636Z2","name":"Šárka","arrival_time":"6:56:00","departure_time":"6:56:00","lat":49.19131,"lon":16.545929,"is_passed":false},{"stop_id":"U1003Z1","name":"Antonína Procházky","arrival_time":"6:58:00","departure_time":"6:58:00","lat":49.193559,"lon":16.561795,"is_passed":false},{"stop_id":"U1007Z4","name":"Anthropos","arrival_time":"6:59:00","departure_time":"6:59:00","lat":49.193356,"lon":16.56677,"is_passed":false},{"stop_id":"U1487Z6","name":"Pisárky","arrival_time":"7:00:00","departure_time":"7:00:00","lat":49.193537,"lon":16.570797,"is_passed":false},{"stop_id":"U1343Z4","name":"ARENA BRNO","arrival_time":"7:01:00","departure_time":"7:01:00","lat":49.191574,"lon":16.576353,"is_passed":false},{"stop_id":"U1768Z4","name":"Výstaviště - hlavní vstup","arrival_time":"7:03:00","departure_time":"7:03:00","lat":49.1886,"lon":16.589153,"is_passed":false},{"stop_id":"U1378Z7","name":"Mendlovo náměstí","arrival_time":"7:06:00","departure_time":"7:08:00","lat":49.189919,"lon":16.593687,"is_passed":false}],"61102":[{"stop_id":"U1809Z3","name":"Židenice, nádraží","arrival_time":"20:15:00","departure_time":"20:15:00","lat":49.203338,"lon":16.636772,"is_passed":false},{"stop_id":"U1611Z8","name":"Stará osada","arrival_time":"20:18:00","departure_time":"20:18:00","lat":49.202294,"lon":16.642001,"is_passed":false},{"stop_id":"U1113Z1","name":"Gajdošova","arrival_time":"20:19:00","departure_time":"20:19:00","lat":49.19868,"lon":16.645552,"is_passed":false},{"stop_id":"U1082Z1","name":"Dělnický dům","arrival_time":"20:21:00","departure_time":"20:21:00","lat":49.195559,"lon":16.650177,"is_passed":false},{"stop_id":"U1212Z3","name":"Juliánov","arrival_time":"20:22:00","departure_time":"20:22:00","lat":49.196124,"lon":16.654392,"is_passed":false},{"stop_id":"U1353Z1","name":"Malá Klajdovka","arrival_time":"20:23:00","departure_time":"20:23:00","lat":49.199045,"lon":16.662888,"is_passed":false},{"stop_id":"U1058Z2","name":"Čejkovická","arrival_time":"20:24:00","departure_time":"20:24:00","lat":49.200493,"lon":16.661793,"is_passed":false},{"stop_id":"U1036Z2","name":"Bořetická","arrival_time":"20:25:00","departure_time":"20:25:00","lat":49.201495,"lon":16.658055,"is_passed":false},{"stop_id":"U1403Z2","name":"Mutěnická","arrival_time":"20:26:00","departure_time":"20:26:00","lat":49.203951,"lon":16.654889,"is_passed":false},{"stop_id":"U1477Z2","name":"Pálavské náměstí","arrival_time":"20:27:00","departure_time":"20:27:00","lat":49.20538,"lon":16.658103,"is_passed":false},{"stop_id":"U1052Z2","name":"Bzenecká","arrival_time":"20:28:00","departure_time":"20:28:00","lat":49.205822,"lon":16.661645,"is_passed":false},{"stop_id":"U1383Z1","name":"Mikulovská","arrival_time":"20:29:00","departure_time":"20:29:00","lat":49.2055,"lon":16.665833,"is_passed":false},{"stop_id":"U1623Z1","name":"Strnadova","arrival_time":"20:30:00","departure_time":"20:30:00","lat":49.205754,"lon":16.66904,"is_passed":false},{"stop_id":"U1103Z1","name":"Elplova","arrival_time":"20:32:00","departure_time":"20:32:00","lat":49.210484,"lon":16.675106,"is_passed":false},{"stop_id":"U1157Z1","name":"Horníkova","arrival_time":"20:33:00","departure_time":"20:33:00","lat":49.212138,"lon":16.676622,"is_passed":false},{"stop_id":"U1489Z1","name":"Podbělová","arrival_time":"20:34:00","departure_time":"20:34:00","lat":49.213881,"lon":16.681661,"is_passed":false},{"stop_id":"U1392Z1","name":"Molákova","arrival_time":"20:35:00","departure_time":"20:35:00","lat":49.212873,"lon":16.686835,"is_passed":false},{"stop_id":"U1208Z4","name":"Jírova","arrival_time":"20:36:00","departure_time":"20:36:00","lat":49.209099,"lon":16.688056,"is_passed":false},{"stop_id":"U1421Z2","name":"Náměstí Karla IV.","arrival_time":"20:37:00","departure_time":"20:37:00","lat":49.206113,"lon":16.69444,"is_passed":false},{"stop_id":"U1232Z2","name":"Karolíny Světlé","arrival_time":"20:38:00","departure_time":"20:38:00","lat":49.203721,"lon":16.694074,"is_passed":false},{"stop_id":"U1406Z1","name":"Muzeum dopravy","arrival_time":"20:39:00","departure_time":"20:39:00","lat":49.201045,"lon":16.69455,"is_passed":false},{"stop_id":"U1339Z1","name":"Letecká","arrival_time":"20:40:00","departure_time":"20:40:00","lat":49.197603,"lon":16.695882,"is_passed":false},{"stop_id":"U1152Z1","name":"Holzova","arrival_time":"20:41:00","departure_time":"20:41:00","lat":49.194703,"lon":16.696956,"is_passed":false},{"stop_id":"U1356Z1","name":"Malečkova","arrival_time":"20:42:00","departure_time":"20:42:00","lat":49.18583,"lon":16.69265,"is_passed":false},{"stop_id":"U1576Z1","name":"Slatina, rozcestí","arrival_time":"20:44:00","departure_time":"20:44:00","lat":49.181647,"lon":16.691923,"is_passed":false},{"stop_id":"U1292Z2","name":"Krejčího","arrival_time":"20:45:00","departure_time":"20:45:00","lat":49.177496,"lon":16.690785,"is_passed":false},{"stop_id":"U1525Z2","name":"Přemyslovo náměstí","arrival_time":"20:45:00","departure_time":"20:45:00","lat":49.176456,"lon":16.687324,"is_passed":false},{"stop_id":"U1300Z2","name":"Křehlíkova","arrival_time":"20:46:00","departure_time":"20:46:00","lat":49.174794,"lon":16.685267,"is_passed":false},{"stop_id":"U1562Z4","name":"Řípská","arrival_time":"20:48:00","departure_time":"20:48:00","lat":49.172829,"lon":16.682244,"is_passed":false},{"stop_id":"U1581Z1","name":"Areál Slatina","arrival_time":"20:49:00","departure_time":"20:49:00","lat":49.168614,"lon":16.67804,"is_passed":false},{"stop_id":"U1772Z1","name":"Za křížem","arrival_time":"20:50:00","departure_time":"20:50:00","lat":49.15982,"lon":16.670772,"is_passed":false},{"stop_id":"U1131Z1","name":"Hanácká","arrival_time":"20:52:00","departure_time":"20:52:00","lat":49.146954,"lon":16.667509,"is_passed":false},{"stop_id":"U1186Z1","name":"Chrlická","arrival_time":"20:53:00","departure_time":"20:53:00","lat":49.144276,"lon":16.66513,"is_passed":false},{"stop_id":"U1693Z1","name":"U viaduktu","arrival_time":"20:54:00","departure_time":"20:54:00","lat":49.13875,"lon":16.659846,"is_passed":false},{"stop_id":"U1187Z3","name":"Chrlické náměstí","arrival_time":"20:55:00","departure_time":"20:55:00","lat":49.135906,"lon":16.65314,"is_passed":false},{"stop_id":"U1644Z1","name":"Šromova","arrival_time":"20:56:00","departure_time":"20:56:00","lat":49.13376,"lon":16.650299,"is_passed":false},{"stop_id":"U1781Z1","name":"Zámecká","arrival_time":"20:57:00","departure_time":"20:57:00","lat":49.132776,"lon":16.642479,"is_passed":false},{"stop_id":"U15185Z2","name":"Modřice, Decathlon","arrival_time":"20:59:00","departure_time":"20:59:00","lat":49.137598,"lon":16.637297,"is_passed":false},{"stop_id":"U15186Z2","name":"Modřice, XXXLutz","arrival_time":"21:00:00","departure_time":"21:00:00","lat":49.138934,"lon":16.637263,"is_passed":false},{"stop_id":"U15130Z3","name":"Modřice, Olympia","arrival_time":"21:05:00","departure_time":"21:25:00","lat":49.139507,"lon":16.633749,"is_passed":false}],"61103":[{"stop_id":"U15130Z2","name":"Modřice, Olympia","arrival_time":"21:25:00","departure_time":"21:25:00","lat":49.139255,"lon":16.634291,"is_passed":false},{"stop_id":"U15132Z2","name":"Modřice, Olympia jih","arrival_time":"21:26:00","departure_time":"21:26:00","lat":49.135069,"lon":16.633864,"is_passed":false},{"stop_id":"U1781Z2","name":"Zámecká","arrival_time":"21:28:00","departure_time":"21:28:00","lat":49.132518,"lon":16.642875,"is_passed":false},{"stop_id":"U1644Z2","name":"Šromova","arrival_time":"21:29:00","departure_time":"21:29:00","lat":49.13398,"lon":16.651446,"is_passed":false},{"stop_id":"U1187Z4","name":"Chrlické náměstí","arrival_time":"21:30:00","departure_time":"21:30:00","lat":49.135767,"lon":16.653213,"is_passed":false},{"stop_id":"U1693Z2","name":"U viaduktu","arrival_time":"21:31:00","departure_time":"21:31:00","lat":49.139248,"lon":16.66101,"is_passed":false},{"stop_id":"U1186Z2","name":"Chrlická","arrival_time":"21:32:00","departure_time":"21:32:00","lat":49.143983,"lon":16.665097,"is_passed":false},{"stop_id":"U1131Z2","name":"Hanácká","arrival_time":"21:33:00","departure_time":"21:33:00","lat":49.146706,"lon":16.667371,"is_passed":false},{"stop_id":"U1772Z2","name":"Za křížem","arrival_time":"21:34:00","departure_time":"21:34:00","lat":49.15905,"lon":16.670815,"is_passed":false},{"stop_id":"U1581Z2","name":"Areál Slatina","arrival_time":"21:36:00","departure_time":"21:36:00","lat":49.168677,"lon":16.678416,"is_passed":false},{"stop_id":"U1562Z3","name":"Řípská","arrival_time":"21:37:00","departure_time":"21:37:00","lat":49.172528,"lon":16.682138,"is_passed":false},{"stop_id":"U1300Z1","name":"Křehlíkova","arrival_time":"21:38:00","departure_time":"21:38:00","lat":49.174839,"lon":16.685145,"is_passed":false},{"stop_id":"U1525Z1","name":"Přemyslovo náměstí","arrival_time":"21:39:00","departure_time":"21:39:00","lat":49.176289,"lon":16.687296,"is_passed":false},{"stop_id":"U1292Z1","name":"Krejčího","arrival_time":"21:40:00","departure_time":"21:40:00","lat":49.177441,"lon":16.690968,"is_passed":false},{"stop_id":"U1577Z6","name":"Slatina, sídliště","arrival_time":"21:42:00","departure_time":"21:43:00","lat":49.18229,"lon":16.690089,"is_passed":false}],"61104":[{"stop_id":"U1681Z2","name":"Tuřany, smyčka","arrival_time":"22:27:00","departure_time":"22:27:00","lat":49.141757,"lon":16.666878,"is_passed":false},{"stop_id":"U1186Z2","name":"Chrlická","arrival_time":"22:28:00","departure_time":"22:28:00","lat":49.143983,"lon":16.665097,"is_passed":false},{"stop_id":"U1131Z2","name":"Hanácká","arrival_time":"22:29:00","departure_time":"22:29:00","lat":49.146706,"lon":16.667371,"is_passed":false},{"stop_id":"U1538Z2","name":"Revoluční","arrival_time":"22:30:00","departure_time":"22:30:00","lat":49.150097,"lon":16.661811,"is_passed":false},{"stop_id":"U1118Z2","name":"Glocova","arrival_time":"22:31:00","departure_time":"22:31:00","lat":49.151351,"lon":16.659085,"is_passed":false},{"stop_id":"U1191Z2","name":"Ivanovické náměstí","arrival_time":"22:32:00","departure_time":"22:32:00","lat":49.153629,"lon":16.653755,"is_passed":false},{"stop_id":"U1511Z2","name":"Popelova","arrival_time":"22:33:00","departure_time":"22:33:00","lat":49.156919,"lon":16.646204,"is_passed":false},{"stop_id":"U1533Z2","name":"Ráječek","arrival_time":"22:34:00","departure_time":"22:34:00","lat":49.161397,"lon":16.637387,"is_passed":false},{"stop_id":"U1148Z2","name":"Hněvkovského","arrival_time":"22:36:00","departure_time":"22:36:00","lat":49.169618,"lon":16.626335,"is_passed":false},{"stop_id":"U1565Z2","name":"Sazenice","arrival_time":"22:36:00","departure_time":"22:36:00","lat":49.172877,"lon":16.623824,"is_passed":false},{"stop_id":"U1361Z4","name":"Mariánské náměstí","arrival_time":"22:37:00","departure_time":"22:37:00","lat":49.177094,"lon":16.621935,"is_passed":false},{"stop_id":"U1266Z4","name":"Konopná","arrival_time":"22:38:00","departure_time":"22:38:00","lat":49.179332,"lon":16.621811,"is_passed":false},{"stop_id":"U1807Z2","name":"Železniční","arrival_time":"22:39:00","departure_time":"22:39:00","lat":49.183322,"lon":16.619338,"is_passed":false},{"stop_id":"U1696Z14","name":"ÚAN Zvonařka","arrival_time":"22:40:00","departure_time":"22:40:00","lat":49.185364,"lon":16.616151,"is_passed":false},{"stop_id":"U1716Z7","name":"Úzká","arrival_time":"22:43:00","departure_time":"22:44:00","lat":49.188863,"lon":16.613326,"is_passed":false}],"61105":[{"stop_id":"U1616Z4","name":"Starý Lískovec, smyčka","arrival_time":"23:06:00","departure_time":"23:06:00","lat":49.170615,"lon":16.55427,"is_passed":false},{"stop_id":"U1097Z6","name":"Dunajská","arrival_time":"23:07:00","departure_time":"23:07:00","lat":49.168824,"lon":16.55589,"is_passed":false},{"stop_id":"U1687Z2","name":"U hřiště","arrival_time":"23:08:00","departure_time":"23:08:00","lat":49.165806,"lon":16.558562,"is_passed":false},{"stop_id":"U1666Z2","name":"Točná","arrival_time":"23:09:00","departure_time":"23:09:00","lat":49.164745,"lon":16.561481,"is_passed":false},{"stop_id":"U1061Z2","name":"Čermákova","arrival_time":"23:10:00","departure_time":"23:10:00","lat":49.164349,"lon":16.564689,"is_passed":false},{"stop_id":"U1627Z2","name":"Svah","arrival_time":"23:10:00","departure_time":"23:10:00","lat":49.164924,"lon":16.567717,"is_passed":false},{"stop_id":"U1168Z2","name":"Humenná","arrival_time":"23:12:00","departure_time":"23:12:00","lat":49.167953,"lon":16.573664,"is_passed":false},{"stop_id":"U1763Z1","name":"Vyhlídalova","arrival_time":"23:13:00","departure_time":"23:13:00","lat":49.165385,"lon":16.577302,"is_passed":false},{"stop_id":"U1122Z4","name":"Gruzínská","arrival_time":"23:14:00","departure_time":"23:14:00","lat":49.166074,"lon":16.585383,"is_passed":false},{"stop_id":"U1774Z2","name":"Za hřbitovem","arrival_time":"23:14:00","departure_time":"23:14:00","lat":49.164318,"lon":16.591448,"is_passed":false},{"stop_id":"U1673Z2","name":"Traťová","arrival_time":"23:15:00","departure_time":"23:15:00","lat":49.163623,"lon":16.595954,"is_passed":false},{"stop_id":"U1466Z55","name":"Ořechovská","arrival_time":"23:17:00","departure_time":"23:17:00","lat":49.156238,"lon":16.599375,"is_passed":false},{"stop_id":"U1141Z2","name":"Heršpická","arrival_time":"23:20:00","departure_time":"23:20:00","lat":49.170473,"lon":16.599896,"is_passed":false},{"stop_id":"U1622Z1","name":"Strážní","arrival_time":"23:22:00","departure_time":"23:22:00","lat":49.178207,"lon":16.603976,"is_passed":false},{"stop_id":"U1301Z4","name":"Křídlovická","arrival_time":"23:24:00","departure_time":"23:24:00","lat":49.185748,"lon":16.603967,"is_passed":false},{"stop_id":"U1596Z4","name":"Soukenická","arrival_time":"23:25:00","departure_time":"23:25:00","lat":49.188557,"lon":16.607222,"is_passed":false},{"stop_id":"U1146Z4","name":"Hlavní nádraží","arrival_time":"23:27:00","departure_time":"23:30:00","lat":49.19125,"lon":16.612674,"is_passed":false},{"stop_id":"U1746Z1","name":"Vlhká","arrival_time":"23:31:00","departure_time":"23:31:00","lat":49.191847,"lon":16.618976,"is_passed":false},{"stop_id":"U1372Z1","name":"Masná","arrival_time":"23:32:00","departure_time":"23:32:00","lat":49.191244,"lon":16.625642,"is_passed":false},{"stop_id":"U1677Z1","name":"Tržní","arrival_time":"23:34:00","departure_time":"23:34:00","lat":49.189973,"lon":16.632193,"is_passed":false},{"stop_id":"U1598Z1","name":"Spáčilova","arrival_time":"23:35:00","departure_time":"23:35:00","lat":49.188674,"lon":16.640942,"is_passed":false},{"stop_id":"U1455Z1","name":"Olomoucká - u školy","arrival_time":"23:36:00","departure_time":"23:36:00","lat":49.186169,"lon":16.652958,"is_passed":false},{"stop_id":"U1665Z1","name":"Těžební","arrival_time":"23:37:00","departure_time":"23:37:00","lat":49.181966,"lon":16.657236,"is_passed":false},{"stop_id":"U1739Z1","name":"Vlastimila Pecha","arrival_time":"23:38:00","departure_time":"23:38:00","lat":49.179379,"lon":16.662741,"is_passed":false},{"stop_id":"U1741Z2","name":"Vlárská","arrival_time":"23:40:00","departure_time":"23:40:00","lat":49.180702,"lon":16.672017,"is_passed":false},{"stop_id":"U1068Z3","name":"Černovičky","arrival_time":"23:41:00","departure_time":"23:41:00","lat":49.183143,"lon":16.669108,"is_passed":false},{"stop_id":"U1757Z2","name":"Vozovna Slatina","arrival_time":"23:41:00","departure_time":"23:41:00","lat":49.182866,"lon":16.673489,"is_passed":false},{"stop_id":"U1173Z2","name":"Hviezdoslavova","arrival_time":"23:42:00","departure_time":"23:42:00","lat":49.181664,"lon":16.677149,"is_passed":false},{"stop_id":"U1323Z2","name":"Langrova","arrival_time":"23:43:00","departure_time":"23:43:00","lat":49.17982,"lon":16.68105,"is_passed":false},{"stop_id":"U1382Z2","name":"Mikulčická","arrival_time":"23:43:00","departure_time":"23:43:00","lat":49.178227,"lon":16.684944,"is_passed":false},{"stop_id":"U1297Z2","name":"Kroměřížská","arrival_time":"23:44:00","departure_time":"23:44:00","lat":49.178988,"lon":16.689151,"is_passed":false},{"stop_id":"U1577Z3","name":"Slatina, sídliště","arrival_time":"23:45:00","departure_time":"23:45:00","lat":49.181461,"lon":16.690304,"is_passed":false},{"stop_id":"U1576Z1","name":"Slatina, rozcestí","arrival_time":"23:46:00","departure_time":"23:46:00","lat":49.181647,"lon":16.691923,"is_passed":false},{"stop_id":"U1292Z3","name":"Krejčího","arrival_time":"23:47:00","departure_time":"23:47:00","lat":49.177861,"lon":16.691431,"is_passed":false},{"stop_id":"U16165Z1","name":"Šlapanice, sídliště","arrival_time":"23:49:00","departure_time":"23:49:00","lat":49.16703,"lon":16.718338,"is_passed":false},{"stop_id":"U16155Z1","name":"Šlapanice, Čechova","arrival_time":"23:50:00","departure_time":"23:50:00","lat":49.165752,"lon":16.722536,"is_passed":false},{"stop_id":"U16159Z1","name":"Šlapanice, Kalvodova","arrival_time":"23:51:00","departure_time":"24:02:00","lat":49.166442,"lon":16.726521,"is_passed":false}],"61106":[{"stop_id":"U16159Z2","name":"Šlapanice, Kalvodova","arrival_time":"0:02:00","departure_time":"0:02:00","lat":49.166539,"lon":16.726218,"is_passed":false},{"stop_id":"U16155Z2","name":"Šlapanice, Čechova","arrival_time":"0:03:00","departure_time":"0:03:00","lat":49.166076,"lon":16.721551,"is_passed":false},{"stop_id":"U16165Z2","name":"Šlapanice, sídliště","arrival_time":"0:03:00","departure_time":"0:03:00","lat":49.167046,"lon":16.718465,"is_passed":false},{"stop_id":"U1292Z4","name":"Krejčího","arrival_time":"0:06:00","departure_time":"0:06:00","lat":49.177555,"lon":16.691625,"is_passed":false},{"stop_id":"U1577Z2","name":"Slatina, sídliště","arrival_time":"0:08:00","departure_time":"0:08:00","lat":49.181605,"lon":16.690121,"is_passed":false},{"stop_id":"U1297Z1","name":"Kroměřížská","arrival_time":"0:09:00","departure_time":"0:09:00","lat":49.178307,"lon":16.688244,"is_passed":false},{"stop_id":"U1382Z1","name":"Mikulčická","arrival_time":"0:09:00","departure_time":"0:09:00","lat":49.178464,"lon":16.683602,"is_passed":false},{"stop_id":"U1323Z1","name":"Langrova","arrival_time":"0:10:00","departure_time":"0:10:00","lat":49.180031,"lon":16.680806,"is_passed":false},{"stop_id":"U1173Z1","name":"Hviezdoslavova","arrival_time":"0:11:00","departure_time":"0:11:00","lat":49.18219,"lon":16.676025,"is_passed":false},{"stop_id":"U1757Z1","name":"Vozovna Slatina","arrival_time":"0:12:00","departure_time":"0:12:00","lat":49.183032,"lon":16.672807,"is_passed":false},{"stop_id":"U1068Z1","name":"Černovičky","arrival_time":"0:13:00","departure_time":"0:13:00","lat":49.182244,"lon":16.66894,"is_passed":false},{"stop_id":"U1741Z1","name":"Vlárská","arrival_time":"0:13:00","departure_time":"0:13:00","lat":49.180745,"lon":16.671647,"is_passed":false},{"stop_id":"U1105Z4","name":"Ericha Roučky","arrival_time":"0:15:00","departure_time":"0:15:00","lat":49.175789,"lon":16.668403,"is_passed":false},{"stop_id":"U1739Z2","name":"Vlastimila Pecha","arrival_time":"0:16:00","departure_time":"0:16:00","lat":49.179751,"lon":16.662407,"is_passed":false},{"stop_id":"U1665Z2","name":"Těžební","arrival_time":"0:17:00","departure_time":"0:17:00","lat":49.182639,"lon":16.656437,"is_passed":false},{"stop_id":"U1455Z2","name":"Olomoucká - u školy","arrival_time":"0:18:00","departure_time":"0:18:00","lat":49.186437,"lon":16.652477,"is_passed":false},{"stop_id":"U1598Z2","name":"Spáčilova","arrival_time":"0:19:00","departure_time":"0:19:00","lat":49.188617,"lon":16.641569,"is_passed":false},{"stop_id":"U1814Z4","name":"Životského","arrival_time":"0:20:00","departure_time":"0:20:00","lat":49.190077,"lon":16.634992,"is_passed":false},{"stop_id":"U1372Z2","name":"Masná","arrival_time":"0:21:00","departure_time":"0:21:00","lat":49.191283,"lon":16.6245,"is_passed":false},{"stop_id":"U1746Z2","name":"Vlhká","arrival_time":"0:22:00","departure_time":"0:22:00","lat":49.191852,"lon":16.619157,"is_passed":false},{"stop_id":"U1146Z3","name":"Hlavní nádraží","arrival_time":"0:25:00","departure_time":"0:30:00","lat":49.191063,"lon":16.611972,"is_passed":false},{"stop_id":"U1596Z3","name":"Soukenická","arrival_time":"0:31:00","departure_time":"0:31:00","lat":49.188374,"lon":16.60657,"is_passed":false},{"stop_id":"U1301Z3","name":"Křídlovická","arrival_time":"0:32:00","departure_time":"0:32:00","lat":49.185812,"lon":16.603614,"is_passed":false},{"stop_id":"U1622Z2","name":"Strážní","arrival_time":"0:33:00","departure_time":"0:33:00","lat":49.178477,"lon":16.603646,"is_passed":false},{"stop_id":"U1141Z1","name":"Heršpická","arrival_time":"0:34:00","departure_time":"0:34:00","lat":49.170255,"lon":16.599363,"is_passed":false},{"stop_id":"U1466Z5","name":"Ořechovská","arrival_time":"0:36:00","departure_time":"0:36:00","lat":49.156238,"lon":16.599375,"is_passed":false},{"stop_id":"U1031Z5","name":"Bohunická","arrival_time":"0:39:00","departure_time":"0:39:00","lat":49.162871,"lon":16.599483,"is_passed":false},{"stop_id":"U1673Z1","name":"Traťová","arrival_time":"0:39:00","departure_time":"0:39:00","lat":49.163849,"lon":16.595255,"is_passed":false},{"stop_id":"U1122Z3","name":"Gruzínská","arrival_time":"0:40:00","departure_time":"0:40:00","lat":49.166188,"lon":16.585372,"is_passed":false},{"stop_id":"U1763Z2","name":"Vyhlídalova","arrival_time":"0:41:00","departure_time":"0:41:00","lat":49.165134,"lon":16.576558,"is_passed":false},{"stop_id":"U1168Z1","name":"Humenná","arrival_time":"0:43:00","departure_time":"0:43:00","lat":49.1676,"lon":16.572367,"is_passed":false},{"stop_id":"U1627Z1","name":"Svah","arrival_time":"0:44:00","departure_time":"0:44:00","lat":49.165199,"lon":16.567969,"is_passed":false},{"stop_id":"U1061Z1","name":"Čermákova","arrival_time":"0:44:00","departure_time":"0:44:00","lat":49.164336,"lon":16.565516,"is_passed":false},{"stop_id":"U1666Z1","name":"Točná","arrival_time":"0:45:00","departure_time":"0:45:00","lat":49.16476,"lon":16.561692,"is_passed":false},{"stop_id":"U1687Z1","name":"U hřiště","arrival_time":"0:45:00","departure_time":"0:45:00","lat":49.166214,"lon":16.558668,"is_passed":false},{"stop_id":"U1097Z5","name":"Dunajská","arrival_time":"0:46:00","departure_time":"0:46:00","lat":49.169618,"lon":16.555308,"is_passed":false},{"stop_id":"U1616Z5","name":"Starý Lískovec, smyčka","arrival_time":"0:47:00","departure_time":"0:47:00","lat":49.172309,"lon":16.553313,"is_passed":false},{"stop_id":"U1202Z1","name":"Jemelkova","arrival_time":"0:48:00","departure_time":"0:48:00","lat":49.173333,"lon":16.548692,"is_passed":false},{"stop_id":"U1568Z1","name":"Skalní","arrival_time":"0:50:00","departure_time":"0:50:00","lat":49.174278,"lon":16.534362,"is_passed":false},{"stop_id":"U1161Z1","name":"Hoštická","arrival_time":"0:51:00","departure_time":"0:51:00","lat":49.173864,"lon":16.528044,"is_passed":false},{"stop_id":"U1037Z1","name":"Bosonohy","arrival_time":"0:53:00","departure_time":"1:31:00","lat":49.17652,"lon":16.525792,"is_passed":false}],"61107":[{"stop_id":"U1037Z2","name":"Bosonohy","arrival_time":"1:31:00","departure_time":"1:31:00","lat":49.176372,"lon":16.525514,"is_passed":false},{"stop_id":"U1161Z2","name":"Hoštická","arrival_time":"1:32:00","departure_time":"1:32:00","lat":49.173917,"lon":16.527822,"is_passed":false},{"stop_id":"U1516Z1","name":"Pražská","arrival_time":"1:33:00","departure_time":"1:33:00","lat":49.173478,"lon":16.531543,"is_passed":false},{"stop_id":"U1568Z2","name":"Skalní","arrival_time":"1:34:00","departure_time":"1:34:00","lat":49.174201,"lon":16.537903,"is_passed":false},{"stop_id":"U1202Z2","name":"Jemelkova","arrival_time":"1:35:00","departure_time":"1:35:00","lat":49.173163,"lon":16.54872,"is_passed":false},{"stop_id":"U1616Z4","name":"Starý Lískovec, smyčka","arrival_time":"1:36:00","departure_time":"1:36:00","lat":49.170615,"lon":16.55427,"is_passed":false},{"stop_id":"U1097Z6","name":"Dunajská","arrival_time":"1:37:00","departure_time":"1:37:00","lat":49.168824,"lon":16.55589,"is_passed":false},{"stop_id":"U1687Z2","name":"U hřiště","arrival_time":"1:38:00","departure_time":"1:38:00","lat":49.165806,"lon":16.558562,"is_passed":false},{"stop_id":"U1666Z2","name":"Točná","arrival_time":"1:39:00","departure_time":"1:39:00","lat":49.164745,"lon":16.561481,"is_passed":false},{"stop_id":"U1061Z2","name":"Čermákova","arrival_time":"1:40:00","departure_time":"1:40:00","lat":49.164349,"lon":16.564689,"is_passed":false},{"stop_id":"U1627Z2","name":"Svah","arrival_time":"1:40:00","departure_time":"1:40:00","lat":49.164924,"lon":16.567717,"is_passed":false},{"stop_id":"U1168Z2","name":"Humenná","arrival_time":"1:42:00","departure_time":"1:42:00","lat":49.167953,"lon":16.573664,"is_passed":false},{"stop_id":"U1763Z1","name":"Vyhlídalova","arrival_time":"1:43:00","departure_time":"1:43:00","lat":49.165385,"lon":16.577302,"is_passed":false},{"stop_id":"U1122Z4","name":"Gruzínská","arrival_time":"1:44:00","departure_time":"1:44:00","lat":49.166074,"lon":16.585383,"is_passed":false},{"stop_id":"U1774Z2","name":"Za hřbitovem","arrival_time":"1:44:00","departure_time":"1:44:00","lat":49.164318,"lon":16.591448,"is_passed":false},{"stop_id":"U1673Z2","name":"Traťová","arrival_time":"1:45:00","departure_time":"1:45:00","lat":49.163623,"lon":16.595954,"is_passed":false},{"stop_id":"U1466Z55","name":"Ořechovská","arrival_time":"1:47:00","departure_time":"1:47:00","lat":49.156238,"lon":16.599375,"is_passed":false},{"stop_id":"U1141Z2","name":"Heršpická","arrival_time":"1:50:00","departure_time":"1:50:00","lat":49.170473,"lon":16.599896,"is_passed":false},{"stop_id":"U1622Z1","name":"Strážní","arrival_time":"1:52:00","departure_time":"1:52:00","lat":49.178207,"lon":16.603976,"is_passed":false},{"stop_id":"U1301Z4","name":"Křídlovická","arrival_time":"1:54:00","departure_time":"1:54:00","lat":49.185748,"lon":16.603967,"is_passed":false},{"stop_id":"U1596Z4","name":"Soukenická","arrival_time":"1:55:00","departure_time":"1:55:00","lat":49.188557,"lon":16.607222,"is_passed":false},{"stop_id":"U1146Z4","name":"Hlavní nádraží","arrival_time":"1:57:00","departure_time":"2:00:00","lat":49.19125,"lon":16.612674,"is_passed":false},{"stop_id":"U1746Z1","name":"Vlhká","arrival_time":"2:01:00","departure_time":"2:01:00","lat":49.191847,"lon":16.618976,"is_passed":false},{"stop_id":"U1372Z1","name":"Masná","arrival_time":"2:02:00","departure_time":"2:02:00","lat":49.191244,"lon":16.625642,"is_passed":false},{"stop_id":"U1677Z1","name":"Tržní","arrival_time":"2:04:00","departure_time":"2:04:00","lat":49.189973,"lon":16.632193,"is_passed":false},{"stop_id":"U1598Z1","name":"Spáčilova","arrival_time":"2:05:00","departure_time":"2:05:00","lat":49.188674,"lon":16.640942,"is_passed":false},{"stop_id":"U1455Z1","name":"Olomoucká - u školy","arrival_time":"2:06:00","departure_time":"2:06:00","lat":49.186169,"lon":16.652958,"is_passed":false},{"stop_id":"U1665Z1","name":"Těžební","arrival_time":"2:07:00","departure_time":"2:07:00","lat":49.181966,"lon":16.657236,"is_passed":false},{"stop_id":"U1739Z1","name":"Vlastimila Pecha","arrival_time":"2:08:00","departure_time":"2:08:00","lat":49.179379,"lon":16.662741,"is_passed":false},{"stop_id":"U1741Z2","name":"Vlárská","arrival_time":"2:10:00","departure_time":"2:10:00","lat":49.180702,"lon":16.672017,"is_passed":false},{"stop_id":"U1068Z3","name":"Černovičky","arrival_time":"2:11:00","departure_time":"2:11:00","lat":49.183143,"lon":16.669108,"is_passed":false},{"stop_id":"U1757Z2","name":"Vozovna Slatina","arrival_time":"2:11:00","departure_time":"2:11:00","lat":49.182866,"lon":16.673489,"is_passed":false},{"stop_id":"U1173Z2","name":"Hviezdoslavova","arrival_time":"2:12:00","departure_time":"2:12:00","lat":49.181664,"lon":16.677149,"is_passed":false},{"stop_id":"U1323Z2","name":"Langrova","arrival_time":"2:13:00","departure_time":"2:13:00","lat":49.17982,"lon":16.68105,"is_passed":false},{"stop_id":"U1382Z2","name":"Mikulčická","arrival_time":"2:13:00","departure_time":"2:13:00","lat":49.178227,"lon":16.684944,"is_passed":false},{"stop_id":"U1297Z2","name":"Kroměřížská","arrival_time":"2:14:00","departure_time":"2:14:00","lat":49.178988,"lon":16.689151,"is_passed":false},{"stop_id":"U1577Z3","name":"Slatina, sídliště","arrival_time":"2:15:00","departure_time":"2:15:00","lat":49.181461,"lon":16.690304,"is_passed":false},{"stop_id":"U1576Z1","name":"Slatina, rozcestí","arrival_time":"2:16:00","departure_time":"2:16:00","lat":49.181647,"lon":16.691923,"is_passed":false},{"stop_id":"U1292Z3","name":"Krejčího","arrival_time":"2:17:00","departure_time":"2:17:00","lat":49.177861,"lon":16.691431,"is_passed":false},{"stop_id":"U16165Z1","name":"Šlapanice, sídliště","arrival_time":"2:19:00","departure_time":"2:19:00","lat":49.16703,"lon":16.718338,"is_passed":false},{"stop_id":"U16155Z1","name":"Šlapanice, Čechova","arrival_time":"2:20:00","departure_time":"2:20:00","lat":49.165752,"lon":16.722536,"is_passed":false},{"stop_id":"U16159Z1","name":"Šlapanice, Kalvodova","arrival_time":"2:21:00","departure_time":"2:32:00","lat":49.166442,"lon":16.726521,"is_passed":false}],"61108":[{"stop_id":"U16159Z2","name":"Šlapanice, Kalvodova","arrival_time":"2:32:00","departure_time":"2:32:00","lat":49.166539,"lon":16.726218,"is_passed":false},{"stop_id":"U16155Z2","name":"Šlapanice, Čechova","arrival_time":"2:33:00","departure_time":"2:33:00","lat":49.166076,"lon":16.721551,"is_passed":false},{"stop_id":"U16165Z2","name":"Šlapanice, sídliště","arrival_time":"2:33:00","departure_time":"2:33:00","lat":49.167046,"lon":16.718465,"is_passed":false},{"stop_id":"U1292Z4","name":"Krejčího","arrival_time":"2:36:00","departure_time":"2:36:00","lat":49.177555,"lon":16.691625,"is_passed":false},{"stop_id":"U1577Z2","name":"Slatina, sídliště","arrival_time":"2:38:00","departure_time":"2:38:00","lat":49.181605,"lon":16.690121,"is_passed":false},{"stop_id":"U1297Z1","name":"Kroměřížská","arrival_time":"2:39:00","departure_time":"2:39:00","lat":49.178307,"lon":16.688244,"is_passed":false},{"stop_id":"U1382Z1","name":"Mikulčická","arrival_time":"2:39:00","departure_time":"2:39:00","lat":49.178464,"lon":16.683602,"is_passed":false},{"stop_id":"U1323Z1","name":"Langrova","arrival_time":"2:40:00","departure_time":"2:40:00","lat":49.180031,"lon":16.680806,"is_passed":false},{"stop_id":"U1173Z1","name":"Hviezdoslavova","arrival_time":"2:41:00","departure_time":"2:41:00","lat":49.18219,"lon":16.676025,"is_passed":false},{"stop_id":"U1757Z1","name":"Vozovna Slatina","arrival_time":"2:42:00","departure_time":"2:42:00","lat":49.183032,"lon":16.672807,"is_passed":false},{"stop_id":"U1068Z1","name":"Černovičky","arrival_time":"2:43:00","departure_time":"2:43:00","lat":49.182244,"lon":16.66894,"is_passed":false},{"stop_id":"U1741Z1","name":"Vlárská","arrival_time":"2:43:00","departure_time":"2:43:00","lat":49.180745,"lon":16.671647,"is_passed":false},{"stop_id":"U1105Z4","name":"Ericha Roučky","arrival_time":"2:45:00","departure_time":"2:45:00","lat":49.175789,"lon":16.668403,"is_passed":false},{"stop_id":"U1739Z2","name":"Vlastimila Pecha","arrival_time":"2:46:00","departure_time":"2:46:00","lat":49.179751,"lon":16.662407,"is_passed":false},{"stop_id":"U1665Z2","name":"Těžební","arrival_time":"2:47:00","departure_time":"2:47:00","lat":49.182639,"lon":16.656437,"is_passed":false},{"stop_id":"U1455Z2","name":"Olomoucká - u školy","arrival_time":"2:48:00","departure_time":"2:48:00","lat":49.186437,"lon":16.652477,"is_passed":false},{"stop_id":"U1598Z2","name":"Spáčilova","arrival_time":"2:49:00","departure_time":"2:49:00","lat":49.188617,"lon":16.641569,"is_passed":false},{"stop_id":"U1814Z4","name":"Životského","arrival_time":"2:50:00","departure_time":"2:50:00","lat":49.190077,"lon":16.634992,"is_passed":false},{"stop_id":"U1372Z2","name":"Masná","arrival_time":"2:51:00","departure_time":"2:51:00","lat":49.191283,"lon":16.6245,"is_passed":false},{"stop_id":"U1746Z2","name":"Vlhká","arrival_time":"2:52:00","departure_time":"2:52:00","lat":49.191852,"lon":16.619157,"is_passed":false},{"stop_id":"U1146Z3","name":"Hlavní nádraží","arrival_time":"2:55:00","departure_time":"3:00:00","lat":49.191063,"lon":16.611972,"is_passed":false},{"stop_id":"U1596Z3","name":"Soukenická","arrival_time":"3:01:00","departure_time":"3:01:00","lat":49.188374,"lon":16.60657,"is_passed":false},{"stop_id":"U1301Z3","name":"Křídlovická","arrival_time":"3:02:00","departure_time":"3:02:00","lat":49.185812,"lon":16.603614,"is_passed":false},{"stop_id":"U1622Z2","name":"Strážní","arrival_time":"3:03:00","departure_time":"3:03:00","lat":49.178477,"lon":16.603646,"is_passed":false},{"stop_id":"U1141Z1","name":"Heršpická","arrival_time":"3:04:00","departure_time":"3:04:00","lat":49.170255,"lon":16.599363,"is_passed":false},{"stop_id":"U1466Z5","name":"Ořechovská","arrival_time":"3:06:00","departure_time":"3:06:00","lat":49.156238,"lon":16.599375,"is_passed":false},{"stop_id":"U1031Z5","name":"Bohunická","arrival_time":"3:09:00","departure_time":"3:09:00","lat":49.162871,"lon":16.599483,"is_passed":false},{"stop_id":"U1673Z1","name":"Traťová","arrival_time":"3:09:00","departure_time":"3:09:00","lat":49.163849,"lon":16.595255,"is_passed":false},{"stop_id":"U1122Z3","name":"Gruzínská","arrival_time":"3:10:00","departure_time":"3:10:00","lat":49.166188,"lon":16.585372,"is_passed":false},{"stop_id":"U1763Z2","name":"Vyhlídalova","arrival_time":"3:11:00","departure_time":"3:11:00","lat":49.165134,"lon":16.576558,"is_passed":false},{"stop_id":"U1168Z1","name":"Humenná","arrival_time":"3:13:00","departure_time":"3:13:00","lat":49.1676,"lon":16.572367,"is_passed":false},{"stop_id":"U1627Z1","name":"Svah","arrival_time":"3:14:00","departure_time":"3:14:00","lat":49.165199,"lon":16.567969,"is_passed":false},{"stop_id":"U1061Z1","name":"Čermákova","arrival_time":"3:14:00","departure_time":"3:14:00","lat":49.164336,"lon":16.565516,"is_passed":false},{"stop_id":"U1666Z1","name":"Točná","arrival_time":"3:15:00","departure_time":"3:15:00","lat":49.16476,"lon":16.561692,"is_passed":false},{"stop_id":"U1687Z1","name":"U hřiště","arrival_time":"3:15:00","departure_time":"3:15:00","lat":49.166214,"lon":16.558668,"is_passed":false},{"stop_id":"U1097Z5","name":"Dunajská","arrival_time":"3:16:00","departure_time":"3:16:00","lat":49.169618,"lon":16.555308,"is_passed":false},{"stop_id":"U1616Z5","name":"Starý Lískovec, smyčka","arrival_time":"3:17:00","departure_time":"3:17:00","lat":49.172309,"lon":16.553313,"is_passed":false},{"stop_id":"U1202Z1","name":"Jemelkova","arrival_time":"3:18:00","departure_time":"3:18:00","lat":49.173333,"lon":16.548692,"is_passed":false},{"stop_id":"U1568Z1","name":"Skalní","arrival_time":"3:20:00","departure_time":"3:20:00","lat":49.174278,"lon":16.534362,"is_passed":false},{"stop_id":"U1161Z1","name":"Hoštická","arrival_time":"3:21:00","departure_time":"3:21:00","lat":49.173864,"lon":16.528044,"is_passed":false},{"stop_id":"U1037Z1","name":"Bosonohy","arrival_time":"3:23:00","departure_time":"4:01:00","lat":49.17652,"lon":16.525792,"is_passed":false}],"61109":[{"stop_id":"U1037Z2","name":"Bosonohy","arrival_time":"4:01:00","departure_time":"4:01:00","lat":49.176372,"lon":16.525514,"is_passed":false},{"stop_id":"U1161Z2","name":"Hoštická","arrival_time":"4:02:00","departure_time":"4:02:00","lat":49.173917,"lon":16.527822,"is_passed":false},{"stop_id":"U1516Z1","name":"Pražská","arrival_time":"4:03:00","departure_time":"4:03:00","lat":49.173478,"lon":16.531543,"is_passed":false},{"stop_id":"U1568Z2","name":"Skalní","arrival_time":"4:04:00","departure_time":"4:04:00","lat":49.174201,"lon":16.537903,"is_passed":false},{"stop_id":"U1202Z2","name":"Jemelkova","arrival_time":"4:05:00","departure_time":"4:05:00","lat":49.173163,"lon":16.54872,"is_passed":false},{"stop_id":"U1616Z4","name":"Starý Lískovec, smyčka","arrival_time":"4:06:00","departure_time":"4:06:00","lat":49.170615,"lon":16.55427,"is_passed":false},{"stop_id":"U1097Z6","name":"Dunajská","arrival_time":"4:07:00","departure_time":"4:07:00","lat":49.168824,"lon":16.55589,"is_passed":false},{"stop_id":"U1687Z2","name":"U hřiště","arrival_time":"4:08:00","departure_time":"4:08:00","lat":49.165806,"lon":16.558562,"is_passed":false},{"stop_id":"U1666Z2","name":"Točná","arrival_time":"4:09:00","departure_time":"4:09:00","lat":49.164745,"lon":16.561481,"is_passed":false},{"stop_id":"U1061Z2","name":"Čermákova","arrival_time":"4:10:00","departure_time":"4:10:00","lat":49.164349,"lon":16.564689,"is_passed":false},{"stop_id":"U1627Z2","name":"Svah","arrival_time":"4:10:00","departure_time":"4:10:00","lat":49.164924,"lon":16.567717,"is_passed":false},{"stop_id":"U1168Z2","name":"Humenná","arrival_time":"4:12:00","departure_time":"4:12:00","lat":49.167953,"lon":16.573664,"is_passed":false},{"stop_id":"U1763Z1","name":"Vyhlídalova","arrival_time":"4:13:00","departure_time":"4:13:00","lat":49.165385,"lon":16.577302,"is_passed":false},{"stop_id":"U1122Z4","name":"Gruzínská","arrival_time":"4:14:00","departure_time":"4:14:00","lat":49.166074,"lon":16.585383,"is_passed":false},{"stop_id":"U1774Z2","name":"Za hřbitovem","arrival_time":"4:14:00","departure_time":"4:14:00","lat":49.164318,"lon":16.591448,"is_passed":false},{"stop_id":"U1673Z2","name":"Traťová","arrival_time":"4:15:00","departure_time":"4:15:00","lat":49.163623,"lon":16.595954,"is_passed":false},{"stop_id":"U1466Z55","name":"Ořechovská","arrival_time":"4:17:00","departure_time":"4:17:00","lat":49.156238,"lon":16.599375,"is_passed":false},{"stop_id":"U1141Z2","name":"Heršpická","arrival_time":"4:20:00","departure_time":"4:20:00","lat":49.170473,"lon":16.599896,"is_passed":false},{"stop_id":"U1622Z1","name":"Strážní","arrival_time":"4:22:00","departure_time":"4:22:00","lat":49.178207,"lon":16.603976,"is_passed":false},{"stop_id":"U1301Z4","name":"Křídlovická","arrival_time":"4:24:00","departure_time":"4:24:00","lat":49.185748,"lon":16.603967,"is_passed":false},{"stop_id":"U1596Z4","name":"Soukenická","arrival_time":"4:25:00","departure_time":"4:25:00","lat":49.188557,"lon":16.607222,"is_passed":false},{"stop_id":"U1146Z4","name":"Hlavní nádraží","arrival_time":"4:27:00","departure_time":"4:30:00","lat":49.19125,"lon":16.612674,"is_passed":false},{"stop_id":"U1746Z1","name":"Vlhká","arrival_time":"4:31:00","departure_time":"4:31:00","lat":49.191847,"lon":16.618976,"is_passed":false},{"stop_id":"U1372Z1","name":"Masná","arrival_time":"4:32:00","departure_time":"4:32:00","lat":49.191244,"lon":16.625642,"is_passed":false},{"stop_id":"U1677Z1","name":"Tržní","arrival_time":"4:34:00","departure_time":"4:34:00","lat":49.189973,"lon":16.632193,"is_passed":false},{"stop_id":"U1598Z1","name":"Spáčilova","arrival_time":"4:35:00","departure_time":"4:35:00","lat":49.188674,"lon":16.640942,"is_passed":false},{"stop_id":"U1455Z1","name":"Olomoucká - u školy","arrival_time":"4:36:00","departure_time":"4:36:00","lat":49.186169,"lon":16.652958,"is_passed":false},{"stop_id":"U1665Z1","name":"Těžební","arrival_time":"4:37:00","departure_time":"4:37:00","lat":49.181966,"lon":16.657236,"is_passed":false},{"stop_id":"U1739Z1","name":"Vlastimila Pecha","arrival_time":"4:38:00","departure_time":"4:38:00","lat":49.179379,"lon":16.662741,"is_passed":false},{"stop_id":"U1741Z2","name":"Vlárská","arrival_time":"4:40:00","departure_time":"4:40:00","lat":49.180702,"lon":16.672017,"is_passed":false},{"stop_id":"U1068Z3","name":"Černovičky","arrival_time":"4:41:00","departure_time":"4:41:00","lat":49.183143,"lon":16.669108,"is_passed":false},{"stop_id":"U1757Z2","name":"Vozovna Slatina","arrival_time":"4:41:00","departure_time":"4:41:00","lat":49.182866,"lon":16.673489,"is_passed":false},{"stop_id":"U1173Z2","name":"Hviezdoslavova","arrival_time":"4:42:00","departure_time":"4:42:00","lat":49.181664,"lon":16.677149,"is_passed":false},{"stop_id":"U1323Z2","name":"Langrova","arrival_time":"4:43:00","departure_time":"4:43:00","lat":49.17982,"lon":16.68105,"is_passed":false},{"stop_id":"U1382Z2","name":"Mikulčická","arrival_time":"4:43:00","departure_time":"4:43:00","lat":49.178227,"lon":16.684944,"is_passed":false},{"stop_id":"U1297Z2","name":"Kroměřížská","arrival_time":"4:44:00","departure_time":"4:44:00","lat":49.178988,"lon":16.689151,"is_passed":false},{"stop_id":"U1577Z3","name":"Slatina, sídliště","arrival_time":"4:45:00","departure_time":"4:45:00","lat":49.181461,"lon":16.690304,"is_passed":false},{"stop_id":"U1576Z1","name":"Slatina, rozcestí","arrival_time":"4:46:00","departure_time":"4:46:00","lat":49.181647,"lon":16.691923,"is_passed":false},{"stop_id":"U1292Z3","name":"Krejčího","arrival_time":"4:47:00","departure_time":"4:47:00","lat":49.177861,"lon":16.691431,"is_passed":false},{"stop_id":"U16165Z1","name":"Šlapanice, sídliště","arrival_time":"4:49:00","departure_time":"4:49:00","lat":49.16703,"lon":16.718338,"is_passed":false},{"stop_id":"U16155Z1","name":"Šlapanice, Čechova","arrival_time":"4:50:00","departure_time":"4:50:00","lat":49.165752,"lon":16.722536,"is_passed":false},{"stop_id":"U16159Z1","name":"Šlapanice, Kalvodova","arrival_time":"4:51:00","departure_time":"4:51:00","lat":49.166442,"lon":16.726521,"is_passed":false}],"61110":[{"stop_id":"U16159Z2","name":"Šlapanice, Kalvodova","arrival_time":"4:59:00","departure_time":"4:59:00","lat":49.166539,"lon":16.726218,"is_passed":false},{"stop_id":"U16155Z2","name":"Šlapanice, Čechova","arrival_time":"5:00:00","departure_time":"5:00:00","lat":49.166076,"lon":16.721551,"is_passed":false},{"stop_id":"U16165Z2","name":"Šlapanice, sídliště","arrival_time":"5:00:00","departure_time":"5:00:00","lat":49.167046,"lon":16.718465,"is_passed":false},{"stop_id":"U1292Z2","name":"Krejčího","arrival_time":"5:04:00","departure_time":"5:04:00","lat":49.177496,"lon":16.690785,"is_passed":false},{"stop_id":"U1525Z2","name":"Přemyslovo náměstí","arrival_time":"5:04:00","departure_time":"5:04:00","lat":49.176456,"lon":16.687324,"is_passed":false},{"stop_id":"U1300Z2","name":"Křehlíkova","arrival_time":"5:05:00","departure_time":"5:05:00","lat":49.174794,"lon":16.685267,"is_passed":false},{"stop_id":"U1562Z2","name":"Řípská","arrival_time":"5:07:00","departure_time":"5:07:00","lat":49.174115,"lon":16.681787,"is_passed":false},{"stop_id":"U1046Z2","name":"Brněnky","arrival_time":"5:08:00","departure_time":"5:08:00","lat":49.178901,"lon":16.675332,"is_passed":false},{"stop_id":"U1741Z2","name":"Vlárská","arrival_time":"5:08:00","departure_time":"5:08:00","lat":49.180702,"lon":16.672017,"is_passed":false},{"stop_id":"U1068Z4","name":"Černovičky","arrival_time":"5:10:00","departure_time":"5:10:00","lat":49.183907,"lon":16.668247,"is_passed":false},{"stop_id":"U1814Z4","name":"Životského","arrival_time":"5:15:00","departure_time":"5:15:00","lat":49.190077,"lon":16.634992,"is_passed":false},{"stop_id":"U1372Z2","name":"Masná","arrival_time":"5:17:00","departure_time":"5:17:00","lat":49.191283,"lon":16.6245,"is_passed":false},{"stop_id":"U1746Z2","name":"Vlhká","arrival_time":"5:18:00","departure_time":"5:18:00","lat":49.191852,"lon":16.619157,"is_passed":false},{"stop_id":"U1146Z7","name":"Hlavní nádraží","arrival_time":"5:21:00","departure_time":"5:22:00","lat":49.19213,"lon":16.613467,"is_passed":false}],"61111":[{"stop_id":"U1716Z4","name":"Úzká","arrival_time":"5:33:00","departure_time":"5:33:00","lat":49.189107,"lon":16.613266,"is_passed":false},{"stop_id":"U1463Z2","name":"Opuštěná","arrival_time":"5:35:00","departure_time":"5:35:00","lat":49.185245,"lon":16.613024,"is_passed":false},{"stop_id":"U1011Z4","name":"Autobusové nádraží","arrival_time":"5:36:00","departure_time":"5:36:00","lat":49.186887,"lon":16.618479,"is_passed":false},{"stop_id":"U1144Z1","name":"Hladíkova","arrival_time":"5:37:00","departure_time":"5:37:00","lat":49.187682,"lon":16.625353,"is_passed":false},{"stop_id":"U1677Z1","name":"Tržní","arrival_time":"5:39:00","departure_time":"5:39:00","lat":49.189973,"lon":16.632193,"is_passed":false},{"stop_id":"U1598Z1","name":"Spáčilova","arrival_time":"5:40:00","departure_time":"5:40:00","lat":49.188674,"lon":16.640942,"is_passed":false},{"stop_id":"U1455Z1","name":"Olomoucká - u školy","arrival_time":"5:41:00","departure_time":"5:41:00","lat":49.186169,"lon":16.652958,"is_passed":false},{"stop_id":"U1665Z1","name":"Těžební","arrival_time":"5:43:00","departure_time":"5:43:00","lat":49.181966,"lon":16.657236,"is_passed":false},{"stop_id":"U1739Z1","name":"Vlastimila Pecha","arrival_time":"5:44:00","departure_time":"5:44:00","lat":49.179379,"lon":16.662741,"is_passed":false},{"stop_id":"U1105Z1","name":"Ericha Roučky","arrival_time":"5:46:00","departure_time":"5:46:00","lat":49.174784,"lon":16.66987,"is_passed":false},{"stop_id":"U1064Z1","name":"Černovická terasa I","arrival_time":"5:47:00","departure_time":"5:47:00","lat":49.171172,"lon":16.673495,"is_passed":false},{"stop_id":"U1065Z1","name":"Černovická terasa II","arrival_time":"5:48:00","departure_time":"5:48:00","lat":49.167108,"lon":16.67608,"is_passed":false},{"stop_id":"U1581Z3","name":"Areál Slatina","arrival_time":"5:50:00","departure_time":"6:08:00","lat":49.168533,"lon":16.678786,"is_passed":false}],"61112":[{"stop_id":"U1581Z1","name":"Areál Slatina","arrival_time":"6:08:00","departure_time":"6:08:00","lat":49.168614,"lon":16.67804,"is_passed":false},{"stop_id":"U1065Z2","name":"Černovická terasa II","arrival_time":"6:08:00","departure_time":"6:08:00","lat":49.168348,"lon":16.675307,"is_passed":false},{"stop_id":"U1064Z2","name":"Černovická terasa I","arrival_time":"6:09:00","departure_time":"6:09:00","lat":49.171843,"lon":16.673091,"is_passed":false},{"stop_id":"U1105Z4","name":"Ericha Roučky","arrival_time":"6:11:00","departure_time":"6:11:00","lat":49.175789,"lon":16.668403,"is_passed":false},{"stop_id":"U1739Z2","name":"Vlastimila Pecha","arrival_time":"6:12:00","departure_time":"6:12:00","lat":49.179751,"lon":16.662407,"is_passed":false},{"stop_id":"U1665Z2","name":"Těžební","arrival_time":"6:13:00","departure_time":"6:13:00","lat":49.182639,"lon":16.656437,"is_passed":false},{"stop_id":"U1455Z2","name":"Olomoucká - u školy","arrival_time":"6:15:00","departure_time":"6:15:00","lat":49.186437,"lon":16.652477,"is_passed":false},{"stop_id":"U1598Z2","name":"Spáčilova","arrival_time":"6:16:00","departure_time":"6:16:00","lat":49.188617,"lon":16.641569,"is_passed":false},{"stop_id":"U1677Z2","name":"Tržní","arrival_time":"6:19:00","departure_time":"6:19:00","lat":49.189407,"lon":16.629972,"is_passed":false},{"stop_id":"U1144Z2","name":"Hladíkova","arrival_time":"6:19:00","departure_time":"6:19:00","lat":49.187865,"lon":16.625741,"is_passed":false},{"stop_id":"U1011Z3","name":"Autobusové nádraží","arrival_time":"6:21:00","departure_time":"6:21:00","lat":49.186909,"lon":16.617974,"is_passed":false},{"stop_id":"U1716Z3","name":"Úzká","arrival_time":"6:24:00","departure_time":"6:32:00","lat":49.189244,"lon":16.613733,"is_passed":false}],"61113":[{"stop_id":"U1716Z4","name":"Úzká","arrival_time":"6:32:00","departure_time":"6:32:00","lat":49.189107,"lon":16.613266,"is_passed":false},{"stop_id":"U1463Z2","name":"Opuštěná","arrival_time":"6:35:00","departure_time":"6:35:00","lat":49.185245,"lon":16.613024,"is_passed":false},{"stop_id":"U1011Z4","name":"Autobusové nádraží","arrival_time":"6:37:00","departure_time":"6:37:00","lat":49.186887,"lon":16.618479,"is_passed":false},{"stop_id":"U1144Z1","name":"Hladíkova","arrival_time":"6:38:00","departure_time":"6:38:00","lat":49.187682,"lon":16.625353,"is_passed":false},{"stop_id":"U1677Z1","name":"Tržní","arrival_time":"6:40:00","departure_time":"6:40:00","lat":49.189973,"lon":16.632193,"is_passed":false},{"stop_id":"U1598Z1","name":"Spáčilova","arrival_time":"6:41:00","departure_time":"6:41:00","lat":49.188674,"lon":16.640942,"is_passed":false},{"stop_id":"U1455Z1","name":"Olomoucká - u školy","arrival_time":"6:43:00","departure_time":"6:43:00","lat":49.186169,"lon":16.652958,"is_passed":false},{"stop_id":"U1665Z1","name":"Těžební","arrival_time":"6:45:00","departure_time":"6:45:00","lat":49.181966,"lon":16.657236,"is_passed":false},{"stop_id":"U1739Z1","name":"Vlastimila Pecha","arrival_time":"6:46:00","departure_time":"6:46:00","lat":49.179379,"lon":16.662741,"is_passed":false},{"stop_id":"U1105Z1","name":"Ericha Roučky","arrival_time":"6:48:00","departure_time":"6:48:00","lat":49.174784,"lon":16.66987,"is_passed":false},{"stop_id":"U1064Z1","name":"Černovická terasa I","arrival_time":"6:49:00","departure_time":"6:49:00","lat":49.171172,"lon":16.673495,"is_passed":false},{"stop_id":"U1065Z1","name":"Černovická terasa II","arrival_time":"6:50:00","departure_time":"6:50:00","lat":49.167108,"lon":16.67608,"is_passed":false},{"stop_id":"U1581Z3","name":"Areál Slatina","arrival_time":"6:52:00","departure_time":"6:54:00","lat":49.168533,"lon":16.678786,"is_passed":false}],"61114":[{"stop_id":"U1716Z4","name":"Úzká","arrival_time":"7:17:00","departure_time":"7:17:00","lat":49.189107,"lon":16.613266,"is_passed":false},{"stop_id":"U1463Z2","name":"Opuštěná","arrival_time":"7:20:00","departure_time":"7:20:00","lat":49.185245,"lon":16.613024,"is_passed":false},{"stop_id":"U1011Z4","name":"Autobusové nádraží","arrival_time":"7:22:00","departure_time":"7:22:00","lat":49.186887,"lon":16.618479,"is_passed":false},{"stop_id":"U1144Z1","name":"Hladíkova","arrival_time":"7:23:00","departure_time":"7:23:00","lat":49.187682,"lon":16.625353,"is_passed":false},{"stop_id":"U1677Z1","name":"Tržní","arrival_time":"7:25:00","departure_time":"7:25:00","lat":49.189973,"lon":16.632193,"is_passed":false},{"stop_id":"U1598Z1","name":"Spáčilova","arrival_time":"7:26:00","departure_time":"7:26:00","lat":49.188674,"lon":16.640942,"is_passed":false},{"stop_id":"U1455Z1","name":"Olomoucká - u školy","arrival_time":"7:28:00","departure_time":"7:28:00","lat":49.186169,"lon":16.652958,"is_passed":false},{"stop_id":"U1665Z1","name":"Těžební","arrival_time":"7:30:00","departure_time":"7:30:00","lat":49.181966,"lon":16.657236,"is_passed":false},{"stop_id":"U1739Z1","name":"Vlastimila Pecha","arrival_time":"7:31:00","departure_time":"7:31:00","lat":49.179379,"lon":16.662741,"is_passed":false},{"stop_id":"U1105Z1","name":"Ericha Roučky","arrival_time":"7:33:00","departure_time":"7:33:00","lat":49.174784,"lon":16.66987,"is_passed":false},{"stop_id":"U1064Z1","name":"Černovická terasa I","arrival_time":"7:34:00","departure_time":"7:34:00","lat":49.171172,"lon":16.673495,"is_passed":false},{"stop_id":"U1065Z1","name":"Černovická terasa II","arrival_time":"7:35:00","departure_time":"7:35:00","lat":49.167108,"lon":16.67608,"is_passed":false},{"stop_id":"U1581Z3","name":"Areál Slatina","arrival_time":"7:37:00","departure_time":"7:39:00","lat":49.168533,"lon":16.678786,"is_passed":false}],"61115":[{"stop_id":"U1577Z2","name":"Slatina, sídliště","arrival_time":"7:57:00","departure_time":"7:57:00","lat":49.181605,"lon":16.690121,"is_passed":false},{"stop_id":"U1297Z1","name":"Kroměřížská","arrival_time":"7:58:00","departure_time":"7:58:00","lat":49.178307,"lon":16.688244,"is_passed":false},{"stop_id":"U1382Z1","name":"Mikulčická","arrival_time":"7:59:00","departure_time":"7:59:00","lat":49.178464,"lon":16.683602,"is_passed":false},{"stop_id":"U1323Z1","name":"Langrova","arrival_time":"8:00:00","departure_time":"8:00:00","lat":49.180031,"lon":16.680806,"is_passed":false},{"stop_id":"U1173Z1","name":"Hviezdoslavova","arrival_time":"8:01:00","departure_time":"8:01:00","lat":49.18219,"lon":16.676025,"is_passed":false},{"stop_id":"U1757Z1","name":"Vozovna Slatina","arrival_time":"8:02:00","departure_time":"8:02:00","lat":49.183032,"lon":16.672807,"is_passed":false},{"stop_id":"U1068Z1","name":"Černovičky","arrival_time":"8:04:00","departure_time":"8:04:00","lat":49.182244,"lon":16.66894,"is_passed":false},{"stop_id":"U1741Z1","name":"Vlárská","arrival_time":"8:05:00","departure_time":"8:05:00","lat":49.180745,"lon":16.671647,"is_passed":false},{"stop_id":"U1105Z4","name":"Ericha Roučky","arrival_time":"8:07:00","departure_time":"8:07:00","lat":49.175789,"lon":16.668403,"is_passed":false},{"stop_id":"U1739Z2","name":"Vlastimila Pecha","arrival_time":"8:08:00","departure_time":"8:08:00","lat":49.179751,"lon":16.662407,"is_passed":false},{"stop_id":"U1665Z2","name":"Těžební","arrival_time":"8:09:00","departure_time":"8:09:00","lat":49.182639,"lon":16.656437,"is_passed":false},{"stop_id":"U1455Z2","name":"Olomoucká - u školy","arrival_time":"8:11:00","departure_time":"8:11:00","lat":49.186437,"lon":16.652477,"is_passed":false},{"stop_id":"U1598Z2","name":"Spáčilova","arrival_time":"8:13:00","departure_time":"8:13:00","lat":49.188617,"lon":16.641569,"is_passed":false},{"stop_id":"U1814Z4","name":"Životského","arrival_time":"8:15:00","departure_time":"8:15:00","lat":49.190077,"lon":16.634992,"is_passed":false},{"stop_id":"U1372Z2","name":"Masná","arrival_time":"8:17:00","departure_time":"8:17:00","lat":49.191283,"lon":16.6245,"is_passed":false},{"stop_id":"U1746Z2","name":"Vlhká","arrival_time":"8:18:00","departure_time":"8:18:00","lat":49.191852,"lon":16.619157,"is_passed":false},{"stop_id":"U1146Z7","name":"Hlavní nádraží","arrival_time":"8:21:00","departure_time":"8:22:00","lat":49.19213,"lon":16.613467,"is_passed":false}],"61116":[{"stop_id":"U1716Z4","name":"Úzká","arrival_time":"8:28:00","departure_time":"8:28:00","lat":49.189107,"lon":16.613266,"is_passed":false},{"stop_id":"U1463Z2","name":"Opuštěná","arrival_time":"8:31:00","departure_time":"8:31:00","lat":49.185245,"lon":16.613024,"is_passed":false},{"stop_id":"U1011Z4","name":"Autobusové nádraží","arrival_time":"8:33:00","departure_time":"8:33:00","lat":49.186887,"lon":16.618479,"is_passed":false},{"stop_id":"U1144Z1","name":"Hladíkova","arrival_time":"8:34:00","departure_time":"8:34:00","lat":49.187682,"lon":16.625353,"is_passed":false},{"stop_id":"U1677Z1","name":"Tržní","arrival_time":"8:36:00","departure_time":"8:36:00","lat":49.189973,"lon":16.632193,"is_passed":false},{"stop_id":"U1598Z1","name":"Spáčilova","arrival_time":"8:37:00","departure_time":"8:37:00","lat":49.188674,"lon":16.640942,"is_passed":false},{"stop_id":"U1455Z1","name":"Olomoucká - u školy","arrival_time":"8:39:00","departure_time":"8:39:00","lat":49.186169,"lon":16.652958,"is_passed":false},{"stop_id":"U1665Z1","name":"Těžební","arrival_time":"8:41:00","departure_time":"8:41:00","lat":49.181966,"lon":16.657236,"is_passed":false},{"stop_id":"U1739Z1","name":"Vlastimila Pecha","arrival_time":"8:42:00","departure_time":"8:42:00","lat":49.179379,"lon":16.662741,"is_passed":false},{"stop_id":"U1105Z1","name":"Ericha Roučky","arrival_time":"8:44:00","departure_time":"8:44:00","lat":49.174784,"lon":16.66987,"is_passed":false},{"stop_id":"U1064Z1","name":"Černovická terasa I","arrival_time":"8:45:00","departure_time":"8:45:00","lat":49.171172,"lon":16.673495,"is_passed":false},{"stop_id":"U1065Z1","name":"Černovická terasa II","arrival_time":"8:46:00","departure_time":"8:46:00","lat":49.167108,"lon":16.67608,"is_passed":false},{"stop_id":"U1581Z3","name":"Areál Slatina","arrival_time":"8:48:00","departure_time":"8:53:00","lat":49.168533,"lon":16.678786,"is_passed":false}],"61117":[{"stop_id":"U1146Z8","name":"Hlavní nádraží","arrival_time":"21:46:00","departure_time":"21:46:00","lat":49.191893,"lon":16.613334,"is_passed":false},{"stop_id":"U1746Z1","name":"Vlhká","arrival_time":"21:47:00","departure_time":"21:47:00","lat":49.191847,"lon":16.618976,"is_passed":false},{"stop_id":"U1372Z5","name":"Masná","arrival_time":"21:48:00","departure_time":"21:48:00","lat":49.191189,"lon":16.626548,"is_passed":false},{"stop_id":"U1677Z1","name":"Tržní","arrival_time":"21:50:00","departure_time":"21:50:00","lat":49.189973,"lon":16.632193,"is_passed":false},{"stop_id":"U1068Z1","name":"Černovičky","arrival_time":"21:54:00","departure_time":"21:55:00","lat":49.182244,"lon":16.66894,"is_passed":false},{"stop_id":"U1741Z1","name":"Vlárská","arrival_time":"21:56:00","departure_time":"21:56:00","lat":49.180745,"lon":16.671647,"is_passed":false},{"stop_id":"U1046Z1","name":"Brněnky","arrival_time":"21:57:00","departure_time":"21:57:00","lat":49.17891,"lon":16.674895,"is_passed":false},{"stop_id":"U1562Z1","name":"Řípská","arrival_time":"21:58:00","departure_time":"21:58:00","lat":49.173814,"lon":16.682005,"is_passed":false},{"stop_id":"U1300Z1","name":"Křehlíkova","arrival_time":"21:59:00","departure_time":"21:59:00","lat":49.174839,"lon":16.685145,"is_passed":false},{"stop_id":"U1525Z1","name":"Přemyslovo náměstí","arrival_time":"22:00:00","departure_time":"22:00:00","lat":49.176289,"lon":16.687296,"is_passed":false},{"stop_id":"U1292Z1","name":"Krejčího","arrival_time":"22:01:00","departure_time":"22:01:00","lat":49.177441,"lon":16.690968,"is_passed":false},{"stop_id":"U16165Z1","name":"Šlapanice, sídliště","arrival_time":"22:04:00","departure_time":"22:04:00","lat":49.16703,"lon":16.718338,"is_passed":false},{"stop_id":"U16155Z1","name":"Šlapanice, Čechova","arrival_time":"22:05:00","departure_time":"22:05:00","lat":49.165752,"lon":16.722536,"is_passed":false},{"stop_id":"U16159Z1","name":"Šlapanice, Kalvodova","arrival_time":"22:07:00","departure_time":"22:07:00","lat":49.166442,"lon":16.726521,"is_passed":false}],"61118":[{"stop_id":"U16159Z2","name":"Šlapanice, Kalvodova","arrival_time":"22:32:00","departure_time":"22:32:00","lat":49.166539,"lon":16.726218,"is_passed":false},{"stop_id":"U16155Z2","name":"Šlapanice, Čechova","arrival_time":"22:33:00","departure_time":"22:33:00","lat":49.166076,"lon":16.721551,"is_passed":false},{"stop_id":"U16165Z2","name":"Šlapanice, sídliště","arrival_time":"22:33:00","departure_time":"22:33:00","lat":49.167046,"lon":16.718465,"is_passed":false},{"stop_id":"U1292Z4","name":"Krejčího","arrival_time":"22:36:00","departure_time":"22:36:00","lat":49.177555,"lon":16.691625,"is_passed":false},{"stop_id":"U1577Z2","name":"Slatina, sídliště","arrival_time":"22:38:00","departure_time":"22:38:00","lat":49.181605,"lon":16.690121,"is_passed":false},{"stop_id":"U1297Z1","name":"Kroměřížská","arrival_time":"22:39:00","departure_time":"22:39:00","lat":49.178307,"lon":16.688244,"is_passed":false},{"stop_id":"U1382Z1","name":"Mikulčická","arrival_time":"22:39:00","departure_time":"22:39:00","lat":49.178464,"lon":16.683602,"is_passed":false},{"stop_id":"U1323Z1","name":"Langrova","arrival_time":"22:40:00","departure_time":"22:40:00","lat":49.180031,"lon":16.680806,"is_passed":false},{"stop_id":"U1173Z1","name":"Hviezdoslavova","arrival_time":"22:41:00","departure_time":"22:41:00","lat":49.18219,"lon":16.676025,"is_passed":false},{"stop_id":"U1757Z1","name":"Vozovna Slatina","arrival_time":"22:42:00","departure_time":"22:42:00","lat":49.183032,"lon":16.672807,"is_passed":false},{"stop_id":"U1068Z1","name":"Černovičky","arrival_time":"22:43:00","departure_time":"22:43:00","lat":49.182244,"lon":16.66894,"is_passed":false},{"stop_id":"U1741Z1","name":"Vlárská","arrival_time":"22:43:00","departure_time":"22:43:00","lat":49.180745,"lon":16.671647,"is_passed":false},{"stop_id":"U1105Z4","name":"Ericha Roučky","arrival_time":"22:45:00","departure_time":"22:45:00","lat":49.175789,"lon":16.668403,"is_passed":false},{"stop_id":"U1739Z2","name":"Vlastimila Pecha","arrival_time":"22:46:00","departure_time":"22:46:00","lat":49.179751,"lon":16.662407,"is_passed":false},{"stop_id":"U1665Z2","name":"Těžební","arrival_time":"22:47:00","departure_time":"22:47:00","lat":49.182639,"lon":16.656437,"is_passed":false},{"stop_id":"U1455Z2","name":"Olomoucká - u školy","arrival_time":"22:48:00","departure_time":"22:48:00","lat":49.186437,"lon":16.652477,"is_passed":false},{"stop_id":"U1598Z2","name":"Spáčilova","arrival_time":"22:49:00","departure_time":"22:49:00","lat":49.188617,"lon":16.641569,"is_passed":false},{"stop_id":"U1814Z4","name":"Životského","arrival_time":"22:50:00","departure_time":"22:50:00","lat":49.190077,"lon":16.634992,"is_passed":false},{"stop_id":"U1372Z2","name":"Masná","arrival_time":"22:51:00","departure_time":"22:51:00","lat":49.191283,"lon":16.6245,"is_passed":false},{"stop_id":"U1746Z2","name":"Vlhká","arrival_time":"22:52:00","departure_time":"22:52:00","lat":49.191852,"lon":16.619157,"is_passed":false},{"stop_id":"U1146Z3","name":"Hlavní nádraží","arrival_time":"22:55:00","departure_time":"23:00:00","lat":49.191063,"lon":16.611972,"is_passed":false},{"stop_id":"U1596Z3","name":"Soukenická","arrival_time":"23:01:00","departure_time":"23:01:00","lat":49.188374,"lon":16.60657,"is_passed":false},{"stop_id":"U1301Z3","name":"Křídlovická","arrival_time":"23:02:00","departure_time":"23:02:00","lat":49.185812,"lon":16.603614,"is_passed":false},{"stop_id":"U1622Z2","name":"Strážní","arrival_time":"23:03:00","departure_time":"23:03:00","lat":49.178477,"lon":16.603646,"is_passed":false},{"stop_id":"U1141Z1","name":"Heršpická","arrival_time":"23:04:00","departure_time":"23:04:00","lat":49.170255,"lon":16.599363,"is_passed":false},{"stop_id":"U1466Z5","name":"Ořechovská","arrival_time":"23:06:00","departure_time":"23:06:00","lat":49.156238,"lon":16.599375,"is_passed":false},{"stop_id":"U1031Z5","name":"Bohunická","arrival_time":"23:09:00","departure_time":"23:09:00","lat":49.162871,"lon":16.599483,"is_passed":false},{"stop_id":"U1673Z1","name":"Traťová","arrival_time":"23:09:00","departure_time":"23:09:00","lat":49.163849,"lon":16.595255,"is_passed":false},{"stop_id":"U1122Z3","name":"Gruzínská","arrival_time":"23:10:00","departure_time":"23:10:00","lat":49.166188,"lon":16.585372,"is_passed":false},{"stop_id":"U1763Z2","name":"Vyhlídalova","arrival_time":"23:11:00","departure_time":"23:11:00","lat":49.165134,"lon":16.576558,"is_passed":false},{"stop_id":"U1168Z1","name":"Humenná","arrival_time":"23:13:00","departure_time":"23:13:00","lat":49.1676,"lon":16.572367,"is_passed":false},{"stop_id":"U1627Z1","name":"Svah","arrival_time":"23:14:00","departure_time":"23:14:00","lat":49.165199,"lon":16.567969,"is_passed":false},{"stop_id":"U1061Z1","name":"Čermákova","arrival_time":"23:14:00","departure_time":"23:14:00","lat":49.164336,"lon":16.565516,"is_passed":false},{"stop_id":"U1666Z1","name":"Točná","arrival_time":"23:15:00","departure_time":"23:15:00","lat":49.16476,"lon":16.561692,"is_passed":false},{"stop_id":"U1687Z1","name":"U hřiště","arrival_time":"23:15:00","departure_time":"23:15:00","lat":49.166214,"lon":16.558668,"is_passed":false},{"stop_id":"U1097Z5","name":"Dunajská","arrival_time":"23:16:00","departure_time":"23:16:00","lat":49.169618,"lon":16.555308,"is_passed":false},{"stop_id":"U1616Z5","name":"Starý Lískovec, smyčka","arrival_time":"23:17:00","departure_time":"23:17:00","lat":49.172309,"lon":16.553313,"is_passed":false},{"stop_id":"U1202Z1","name":"Jemelkova","arrival_time":"23:18:00","departure_time":"23:18:00","lat":49.173333,"lon":16.548692,"is_passed":false},{"stop_id":"U1568Z1","name":"Skalní","arrival_time":"23:20:00","departure_time":"23:20:00","lat":49.174278,"lon":16.534362,"is_passed":false},{"stop_id":"U1161Z1","name":"Hoštická","arrival_time":"23:21:00","departure_time":"23:21:00","lat":49.173864,"lon":16.528044,"is_passed":false},{"stop_id":"U1037Z1","name":"Bosonohy","arrival_time":"23:23:00","departure_time":"23:31:00","lat":49.17652,"lon":16.525792,"is_passed":false}],"61119":[{"stop_id":"U1037Z2","name":"Bosonohy","arrival_time":"23:31:00","departure_time":"23:31:00","lat":49.176372,"lon":16.525514,"is_passed":false},{"stop_id":"U1161Z2","name":"Hoštická","arrival_time":"23:32:00","departure_time":"23:32:00","lat":49.173917,"lon":16.527822,"is_passed":false},{"stop_id":"U1516Z1","name":"Pražská","arrival_time":"23:33:00","departure_time":"23:33:00","lat":49.173478,"lon":16.531543,"is_passed":false},{"stop_id":"U1568Z2","name":"Skalní","arrival_time":"23:34:00","departure_time":"23:34:00","lat":49.174201,"lon":16.537903,"is_passed":false},{"stop_id":"U1202Z2","name":"Jemelkova","arrival_time":"23:35:00","departure_time":"23:35:00","lat":49.173163,"lon":16.54872,"is_passed":false},{"stop_id":"U1616Z4","name":"Starý Lískovec, smyčka","arrival_time":"23:36:00","departure_time":"23:36:00","lat":49.170615,"lon":16.55427,"is_passed":false},{"stop_id":"U1097Z6","name":"Dunajská","arrival_time":"23:37:00","departure_time":"23:37:00","lat":49.168824,"lon":16.55589,"is_passed":false},{"stop_id":"U1687Z2","name":"U hřiště","arrival_time":"23:38:00","departure_time":"23:38:00","lat":49.165806,"lon":16.558562,"is_passed":false},{"stop_id":"U1666Z2","name":"Točná","arrival_time":"23:39:00","departure_time":"23:39:00","lat":49.164745,"lon":16.561481,"is_passed":false},{"stop_id":"U1061Z2","name":"Čermákova","arrival_time":"23:40:00","departure_time":"23:40:00","lat":49.164349,"lon":16.564689,"is_passed":false},{"stop_id":"U1627Z2","name":"Svah","arrival_time":"23:40:00","departure_time":"23:40:00","lat":49.164924,"lon":16.567717,"is_passed":false},{"stop_id":"U1168Z2","name":"Humenná","arrival_time":"23:42:00","departure_time":"23:42:00","lat":49.167953,"lon":16.573664,"is_passed":false},{"stop_id":"U1763Z1","name":"Vyhlídalova","arrival_time":"23:43:00","departure_time":"23:43:00","lat":49.165385,"lon":16.577302,"is_passed":false},{"stop_id":"U1122Z4","name":"Gruzínská","arrival_time":"23:44:00","departure_time":"23:44:00","lat":49.166074,"lon":16.585383,"is_passed":false},{"stop_id":"U1774Z2","name":"Za hřbitovem","arrival_time":"23:44:00","departure_time":"23:44:00","lat":49.164318,"lon":16.591448,"is_passed":false},{"stop_id":"U1673Z2","name":"Traťová","arrival_time":"23:45:00","departure_time":"23:45:00","lat":49.163623,"lon":16.595954,"is_passed":false},{"stop_id":"U1466Z55","name":"Ořechovská","arrival_time":"23:47:00","departure_time":"23:47:00","lat":49.156238,"lon":16.599375,"is_passed":false},{"stop_id":"U1141Z2","name":"Heršpická","arrival_time":"23:50:00","departure_time":"23:50:00","lat":49.170473,"lon":16.599896,"is_passed":false},{"stop_id":"U1622Z1","name":"Strážní","arrival_time":"23:52:00","departure_time":"23:52:00","lat":49.178207,"lon":16.603976,"is_passed":false},{"stop_id":"U1301Z4","name":"Křídlovická","arrival_time":"23:54:00","departure_time":"23:54:00","lat":49.185748,"lon":16.603967,"is_passed":false},{"stop_id":"U1596Z4","name":"Soukenická","arrival_time":"23:55:00","departure_time":"23:55:00","lat":49.188557,"lon":16.607222,"is_passed":false},{"stop_id":"U1146Z4","name":"Hlavní nádraží","arrival_time":"23:57:00","departure_time":"24:00:00","lat":49.19125,"lon":16.612674,"is_passed":false},{"stop_id":"U1746Z1","name":"Vlhká","arrival_time":"24:01:00","departure_time":"24:01:00","lat":49.191847,"lon":16.618976,"is_passed":false},{"stop_id":"U1372Z1","name":"Masná","arrival_time":"24:02:00","departure_time":"24:02:00","lat":49.191244,"lon":16.625642,"is_passed":false},{"stop_id":"U1677Z1","name":"Tržní","arrival_time":"24:04:00","departure_time":"24:04:00","lat":49.189973,"lon":16.632193,"is_passed":false},{"stop_id":"U1598Z1","name":"Spáčilova","arrival_time":"24:05:00","departure_time":"24:05:00","lat":49.188674,"lon":16.640942,"is_passed":false},{"stop_id":"U1455Z1","name":"Olomoucká - u školy","arrival_time":"24:06:00","departure_time":"24:06:00","lat":49.186169,"lon":16.652958,"is_passed":false},{"stop_id":"U1665Z1","name":"Těžební","arrival_time":"24:07:00","departure_time":"24:07:00","lat":49.181966,"lon":16.657236,"is_passed":false},{"stop_id":"U1739Z1","name":"Vlastimila Pecha","arrival_time":"24:08:00","departure_time":"24:08:00","lat":49.179379,"lon":16.662741,"is_passed":false},{"stop_id":"U1741Z2","name":"Vlárská","arrival_time":"24:10:00","departure_time":"24:10:00","lat":49.180702,"lon":16.672017,"is_passed":false},{"stop_id":"U1068Z3","name":"Černovičky","arrival_time":"24:11:00","departure_time":"24:11:00","lat":49.183143,"lon":16.669108,"is_passed":false},{"stop_id":"U1757Z2","name":"Vozovna Slatina","arrival_time":"24:11:00","departure_time":"24:11:00","lat":49.182866,"lon":16.673489,"is_passed":false},{"stop_id":"U1173Z2","name":"Hviezdoslavova","arrival_time":"24:12:00","departure_time":"24:12:00","lat":49.181664,"lon":16.677149,"is_passed":false},{"stop_id":"U1323Z2","name":"Langrova","arrival_time":"24:13:00","departure_time":"24:13:00","lat":49.17982,"lon":16.68105,"is_passed":false},{"stop_id":"U1382Z2","name":"Mikulčická","arrival_time":"24:13:00","departure_time":"24:13:00","lat":49.178227,"lon":16.684944,"is_passed":false},{"stop_id":"U1297Z2","name":"Kroměřížská","arrival_time":"24:14:00","departure_time":"24:14:00","lat":49.178988,"lon":16.689151,"is_passed":false},{"stop_id":"U1577Z3","name":"Slatina, sídliště","arrival_time":"24:15:00","departure_time":"24:15:00","lat":49.181461,"lon":16.690304,"is_passed":false},{"stop_id":"U1576Z1","name":"Slatina, rozcestí","arrival_time":"24:16:00","departure_time":"24:16:00","lat":49.181647,"lon":16.691923,"is_passed":false},{"stop_id":"U1292Z3","name":"Krejčího","arrival_time":"24:17:00","departure_time":"24:17:00","lat":49.177861,"lon":16.691431,"is_passed":false},{"stop_id":"U16165Z1","name":"Šlapanice, sídliště","arrival_time":"24:19:00","departure_time":"24:19:00","lat":49.16703,"lon":16.718338,"is_passed":false},{"stop_id":"U16155Z1","name":"Šlapanice, Čechova","arrival_time":"24:20:00","departure_time":"24:20:00","lat":49.165752,"lon":16.722536,"is_passed":false},{"stop_id":"U16159Z1","name":"Šlapanice, Kalvodova","arrival_time":"24:21:00","departure_time":"24:32:00","lat":49.166442,"lon":16.726521,"is_passed":false}],"61120":[{"stop_id":"U16159Z2","name":"Šlapanice, Kalvodova","arrival_time":"0:32:00","departure_time":"0:32:00","lat":49.166539,"lon":16.726218,"is_passed":false},{"stop_id":"U16155Z2","name":"Šlapanice, Čechova","arrival_time":"0:33:00","departure_time":"0:33:00","lat":49.166076,"lon":16.721551,"is_passed":false},{"stop_id":"U16165Z2","name":"Šlapanice, sídliště","arrival_time":"0:33:00","departure_time":"0:33:00","lat":49.167046,"lon":16.718465,"is_passed":false},{"stop_id":"U1292Z4","name":"Krejčího","arrival_time":"0:36:00","departure_time":"0:36:00","lat":49.177555,"lon":16.691625,"is_passed":false},{"stop_id":"U1577Z2","name":"Slatina, sídliště","arrival_time":"0:38:00","departure_time":"0:38:00","lat":49.181605,"lon":16.690121,"is_passed":false},{"stop_id":"U1297Z1","name":"Kroměřížská","arrival_time":"0:39:00","departure_time":"0:39:00","lat":49.178307,"lon":16.688244,"is_passed":false},{"stop_id":"U1382Z1","name":"Mikulčická","arrival_time":"0:39:00","departure_time":"0:39:00","lat":49.178464,"lon":16.683602,"is_passed":false},{"stop_id":"U1323Z1","name":"Langrova","arrival_time":"0:40:00","departure_time":"0:40:00","lat":49.180031,"lon":16.680806,"is_passed":false},{"stop_id":"U1173Z1","name":"Hviezdoslavova","arrival_time":"0:41:00","departure_time":"0:41:00","lat":49.18219,"lon":16.676025,"is_passed":false},{"stop_id":"U1757Z1","name":"Vozovna Slatina","arrival_time":"0:42:00","departure_time":"0:42:00","lat":49.183032,"lon":16.672807,"is_passed":false},{"stop_id":"U1068Z1","name":"Černovičky","arrival_time":"0:43:00","departure_time":"0:43:00","lat":49.182244,"lon":16.66894,"is_passed":false},{"stop_id":"U1741Z1","name":"Vlárská","arrival_time":"0:43:00","departure_time":"0:43:00","lat":49.180745,"lon":16.671647,"is_passed":false},{"stop_id":"U1105Z4","name":"Ericha Roučky","arrival_time":"0:45:00","departure_time":"0:45:00","lat":49.175789,"lon":16.668403,"is_passed":false},{"stop_id":"U1739Z2","name":"Vlastimila Pecha","arrival_time":"0:46:00","departure_time":"0:46:00","lat":49.179751,"lon":16.662407,"is_passed":false},{"stop_id":"U1665Z2","name":"Těžební","arrival_time":"0:47:00","departure_time":"0:47:00","lat":49.182639,"lon":16.656437,"is_passed":false},{"stop_id":"U1455Z2","name":"Olomoucká - u školy","arrival_time":"0:48:00","departure_time":"0:48:00","lat":49.186437,"lon":16.652477,"is_passed":false},{"stop_id":"U1598Z2","name":"Spáčilova","arrival_time":"0:49:00","departure_time":"0:49:00","lat":49.188617,"lon":16.641569,"is_passed":false},{"stop_id":"U1814Z4","name":"Životského","arrival_time":"0:50:00","departure_time":"0:50:00","lat":49.190077,"lon":16.634992,"is_passed":false},{"stop_id":"U1372Z2","name":"Masná","arrival_time":"0:51:00","departure_time":"0:51:00","lat":49.191283,"lon":16.6245,"is_passed":false},{"stop_id":"U1746Z2","name":"Vlhká","arrival_time":"0:52:00","departure_time":"0:52:00","lat":49.191852,"lon":16.619157,"is_passed":false},{"stop_id":"U1146Z3","name":"Hlavní nádraží","arrival_time":"0:55:00","departure_time":"1:00:00","lat":49.191063,"lon":16.611972,"is_passed":false},{"stop_id":"U1596Z3","name":"Soukenická","arrival_time":"1:01:00","departure_time":"1:01:00","lat":49.188374,"lon":16.60657,"is_passed":false},{"stop_id":"U1301Z3","name":"Křídlovická","arrival_time":"1:02:00","departure_time":"1:02:00","lat":49.185812,"lon":16.603614,"is_passed":false},{"stop_id":"U1622Z2","name":"Strážní","arrival_time":"1:03:00","departure_time":"1:03:00","lat":49.178477,"lon":16.603646,"is_passed":false},{"stop_id":"U1141Z1","name":"Heršpická","arrival_time":"1:04:00","departure_time":"1:04:00","lat":49.170255,"lon":16.599363,"is_passed":false},{"stop_id":"U1466Z5","name":"Ořechovská","arrival_time":"1:06:00","departure_time":"1:06:00","lat":49.156238,"lon":16.599375,"is_passed":false},{"stop_id":"U1031Z5","name":"Bohunická","arrival_time":"1:09:00","departure_time":"1:09:00","lat":49.162871,"lon":16.599483,"is_passed":false},{"stop_id":"U1673Z1","name":"Traťová","arrival_time":"1:09:00","departure_time":"1:09:00","lat":49.163849,"lon":16.595255,"is_passed":false},{"stop_id":"U1122Z3","name":"Gruzínská","arrival_time":"1:10:00","departure_time":"1:10:00","lat":49.166188,"lon":16.585372,"is_passed":false},{"stop_id":"U1763Z2","name":"Vyhlídalova","arrival_time":"1:11:00","departure_time":"1:11:00","lat":49.165134,"lon":16.576558,"is_passed":false},{"stop_id":"U1168Z1","name":"Humenná","arrival_time":"1:13:00","departure_time":"1:13:00","lat":49.1676,"lon":16.572367,"is_passed":false},{"stop_id":"U1627Z1","name":"Svah","arrival_time":"1:14:00","departure_time":"1:14:00","lat":49.165199,"lon":16.567969,"is_passed":false},{"stop_id":"U1061Z1","name":"Čermákova","arrival_time":"1:14:00","departure_time":"1:14:00","lat":49.164336,"lon":16.565516,"is_passed":false},{"stop_id":"U1666Z1","name":"Točná","arrival_time":"1:15:00","departure_time":"1:15:00","lat":49.16476,"lon":16.561692,"is_passed":false},{"stop_id":"U1687Z1","name":"U hřiště","arrival_time":"1:15:00","departure_time":"1:15:00","lat":49.166214,"lon":16.558668,"is_passed":false},{"stop_id":"U1097Z5","name":"Dunajská","arrival_time":"1:16:00","departure_time":"1:16:00","lat":49.169618,"lon":16.555308,"is_passed":false},{"stop_id":"U1616Z5","name":"Starý Lískovec, smyčka","arrival_time":"1:17:00","departure_time":"1:17:00","lat":49.172309,"lon":16.553313,"is_passed":false},{"stop_id":"U1202Z1","name":"Jemelkova","arrival_time":"1:18:00","departure_time":"1:18:00","lat":49.173333,"lon":16.548692,"is_passed":false},{"stop_id":"U1568Z1","name":"Skalní","arrival_time":"1:20:00","departure_time":"1:20:00","lat":49.174278,"lon":16.534362,"is_passed":false},{"stop_id":"U1161Z1","name":"Hoštická","arrival_time":"1:21:00","departure_time":"1:21:00","lat":49.173864,"lon":16.528044,"is_passed":false},{"stop_id":"U1037Z1","name":"Bosonohy","arrival_time":"1:23:00","departure_time":"2:31:00","lat":49.17652,"lon":16.525792,"is_passed":false}],"61121":[{"stop_id":"U1037Z2","name":"Bosonohy","arrival_time":"2:31:00","departure_time":"2:31:00","lat":49.176372,"lon":16.525514,"is_passed":false},{"stop_id":"U1161Z2","name":"Hoštická","arrival_time":"2:32:00","departure_time":"2:32:00","lat":49.173917,"lon":16.527822,"is_passed":false},{"stop_id":"U1516Z1","name":"Pražská","arrival_time":"2:33:00","departure_time":"2:33:00","lat":49.173478,"lon":16.531543,"is_passed":false},{"stop_id":"U1568Z2","name":"Skalní","arrival_time":"2:34:00","departure_time":"2:34:00","lat":49.174201,"lon":16.537903,"is_passed":false},{"stop_id":"U1202Z2","name":"Jemelkova","arrival_time":"2:35:00","departure_time":"2:35:00","lat":49.173163,"lon":16.54872,"is_passed":false},{"stop_id":"U1616Z4","name":"Starý Lískovec, smyčka","arrival_time":"2:36:00","departure_time":"2:36:00","lat":49.170615,"lon":16.55427,"is_passed":false},{"stop_id":"U1097Z6","name":"Dunajská","arrival_time":"2:37:00","departure_time":"2:37:00","lat":49.168824,"lon":16.55589,"is_passed":false},{"stop_id":"U1687Z2","name":"U hřiště","arrival_time":"2:38:00","departure_time":"2:38:00","lat":49.165806,"lon":16.558562,"is_passed":false},{"stop_id":"U1666Z2","name":"Točná","arrival_time":"2:39:00","departure_time":"2:39:00","lat":49.164745,"lon":16.561481,"is_passed":false},{"stop_id":"U1061Z2","name":"Čermákova","arrival_time":"2:40:00","departure_time":"2:40:00","lat":49.164349,"lon":16.564689,"is_passed":false},{"stop_id":"U1627Z2","name":"Svah","arrival_time":"2:40:00","departure_time":"2:40:00","lat":49.164924,"lon":16.567717,"is_passed":false},{"stop_id":"U1168Z2","name":"Humenná","arrival_time":"2:42:00","departure_time":"2:42:00","lat":49.167953,"lon":16.573664,"is_passed":false},{"stop_id":"U1763Z1","name":"Vyhlídalova","arrival_time":"2:43:00","departure_time":"2:43:00","lat":49.165385,"lon":16.577302,"is_passed":false},{"stop_id":"U1122Z4","name":"Gruzínská","arrival_time":"2:44:00","departure_time":"2:44:00","lat":49.166074,"lon":16.585383,"is_passed":false},{"stop_id":"U1774Z2","name":"Za hřbitovem","arrival_time":"2:44:00","departure_time":"2:44:00","lat":49.164318,"lon":16.591448,"is_passed":false},{"stop_id":"U1673Z2","name":"Traťová","arrival_time":"2:45:00","departure_time":"2:45:00","lat":49.163623,"lon":16.595954,"is_passed":false},{"stop_id":"U1466Z55","name":"Ořechovská","arrival_time":"2:47:00","departure_time":"2:47:00","lat":49.156238,"lon":16.599375,"is_passed":false},{"stop_id":"U1141Z2","name":"Heršpická","arrival_time":"2:50:00","departure_time":"2:50:00","lat":49.170473,"lon":16.599896,"is_passed":false},{"stop_id":"U1622Z1","name":"Strážní","arrival_time":"2:52:00","departure_time":"2:52:00","lat":49.178207,"lon":16.603976,"is_passed":false},{"stop_id":"U1301Z4","name":"Křídlovická","arrival_time":"2:54:00","departure_time":"2:54:00","lat":49.185748,"lon":16.603967,"is_passed":false},{"stop_id":"U1596Z4","name":"Soukenická","arrival_time":"2:55:00","departure_time":"2:55:00","lat":49.188557,"lon":16.607222,"is_passed":false},{"stop_id":"U1146Z4","name":"Hlavní nádraží","arrival_time":"2:57:00","departure_time":"3:00:00","lat":49.19125,"lon":16.612674,"is_passed":false},{"stop_id":"U1746Z1","name":"Vlhká","arrival_time":"3:01:00","departure_time":"3:01:00","lat":49.191847,"lon":16.618976,"is_passed":false},{"stop_id":"U1372Z1","name":"Masná","arrival_time":"3:02:00","departure_time":"3:02:00","lat":49.191244,"lon":16.625642,"is_passed":false},{"stop_id":"U1677Z1","name":"Tržní","arrival_time":"3:04:00","departure_time":"3:04:00","lat":49.189973,"lon":16.632193,"is_passed":false},{"stop_id":"U1598Z1","name":"Spáčilova","arrival_time":"3:05:00","departure_time":"3:05:00","lat":49.188674,"lon":16.640942,"is_passed":false},{"stop_id":"U1455Z1","name":"Olomoucká - u školy","arrival_time":"3:06:00","departure_time":"3:06:00","lat":49.186169,"lon":16.652958,"is_passed":false},{"stop_id":"U1665Z1","name":"Těžební","arrival_time":"3:07:00","departure_time":"3:07:00","lat":49.181966,"lon":16.657236,"is_passed":false},{"stop_id":"U1739Z1","name":"Vlastimila Pecha","arrival_time":"3:08:00","departure_time":"3:08:00","lat":49.179379,"lon":16.662741,"is_passed":false},{"stop_id":"U1741Z2","name":"Vlárská","arrival_time":"3:10:00","departure_time":"3:10:00","lat":49.180702,"lon":16.672017,"is_passed":false},{"stop_id":"U1068Z3","name":"Černovičky","arrival_time":"3:11:00","departure_time":"3:11:00","lat":49.183143,"lon":16.669108,"is_passed":false},{"stop_id":"U1757Z2","name":"Vozovna Slatina","arrival_time":"3:11:00","departure_time":"3:11:00","lat":49.182866,"lon":16.673489,"is_passed":false},{"stop_id":"U1173Z2","name":"Hviezdoslavova","arrival_time":"3:12:00","departure_time":"3:12:00","lat":49.181664,"lon":16.677149,"is_passed":false},{"stop_id":"U1323Z2","name":"Langrova","arrival_time":"3:13:00","departure_time":"3:13:00","lat":49.17982,"lon":16.68105,"is_passed":false},{"stop_id":"U1382Z2","name":"Mikulčická","arrival_time":"3:13:00","departure_time":"3:13:00","lat":49.178227,"lon":16.684944,"is_passed":false},{"stop_id":"U1297Z2","name":"Kroměřížská","arrival_time":"3:14:00","departure_time":"3:14:00","lat":49.178988,"lon":16.689151,"is_passed":false},{"stop_id":"U1577Z3","name":"Slatina, sídliště","arrival_time":"3:15:00","departure_time":"3:15:00","lat":49.181461,"lon":16.690304,"is_passed":false},{"stop_id":"U1576Z1","name":"Slatina, rozcestí","arrival_time":"3:16:00","departure_time":"3:16:00","lat":49.181647,"lon":16.691923,"is_passed":false},{"stop_id":"U1292Z3","name":"Krejčího","arrival_time":"3:17:00","departure_time":"3:17:00","lat":49.177861,"lon":16.691431,"is_passed":false},{"stop_id":"U16165Z1","name":"Šlapanice, sídliště","arrival_time":"3:19:00","departure_time":"3:19:00","lat":49.16703,"lon":16.718338,"is_passed":false},{"stop_id":"U16155Z1","name":"Šlapanice, Čechova","arrival_time":"3:20:00","departure_time":"3:20:00","lat":49.165752,"lon":16.722536,"is_passed":false},{"stop_id":"U16159Z1","name":"Šlapanice, Kalvodova","arrival_time":"3:21:00","departure_time":"3:32:00","lat":49.166442,"lon":16.726521,"is_passed":false}],"61122":[{"stop_id":"U16159Z2","name":"Šlapanice, Kalvodova","arrival_time":"3:32:00","departure_time":"3:32:00","lat":49.166539,"lon":16.726218,"is_passed":false},{"stop_id":"U16155Z2","name":"Šlapanice, Čechova","arrival_time":"3:33:00","departure_time":"3:33:00","lat":49.166076,"lon":16.721551,"is_passed":false},{"stop_id":"U16165Z2","name":"Šlapanice, sídliště","arrival_time":"3:33:00","departure_time":"3:33:00","lat":49.167046,"lon":16.718465,"is_passed":false},{"stop_id":"U1292Z4","name":"Krejčího","arrival_time":"3:36:00","departure_time":"3:36:00","lat":49.177555,"lon":16.691625,"is_passed":false},{"stop_id":"U1577Z2","name":"Slatina, sídliště","arrival_time":"3:38:00","departure_time":"3:38:00","lat":49.181605,"lon":16.690121,"is_passed":false},{"stop_id":"U1297Z1","name":"Kroměřížská","arrival_time":"3:39:00","departure_time":"3:39:00","lat":49.178307,"lon":16.688244,"is_passed":false},{"stop_id":"U1382Z1","name":"Mikulčická","arrival_time":"3:39:00","departure_time":"3:39:00","lat":49.178464,"lon":16.683602,"is_passed":false},{"stop_id":"U1323Z1","name":"Langrova","arrival_time":"3:40:00","departure_time":"3:40:00","lat":49.180031,"lon":16.680806,"is_passed":false},{"stop_id":"U1173Z1","name":"Hviezdoslavova","arrival_time":"3:41:00","departure_time":"3:41:00","lat":49.18219,"lon":16.676025,"is_passed":false},{"stop_id":"U1757Z1","name":"Vozovna Slatina","arrival_time":"3:42:00","departure_time":"3:42:00","lat":49.183032,"lon":16.672807,"is_passed":false},{"stop_id":"U1068Z1","name":"Černovičky","arrival_time":"3:43:00","departure_time":"3:43:00","lat":49.182244,"lon":16.66894,"is_passed":false},{"stop_id":"U1741Z1","name":"Vlárská","arrival_time":"3:43:00","departure_time":"3:43:00","lat":49.180745,"lon":16.671647,"is_passed":false},{"stop_id":"U1105Z4","name":"Ericha Roučky","arrival_time":"3:45:00","departure_time":"3:45:00","lat":49.175789,"lon":16.668403,"is_passed":false},{"stop_id":"U1739Z2","name":"Vlastimila Pecha","arrival_time":"3:46:00","departure_time":"3:46:00","lat":49.179751,"lon":16.662407,"is_passed":false},{"stop_id":"U1665Z2","name":"Těžební","arrival_time":"3:47:00","departure_time":"3:47:00","lat":49.182639,"lon":16.656437,"is_passed":false},{"stop_id":"U1455Z2","name":"Olomoucká - u školy","arrival_time":"3:48:00","departure_time":"3:48:00","lat":49.186437,"lon":16.652477,"is_passed":false},{"stop_id":"U1598Z2","name":"Spáčilova","arrival_time":"3:49:00","departure_time":"3:49:00","lat":49.188617,"lon":16.641569,"is_passed":false},{"stop_id":"U1814Z4","name":"Životského","arrival_time":"3:50:00","departure_time":"3:50:00","lat":49.190077,"lon":16.634992,"is_passed":false},{"stop_id":"U1372Z2","name":"Masná","arrival_time":"3:51:00","departure_time":"3:51:00","lat":49.191283,"lon":16.6245,"is_passed":false},{"stop_id":"U1746Z2","name":"Vlhká","arrival_time":"3:52:00","departure_time":"3:52:00","lat":49.191852,"lon":16.619157,"is_passed":false},{"stop_id":"U1146Z3","name":"Hlavní nádraží","arrival_time":"3:55:00","departure_time":"4:00:00","lat":49.191063,"lon":16.611972,"is_passed":false},{"stop_id":"U1596Z3","name":"Soukenická","arrival_time":"4:01:00","departure_time":"4:01:00","lat":49.188374,"lon":16.60657,"is_passed":false},{"stop_id":"U1301Z3","name":"Křídlovická","arrival_time":"4:02:00","departure_time":"4:02:00","lat":49.185812,"lon":16.603614,"is_passed":false},{"stop_id":"U1622Z2","name":"Strážní","arrival_time":"4:03:00","departure_time":"4:03:00","lat":49.178477,"lon":16.603646,"is_passed":false},{"stop_id":"U1141Z1","name":"Heršpická","arrival_time":"4:04:00","departure_time":"4:04:00","lat":49.170255,"lon":16.599363,"is_passed":false},{"stop_id":"U1466Z5","name":"Ořechovská","arrival_time":"4:06:00","departure_time":"4:06:00","lat":49.156238,"lon":16.599375,"is_passed":false},{"stop_id":"U1031Z5","name":"Bohunická","arrival_time":"4:09:00","departure_time":"4:09:00","lat":49.162871,"lon":16.599483,"is_passed":false},{"stop_id":"U1673Z1","name":"Traťová","arrival_time":"4:09:00","departure_time":"4:09:00","lat":49.163849,"lon":16.595255,"is_passed":false},{"stop_id":"U1122Z3","name":"Gruzínská","arrival_time":"4:10:00","departure_time":"4:10:00","lat":49.166188,"lon":16.585372,"is_passed":false},{"stop_id":"U1763Z2","name":"Vyhlídalova","arrival_time":"4:11:00","departure_time":"4:11:00","lat":49.165134,"lon":16.576558,"is_passed":false},{"stop_id":"U1168Z1","name":"Humenná","arrival_time":"4:13:00","departure_time":"4:13:00","lat":49.1676,"lon":16.572367,"is_passed":false},{"stop_id":"U1627Z1","name":"Svah","arrival_time":"4:14:00","departure_time":"4:14:00","lat":49.165199,"lon":16.567969,"is_passed":false},{"stop_id":"U1061Z1","name":"Čermákova","arrival_time":"4:14:00","departure_time":"4:14:00","lat":49.164336,"lon":16.565516,"is_passed":false},{"stop_id":"U1666Z1","name":"Točná","arrival_time":"4:15:00","departure_time":"4:15:00","lat":49.16476,"lon":16.561692,"is_passed":false},{"stop_id":"U1687Z1","name":"U hřiště","arrival_time":"4:15:00","departure_time":"4:15:00","lat":49.166214,"lon":16.558668,"is_passed":false},{"stop_id":"U1097Z5","name":"Dunajská","arrival_time":"4:16:00","departure_time":"4:16:00","lat":49.169618,"lon":16.555308,"is_passed":false},{"stop_id":"U1616Z5","name":"Starý Lískovec, smyčka","arrival_time":"4:17:00","departure_time":"4:17:00","lat":49.172309,"lon":16.553313,"is_passed":false},{"stop_id":"U1202Z1","name":"Jemelkova","arrival_time":"4:18:00","departure_time":"4:18:00","lat":49.173333,"lon":16.548692,"is_passed":false},{"stop_id":"U1568Z1","name":"Skalní","arrival_time":"4:20:00","departure_time":"4:20:00","lat":49.174278,"lon":16.534362,"is_passed":false},{"stop_id":"U1161Z1","name":"Hoštická","arrival_time":"4:21:00","departure_time":"4:21:00","lat":49.173864,"lon":16.528044,"is_passed":false},