[{"stop_id":"U15558Z2","name":"Drnholec","arrival_time":"7:16:00","departure_time":"7:16:00","lat":48.857435,"lon":16.487133,"is_passed":false},{"stop_id":"U15562Z2","name":"Novosedly, cihelna","arrival_time":"7:21:00","departure_time":"7:21:00","lat":48.835602,"lon":16.511033,"is_passed":false},{"stop_id":"U15642Z2","name":"Dobré Pole","arrival_time":"7:24:00","departure_time":"7:24:00","lat":48.825967,"lon":16.535573,"is_passed":false},{"stop_id":"U15641Z2","name":"Březí","arrival_time":"7:28:00","departure_time":"7:28:00","lat":48.821337,"lon":16.563325,"is_passed":false},{"stop_id":"U15790Z2","name":"Mikulov, Průmyslová zóna, točna","arrival_time":"7:33:00","departure_time":"7:33:00","lat":48.813859,"lon":16.620388,"is_passed":false},{"stop_id":"U15702Z1","name":"Mikulov, Brněnská","arrival_time":"7:35:00","departure_time":"7:35:00","lat":48.812088,"lon":16.630516,"is_passed":false},{"stop_id":"U15703Z1","name":"Mikulov, 22. dubna","arrival_time":"7:36:00","departure_time":"7:36:00","lat":48.805487,"lon":16.633496,"is_passed":false},{"stop_id":"U15709Z1","name":"Mikulov, u parku","arrival_time":"7:38:00","departure_time":"7:40:00","lat":48.802145,"lon":16.634375,"is_passed":false}]