[{"stop_id":"U15709Z3","name":"Mikulov, u parku","arrival_time":"7:40:00","departure_time":"7:40:00","lat":48.80268,"lon":16.634167,"is_passed":false},{"stop_id":"U15702Z2","name":"Mikulov, Brněnská","arrival_time":"7:43:00","departure_time":"7:43:00","lat":48.812258,"lon":16.630495,"is_passed":false},{"stop_id":"U15790Z1","name":"Mikulov, Průmyslová zóna, točna","arrival_time":"7:45:00","departure_time":"7:45:00","lat":48.813796,"lon":16.619508,"is_passed":false},{"stop_id":"U15641Z1","name":"Březí","arrival_time":"7:50:00","departure_time":"7:50:00","lat":48.821397,"lon":16.563187,"is_passed":false},{"stop_id":"U15642Z1","name":"Dobré Pole","arrival_time":"7:54:00","departure_time":"7:54:00","lat":48.825967,"lon":16.535573,"is_passed":false},{"stop_id":"U15562Z1","name":"Novosedly, cihelna","arrival_time":"7:57:00","departure_time":"7:57:00","lat":48.8357,"lon":16.510923,"is_passed":false},{"stop_id":"U15561Z1","name":"Novosedly","arrival_time":"7:59:00","departure_time":"7:59:00","lat":48.838367,"lon":16.494092,"is_passed":false},{"stop_id":"U15558Z1","name":"Drnholec","arrival_time":"8:05:00","departure_time":"8:15:00","lat":48.857435,"lon":16.487133,"is_passed":false}]