[{"stop_id":"U15307Z1","name":"Vranovice, žel.st.","arrival_time":"11:45:00","departure_time":"11:45:00","lat":48.964061,"lon":16.60506,"is_passed":false},{"stop_id":"U15311Z1","name":"Ivaň, hájenka Plaček","arrival_time":"11:49:00","departure_time":"11:49:00","lat":48.946617,"lon":16.589183,"is_passed":false},{"stop_id":"U15310Z1","name":"Ivaň","arrival_time":"11:52:00","departure_time":"11:52:00","lat":48.92928,"lon":16.57525,"is_passed":false},{"stop_id":"U15427Z3","name":"Pasohlávky, rozcestí Ivaň","arrival_time":"11:55:00","departure_time":"11:55:00","lat":48.918491,"lon":16.558356,"is_passed":false},{"stop_id":"U15435Z1","name":"Pasohlávky, Aqualand Moravia","arrival_time":"11:57:00","departure_time":"11:57:00","lat":48.905026,"lon":16.575559,"is_passed":false},{"stop_id":"U15428Z1","name":"Pasohlávky, u kostela","arrival_time":"12:03:00","departure_time":"12:03:00","lat":48.90308,"lon":16.54164,"is_passed":false},{"stop_id":"U15565Z1","name":"Brod nad Dyjí, obecní úřad","arrival_time":"12:09:00","departure_time":"12:09:00","lat":48.876305,"lon":16.536722,"is_passed":false},{"stop_id":"U15558Z4","name":"Drnholec","arrival_time":"12:15:00","departure_time":"13:15:00","lat":48.857435,"lon":16.487133,"is_passed":false}]