{"617":[{"stop_id":"U12676Z50","name":"Skalice nad Svitavou, žel.st.","arrival_time":"14:25:00","departure_time":"14:25:00","lat":49.480123,"lon":16.609726,"is_passed":false},{"stop_id":"U12635Z50","name":"Boskovice, aut.st.","arrival_time":"14:32:00","departure_time":"15:01:00","lat":49.491667,"lon":16.651778,"is_passed":false}],"6170":[{"stop_id":"U15714Z3","name":"Mikulov, železniční stanice","arrival_time":"10:12:00","departure_time":"10:12:00","lat":48.801587,"lon":16.626658,"is_passed":false},{"stop_id":"U15709Z4","name":"Mikulov, u parku","arrival_time":"10:15:00","departure_time":"10:15:00","lat":48.802538,"lon":16.633958,"is_passed":false},{"stop_id":"U15702Z2","name":"Mikulov, Brněnská","arrival_time":"10:18:00","departure_time":"10:18:00","lat":48.812258,"lon":16.630495,"is_passed":false},{"stop_id":"U15700Z2","name":"Bavory","arrival_time":"10:23:00","departure_time":"10:23:00","lat":48.83573,"lon":16.622435,"is_passed":false},{"stop_id":"U15701Z2","name":"Bavory, rozcestí","arrival_time":"10:25:00","departure_time":"10:25:00","lat":48.830925,"lon":16.612887,"is_passed":false},{"stop_id":"U15545Z4","name":"Dolní Dunajovice, rozcestí","arrival_time":"10:27:00","departure_time":"10:27:00","lat":48.851515,"lon":16.611086,"is_passed":false},{"stop_id":"U15508Z2","name":"Perná","arrival_time":"10:30:00","departure_time":"10:30:00","lat":48.855185,"lon":16.620863,"is_passed":false},{"stop_id":"U15510Z2","name":"Perná, samota","arrival_time":"10:31:00","departure_time":"10:31:00","lat":48.859628,"lon":16.611175,"is_passed":false},{"stop_id":"U15501Z2","name":"Horní Věstonice","arrival_time":"10:34:00","departure_time":"10:34:00","lat":48.875805,"lon":16.624663,"is_passed":false},{"stop_id":"U15500Z2","name":"Dolní Věstonice","arrival_time":"10:38:00","departure_time":"10:38:00","lat":48.888257,"lon":16.643642,"is_passed":false},{"stop_id":"U15422Z2","name":"Strachotín","arrival_time":"10:42:00","departure_time":"10:42:00","lat":48.90576,"lon":16.653695,"is_passed":false},{"stop_id":"U15413Z2","name":"Popice, rozcestí","arrival_time":"10:44:00","departure_time":"10:44:00","lat":48.919413,"lon":16.684552,"is_passed":false},{"stop_id":"U15408Z2","name":"Hustopeče, plnírna","arrival_time":"10:46:00","departure_time":"10:46:00","lat":48.917133,"lon":16.703193,"is_passed":false},{"stop_id":"U15425Z2","name":"Šakvice, železniční stanice","arrival_time":"10:51:00","departure_time":"10:51:00","lat":48.912729,"lon":16.707137,"is_passed":false},{"stop_id":"U15406Z2","name":"Hustopeče, Mostárna","arrival_time":"10:52:00","departure_time":"10:52:00","lat":48.914155,"lon":16.710253,"is_passed":false},{"stop_id":"U15407Z2","name":"Hustopeče, Nádražní","arrival_time":"10:56:00","departure_time":"10:56:00","lat":48.935343,"lon":16.731357,"is_passed":false},{"stop_id":"U15403Z51","name":"Hustopeče, autobusové nádraží","arrival_time":"10:58:00","departure_time":"13:01:00","lat":48.938047,"lon":16.735671,"is_passed":false}],"6171":[{"stop_id":"U15403Z8","name":"Hustopeče, autobusové nádraží","arrival_time":"13:01:00","departure_time":"13:01:00","lat":48.938295,"lon":16.735566,"is_passed":false},{"stop_id":"U15407Z1","name":"Hustopeče, Nádražní","arrival_time":"13:02:00","departure_time":"13:02:00","lat":48.935378,"lon":16.730693,"is_passed":false},{"stop_id":"U15406Z1","name":"Hustopeče, Mostárna","arrival_time":"13:07:00","departure_time":"13:07:00","lat":48.914318,"lon":16.710175,"is_passed":false},{"stop_id":"U15425Z1","name":"Šakvice, železniční stanice","arrival_time":"13:08:00","departure_time":"13:09:00","lat":48.912632,"lon":16.707338,"is_passed":false},{"stop_id":"U15408Z1","name":"Hustopeče, plnírna","arrival_time":"13:12:00","departure_time":"13:12:00","lat":48.917168,"lon":16.703175,"is_passed":false},{"stop_id":"U15413Z1","name":"Popice, rozcestí","arrival_time":"13:14:00","departure_time":"13:14:00","lat":48.919667,"lon":16.68427,"is_passed":false},{"stop_id":"U15422Z1","name":"Strachotín","arrival_time":"13:17:00","departure_time":"13:17:00","lat":48.904803,"lon":16.65097,"is_passed":false},{"stop_id":"U15500Z1","name":"Dolní Věstonice","arrival_time":"13:22:00","departure_time":"13:22:00","lat":48.888248,"lon":16.64335,"is_passed":false},{"stop_id":"U15501Z1","name":"Horní Věstonice","arrival_time":"13:26:00","departure_time":"13:26:00","lat":48.875943,"lon":16.624695,"is_passed":false},{"stop_id":"U15510Z1","name":"Perná, samota","arrival_time":"13:29:00","departure_time":"13:29:00","lat":48.859642,"lon":16.611015,"is_passed":false},{"stop_id":"U15508Z1","name":"Perná","arrival_time":"13:30:00","departure_time":"13:30:00","lat":48.855127,"lon":16.620733,"is_passed":false},{"stop_id":"U15545Z1","name":"Dolní Dunajovice, rozcestí","arrival_time":"13:33:00","departure_time":"13:33:00","lat":48.850615,"lon":16.60982,"is_passed":false},{"stop_id":"U15701Z1","name":"Bavory, rozcestí","arrival_time":"13:35:00","departure_time":"13:35:00","lat":48.830593,"lon":16.612673,"is_passed":false},{"stop_id":"U15700Z1","name":"Bavory","arrival_time":"13:37:00","departure_time":"13:37:00","lat":48.83573,"lon":16.622435,"is_passed":false},{"stop_id":"U15702Z1","name":"Mikulov, Brněnská","arrival_time":"13:42:00","departure_time":"13:42:00","lat":48.812088,"lon":16.630516,"is_passed":false},{"stop_id":"U15703Z1","name":"Mikulov, 22. dubna","arrival_time":"13:43:00","departure_time":"13:43:00","lat":48.805487,"lon":16.633496,"is_passed":false},{"stop_id":"U15709Z1","name":"Mikulov, u parku","arrival_time":"13:45:00","departure_time":"13:45:00","lat":48.802145,"lon":16.634375,"is_passed":false},{"stop_id":"U15714Z51","name":"Mikulov, železniční stanice","arrival_time":"13:48:00","departure_time":"13:48:00","lat":48.80216,"lon":16.62617,"is_passed":false}],"6172":[{"stop_id":"U15714Z3","name":"Mikulov, železniční stanice","arrival_time":"4:02:00","departure_time":"4:02:00","lat":48.801587,"lon":16.626658,"is_passed":false},{"stop_id":"U15709Z4","name":"Mikulov, u parku","arrival_time":"4:05:00","departure_time":"4:05:00","lat":48.802538,"lon":16.633958,"is_passed":false},{"stop_id":"U15702Z2","name":"Mikulov, Brněnská","arrival_time":"4:08:00","departure_time":"4:08:00","lat":48.812258,"lon":16.630495,"is_passed":false},{"stop_id":"U15700Z2","name":"Bavory","arrival_time":"4:13:00","departure_time":"4:13:00","lat":48.83573,"lon":16.622435,"is_passed":false},{"stop_id":"U15701Z2","name":"Bavory, rozcestí","arrival_time":"4:15:00","departure_time":"4:15:00","lat":48.830925,"lon":16.612887,"is_passed":false},{"stop_id":"U15545Z2","name":"Dolní Dunajovice, rozcestí","arrival_time":"4:17:00","departure_time":"4:17:00","lat":48.851635,"lon":16.608425,"is_passed":false},{"stop_id":"U15544Z2","name":"Dolní Dunajovice, Jednota","arrival_time":"4:20:00","departure_time":"4:20:00","lat":48.855323,"lon":16.591977,"is_passed":false},{"stop_id":"U15545Z4","name":"Dolní Dunajovice, rozcestí","arrival_time":"4:22:00","departure_time":"4:22:00","lat":48.851515,"lon":16.611086,"is_passed":false},{"stop_id":"U15508Z2","name":"Perná","arrival_time":"4:25:00","departure_time":"4:25:00","lat":48.855185,"lon":16.620863,"is_passed":false},{"stop_id":"U15510Z2","name":"Perná, samota","arrival_time":"4:26:00","departure_time":"4:26:00","lat":48.859628,"lon":16.611175,"is_passed":false},{"stop_id":"U15501Z2","name":"Horní Věstonice","arrival_time":"4:29:00","departure_time":"4:29:00","lat":48.875805,"lon":16.624663,"is_passed":false},{"stop_id":"U15500Z2","name":"Dolní Věstonice","arrival_time":"4:33:00","departure_time":"4:38:00","lat":48.888257,"lon":16.643642,"is_passed":false},{"stop_id":"U15422Z2","name":"Strachotín","arrival_time":"4:42:00","departure_time":"4:42:00","lat":48.90576,"lon":16.653695,"is_passed":false},{"stop_id":"U15413Z2","name":"Popice, rozcestí","arrival_time":"4:44:00","departure_time":"4:44:00","lat":48.919413,"lon":16.684552,"is_passed":false},{"stop_id":"U15408Z2","name":"Hustopeče, plnírna","arrival_time":"4:46:00","departure_time":"4:46:00","lat":48.917133,"lon":16.703193,"is_passed":false},{"stop_id":"U15425Z2","name":"Šakvice, železniční stanice","arrival_time":"4:51:00","departure_time":"4:51:00","lat":48.912729,"lon":16.707137,"is_passed":false},{"stop_id":"U15406Z2","name":"Hustopeče, Mostárna","arrival_time":"4:52:00","departure_time":"4:52:00","lat":48.914155,"lon":16.710253,"is_passed":false},{"stop_id":"U15407Z2","name":"Hustopeče, Nádražní","arrival_time":"4:56:00","departure_time":"4:56:00","lat":48.935343,"lon":16.731357,"is_passed":false},{"stop_id":"U15403Z51","name":"Hustopeče, autobusové nádraží","arrival_time":"4:58:00","departure_time":"5:07:00","lat":48.938047,"lon":16.735671,"is_passed":false}],"6173":[{"stop_id":"U15403Z8","name":"Hustopeče, autobusové nádraží","arrival_time":"5:07:00","departure_time":"5:07:00","lat":48.938295,"lon":16.735566,"is_passed":false},{"stop_id":"U15407Z1","name":"Hustopeče, Nádražní","arrival_time":"5:08:00","departure_time":"5:08:00","lat":48.935378,"lon":16.730693,"is_passed":false},{"stop_id":"U15408Z1","name":"Hustopeče, plnírna","arrival_time":"5:14:00","departure_time":"5:14:00","lat":48.917168,"lon":16.703175,"is_passed":false},{"stop_id":"U15413Z1","name":"Popice, rozcestí","arrival_time":"5:16:00","departure_time":"5:16:00","lat":48.919667,"lon":16.68427,"is_passed":false},{"stop_id":"U15422Z1","name":"Strachotín","arrival_time":"5:19:00","departure_time":"5:19:00","lat":48.904803,"lon":16.65097,"is_passed":false},{"stop_id":"U15500Z1","name":"Dolní Věstonice","arrival_time":"5:24:00","departure_time":"5:24:00","lat":48.888248,"lon":16.64335,"is_passed":false},{"stop_id":"U15501Z1","name":"Horní Věstonice","arrival_time":"5:28:00","departure_time":"5:28:00","lat":48.875943,"lon":16.624695,"is_passed":false},{"stop_id":"U15545Z1","name":"Dolní Dunajovice, rozcestí","arrival_time":"5:31:00","departure_time":"5:31:00","lat":48.850615,"lon":16.60982,"is_passed":false},{"stop_id":"U15701Z1","name":"Bavory, rozcestí","arrival_time":"5:33:00","departure_time":"5:33:00","lat":48.830593,"lon":16.612673,"is_passed":false},{"stop_id":"U15702Z1","name":"Mikulov, Brněnská","arrival_time":"5:37:00","departure_time":"5:37:00","lat":48.812088,"lon":16.630516,"is_passed":false},{"stop_id":"U15703Z1","name":"Mikulov, 22. dubna","arrival_time":"5:38:00","departure_time":"5:38:00","lat":48.805487,"lon":16.633496,"is_passed":false},{"stop_id":"U15709Z1","name":"Mikulov, u parku","arrival_time":"5:40:00","departure_time":"5:40:00","lat":48.802145,"lon":16.634375,"is_passed":false},{"stop_id":"U15714Z51","name":"Mikulov, železniční stanice","arrival_time":"5:43:00","departure_time":"6:02:00","lat":48.80216,"lon":16.62617,"is_passed":false}],"6174":[{"stop_id":"U15714Z3","name":"Mikulov, železniční stanice","arrival_time":"6:02:00","departure_time":"6:02:00","lat":48.801587,"lon":16.626658,"is_passed":false},{"stop_id":"U15709Z4","name":"Mikulov, u parku","arrival_time":"6:05:00","departure_time":"6:05:00","lat":48.802538,"lon":16.633958,"is_passed":false},{"stop_id":"U15702Z2","name":"Mikulov, Brněnská","arrival_time":"6:08:00","departure_time":"6:08:00","lat":48.812258,"lon":16.630495,"is_passed":false},{"stop_id":"U15700Z2","name":"Bavory","arrival_time":"6:13:00","departure_time":"6:13:00","lat":48.83573,"lon":16.622435,"is_passed":false},{"stop_id":"U15701Z2","name":"Bavory, rozcestí","arrival_time":"6:15:00","departure_time":"6:15:00","lat":48.830925,"lon":16.612887,"is_passed":false},{"stop_id":"U15545Z2","name":"Dolní Dunajovice, rozcestí","arrival_time":"6:17:00","departure_time":"6:17:00","lat":48.851635,"lon":16.608425,"is_passed":false},{"stop_id":"U15544Z2","name":"Dolní Dunajovice, Jednota","arrival_time":"6:20:00","departure_time":"6:20:00","lat":48.855323,"lon":16.591977,"is_passed":false},{"stop_id":"U15545Z4","name":"Dolní Dunajovice, rozcestí","arrival_time":"6:22:00","departure_time":"6:22:00","lat":48.851515,"lon":16.611086,"is_passed":false},{"stop_id":"U15508Z2","name":"Perná","arrival_time":"6:25:00","departure_time":"6:25:00","lat":48.855185,"lon":16.620863,"is_passed":false},{"stop_id":"U15510Z2","name":"Perná, samota","arrival_time":"6:26:00","departure_time":"6:26:00","lat":48.859628,"lon":16.611175,"is_passed":false},{"stop_id":"U15501Z2","name":"Horní Věstonice","arrival_time":"6:29:00","departure_time":"6:29:00","lat":48.875805,"lon":16.624663,"is_passed":false},{"stop_id":"U15500Z2","name":"Dolní Věstonice","arrival_time":"6:33:00","departure_time":"6:38:00","lat":48.888257,"lon":16.643642,"is_passed":false},{"stop_id":"U15422Z2","name":"Strachotín","arrival_time":"6:42:00","departure_time":"6:42:00","lat":48.90576,"lon":16.653695,"is_passed":false},{"stop_id":"U15413Z2","name":"Popice, rozcestí","arrival_time":"6:44:00","departure_time":"6:44:00","lat":48.919413,"lon":16.684552,"is_passed":false},{"stop_id":"U15408Z2","name":"Hustopeče, plnírna","arrival_time":"6:46:00","departure_time":"6:46:00","lat":48.917133,"lon":16.703193,"is_passed":false},{"stop_id":"U15425Z2","name":"Šakvice, železniční stanice","arrival_time":"6:51:00","departure_time":"6:51:00","lat":48.912729,"lon":16.707137,"is_passed":false},{"stop_id":"U15406Z2","name":"Hustopeče, Mostárna","arrival_time":"6:52:00","departure_time":"6:52:00","lat":48.914155,"lon":16.710253,"is_passed":false},{"stop_id":"U15407Z2","name":"Hustopeče, Nádražní","arrival_time":"6:56:00","departure_time":"6:56:00","lat":48.935343,"lon":16.731357,"is_passed":false},{"stop_id":"U15403Z51","name":"Hustopeče, autobusové nádraží","arrival_time":"6:58:00","departure_time":"7:01:00","lat":48.938047,"lon":16.735671,"is_passed":false}],"6175":[{"stop_id":"U15403Z8","name":"Hustopeče, autobusové nádraží","arrival_time":"7:01:00","departure_time":"7:01:00","lat":48.938295,"lon":16.735566,"is_passed":false},{"stop_id":"U15407Z1","name":"Hustopeče, Nádražní","arrival_time":"7:02:00","departure_time":"7:02:00","lat":48.935378,"lon":16.730693,"is_passed":false},{"stop_id":"U15406Z1","name":"Hustopeče, Mostárna","arrival_time":"7:07:00","departure_time":"7:07:00","lat":48.914318,"lon":16.710175,"is_passed":false},{"stop_id":"U15425Z1","name":"Šakvice, železniční stanice","arrival_time":"7:08:00","departure_time":"7:09:00","lat":48.912632,"lon":16.707338,"is_passed":false},{"stop_id":"U15408Z1","name":"Hustopeče, plnírna","arrival_time":"7:12:00","departure_time":"7:12:00","lat":48.917168,"lon":16.703175,"is_passed":false},{"stop_id":"U15413Z1","name":"Popice, rozcestí","arrival_time":"7:14:00","departure_time":"7:14:00","lat":48.919667,"lon":16.68427,"is_passed":false},{"stop_id":"U15422Z1","name":"Strachotín","arrival_time":"7:17:00","departure_time":"7:17:00","lat":48.904803,"lon":16.65097,"is_passed":false},{"stop_id":"U15500Z1","name":"Dolní Věstonice","arrival_time":"7:22:00","departure_time":"7:22:00","lat":48.888248,"lon":16.64335,"is_passed":false},{"stop_id":"U15501Z1","name":"Horní Věstonice","arrival_time":"7:26:00","departure_time":"7:26:00","lat":48.875943,"lon":16.624695,"is_passed":false},{"stop_id":"U15510Z1","name":"Perná, samota","arrival_time":"7:29:00","departure_time":"7:29:00","lat":48.859642,"lon":16.611015,"is_passed":false},{"stop_id":"U15508Z1","name":"Perná","arrival_time":"7:30:00","departure_time":"7:30:00","lat":48.855127,"lon":16.620733,"is_passed":false},{"stop_id":"U15545Z2","name":"Dolní Dunajovice, rozcestí","arrival_time":"7:32:00","departure_time":"7:32:00","lat":48.851635,"lon":16.608425,"is_passed":false},{"stop_id":"U15544Z1","name":"Dolní Dunajovice, Jednota","arrival_time":"7:35:00","departure_time":"7:35:00","lat":48.854737,"lon":16.592543,"is_passed":false},{"stop_id":"U15545Z1","name":"Dolní Dunajovice, rozcestí","arrival_time":"7:38:00","departure_time":"7:38:00","lat":48.850615,"lon":16.60982,"is_passed":false},{"stop_id":"U15701Z1","name":"Bavory, rozcestí","arrival_time":"7:40:00","departure_time":"7:40:00","lat":48.830593,"lon":16.612673,"is_passed":false},{"stop_id":"U15700Z1","name":"Bavory","arrival_time":"7:42:00","departure_time":"7:42:00","lat":48.83573,"lon":16.622435,"is_passed":false},{"stop_id":"U15702Z1","name":"Mikulov, Brněnská","arrival_time":"7:47:00","departure_time":"7:47:00","lat":48.812088,"lon":16.630516,"is_passed":false},{"stop_id":"U15703Z1","name":"Mikulov, 22. dubna","arrival_time":"7:48:00","departure_time":"7:48:00","lat":48.805487,"lon":16.633496,"is_passed":false},{"stop_id":"U15709Z1","name":"Mikulov, u parku","arrival_time":"7:50:00","departure_time":"7:50:00","lat":48.802145,"lon":16.634375,"is_passed":false},{"stop_id":"U15714Z51","name":"Mikulov, železniční stanice","arrival_time":"7:53:00","departure_time":"8:12:00","lat":48.80216,"lon":16.62617,"is_passed":false}],"6176":[{"stop_id":"U15714Z3","name":"Mikulov, železniční stanice","arrival_time":"8:12:00","departure_time":"8:12:00","lat":48.801587,"lon":16.626658,"is_passed":false},{"stop_id":"U15709Z4","name":"Mikulov, u parku","arrival_time":"8:15:00","departure_time":"8:15:00","lat":48.802538,"lon":16.633958,"is_passed":false},{"stop_id":"U15702Z2","name":"Mikulov, Brněnská","arrival_time":"8:18:00","departure_time":"8:18:00","lat":48.812258,"lon":16.630495,"is_passed":false},{"stop_id":"U15700Z2","name":"Bavory","arrival_time":"8:23:00","departure_time":"8:23:00","lat":48.83573,"lon":16.622435,"is_passed":false},{"stop_id":"U15701Z2","name":"Bavory, rozcestí","arrival_time":"8:25:00","departure_time":"8:25:00","lat":48.830925,"lon":16.612887,"is_passed":false},{"stop_id":"U15545Z4","name":"Dolní Dunajovice, rozcestí","arrival_time":"8:27:00","departure_time":"8:27:00","lat":48.851515,"lon":16.611086,"is_passed":false},{"stop_id":"U15508Z2","name":"Perná","arrival_time":"8:30:00","departure_time":"8:30:00","lat":48.855185,"lon":16.620863,"is_passed":false},{"stop_id":"U15510Z2","name":"Perná, samota","arrival_time":"8:31:00","departure_time":"8:31:00","lat":48.859628,"lon":16.611175,"is_passed":false},{"stop_id":"U15501Z2","name":"Horní Věstonice","arrival_time":"8:34:00","departure_time":"8:34:00","lat":48.875805,"lon":16.624663,"is_passed":false},{"stop_id":"U15500Z2","name":"Dolní Věstonice","arrival_time":"8:38:00","departure_time":"8:38:00","lat":48.888257,"lon":16.643642,"is_passed":false},{"stop_id":"U15422Z2","name":"Strachotín","arrival_time":"8:42:00","departure_time":"8:42:00","lat":48.90576,"lon":16.653695,"is_passed":false},{"stop_id":"U15413Z2","name":"Popice, rozcestí","arrival_time":"8:44:00","departure_time":"8:44:00","lat":48.919413,"lon":16.684552,"is_passed":false},{"stop_id":"U15408Z2","name":"Hustopeče, plnírna","arrival_time":"8:46:00","departure_time":"8:46:00","lat":48.917133,"lon":16.703193,"is_passed":false},{"stop_id":"U15425Z2","name":"Šakvice, železniční stanice","arrival_time":"8:51:00","departure_time":"8:51:00","lat":48.912729,"lon":16.707137,"is_passed":false},{"stop_id":"U15406Z2","name":"Hustopeče, Mostárna","arrival_time":"8:52:00","departure_time":"8:52:00","lat":48.914155,"lon":16.710253,"is_passed":false},{"stop_id":"U15407Z2","name":"Hustopeče, Nádražní","arrival_time":"8:56:00","departure_time":"8:56:00","lat":48.935343,"lon":16.731357,"is_passed":false},{"stop_id":"U15403Z51","name":"Hustopeče, autobusové nádraží","arrival_time":"8:58:00","departure_time":"11:01:00","lat":48.938047,"lon":16.735671,"is_passed":false}],"6177":[{"stop_id":"U15403Z8","name":"Hustopeče, autobusové nádraží","arrival_time":"11:01:00","departure_time":"11:01:00","lat":48.938295,"lon":16.735566,"is_passed":false},{"stop_id":"U15407Z1","name":"Hustopeče, Nádražní","arrival_time":"11:02:00","departure_time":"11:02:00","lat":48.935378,"lon":16.730693,"is_passed":false},{"stop_id":"U15406Z1","name":"Hustopeče, Mostárna","arrival_time":"11:07:00","departure_time":"11:07:00","lat":48.914318,"lon":16.710175,"is_passed":false},{"stop_id":"U15425Z1","name":"Šakvice, železniční stanice","arrival_time":"11:08:00","departure_time":"11:09:00","lat":48.912632,"lon":16.707338,"is_passed":false},{"stop_id":"U15408Z1","name":"Hustopeče, plnírna","arrival_time":"11:12:00","departure_time":"11:12:00","lat":48.917168,"lon":16.703175,"is_passed":false},{"stop_id":"U15413Z1","name":"Popice, rozcestí","arrival_time":"11:14:00","departure_time":"11:14:00","lat":48.919667,"lon":16.68427,"is_passed":false},{"stop_id":"U15422Z1","name":"Strachotín","arrival_time":"11:17:00","departure_time":"11:17:00","lat":48.904803,"lon":16.65097,"is_passed":false},{"stop_id":"U15500Z1","name":"Dolní Věstonice","arrival_time":"11:22:00","departure_time":"11:22:00","lat":48.888248,"lon":16.64335,"is_passed":false},{"stop_id":"U15501Z1","name":"Horní Věstonice","arrival_time":"11:26:00","departure_time":"11:26:00","lat":48.875943,"lon":16.624695,"is_passed":false},{"stop_id":"U15510Z1","name":"Perná, samota","arrival_time":"11:29:00","departure_time":"11:29:00","lat":48.859642,"lon":16.611015,"is_passed":false},{"stop_id":"U15508Z1","name":"Perná","arrival_time":"11:30:00","departure_time":"11:30:00","lat":48.855127,"lon":16.620733,"is_passed":false},{"stop_id":"U15545Z1","name":"Dolní Dunajovice, rozcestí","arrival_time":"11:33:00","departure_time":"11:33:00","lat":48.850615,"lon":16.60982,"is_passed":false},{"stop_id":"U15701Z1","name":"Bavory, rozcestí","arrival_time":"11:35:00","departure_time":"11:35:00","lat":48.830593,"lon":16.612673,"is_passed":false},{"stop_id":"U15700Z1","name":"Bavory","arrival_time":"11:37:00","departure_time":"11:37:00","lat":48.83573,"lon":16.622435,"is_passed":false},{"stop_id":"U15702Z1","name":"Mikulov, Brněnská","arrival_time":"11:42:00","departure_time":"11:42:00","lat":48.812088,"lon":16.630516,"is_passed":false},{"stop_id":"U15703Z1","name":"Mikulov, 22. dubna","arrival_time":"11:43:00","departure_time":"11:43:00","lat":48.805487,"lon":16.633496,"is_passed":false},{"stop_id":"U15709Z1","name":"Mikulov, u parku","arrival_time":"11:45:00","departure_time":"11:45:00","lat":48.802145,"lon":16.634375,"is_passed":false},{"stop_id":"U15714Z51","name":"Mikulov, železniční stanice","arrival_time":"11:48:00","departure_time":"12:07:00","lat":48.80216,"lon":16.62617,"is_passed":false}],"6178":[{"stop_id":"U15714Z3","name":"Mikulov, železniční stanice","arrival_time":"12:07:00","departure_time":"12:07:00","lat":48.801587,"lon":16.626658,"is_passed":false},{"stop_id":"U15709Z4","name":"Mikulov, u parku","arrival_time":"12:10:00","departure_time":"12:10:00","lat":48.802538,"lon":16.633958,"is_passed":false},{"stop_id":"U15702Z2","name":"Mikulov, Brněnská","arrival_time":"12:13:00","departure_time":"12:13:00","lat":48.812258,"lon":16.630495,"is_passed":false},{"stop_id":"U15700Z2","name":"Bavory","arrival_time":"12:18:00","departure_time":"12:18:00","lat":48.83573,"lon":16.622435,"is_passed":false},{"stop_id":"U15701Z2","name":"Bavory, rozcestí","arrival_time":"12:20:00","departure_time":"12:20:00","lat":48.830925,"lon":16.612887,"is_passed":false},{"stop_id":"U15545Z2","name":"Dolní Dunajovice, rozcestí","arrival_time":"12:22:00","departure_time":"12:22:00","lat":48.851635,"lon":16.608425,"is_passed":false},{"stop_id":"U15544Z2","name":"Dolní Dunajovice, Jednota","arrival_time":"12:25:00","departure_time":"12:25:00","lat":48.855323,"lon":16.591977,"is_passed":false},{"stop_id":"U15545Z4","name":"Dolní Dunajovice, rozcestí","arrival_time":"12:27:00","departure_time":"12:27:00","lat":48.851515,"lon":16.611086,"is_passed":false},{"stop_id":"U15508Z2","name":"Perná","arrival_time":"12:30:00","departure_time":"12:30:00","lat":48.855185,"lon":16.620863,"is_passed":false},{"stop_id":"U15510Z2","name":"Perná, samota","arrival_time":"12:31:00","departure_time":"12:31:00","lat":48.859628,"lon":16.611175,"is_passed":false},{"stop_id":"U15501Z2","name":"Horní Věstonice","arrival_time":"12:34:00","departure_time":"12:34:00","lat":48.875805,"lon":16.624663,"is_passed":false},{"stop_id":"U15500Z2","name":"Dolní Věstonice","arrival_time":"12:38:00","departure_time":"12:38:00","lat":48.888257,"lon":16.643642,"is_passed":false},{"stop_id":"U15422Z2","name":"Strachotín","arrival_time":"12:42:00","departure_time":"12:42:00","lat":48.90576,"lon":16.653695,"is_passed":false},{"stop_id":"U15413Z2","name":"Popice, rozcestí","arrival_time":"12:44:00","departure_time":"12:44:00","lat":48.919413,"lon":16.684552,"is_passed":false},{"stop_id":"U15408Z2","name":"Hustopeče, plnírna","arrival_time":"12:46:00","departure_time":"12:46:00","lat":48.917133,"lon":16.703193,"is_passed":false},{"stop_id":"U15425Z2","name":"Šakvice, železniční stanice","arrival_time":"12:51:00","departure_time":"12:51:00","lat":48.912729,"lon":16.707137,"is_passed":false},{"stop_id":"U15406Z2","name":"Hustopeče, Mostárna","arrival_time":"12:52:00","departure_time":"12:52:00","lat":48.914155,"lon":16.710253,"is_passed":false},{"stop_id":"U15407Z2","name":"Hustopeče, Nádražní","arrival_time":"12:56:00","departure_time":"12:56:00","lat":48.935343,"lon":16.731357,"is_passed":false},{"stop_id":"U15403Z51","name":"Hustopeče, autobusové nádraží","arrival_time":"12:58:00","departure_time":"14:01:00","lat":48.938047,"lon":16.735671,"is_passed":false}],"6179":[{"stop_id":"U15403Z8","name":"Hustopeče, autobusové nádraží","arrival_time":"14:01:00","departure_time":"14:01:00","lat":48.938295,"lon":16.735566,"is_passed":false},{"stop_id":"U15407Z1","name":"Hustopeče, Nádražní","arrival_time":"14:02:00","departure_time":"14:02:00","lat":48.935378,"lon":16.730693,"is_passed":false},{"stop_id":"U15406Z1","name":"Hustopeče, Mostárna","arrival_time":"14:07:00","departure_time":"14:07:00","lat":48.914318,"lon":16.710175,"is_passed":false},{"stop_id":"U15425Z1","name":"Šakvice, železniční stanice","arrival_time":"14:08:00","departure_time":"14:09:00","lat":48.912632,"lon":16.707338,"is_passed":false},{"stop_id":"U15408Z1","name":"Hustopeče, plnírna","arrival_time":"14:12:00","departure_time":"14:12:00","lat":48.917168,"lon":16.703175,"is_passed":false},{"stop_id":"U15413Z1","name":"Popice, rozcestí","arrival_time":"14:14:00","departure_time":"14:14:00","lat":48.919667,"lon":16.68427,"is_passed":false},{"stop_id":"U15422Z1","name":"Strachotín","arrival_time":"14:17:00","departure_time":"14:17:00","lat":48.904803,"lon":16.65097,"is_passed":false},{"stop_id":"U15500Z1","name":"Dolní Věstonice","arrival_time":"14:22:00","departure_time":"14:22:00","lat":48.888248,"lon":16.64335,"is_passed":false},{"stop_id":"U15501Z1","name":"Horní Věstonice","arrival_time":"14:26:00","departure_time":"14:26:00","lat":48.875943,"lon":16.624695,"is_passed":false},{"stop_id":"U15510Z1","name":"Perná, samota","arrival_time":"14:29:00","departure_time":"14:29:00","lat":48.859642,"lon":16.611015,"is_passed":false},{"stop_id":"U15508Z1","name":"Perná","arrival_time":"14:30:00","departure_time":"14:30:00","lat":48.855127,"lon":16.620733,"is_passed":false},{"stop_id":"U15545Z1","name":"Dolní Dunajovice, rozcestí","arrival_time":"14:33:00","departure_time":"14:33:00","lat":48.850615,"lon":16.60982,"is_passed":false},{"stop_id":"U15701Z1","name":"Bavory, rozcestí","arrival_time":"14:35:00","departure_time":"14:35:00","lat":48.830593,"lon":16.612673,"is_passed":false},{"stop_id":"U15700Z1","name":"Bavory","arrival_time":"14:37:00","departure_time":"14:37:00","lat":48.83573,"lon":16.622435,"is_passed":false},{"stop_id":"U15702Z1","name":"Mikulov, Brněnská","arrival_time":"14:42:00","departure_time":"14:42:00","lat":48.812088,"lon":16.630516,"is_passed":false},{"stop_id":"U15703Z1","name":"Mikulov, 22. dubna","arrival_time":"14:43:00","departure_time":"14:43:00","lat":48.805487,"lon":16.633496,"is_passed":false},{"stop_id":"U15709Z1","name":"Mikulov, u parku","arrival_time":"14:45:00","departure_time":"14:45:00","lat":48.802145,"lon":16.634375,"is_passed":false},{"stop_id":"U15714Z51","name":"Mikulov, železniční stanice","arrival_time":"14:48:00","departure_time":"14:48:00","lat":48.80216,"lon":16.62617,"is_passed":false}],"61700":[{"stop_id":"U1611Z2","name":"Stará osada","arrival_time":"12:04:00","departure_time":"12:04:00","lat":49.20214,"lon":16.641417,"is_passed":false},{"stop_id":"U1313Z2","name":"Kuldova","arrival_time":"12:05:00","departure_time":"12:05:00","lat":49.201319,"lon":16.634551,"is_passed":false},{"stop_id":"U1773Z2","name":"Vojenská nemocnice","arrival_time":"12:06:00","departure_time":"12:06:00","lat":49.202306,"lon":16.62966,"is_passed":false},{"stop_id":"U1211Z8","name":"Jugoslávská","arrival_time":"12:09:00","departure_time":"12:09:00","lat":49.204197,"lon":16.624075,"is_passed":false},{"stop_id":"U1086Z2","name":"Dětská nemocnice","arrival_time":"12:11:00","departure_time":"12:11:00","lat":49.203029,"lon":16.619052,"is_passed":false},{"stop_id":"U1418Z2","name":"Náměstí 28. října","arrival_time":"12:12:00","departure_time":"12:12:00","lat":49.200787,"lon":16.613174,"is_passed":false},{"stop_id":"U1397Z4","name":"Moravské náměstí","arrival_time":"12:14:00","departure_time":"12:14:00","lat":49.199159,"lon":16.608704,"is_passed":false},{"stop_id":"U1073Z4","name":"Česká","arrival_time":"12:17:00","departure_time":"12:17:00","lat":49.198134,"lon":16.605041,"is_passed":false},{"stop_id":"U1121Z1","name":"Grohova","arrival_time":"12:18:00","departure_time":"12:18:00","lat":49.201153,"lon":16.599729,"is_passed":false},{"stop_id":"U1262Z1","name":"Konečného náměstí","arrival_time":"12:20:00","departure_time":"12:20:00","lat":49.204484,"lon":16.595426,"is_passed":false},{"stop_id":"U1552Z1","name":"Rybkova","arrival_time":"12:21:00","departure_time":"12:21:00","lat":49.205908,"lon":16.593602,"is_passed":false},{"stop_id":"U1657Z1","name":"Tábor","arrival_time":"12:23:00","departure_time":"12:23:00","lat":49.210271,"lon":16.587228,"is_passed":false},{"stop_id":"U1282Z1","name":"Králova","arrival_time":"12:24:00","departure_time":"12:24:00","lat":49.211297,"lon":16.583386,"is_passed":false},{"stop_id":"U1047Z1","name":"Burianovo náměstí","arrival_time":"12:25:00","departure_time":"12:25:00","lat":49.212482,"lon":16.578371,"is_passed":false},{"stop_id":"U1400Z1","name":"Mozolky","arrival_time":"12:26:00","departure_time":"12:26:00","lat":49.213712,"lon":16.574628,"is_passed":false},{"stop_id":"U1544Z1","name":"Rosického náměstí","arrival_time":"12:27:00","departure_time":"12:27:00","lat":49.214438,"lon":16.567996,"is_passed":false},{"stop_id":"U1591Z1","name":"Sochorova","arrival_time":"12:28:00","departure_time":"12:28:00","lat":49.213406,"lon":16.564341,"is_passed":false},{"stop_id":"U1217Z1","name":"Vozovna Komín","arrival_time":"12:30:00","departure_time":"12:30:00","lat":49.2132,"lon":16.559792,"is_passed":false},{"stop_id":"U1633Z1","name":"Svratecká","arrival_time":"12:31:00","departure_time":"12:31:00","lat":49.217898,"lon":16.553656,"is_passed":false},{"stop_id":"U1042Z1","name":"Branka","arrival_time":"12:32:00","departure_time":"12:32:00","lat":49.219419,"lon":16.54726,"is_passed":false},{"stop_id":"U1493Z1","name":"Podlesí","arrival_time":"12:33:00","departure_time":"12:33:00","lat":49.218711,"lon":16.542392,"is_passed":false},{"stop_id":"U1226Z1","name":"Kamenolom","arrival_time":"12:34:00","departure_time":"12:34:00","lat":49.221657,"lon":16.536794,"is_passed":false},{"stop_id":"U1796Z1","name":"Zoologická zahrada","arrival_time":"12:36:00","departure_time":"12:36:00","lat":49.227674,"lon":16.532002,"is_passed":false},{"stop_id":"U1527Z1","name":"Přístaviště","arrival_time":"12:37:00","departure_time":"12:37:00","lat":49.22814,"lon":16.521658,"is_passed":false},{"stop_id":"U1537Z1","name":"Rakovecká","arrival_time":"12:39:00","departure_time":"12:51:00","lat":49.225877,"lon":16.518739,"is_passed":false}],"61701":[{"stop_id":"U1537Z2","name":"Rakovecká","arrival_time":"12:51:00","departure_time":"12:51:00","lat":49.226177,"lon":16.519315,"is_passed":false},{"stop_id":"U1527Z2","name":"Přístaviště","arrival_time":"12:52:00","departure_time":"12:52:00","lat":49.228519,"lon":16.522556,"is_passed":false},{"stop_id":"U1796Z2","name":"Zoologická zahrada","arrival_time":"12:54:00","departure_time":"12:54:00","lat":49.22774,"lon":16.531898,"is_passed":false},{"stop_id":"U1226Z2","name":"Kamenolom","arrival_time":"12:55:00","departure_time":"12:55:00","lat":49.221888,"lon":16.536713,"is_passed":false},{"stop_id":"U1493Z2","name":"Podlesí","arrival_time":"12:56:00","departure_time":"12:56:00","lat":49.21871,"lon":16.542217,"is_passed":false},{"stop_id":"U1042Z2","name":"Branka","arrival_time":"12:57:00","departure_time":"12:57:00","lat":49.219368,"lon":16.548224,"is_passed":false},{"stop_id":"U1633Z2","name":"Svratecká","arrival_time":"12:58:00","departure_time":"12:58:00","lat":49.21799,"lon":16.553492,"is_passed":false},{"stop_id":"U1217Z2","name":"Vozovna Komín","arrival_time":"13:00:00","departure_time":"13:00:00","lat":49.213224,"lon":16.559619,"is_passed":false},{"stop_id":"U1591Z2","name":"Sochorova","arrival_time":"13:01:00","departure_time":"13:01:00","lat":49.21349,"lon":16.564933,"is_passed":false},{"stop_id":"U1544Z2","name":"Rosického náměstí","arrival_time":"13:02:00","departure_time":"13:02:00","lat":49.214708,"lon":16.568749,"is_passed":false},{"stop_id":"U1400Z2","name":"Mozolky","arrival_time":"13:03:00","departure_time":"13:03:00","lat":49.21352,"lon":16.575061,"is_passed":false},{"stop_id":"U1047Z2","name":"Burianovo náměstí","arrival_time":"13:04:00","departure_time":"13:04:00","lat":49.212274,"lon":16.578835,"is_passed":false},{"stop_id":"U1657Z2","name":"Tábor","arrival_time":"13:05:00","departure_time":"13:05:00","lat":49.210553,"lon":16.585882,"is_passed":false},{"stop_id":"U1552Z2","name":"Rybkova","arrival_time":"13:07:00","departure_time":"13:07:00","lat":49.206244,"lon":16.593167,"is_passed":false},{"stop_id":"U1262Z2","name":"Konečného náměstí","arrival_time":"13:09:00","departure_time":"13:09:00","lat":49.203961,"lon":16.596051,"is_passed":false},{"stop_id":"U1121Z2","name":"Grohova","arrival_time":"13:10:00","departure_time":"13:10:00","lat":49.201327,"lon":16.59934,"is_passed":false},{"stop_id":"U1073Z2","name":"Česká","arrival_time":"13:13:00","departure_time":"13:13:00","lat":49.197702,"lon":16.606463,"is_passed":false},{"stop_id":"U1397Z3","name":"Moravské náměstí","arrival_time":"13:14:00","departure_time":"13:14:00","lat":49.199309,"lon":16.609047,"is_passed":false},{"stop_id":"U1418Z1","name":"Náměstí 28. října","arrival_time":"13:15:00","departure_time":"13:15:00","lat":49.200961,"lon":16.613794,"is_passed":false},{"stop_id":"U1086Z1","name":"Dětská nemocnice","arrival_time":"13:17:00","departure_time":"13:17:00","lat":49.202836,"lon":16.618608,"is_passed":false},{"stop_id":"U1211Z7","name":"Jugoslávská","arrival_time":"13:19:00","departure_time":"13:19:00","lat":49.203843,"lon":16.624408,"is_passed":false},{"stop_id":"U1773Z1","name":"Vojenská nemocnice","arrival_time":"13:22:00","departure_time":"13:22:00","lat":49.202244,"lon":16.629717,"is_passed":false},{"stop_id":"U1313Z1","name":"Kuldova","arrival_time":"13:23:00","departure_time":"13:23:00","lat":49.201297,"lon":16.634306,"is_passed":false},{"stop_id":"U1611Z1","name":"Stará osada","arrival_time":"13:25:00","departure_time":"13:44:00","lat":49.202521,"lon":16.641948,"is_passed":false}],"61702":[{"stop_id":"U1611Z2","name":"Stará osada","arrival_time":"13:44:00","departure_time":"13:44:00","lat":49.20214,"lon":16.641417,"is_passed":false},{"stop_id":"U1313Z2","name":"Kuldova","arrival_time":"13:45:00","departure_time":"13:45:00","lat":49.201319,"lon":16.634551,"is_passed":false},{"stop_id":"U1773Z2","name":"Vojenská nemocnice","arrival_time":"13:46:00","departure_time":"13:46:00","lat":49.202306,"lon":16.62966,"is_passed":false},{"stop_id":"U1211Z8","name":"Jugoslávská","arrival_time":"13:49:00","departure_time":"13:49:00","lat":49.204197,"lon":16.624075,"is_passed":false},{"stop_id":"U1086Z2","name":"Dětská nemocnice","arrival_time":"13:51:00","departure_time":"13:51:00","lat":49.203029,"lon":16.619052,"is_passed":false},{"stop_id":"U1418Z2","name":"Náměstí 28. října","arrival_time":"13:52:00","departure_time":"13:52:00","lat":49.200787,"lon":16.613174,"is_passed":false},{"stop_id":"U1397Z4","name":"Moravské náměstí","arrival_time":"13:54:00","departure_time":"13:54:00","lat":49.199159,"lon":16.608704,"is_passed":false},{"stop_id":"U1073Z4","name":"Česká","arrival_time":"13:57:00","departure_time":"13:57:00","lat":49.198134,"lon":16.605041,"is_passed":false},{"stop_id":"U1121Z1","name":"Grohova","arrival_time":"13:58:00","departure_time":"13:58:00","lat":49.201153,"lon":16.599729,"is_passed":false},{"stop_id":"U1262Z1","name":"Konečného náměstí","arrival_time":"14:00:00","departure_time":"14:00:00","lat":49.204484,"lon":16.595426,"is_passed":false},{"stop_id":"U1552Z1","name":"Rybkova","arrival_time":"14:01:00","departure_time":"14:01:00","lat":49.205908,"lon":16.593602,"is_passed":false},{"stop_id":"U1657Z1","name":"Tábor","arrival_time":"14:03:00","departure_time":"14:03:00","lat":49.210271,"lon":16.587228,"is_passed":false},{"stop_id":"U1282Z1","name":"Králova","arrival_time":"14:04:00","departure_time":"14:04:00","lat":49.211297,"lon":16.583386,"is_passed":false},{"stop_id":"U1047Z1","name":"Burianovo náměstí","arrival_time":"14:05:00","departure_time":"14:05:00","lat":49.212482,"lon":16.578371,"is_passed":false},{"stop_id":"U1400Z1","name":"Mozolky","arrival_time":"14:06:00","departure_time":"14:06:00","lat":49.213712,"lon":16.574628,"is_passed":false},{"stop_id":"U1544Z1","name":"Rosického náměstí","arrival_time":"14:07:00","departure_time":"14:07:00","lat":49.214438,"lon":16.567996,"is_passed":false},{"stop_id":"U1591Z1","name":"Sochorova","arrival_time":"14:08:00","departure_time":"14:08:00","lat":49.213406,"lon":16.564341,"is_passed":false},{"stop_id":"U1217Z1","name":"Vozovna Komín","arrival_time":"14:10:00","departure_time":"14:10:00","lat":49.2132,"lon":16.559792,"is_passed":false},{"stop_id":"U1633Z1","name":"Svratecká","arrival_time":"14:11:00","departure_time":"14:11:00","lat":49.217898,"lon":16.553656,"is_passed":false},{"stop_id":"U1042Z1","name":"Branka","arrival_time":"14:12:00","departure_time":"14:12:00","lat":49.219419,"lon":16.54726,"is_passed":false},{"stop_id":"U1493Z1","name":"Podlesí","arrival_time":"14:13:00","departure_time":"14:13:00","lat":49.218711,"lon":16.542392,"is_passed":false},{"stop_id":"U1226Z1","name":"Kamenolom","arrival_time":"14:14:00","departure_time":"14:14:00","lat":49.221657,"lon":16.536794,"is_passed":false},{"stop_id":"U1796Z1","name":"Zoologická zahrada","arrival_time":"14:16:00","departure_time":"14:16:00","lat":49.227674,"lon":16.532002,"is_passed":false},{"stop_id":"U1527Z1","name":"Přístaviště","arrival_time":"14:17:00","departure_time":"14:17:00","lat":49.22814,"lon":16.521658,"is_passed":false},{"stop_id":"U1537Z1","name":"Rakovecká","arrival_time":"14:19:00","departure_time":"14:31:00","lat":49.225877,"lon":16.518739,"is_passed":false}],"61703":[{"stop_id":"U1537Z2","name":"Rakovecká","arrival_time":"14:31:00","departure_time":"14:31:00","lat":49.226177,"lon":16.519315,"is_passed":false},{"stop_id":"U1527Z2","name":"Přístaviště","arrival_time":"14:32:00","departure_time":"14:32:00","lat":49.228519,"lon":16.522556,"is_passed":false},{"stop_id":"U1796Z2","name":"Zoologická zahrada","arrival_time":"14:34:00","departure_time":"14:34:00","lat":49.22774,"lon":16.531898,"is_passed":false},{"stop_id":"U1226Z2","name":"Kamenolom","arrival_time":"14:35:00","departure_time":"14:35:00","lat":49.221888,"lon":16.536713,"is_passed":false},{"stop_id":"U1493Z2","name":"Podlesí","arrival_time":"14:36:00","departure_time":"14:36:00","lat":49.21871,"lon":16.542217,"is_passed":false},{"stop_id":"U1042Z2","name":"Branka","arrival_time":"14:37:00","departure_time":"14:37:00","lat":49.219368,"lon":16.548224,"is_passed":false},{"stop_id":"U1633Z2","name":"Svratecká","arrival_time":"14:38:00","departure_time":"14:38:00","lat":49.21799,"lon":16.553492,"is_passed":false},{"stop_id":"U1217Z2","name":"Vozovna Komín","arrival_time":"14:40:00","departure_time":"14:40:00","lat":49.213224,"lon":16.559619,"is_passed":false},{"stop_id":"U1591Z2","name":"Sochorova","arrival_time":"14:41:00","departure_time":"14:41:00","lat":49.21349,"lon":16.564933,"is_passed":false},{"stop_id":"U1544Z2","name":"Rosického náměstí","arrival_time":"14:42:00","departure_time":"14:42:00","lat":49.214708,"lon":16.568749,"is_passed":false},{"stop_id":"U1400Z2","name":"Mozolky","arrival_time":"14:43:00","departure_time":"14:43:00","lat":49.21352,"lon":16.575061,"is_passed":false},{"stop_id":"U1047Z2","name":"Burianovo náměstí","arrival_time":"14:44:00","departure_time":"14:44:00","lat":49.212274,"lon":16.578835,"is_passed":false},{"stop_id":"U1657Z2","name":"Tábor","arrival_time":"14:45:00","departure_time":"14:45:00","lat":49.210553,"lon":16.585882,"is_passed":false},{"stop_id":"U1552Z2","name":"Rybkova","arrival_time":"14:47:00","departure_time":"14:47:00","lat":49.206244,"lon":16.593167,"is_passed":false},{"stop_id":"U1262Z2","name":"Konečného náměstí","arrival_time":"14:49:00","departure_time":"14:49:00","lat":49.203961,"lon":16.596051,"is_passed":false},{"stop_id":"U1121Z2","name":"Grohova","arrival_time":"14:50:00","departure_time":"14:50:00","lat":49.201327,"lon":16.59934,"is_passed":false},{"stop_id":"U1073Z2","name":"Česká","arrival_time":"14:53:00","departure_time":"14:53:00","lat":49.197702,"lon":16.606463,"is_passed":false},{"stop_id":"U1397Z3","name":"Moravské náměstí","arrival_time":"14:54:00","departure_time":"14:54:00","lat":49.199309,"lon":16.609047,"is_passed":false},{"stop_id":"U1418Z1","name":"Náměstí 28. října","arrival_time":"14:55:00","departure_time":"14:55:00","lat":49.200961,"lon":16.613794,"is_passed":false},{"stop_id":"U1086Z1","name":"Dětská nemocnice","arrival_time":"14:57:00","departure_time":"14:57:00","lat":49.202836,"lon":16.618608,"is_passed":false},{"stop_id":"U1211Z7","name":"Jugoslávská","arrival_time":"14:59:00","departure_time":"14:59:00","lat":49.203843,"lon":16.624408,"is_passed":false},{"stop_id":"U1773Z1","name":"Vojenská nemocnice","arrival_time":"15:02:00","departure_time":"15:02:00","lat":49.202244,"lon":16.629717,"is_passed":false},{"stop_id":"U1313Z1","name":"Kuldova","arrival_time":"15:03:00","departure_time":"15:03:00","lat":49.201297,"lon":16.634306,"is_passed":false},{"stop_id":"U1611Z1","name":"Stará osada","arrival_time":"15:05:00","departure_time":"15:24:00","lat":49.202521,"lon":16.641948,"is_passed":false}],"61704":[{"stop_id":"U1611Z2","name":"Stará osada","arrival_time":"15:24:00","departure_time":"15:24:00","lat":49.20214,"lon":16.641417,"is_passed":false},{"stop_id":"U1313Z2","name":"Kuldova","arrival_time":"15:25:00","departure_time":"15:25:00","lat":49.201319,"lon":16.634551,"is_passed":false},{"stop_id":"U1773Z2","name":"Vojenská nemocnice","arrival_time":"15:26:00","departure_time":"15:26:00","lat":49.202306,"lon":16.62966,"is_passed":false},{"stop_id":"U1211Z8","name":"Jugoslávská","arrival_time":"15:29:00","departure_time":"15:29:00","lat":49.204197,"lon":16.624075,"is_passed":false},{"stop_id":"U1086Z2","name":"Dětská nemocnice","arrival_time":"15:31:00","departure_time":"15:31:00","lat":49.203029,"lon":16.619052,"is_passed":false},{"stop_id":"U1418Z2","name":"Náměstí 28. října","arrival_time":"15:32:00","departure_time":"15:32:00","lat":49.200787,"lon":16.613174,"is_passed":false},{"stop_id":"U1397Z4","name":"Moravské náměstí","arrival_time":"15:34:00","departure_time":"15:34:00","lat":49.199159,"lon":16.608704,"is_passed":false},{"stop_id":"U1073Z4","name":"Česká","arrival_time":"15:37:00","departure_time":"15:37:00","lat":49.198134,"lon":16.605041,"is_passed":false},{"stop_id":"U1121Z1","name":"Grohova","arrival_time":"15:38:00","departure_time":"15:38:00","lat":49.201153,"lon":16.599729,"is_passed":false},{"stop_id":"U1262Z1","name":"Konečného náměstí","arrival_time":"15:40:00","departure_time":"15:40:00","lat":49.204484,"lon":16.595426,"is_passed":false},{"stop_id":"U1552Z1","name":"Rybkova","arrival_time":"15:41:00","departure_time":"15:41:00","lat":49.205908,"lon":16.593602,"is_passed":false},{"stop_id":"U1657Z1","name":"Tábor","arrival_time":"15:43:00","departure_time":"15:43:00","lat":49.210271,"lon":16.587228,"is_passed":false},{"stop_id":"U1282Z1","name":"Králova","arrival_time":"15:44:00","departure_time":"15:44:00","lat":49.211297,"lon":16.583386,"is_passed":false},{"stop_id":"U1047Z1","name":"Burianovo náměstí","arrival_time":"15:45:00","departure_time":"15:45:00","lat":49.212482,"lon":16.578371,"is_passed":false},{"stop_id":"U1400Z1","name":"Mozolky","arrival_time":"15:46:00","departure_time":"15:46:00","lat":49.213712,"lon":16.574628,"is_passed":false},{"stop_id":"U1544Z1","name":"Rosického náměstí","arrival_time":"15:47:00","departure_time":"15:47:00","lat":49.214438,"lon":16.567996,"is_passed":false},{"stop_id":"U1591Z1","name":"Sochorova","arrival_time":"15:48:00","departure_time":"15:48:00","lat":49.213406,"lon":16.564341,"is_passed":false},{"stop_id":"U1217Z1","name":"Vozovna Komín","arrival_time":"15:50:00","departure_time":"15:50:00","lat":49.2132,"lon":16.559792,"is_passed":false},{"stop_id":"U1633Z1","name":"Svratecká","arrival_time":"15:51:00","departure_time":"15:51:00","lat":49.217898,"lon":16.553656,"is_passed":false},{"stop_id":"U1042Z1","name":"Branka","arrival_time":"15:52:00","departure_time":"15:52:00","lat":49.219419,"lon":16.54726,"is_passed":false},{"stop_id":"U1493Z1","name":"Podlesí","arrival_time":"15:53:00","departure_time":"15:53:00","lat":49.218711,"lon":16.542392,"is_passed":false},{"stop_id":"U1226Z1","name":"Kamenolom","arrival_time":"15:54:00","departure_time":"15:54:00","lat":49.221657,"lon":16.536794,"is_passed":false},{"stop_id":"U1796Z1","name":"Zoologická zahrada","arrival_time":"15:56:00","departure_time":"15:56:00","lat":49.227674,"lon":16.532002,"is_passed":false},{"stop_id":"U1527Z1","name":"Přístaviště","arrival_time":"15:57:00","departure_time":"15:57:00","lat":49.22814,"lon":16.521658,"is_passed":false},{"stop_id":"U1537Z1","name":"Rakovecká","arrival_time":"15:59:00","departure_time":"16:11:00","lat":49.225877,"lon":16.518739,"is_passed":false}],"61705":[{"stop_id":"U1537Z2","name":"Rakovecká","arrival_time":"16:11:00","departure_time":"16:11:00","lat":49.226177,"lon":16.519315,"is_passed":false},{"stop_id":"U1527Z2","name":"Přístaviště","arrival_time":"16:12:00","departure_time":"16:12:00","lat":49.228519,"lon":16.522556,"is_passed":false},{"stop_id":"U1796Z2","name":"Zoologická zahrada","arrival_time":"16:14:00","departure_time":"16:14:00","lat":49.22774,"lon":16.531898,"is_passed":false},{"stop_id":"U1226Z2","name":"Kamenolom","arrival_time":"16:15:00","departure_time":"16:15:00","lat":49.221888,"lon":16.536713,"is_passed":false},{"stop_id":"U1493Z2","name":"Podlesí","arrival_time":"16:16:00","departure_time":"16:16:00","lat":49.21871,"lon":16.542217,"is_passed":false},{"stop_id":"U1042Z2","name":"Branka","arrival_time":"16:17:00","departure_time":"16:17:00","lat":49.219368,"lon":16.548224,"is_passed":false},{"stop_id":"U1633Z2","name":"Svratecká","arrival_time":"16:18:00","departure_time":"16:18:00","lat":49.21799,"lon":16.553492,"is_passed":false},{"stop_id":"U1217Z2","name":"Vozovna Komín","arrival_time":"16:20:00","departure_time":"16:20:00","lat":49.213224,"lon":16.559619,"is_passed":false},{"stop_id":"U1591Z2","name":"Sochorova","arrival_time":"16:21:00","departure_time":"16:21:00","lat":49.21349,"lon":16.564933,"is_passed":false},{"stop_id":"U1544Z2","name":"Rosického náměstí","arrival_time":"16:22:00","departure_time":"16:22:00","lat":49.214708,"lon":16.568749,"is_passed":false},{"stop_id":"U1400Z2","name":"Mozolky","arrival_time":"16:23:00","departure_time":"16:23:00","lat":49.21352,"lon":16.575061,"is_passed":false},{"stop_id":"U1047Z2","name":"Burianovo náměstí","arrival_time":"16:24:00","departure_time":"16:24:00","lat":49.212274,"lon":16.578835,"is_passed":false},{"stop_id":"U1657Z2","name":"Tábor","arrival_time":"16:25:00","departure_time":"16:25:00","lat":49.210553,"lon":16.585882,"is_passed":false},{"stop_id":"U1552Z2","name":"Rybkova","arrival_time":"16:27:00","departure_time":"16:27:00","lat":49.206244,"lon":16.593167,"is_passed":false},{"stop_id":"U1262Z2","name":"Konečného náměstí","arrival_time":"16:29:00","departure_time":"16:29:00","lat":49.203961,"lon":16.596051,"is_passed":false},{"stop_id":"U1121Z2","name":"Grohova","arrival_time":"16:30:00","departure_time":"16:30:00","lat":49.201327,"lon":16.59934,"is_passed":false},{"stop_id":"U1073Z2","name":"Česká","arrival_time":"16:33:00","departure_time":"16:33:00","lat":49.197702,"lon":16.606463,"is_passed":false},{"stop_id":"U1397Z3","name":"Moravské náměstí","arrival_time":"16:34:00","departure_time":"16:34:00","lat":49.199309,"lon":16.609047,"is_passed":false},{"stop_id":"U1418Z1","name":"Náměstí 28. října","arrival_time":"16:35:00","departure_time":"16:35:00","lat":49.200961,"lon":16.613794,"is_passed":false},{"stop_id":"U1086Z1","name":"Dětská nemocnice","arrival_time":"16:37:00","departure_time":"16:37:00","lat":49.202836,"lon":16.618608,"is_passed":false},{"stop_id":"U1211Z7","name":"Jugoslávská","arrival_time":"16:39:00","departure_time":"16:39:00","lat":49.203843,"lon":16.624408,"is_passed":false},{"stop_id":"U1773Z1","name":"Vojenská nemocnice","arrival_time":"16:42:00","departure_time":"16:42:00","lat":49.202244,"lon":16.629717,"is_passed":false},{"stop_id":"U1313Z1","name":"Kuldova","arrival_time":"16:43:00","departure_time":"16:43:00","lat":49.201297,"lon":16.634306,"is_passed":false},{"stop_id":"U1611Z1","name":"Stará osada","arrival_time":"16:45:00","departure_time":"17:04:00","lat":49.202521,"lon":16.641948,"is_passed":false}],"61706":[{"stop_id":"U1611Z2","name":"Stará osada","arrival_time":"17:04:00","departure_time":"17:04:00","lat":49.20214,"lon":16.641417,"is_passed":false},{"stop_id":"U1313Z2","name":"Kuldova","arrival_time":"17:05:00","departure_time":"17:05:00","lat":49.201319,"lon":16.634551,"is_passed":false},{"stop_id":"U1773Z2","name":"Vojenská nemocnice","arrival_time":"17:06:00","departure_time":"17:06:00","lat":49.202306,"lon":16.62966,"is_passed":false},{"stop_id":"U1211Z8","name":"Jugoslávská","arrival_time":"17:09:00","departure_time":"17:09:00","lat":49.204197,"lon":16.624075,"is_passed":false},{"stop_id":"U1086Z2","name":"Dětská nemocnice","arrival_time":"17:11:00","departure_time":"17:11:00","lat":49.203029,"lon":16.619052,"is_passed":false},{"stop_id":"U1418Z2","name":"Náměstí 28. října","arrival_time":"17:12:00","departure_time":"17:12:00","lat":49.200787,"lon":16.613174,"is_passed":false},{"stop_id":"U1397Z4","name":"Moravské náměstí","arrival_time":"17:14:00","departure_time":"17:14:00","lat":49.199159,"lon":16.608704,"is_passed":false},{"stop_id":"U1073Z4","name":"Česká","arrival_time":"17:17:00","departure_time":"17:17:00","lat":49.198134,"lon":16.605041,"is_passed":false},{"stop_id":"U1121Z1","name":"Grohova","arrival_time":"17:18:00","departure_time":"17:18:00","lat":49.201153,"lon":16.599729,"is_passed":false},{"stop_id":"U1262Z1","name":"Konečného náměstí","arrival_time":"17:20:00","departure_time":"17:20:00","lat":49.204484,"lon":16.595426,"is_passed":false},{"stop_id":"U1552Z1","name":"Rybkova","arrival_time":"17:21:00","departure_time":"17:21:00","lat":49.205908,"lon":16.593602,"is_passed":false},{"stop_id":"U1657Z1","name":"Tábor","arrival_time":"17:23:00","departure_time":"17:23:00","lat":49.210271,"lon":16.587228,"is_passed":false},{"stop_id":"U1282Z1","name":"Králova","arrival_time":"17:24:00","departure_time":"17:24:00","lat":49.211297,"lon":16.583386,"is_passed":false},{"stop_id":"U1047Z1","name":"Burianovo náměstí","arrival_time":"17:25:00","departure_time":"17:25:00","lat":49.212482,"lon":16.578371,"is_passed":false},{"stop_id":"U1400Z1","name":"Mozolky","arrival_time":"17:26:00","departure_time":"17:26:00","lat":49.213712,"lon":16.574628,"is_passed":false},{"stop_id":"U1544Z1","name":"Rosického náměstí","arrival_time":"17:27:00","departure_time":"17:27:00","lat":49.214438,"lon":16.567996,"is_passed":false},{"stop_id":"U1591Z1","name":"Sochorova","arrival_time":"17:28:00","departure_time":"17:28:00","lat":49.213406,"lon":16.564341,"is_passed":false},{"stop_id":"U1217Z1","name":"Vozovna Komín","arrival_time":"17:30:00","departure_time":"17:30:00","lat":49.2132,"lon":16.559792,"is_passed":false},{"stop_id":"U1633Z1","name":"Svratecká","arrival_time":"17:31:00","departure_time":"17:31:00","lat":49.217898,"lon":16.553656,"is_passed":false},{"stop_id":"U1042Z1","name":"Branka","arrival_time":"17:32:00","departure_time":"17:32:00","lat":49.219419,"lon":16.54726,"is_passed":false},{"stop_id":"U1493Z1","name":"Podlesí","arrival_time":"17:33:00","departure_time":"17:33:00","lat":49.218711,"lon":16.542392,"is_passed":false},{"stop_id":"U1226Z1","name":"Kamenolom","arrival_time":"17:34:00","departure_time":"17:34:00","lat":49.221657,"lon":16.536794,"is_passed":false},{"stop_id":"U1796Z1","name":"Zoologická zahrada","arrival_time":"17:36:00","departure_time":"17:36:00","lat":49.227674,"lon":16.532002,"is_passed":false},{"stop_id":"U1527Z1","name":"Přístaviště","arrival_time":"17:37:00","departure_time":"17:37:00","lat":49.22814,"lon":16.521658,"is_passed":false},{"stop_id":"U1537Z1","name":"Rakovecká","arrival_time":"17:39:00","departure_time":"17:53:00","lat":49.225877,"lon":16.518739,"is_passed":false}],"61707":[{"stop_id":"U1537Z2","name":"Rakovecká","arrival_time":"17:53:00","departure_time":"17:53:00","lat":49.226177,"lon":16.519315,"is_passed":false},{"stop_id":"U1527Z2","name":"Přístaviště","arrival_time":"17:54:00","departure_time":"17:54:00","lat":49.228519,"lon":16.522556,"is_passed":false},{"stop_id":"U1796Z2","name":"Zoologická zahrada","arrival_time":"17:56:00","departure_time":"17:56:00","lat":49.22774,"lon":16.531898,"is_passed":false},{"stop_id":"U1226Z2","name":"Kamenolom","arrival_time":"17:57:00","departure_time":"17:57:00","lat":49.221888,"lon":16.536713,"is_passed":false},{"stop_id":"U1493Z2","name":"Podlesí","arrival_time":"17:58:00","departure_time":"17:58:00","lat":49.21871,"lon":16.542217,"is_passed":false},{"stop_id":"U1042Z2","name":"Branka","arrival_time":"17:59:00","departure_time":"17:59:00","lat":49.219368,"lon":16.548224,"is_passed":false},{"stop_id":"U1633Z2","name":"Svratecká","arrival_time":"18:00:00","departure_time":"18:00:00","lat":49.21799,"lon":16.553492,"is_passed":false},{"stop_id":"U1217Z2","name":"Vozovna Komín","arrival_time":"18:02:00","departure_time":"18:02:00","lat":49.213224,"lon":16.559619,"is_passed":false},{"stop_id":"U1591Z2","name":"Sochorova","arrival_time":"18:03:00","departure_time":"18:03:00","lat":49.21349,"lon":16.564933,"is_passed":false},{"stop_id":"U1544Z2","name":"Rosického náměstí","arrival_time":"18:04:00","departure_time":"18:04:00","lat":49.214708,"lon":16.568749,"is_passed":false},{"stop_id":"U1400Z2","name":"Mozolky","arrival_time":"18:05:00","departure_time":"18:05:00","lat":49.21352,"lon":16.575061,"is_passed":false},{"stop_id":"U1047Z2","name":"Burianovo náměstí","arrival_time":"18:06:00","departure_time":"18:06:00","lat":49.212274,"lon":16.578835,"is_passed":false},{"stop_id":"U1657Z2","name":"Tábor","arrival_time":"18:07:00","departure_time":"18:07:00","lat":49.210553,"lon":16.585882,"is_passed":false},{"stop_id":"U1552Z2","name":"Rybkova","arrival_time":"18:09:00","departure_time":"18:09:00","lat":49.206244,"lon":16.593167,"is_passed":false},{"stop_id":"U1262Z2","name":"Konečného náměstí","arrival_time":"18:11:00","departure_time":"18:11:00","lat":49.203961,"lon":16.596051,"is_passed":false},{"stop_id":"U1121Z2","name":"Grohova","arrival_time":"18:12:00","departure_time":"18:12:00","lat":49.201327,"lon":16.59934,"is_passed":false},{"stop_id":"U1073Z2","name":"Česká","arrival_time":"18:15:00","departure_time":"18:15:00","lat":49.197702,"lon":16.606463,"is_passed":false},{"stop_id":"U1397Z3","name":"Moravské náměstí","arrival_time":"18:16:00","departure_time":"18:16:00","lat":49.199309,"lon":16.609047,"is_passed":false},{"stop_id":"U1418Z1","name":"Náměstí 28. října","arrival_time":"18:17:00","departure_time":"18:17:00","lat":49.200961,"lon":16.613794,"is_passed":false},{"stop_id":"U1086Z1","name":"Dětská nemocnice","arrival_time":"18:18:00","departure_time":"18:18:00","lat":49.202836,"lon":16.618608,"is_passed":false},{"stop_id":"U1211Z7","name":"Jugoslávská","arrival_time":"18:20:00","departure_time":"18:20:00","lat":49.203843,"lon":16.624408,"is_passed":false},{"stop_id":"U1773Z1","name":"Vojenská nemocnice","arrival_time":"18:23:00","departure_time":"18:23:00","lat":49.202244,"lon":16.629717,"is_passed":false},{"stop_id":"U1313Z1","name":"Kuldova","arrival_time":"18:24:00","departure_time":"18:24:00","lat":49.201297,"lon":16.634306,"is_passed":false},{"stop_id":"U1611Z1","name":"Stará osada","arrival_time":"18:26:00","departure_time":"18:47:00","lat":49.202521,"lon":16.641948,"is_passed":false}],"61708":[{"stop_id":"U1611Z2","name":"Stará osada","arrival_time":"18:47:00","departure_time":"18:47:00","lat":49.20214,"lon":16.641417,"is_passed":false},{"stop_id":"U1313Z2","name":"Kuldova","arrival_time":"18:48:00","departure_time":"18:48:00","lat":49.201319,"lon":16.634551,"is_passed":false},{"stop_id":"U1773Z2","name":"Vojenská nemocnice","arrival_time":"18:49:00","departure_time":"18:49:00","lat":49.202306,"lon":16.62966,"is_passed":false},{"stop_id":"U1211Z8","name":"Jugoslávská","arrival_time":"18:52:00","departure_time":"18:52:00","lat":49.204197,"lon":16.624075,"is_passed":false},{"stop_id":"U1086Z2","name":"Dětská nemocnice","arrival_time":"18:53:00","departure_time":"18:53:00","lat":49.203029,"lon":16.619052,"is_passed":false},{"stop_id":"U1418Z2","name":"Náměstí 28. října","arrival_time":"18:54:00","departure_time":"18:54:00","lat":49.200787,"lon":16.613174,"is_passed":false},{"stop_id":"U1397Z4","name":"Moravské náměstí","arrival_time":"18:56:00","departure_time":"18:56:00","lat":49.199159,"lon":16.608704,"is_passed":false},{"stop_id":"U1073Z4","name":"Česká","arrival_time":"18:59:00","departure_time":"18:59:00","lat":49.198134,"lon":16.605041,"is_passed":false},{"stop_id":"U1121Z1","name":"Grohova","arrival_time":"19:00:00","departure_time":"19:00:00","lat":49.201153,"lon":16.599729,"is_passed":false},{"stop_id":"U1262Z1","name":"Konečného náměstí","arrival_time":"19:02:00","departure_time":"19:02:00","lat":49.204484,"lon":16.595426,"is_passed":false},{"stop_id":"U1552Z1","name":"Rybkova","arrival_time":"19:03:00","departure_time":"19:03:00","lat":49.205908,"lon":16.593602,"is_passed":false},{"stop_id":"U1657Z1","name":"Tábor","arrival_time":"19:05:00","departure_time":"19:05:00","lat":49.210271,"lon":16.587228,"is_passed":false},{"stop_id":"U1282Z1","name":"Králova","arrival_time":"19:06:00","departure_time":"19:06:00","lat":49.211297,"lon":16.583386,"is_passed":false},{"stop_id":"U1047Z1","name":"Burianovo náměstí","arrival_time":"19:07:00","departure_time":"19:07:00","lat":49.212482,"lon":16.578371,"is_passed":false},{"stop_id":"U1400Z1","name":"Mozolky","arrival_time":"19:08:00","departure_time":"19:08:00","lat":49.213712,"lon":16.574628,"is_passed":false},{"stop_id":"U1544Z1","name":"Rosického náměstí","arrival_time":"19:09:00","departure_time":"19:09:00","lat":49.214438,"lon":16.567996,"is_passed":false},{"stop_id":"U1591Z1","name":"Sochorova","arrival_time":"19:10:00","departure_time":"19:10:00","lat":49.213406,"lon":16.564341,"is_passed":false},{"stop_id":"U1217Z1","name":"Vozovna Komín","arrival_time":"19:12:00","departure_time":"19:12:00","lat":49.2132,"lon":16.559792,"is_passed":false},{"stop_id":"U1633Z1","name":"Svratecká","arrival_time":"19:13:00","departure_time":"19:13:00","lat":49.217898,"lon":16.553656,"is_passed":false},{"stop_id":"U1042Z1","name":"Branka","arrival_time":"19:14:00","departure_time":"19:14:00","lat":49.219419,"lon":16.54726,"is_passed":false},{"stop_id":"U1493Z1","name":"Podlesí","arrival_time":"19:15:00","departure_time":"19:15:00","lat":49.218711,"lon":16.542392,"is_passed":false},{"stop_id":"U1226Z1","name":"Kamenolom","arrival_time":"19:16:00","departure_time":"19:16:00","lat":49.221657,"lon":16.536794,"is_passed":false},{"stop_id":"U1796Z1","name":"Zoologická zahrada","arrival_time":"19:18:00","departure_time":"19:18:00","lat":49.227674,"lon":16.532002,"is_passed":false},{"stop_id":"U1527Z1","name":"Přístaviště","arrival_time":"19:19:00","departure_time":"19:19:00","lat":49.22814,"lon":16.521658,"is_passed":false},{"stop_id":"U1537Z1","name":"Rakovecká","arrival_time":"19:21:00","departure_time":"19:33:00","lat":49.225877,"lon":16.518739,"is_passed":false}],"61709":[{"stop_id":"U1537Z2","name":"Rakovecká","arrival_time":"19:33:00","departure_time":"19:33:00","lat":49.226177,"lon":16.519315,"is_passed":false},{"stop_id":"U1527Z2","name":"Přístaviště","arrival_time":"19:34:00","departure_time":"19:34:00","lat":49.228519,"lon":16.522556,"is_passed":false},{"stop_id":"U1796Z2","name":"Zoologická zahrada","arrival_time":"19:36:00","departure_time":"19:36:00","lat":49.22774,"lon":16.531898,"is_passed":false},{"stop_id":"U1226Z2","name":"Kamenolom","arrival_time":"19:37:00","departure_time":"19:37:00","lat":49.221888,"lon":16.536713,"is_passed":false},{"stop_id":"U1493Z2","name":"Podlesí","arrival_time":"19:38:00","departure_time":"19:38:00","lat":49.21871,"lon":16.542217,"is_passed":false},{"stop_id":"U1042Z2","name":"Branka","arrival_time":"19:39:00","departure_time":"19:39:00","lat":49.219368,"lon":16.548224,"is_passed":false},{"stop_id":"U1633Z2","name":"Svratecká","arrival_time":"19:40:00","departure_time":"19:40:00","lat":49.21799,"lon":16.553492,"is_passed":false},{"stop_id":"U1217Z2","name":"Vozovna Komín","arrival_time":"19:42:00","departure_time":"19:42:00","lat":49.213224,"lon":16.559619,"is_passed":false},{"stop_id":"U1591Z2","name":"Sochorova","arrival_time":"19:43:00","departure_time":"19:43:00","lat":49.21349,"lon":16.564933,"is_passed":false},{"stop_id":"U1544Z2","name":"Rosického náměstí","arrival_time":"19:44:00","departure_time":"19:44:00","lat":49.214708,"lon":16.568749,"is_passed":false},{"stop_id":"U1400Z2","name":"Mozolky","arrival_time":"19:45:00","departure_time":"19:45:00","lat":49.21352,"lon":16.575061,"is_passed":false},{"stop_id":"U1047Z2","name":"Burianovo náměstí","arrival_time":"19:46:00","departure_time":"19:46:00","lat":49.212274,"lon":16.578835,"is_passed":false},{"stop_id":"U1657Z2","name":"Tábor","arrival_time":"19:47:00","departure_time":"19:47:00","lat":49.210553,"lon":16.585882,"is_passed":false},{"stop_id":"U1552Z2","name":"Rybkova","arrival_time":"19:49:00","departure_time":"19:49:00","lat":49.206244,"lon":16.593167,"is_passed":false},{"stop_id":"U1262Z2","name":"Konečného náměstí","arrival_time":"19:51:00","departure_time":"19:51:00","lat":49.203961,"lon":16.596051,"is_passed":false},{"stop_id":"U1121Z2","name":"Grohova","arrival_time":"19:52:00","departure_time":"19:52:00","lat":49.201327,"lon":16.59934,"is_passed":false},{"stop_id":"U1073Z2","name":"Česká","arrival_time":"19:55:00","departure_time":"19:55:00","lat":49.197702,"lon":16.606463,"is_passed":false},{"stop_id":"U1397Z3","name":"Moravské náměstí","arrival_time":"19:56:00","departure_time":"19:56:00","lat":49.199309,"lon":16.609047,"is_passed":false},{"stop_id":"U1418Z1","name":"Náměstí 28. října","arrival_time":"19:57:00","departure_time":"19:57:00","lat":49.200961,"lon":16.613794,"is_passed":false},{"stop_id":"U1086Z1","name":"Dětská nemocnice","arrival_time":"19:58:00","departure_time":"19:58:00","lat":49.202836,"lon":16.618608,"is_passed":false},{"stop_id":"U1211Z7","name":"Jugoslávská","arrival_time":"20:00:00","departure_time":"20:00:00","lat":49.203843,"lon":16.624408,"is_passed":false},{"stop_id":"U1773Z1","name":"Vojenská nemocnice","arrival_time":"20:03:00","departure_time":"20:03:00","lat":49.202244,"lon":16.629717,"is_passed":false},{"stop_id":"U1313Z1","name":"Kuldova","arrival_time":"20:04:00","departure_time":"20:04:00","lat":49.201297,"lon":16.634306,"is_passed":false},{"stop_id":"U1611Z1","name":"Stará osada","arrival_time":"20:06:00","departure_time":"20:26:00","lat":49.202521,"lon":16.641948,"is_passed":false}],"61710":[{"stop_id":"U1611Z2","name":"Stará osada","arrival_time":"20:26:00","departure_time":"20:26:00","lat":49.20214,"lon":16.641417,"is_passed":false},{"stop_id":"U1313Z2","name":"Kuldova","arrival_time":"20:27:00","departure_time":"20:27:00","lat":49.201319,"lon":16.634551,"is_passed":false},{"stop_id":"U1773Z2","name":"Vojenská nemocnice","arrival_time":"20:28:00","departure_time":"20:28:00","lat":49.202306,"lon":16.62966,"is_passed":false},{"stop_id":"U1211Z8","name":"Jugoslávská","arrival_time":"20:31:00","departure_time":"20:31:00","lat":49.204197,"lon":16.624075,"is_passed":false},{"stop_id":"U1086Z2","name":"Dětská nemocnice","arrival_time":"20:32:00","departure_time":"20:32:00","lat":49.203029,"lon":16.619052,"is_passed":false},{"stop_id":"U1418Z2","name":"Náměstí 28. října","arrival_time":"20:33:00","departure_time":"20:33:00","lat":49.200787,"lon":16.613174,"is_passed":false},{"stop_id":"U1397Z4","name":"Moravské náměstí","arrival_time":"20:35:00","departure_time":"20:35:00","lat":49.199159,"lon":16.608704,"is_passed":false},{"stop_id":"U1073Z4","name":"Česká","arrival_time":"20:37:00","departure_time":"20:37:00","lat":49.198134,"lon":16.605041,"is_passed":false},{"stop_id":"U1121Z1","name":"Grohova","arrival_time":"20:38:00","departure_time":"20:38:00","lat":49.201153,"lon":16.599729,"is_passed":false},{"stop_id":"U1262Z1","name":"Konečného náměstí","arrival_time":"20:40:00","departure_time":"20:40:00","lat":49.204484,"lon":16.595426,"is_passed":false},{"stop_id":"U1552Z1","name":"Rybkova","arrival_time":"20:41:00","departure_time":"20:41:00","lat":49.205908,"lon":16.593602,"is_passed":false},{"stop_id":"U1657Z1","name":"Tábor","arrival_time":"20:43:00","departure_time":"20:43:00","lat":49.210271,"lon":16.587228,"is_passed":false},{"stop_id":"U1282Z1","name":"Králova","arrival_time":"20:44:00","departure_time":"20:44:00","lat":49.211297,"lon":16.583386,"is_passed":false},{"stop_id":"U1047Z1","name":"Burianovo náměstí","arrival_time":"20:45:00","departure_time":"20:45:00","lat":49.212482,"lon":16.578371,"is_passed":false},{"stop_id":"U1400Z1","name":"Mozolky","arrival_time":"20:45:00","departure_time":"20:45:00","lat":49.213712,"lon":16.574628,"is_passed":false},{"stop_id":"U1544Z1","name":"Rosického náměstí","arrival_time":"20:46:00","departure_time":"20:46:00","lat":49.214438,"lon":16.567996,"is_passed":false},{"stop_id":"U1591Z1","name":"Sochorova","arrival_time":"20:47:00","departure_time":"20:47:00","lat":49.213406,"lon":16.564341,"is_passed":false},{"stop_id":"U1217Z1","name":"Vozovna Komín","arrival_time":"20:49:00","departure_time":"20:49:00","lat":49.2132,"lon":16.559792,"is_passed":false},{"stop_id":"U1633Z1","name":"Svratecká","arrival_time":"20:50:00","departure_time":"20:50:00","lat":49.217898,"lon":16.553656,"is_passed":false},{"stop_id":"U1042Z1","name":"Branka","arrival_time":"20:51:00","departure_time":"20:51:00","lat":49.219419,"lon":16.54726,"is_passed":false},{"stop_id":"U1493Z1","name":"Podlesí","arrival_time":"20:52:00","departure_time":"20:52:00","lat":49.218711,"lon":16.542392,"is_passed":false},{"stop_id":"U1226Z1","name":"Kamenolom","arrival_time":"20:53:00","departure_time":"20:53:00","lat":49.221657,"lon":16.536794,"is_passed":false},{"stop_id":"U1796Z1","name":"Zoologická zahrada","arrival_time":"20:55:00","departure_time":"20:55:00","lat":49.227674,"lon":16.532002,"is_passed":false},{"stop_id":"U1527Z1","name":"Přístaviště","arrival_time":"20:56:00","departure_time":"20:56:00","lat":49.22814,"lon":16.521658,"is_passed":false},{"stop_id":"U1537Z1","name":"Rakovecká","arrival_time":"20:58:00","departure_time":"21:13:00","lat":49.225877,"lon":16.518739,"is_passed":false}],"61711":[{"stop_id":"U1527Z2","name":"Přístaviště","arrival_time":"23:32:00","departure_time":"23:32:00","lat":49.228519,"lon":16.522556,"is_passed":false},{"stop_id":"U1796Z2","name":"Zoologická zahrada","arrival_time":"23:34:00","departure_time":"23:34:00","lat":49.22774,"lon":16.531898,"is_passed":false},{"stop_id":"U1226Z2","name":"Kamenolom","arrival_time":"23:35:00","departure_time":"23:35:00","lat":49.221888,"lon":16.536713,"is_passed":false},{"stop_id":"U1493Z2","name":"Podlesí","arrival_time":"23:36:00","departure_time":"23:36:00","lat":49.21871,"lon":16.542217,"is_passed":false},{"stop_id":"U1042Z2","name":"Branka","arrival_time":"23:37:00","departure_time":"23:37:00","lat":49.219368,"lon":16.548224,"is_passed":false},{"stop_id":"U1633Z2","name":"Svratecká","arrival_time":"23:38:00","departure_time":"23:38:00","lat":49.21799,"lon":16.553492,"is_passed":false},{"stop_id":"U1217Z2","name":"Vozovna Komín","arrival_time":"23:40:00","departure_time":"23:40:00","lat":49.213224,"lon":16.559619,"is_passed":false},{"stop_id":"U1591Z2","name":"Sochorova","arrival_time":"23:41:00","departure_time":"23:41:00","lat":49.21349,"lon":16.564933,"is_passed":false},{"stop_id":"U1544Z2","name":"Rosického náměstí","arrival_time":"23:42:00","departure_time":"23:42:00","lat":49.214708,"lon":16.568749,"is_passed":false},{"stop_id":"U1400Z2","name":"Mozolky","arrival_time":"23:43:00","departure_time":"23:43:00","lat":49.21352,"lon":16.575061,"is_passed":false},{"stop_id":"U1047Z2","name":"Burianovo náměstí","arrival_time":"23:44:00","departure_time":"23:44:00","lat":49.212274,"lon":16.578835,"is_passed":false},{"stop_id":"U1657Z2","name":"Tábor","arrival_time":"23:45:00","departure_time":"23:45:00","lat":49.210553,"lon":16.585882,"is_passed":false},{"stop_id":"U1552Z2","name":"Rybkova","arrival_time":"23:47:00","departure_time":"23:47:00","lat":49.206244,"lon":16.593167,"is_passed":false},{"stop_id":"U1262Z2","name":"Konečného náměstí","arrival_time":"23:49:00","departure_time":"23:49:00","lat":49.203961,"lon":16.596051,"is_passed":false},{"stop_id":"U1121Z2","name":"Grohova","arrival_time":"23:50:00","departure_time":"23:50:00","lat":49.201327,"lon":16.59934,"is_passed":false},{"stop_id":"U1073Z3","name":"Česká","arrival_time":"23:52:00","departure_time":"23:53:00","lat":49.197742,"lon":16.605147,"is_passed":false}],"61712":[{"stop_id":"U1537Z2","name":"Rakovecká","arrival_time":"6:17:00","departure_time":"6:17:00","lat":49.226177,"lon":16.519315,"is_passed":false},{"stop_id":"U1527Z2","name":"Přístaviště","arrival_time":"6:18:00","departure_time":"6:18:00","lat":49.228519,"lon":16.522556,"is_passed":false},{"stop_id":"U1796Z2","name":"Zoologická zahrada","arrival_time":"6:20:00","departure_time":"6:20:00","lat":49.22774,"lon":16.531898,"is_passed":false},{"stop_id":"U1226Z2","name":"Kamenolom","arrival_time":"6:21:00","departure_time":"6:21:00","lat":49.221888,"lon":16.536713,"is_passed":false},{"stop_id":"U1493Z2","name":"Podlesí","arrival_time":"6:22:00","departure_time":"6:22:00","lat":49.21871,"lon":16.542217,"is_passed":false},{"stop_id":"U1042Z2","name":"Branka","arrival_time":"6:23:00","departure_time":"6:23:00","lat":49.219368,"lon":16.548224,"is_passed":false},{"stop_id":"U1633Z2","name":"Svratecká","arrival_time":"6:24:00","departure_time":"6:24:00","lat":49.21799,"lon":16.553492,"is_passed":false},{"stop_id":"U1217Z2","name":"Vozovna Komín","arrival_time":"6:26:00","departure_time":"6:26:00","lat":49.213224,"lon":16.559619,"is_passed":false},{"stop_id":"U1591Z2","name":"Sochorova","arrival_time":"6:27:00","departure_time":"6:27:00","lat":49.21349,"lon":16.564933,"is_passed":false},{"stop_id":"U1544Z2","name":"Rosického náměstí","arrival_time":"6:28:00","departure_time":"6:28:00","lat":49.214708,"lon":16.568749,"is_passed":false},{"stop_id":"U1400Z2","name":"Mozolky","arrival_time":"6:29:00","departure_time":"6:29:00","lat":49.21352,"lon":16.575061,"is_passed":false},{"stop_id":"U1047Z2","name":"Burianovo náměstí","arrival_time":"6:30:00","departure_time":"6:30:00","lat":49.212274,"lon":16.578835,"is_passed":false},{"stop_id":"U1657Z2","name":"Tábor","arrival_time":"6:31:00","departure_time":"6:31:00","lat":49.210553,"lon":16.585882,"is_passed":false},{"stop_id":"U1552Z2","name":"Rybkova","arrival_time":"6:33:00","departure_time":"6:33:00","lat":49.206244,"lon":16.593167,"is_passed":false},{"stop_id":"U1262Z2","name":"Konečného náměstí","arrival_time":"6:35:00","departure_time":"6:35:00","lat":49.203961,"lon":16.596051,"is_passed":false},{"stop_id":"U1121Z2","name":"Grohova","arrival_time":"6:36:00","departure_time":"6:36:00","lat":49.201327,"lon":16.59934,"is_passed":false},{"stop_id":"U1073Z2","name":"Česká","arrival_time":"6:39:00","departure_time":"6:39:00","lat":49.197702,"lon":16.606463,"is_passed":false},{"stop_id":"U1397Z3","name":"Moravské náměstí","arrival_time":"6:40:00","departure_time":"6:40:00","lat":49.199309,"lon":16.609047,"is_passed":false},{"stop_id":"U1418Z1","name":"Náměstí 28. října","arrival_time":"6:41:00","departure_time":"6:41:00","lat":49.200961,"lon":16.613794,"is_passed":false},{"stop_id":"U1086Z1","name":"Dětská nemocnice","arrival_time":"6:43:00","departure_time":"6:43:00","lat":49.202836,"lon":16.618608,"is_passed":false},{"stop_id":"U1211Z7","name":"Jugoslávská","arrival_time":"6:45:00","departure_time":"6:45:00","lat":49.203843,"lon":16.624408,"is_passed":false},{"stop_id":"U1773Z1","name":"Vojenská nemocnice","arrival_time":"6:48:00","departure_time":"6:48:00","lat":49.202244,"lon":16.629717,"is_passed":false},{"stop_id":"U1313Z1","name":"Kuldova","arrival_time":"6:49:00","departure_time":"6:49:00","lat":49.201297,"lon":16.634306,"is_passed":false},{"stop_id":"U1611Z1","name":"Stará osada","arrival_time":"6:51:00","departure_time":"7:11:00","lat":49.202521,"lon":16.641948,"is_passed":false}],"61713":[{"stop_id":"U1611Z2","name":"Stará osada","arrival_time":"7:11:00","departure_time":"7:11:00","lat":49.20214,"lon":16.641417,"is_passed":false},{"stop_id":"U1313Z2","name":"Kuldova","arrival_time":"7:12:00","departure_time":"7:12:00","lat":49.201319,"lon":16.634551,"is_passed":false},{"stop_id":"U1773Z2","name":"Vojenská nemocnice","arrival_time":"7:13:00","departure_time":"7:13:00","lat":49.202306,"lon":16.62966,"is_passed":false},{"stop_id":"U1211Z8","name":"Jugoslávská","arrival_time":"7:16:00","departure_time":"7:16:00","lat":49.204197,"lon":16.624075,"is_passed":false},{"stop_id":"U1086Z2","name":"Dětská nemocnice","arrival_time":"7:18:00","departure_time":"7:18:00","lat":49.203029,"lon":16.619052,"is_passed":false},{"stop_id":"U1418Z2","name":"Náměstí 28. října","arrival_time":"7:19:00","departure_time":"7:19:00","lat":49.200787,"lon":16.613174,"is_passed":false},{"stop_id":"U1397Z4","name":"Moravské náměstí","arrival_time":"7:21:00","departure_time":"7:21:00","lat":49.199159,"lon":16.608704,"is_passed":false},{"stop_id":"U1073Z4","name":"Česká","arrival_time":"7:24:00","departure_time":"7:24:00","lat":49.198134,"lon":16.605041,"is_passed":false},{"stop_id":"U1121Z1","name":"Grohova","arrival_time":"7:25:00","departure_time":"7:25:00","lat":49.201153,"lon":16.599729,"is_passed":false},{"stop_id":"U1262Z1","name":"Konečného náměstí","arrival_time":"7:27:00","departure_time":"7:27:00","lat":49.204484,"lon":16.595426,"is_passed":false},{"stop_id":"U1552Z1","name":"Rybkova","arrival_time":"7:28:00","departure_time":"7:28:00","lat":49.205908,"lon":16.593602,"is_passed":false},{"stop_id":"U1657Z1","name":"Tábor","arrival_time":"7:30:00","departure_time":"7:30:00","lat":49.210271,"lon":16.587228,"is_passed":false},{"stop_id":"U1282Z1","name":"Králova","arrival_time":"7:31:00","departure_time":"7:31:00","lat":49.211297,"lon":16.583386,"is_passed":false},{"stop_id":"U1047Z1","name":"Burianovo náměstí","arrival_time":"7:32:00","departure_time":"7:32:00","lat":49.212482,"lon":16.578371,"is_passed":false},{"stop_id":"U1400Z1","name":"Mozolky","arrival_time":"7:33:00","departure_time":"7:33:00","lat":49.213712,"lon":16.574628,"is_passed":false},{"stop_id":"U1544Z1","name":"Rosického náměstí","arrival_time":"7:34:00","departure_time":"7:34:00","lat":49.214438,"lon":16.567996,"is_passed":false},{"stop_id":"U1591Z1","name":"Sochorova","arrival_time":"7:35:00","departure_time":"7:35:00","lat":49.213406,"lon":16.564341,"is_passed":false},{"stop_id":"U1217Z1","name":"Vozovna Komín","arrival_time":"7:37:00","departure_time":"7:37:00","lat":49.2132,"lon":16.559792,"is_passed":false},{"stop_id":"U1633Z1","name":"Svratecká","arrival_time":"7:38:00","departure_time":"7:38:00","lat":49.217898,"lon":16.553656,"is_passed":false},{"stop_id":"U1042Z1","name":"Branka","arrival_time":"7:39:00","departure_time":"7:39:00","lat":49.219419,"lon":16.54726,"is_passed":false},{"stop_id":"U1493Z1","name":"Podlesí","arrival_time":"7:40:00","departure_time":"7:40:00","lat":49.218711,"lon":16.542392,"is_passed":false},{"stop_id":"U1226Z1","name":"Kamenolom","arrival_time":"7:41:00","departure_time":"7:41:00","lat":49.221657,"lon":16.536794,"is_passed":false},{"stop_id":"U1796Z1","name":"Zoologická zahrada","arrival_time":"7:43:00","departure_time":"7:43:00","lat":49.227674,"lon":16.532002,"is_passed":false},{"stop_id":"U1527Z1","name":"Přístaviště","arrival_time":"7:44:00","departure_time":"7:44:00","lat":49.22814,"lon":16.521658,"is_passed":false},{"stop_id":"U1537Z1","name":"Rakovecká","arrival_time":"7:46:00","departure_time":"7:57:00","lat":49.225877,"lon":16.518739,"is_passed":false}],"61714":[{"stop_id":"U1537Z2","name":"Rakovecká","arrival_time":"7:57:00","departure_time":"7:57:00","lat":49.226177,"lon":16.519315,"is_passed":false},{"stop_id":"U1527Z2","name":"Přístaviště","arrival_time":"7:58:00","departure_time":"7:58:00","lat":49.228519,"lon":16.522556,"is_passed":false},{"stop_id":"U1796Z2","name":"Zoologická zahrada","arrival_time":"8:00:00","departure_time":"8:00:00","lat":49.22774,"lon":16.531898,"is_passed":false},{"stop_id":"U1226Z2","name":"Kamenolom","arrival_time":"8:01:00","departure_time":"8:01:00","lat":49.221888,"lon":16.536713,"is_passed":false},{"stop_id":"U1493Z2","name":"Podlesí","arrival_time":"8:02:00","departure_time":"8:02:00","lat":49.21871,"lon":16.542217,"is_passed":false},{"stop_id":"U1042Z2","name":"Branka","arrival_time":"8:03:00","departure_time":"8:03:00","lat":49.219368,"lon":16.548224,"is_passed":false},{"stop_id":"U1633Z2","name":"Svratecká","arrival_time":"8:04:00","departure_time":"8:04:00","lat":49.21799,"lon":16.553492,"is_passed":false},{"stop_id":"U1217Z2","name":"Vozovna Komín","arrival_time":"8:06:00","departure_time":"8:06:00","lat":49.213224,"lon":16.559619,"is_passed":false},{"stop_id":"U1591Z2","name":"Sochorova","arrival_time":"8:07:00","departure_time":"8:07:00","lat":49.21349,"lon":16.564933,"is_passed":false},{"stop_id":"U1544Z2","name":"Rosického náměstí","arrival_time":"8:08:00","departure_time":"8:08:00","lat":49.214708,"lon":16.568749,"is_passed":false},{"stop_id":"U1400Z2","name":"Mozolky","arrival_time":"8:09:00","departure_time":"8:09:00","lat":49.21352,"lon":16.575061,"is_passed":false},{"stop_id":"U1047Z2","name":"Burianovo náměstí","arrival_time":"8:10:00","departure_time":"8:10:00","lat":49.212274,"lon":16.578835,"is_passed":false},{"stop_id":"U1657Z2","name":"Tábor","arrival_time":"8:11:00","departure_time":"8:11:00","lat":49.210553,"lon":16.585882,"is_passed":false},{"stop_id":"U1552Z2","name":"Rybkova","arrival_time":"8:13:00","departure_time":"8:13:00","lat":49.206244,"lon":16.593167,"is_passed":false},{"stop_id":"U1262Z2","name":"Konečného náměstí","arrival_time":"8:15:00","departure_time":"8:15:00","lat":49.203961,"lon":16.596051,"is_passed":false},{"stop_id":"U1121Z2","name":"Grohova","arrival_time":"8:16:00","departure_time":"8:16:00","lat":49.201327,"lon":16.59934,"is_passed":false},{"stop_id":"U1073Z2","name":"Česká","arrival_time":"8:19:00","departure_time":"8:19:00","lat":49.197702,"lon":16.606463,"is_passed":false},{"stop_id":"U1397Z3","name":"Moravské náměstí","arrival_time":"8:20:00","departure_time":"8:20:00","lat":49.199309,"lon":16.609047,"is_passed":false},{"stop_id":"U1418Z1","name":"Náměstí 28. října","arrival_time":"8:21:00","departure_time":"8:21:00","lat":49.200961,"lon":16.613794,"is_passed":false},{"stop_id":"U1086Z1","name":"Dětská nemocnice","arrival_time":"8:23:00","departure_time":"8:23:00","lat":49.202836,"lon":16.618608,"is_passed":false},{"stop_id":"U1211Z7","name":"Jugoslávská","arrival_time":"8:25:00","departure_time":"8:25:00","lat":49.203843,"lon":16.624408,"is_passed":false},{"stop_id":"U1773Z1","name":"Vojenská nemocnice","arrival_time":"8:28:00","departure_time":"8:28:00","lat":49.202244,"lon":16.629717,"is_passed":false},{"stop_id":"U1313Z1","name":"Kuldova","arrival_time":"8:29:00","departure_time":"8:29:00","lat":49.201297,"lon":16.634306,"is_passed":false},{"stop_id":"U1611Z1","name":"Stará osada","arrival_time":"8:31:00","departure_time":"8:51:00","lat":49.202521,"lon":16.641948,"is_passed":false}],"61715":[{"stop_id":"U1611Z2","name":"Stará osada","arrival_time":"8:51:00","departure_time":"8:51:00","lat":49.20214,"lon":16.641417,"is_passed":false},{"stop_id":"U1313Z2","name":"Kuldova","arrival_time":"8:52:00","departure_time":"8:52:00","lat":49.201319,"lon":16.634551,"is_passed":false},{"stop_id":"U1773Z2","name":"Vojenská nemocnice","arrival_time":"8:53:00","departure_time":"8:53:00","lat":49.202306,"lon":16.62966,"is_passed":false},{"stop_id":"U1211Z8","name":"Jugoslávská","arrival_time":"8:56:00","departure_time":"8:56:00","lat":49.204197,"lon":16.624075,"is_passed":false},{"stop_id":"U1086Z2","name":"Dětská nemocnice","arrival_time":"8:58:00","departure_time":"8:58:00","lat":49.203029,"lon":16.619052,"is_passed":false},{"stop_id":"U1418Z2","name":"Náměstí 28. října","arrival_time":"8:59:00","departure_time":"8:59:00","lat":49.200787,"lon":16.613174,"is_passed":false},{"stop_id":"U1397Z4","name":"Moravské náměstí","arrival_time":"9:01:00","departure_time":"9:01:00","lat":49.199159,"lon":16.608704,"is_passed":false},{"stop_id":"U1073Z4","name":"Česká","arrival_time":"9:04:00","departure_time":"9:04:00","lat":49.198134,"lon":16.605041,"is_passed":false},{"stop_id":"U1121Z1","name":"Grohova","arrival_time":"9:05:00","departure_time":"9:05:00","lat":49.201153,"lon":16.599729,"is_passed":false},{"stop_id":"U1262Z1","name":"Konečného náměstí","arrival_time":"9:07:00","departure_time":"9:07:00","lat":49.204484,"lon":16.595426,"is_passed":false},{"stop_id":"U1552Z1","name":"Rybkova","arrival_time":"9:08:00","departure_time":"9:08:00","lat":49.205908,"lon":16.593602,"is_passed":false},{"stop_id":"U1657Z1","name":"Tábor","arrival_time":"9:10:00","departure_time":"9:10:00","lat":49.210271,"lon":16.587228,"is_passed":false},{"stop_id":"U1282Z1","name":"Králova","arrival_time":"9:11:00","departure_time":"9:11:00","lat":49.211297,"lon":16.583386,"is_passed":false},{"stop_id":"U1047Z1","name":"Burianovo náměstí","arrival_time":"9:12:00","departure_time":"9:12:00","lat":49.212482,"lon":16.578371,"is_passed":false},{"stop_id":"U1400Z1","name":"Mozolky","arrival_time":"9:13:00","departure_time":"9:13:00","lat":49.213712,"lon":16.574628,"is_passed":false},{"stop_id":"U1544Z1","name":"Rosického náměstí","arrival_time":"9:14:00","departure_time":"9:14:00","lat":49.214438,"lon":16.567996,"is_passed":false},{"stop_id":"U1591Z1","name":"Sochorova","arrival_time":"9:15:00","departure_time":"9:15:00","lat":49.213406,"lon":16.564341,"is_passed":false},{"stop_id":"U1217Z1","name":"Vozovna Komín","arrival_time":"9:17:00","departure_time":"9:17:00","lat":49.2132,"lon":16.559792,"is_passed":false},{"stop_id":"U1633Z1","name":"Svratecká","arrival_time":"9:18:00","departure_time":"9:18:00","lat":49.217898,"lon":16.553656,"is_passed":false},{"stop_id":"U1042Z1","name":"Branka","arrival_time":"9:19:00","departure_time":"9:19:00","lat":49.219419,"lon":16.54726,"is_passed":false},{"stop_id":"U1493Z1","name":"Podlesí","arrival_time":"9:20:00","departure_time":"9:20:00","lat":49.218711,"lon":16.542392,"is_passed":false},{"stop_id":"U1226Z1","name":"Kamenolom","arrival_time":"9:21:00","departure_time":"9:21:00","lat":49.221657,"lon":16.536794,"is_passed":false},{"stop_id":"U1796Z1","name":"Zoologická zahrada","arrival_time":"9:23:00","departure_time":"9:23:00","lat":49.227674,"lon":16.532002,"is_passed":false},{"stop_id":"U1527Z1","name":"Přístaviště","arrival_time":"9:24:00","departure_time":"9:24:00","lat":49.22814,"lon":16.521658,"is_passed":false},{"stop_id":"U1537Z1","name":"Rakovecká","arrival_time":"9:26:00","departure_time":"9:37:00","lat":49.225877,"lon":16.518739,"is_passed":false}],"61716":[{"stop_id":"U1537Z2","name":"Rakovecká","arrival_time":"9:37:00","departure_time":"9:37:00","lat":49.226177,"lon":16.519315,"is_passed":false},{"stop_id":"U1527Z2","name":"Přístaviště","arrival_time":"9:38:00","departure_time":"9:38:00","lat":49.228519,"lon":16.522556,"is_passed":false},{"stop_id":"U1796Z2","name":"Zoologická zahrada","arrival_time":"9:40:00","departure_time":"9:40:00","lat":49.22774,"lon":16.531898,"is_passed":false},{"stop_id":"U1226Z2","name":"Kamenolom","arrival_time":"9:41:00","departure_time":"9:41:00","lat":49.221888,"lon":16.536713,"is_passed":false},{"stop_id":"U1493Z2","name":"Podlesí","arrival_time":"9:42:00","departure_time":"9:42:00","lat":49.21871,"lon":16.542217,"is_passed":false},{"stop_id":"U1042Z2","name":"Branka","arrival_time":"9:43:00","departure_time":"9:43:00","lat":49.219368,"lon":16.548224,"is_passed":false},{"stop_id":"U1633Z2","name":"Svratecká","arrival_time":"9:44:00","departure_time":"9:44:00","lat":49.21799,"lon":16.553492,"is_passed":false},{"stop_id":"U1217Z2","name":"Vozovna Komín","arrival_time":"9:46:00","departure_time":"9:46:00","lat":49.213224,"lon":16.559619,"is_passed":false},{"stop_id":"U1591Z2","name":"Sochorova","arrival_time":"9:47:00","departure_time":"9:47:00","lat":49.21349,"lon":16.564933,"is_passed":false},{"stop_id":"U1544Z2","name":"Rosického náměstí","arrival_time":"9:48:00","departure_time":"9:48:00","lat":49.214708,"lon":16.568749,"is_passed":false},{"stop_id":"U1400Z2","name":"Mozolky","arrival_time":"9:49:00","departure_time":"9:49:00","lat":49.21352,"lon":16.575061,"is_passed":false},{"stop_id":"U1047Z2","name":"Burianovo náměstí","arrival_time":"9:50:00","departure_time":"9:50:00","lat":49.212274,"lon":16.578835,"is_passed":false},{"stop_id":"U1657Z2","name":"Tábor","arrival_time":"9:51:00","departure_time":"9:51:00","lat":49.210553,"lon":16.585882,"is_passed":false},{"stop_id":"U1552Z2","name":"Rybkova","arrival_time":"9:53:00","departure_time":"9:53:00","lat":49.206244,"lon":16.593167,"is_passed":false},{"stop_id":"U1262Z2","name":"Konečného náměstí","arrival_time":"9:55:00","departure_time":"9:55:00","lat":49.203961,"lon":16.596051,"is_passed":false},{"stop_id":"U1121Z2","name":"Grohova","arrival_time":"9:56:00","departure_time":"9:56:00","lat":49.201327,"lon":16.59934,"is_passed":false},{"stop_id":"U1073Z2","name":"Česká","arrival_time":"9:59:00","departure_time":"9:59:00","lat":49.197702,"lon":16.606463,"is_passed":false},{"stop_id":"U1397Z3","name":"Moravské náměstí","arrival_time":"10:00:00","departure_time":"10:00:00","lat":49.199309,"lon":16.609047,"is_passed":false},{"stop_id":"U1418Z1","name":"Náměstí 28. října","arrival_time":"10:01:00","departure_time":"10:01:00","lat":49.200961,"lon":16.613794,"is_passed":false},{"stop_id":"U1086Z1","name":"Dětská nemocnice","arrival_time":"10:03:00","departure_time":"10:03:00","lat":49.202836,"lon":16.618608,"is_passed":false},{"stop_id":"U1211Z7","name":"Jugoslávská","arrival_time":"10:05:00","departure_time":"10:05:00","lat":49.203843,"lon":16.624408,"is_passed":false},{"stop_id":"U1773Z1","name":"Vojenská nemocnice","arrival_time":"10:08:00","departure_time":"10:08:00","lat":49.202244,"lon":16.629717,"is_passed":false},{"stop_id":"U1313Z1","name":"Kuldova","arrival_time":"10:09:00","departure_time":"10:09:00","lat":49.201297,"lon":16.634306,"is_passed":false},{"stop_id":"U1611Z1","name":"Stará osada","arrival_time":"10:11:00","departure_time":"10:31:00","lat":49.202521,"lon":16.641948,"is_passed":false}],"61717":[{"stop_id":"U1611Z2","name":"Stará osada","arrival_time":"10:31:00","departure_time":"10:31:00","lat":49.20214,"lon":16.641417,"is_passed":false},{"stop_id":"U1313Z2","name":"Kuldova","arrival_time":"10:32:00","departure_time":"10:32:00","lat":49.201319,"lon":16.634551,"is_passed":false},{"stop_id":"U1773Z2","name":"Vojenská nemocnice","arrival_time":"10:33:00","departure_time":"10:33:00","lat":49.202306,"lon":16.62966,"is_passed":false},{"stop_id":"U1211Z8","name":"Jugoslávská","arrival_time":"10:36:00","departure_time":"10:36:00","lat":49.204197,"lon":16.624075,"is_passed":false},{"stop_id":"U1086Z2","name":"Dětská nemocnice","arrival_time":"10:38:00","departure_time":"10:38:00","lat":49.203029,"lon":16.619052,"is_passed":false},{"stop_id":"U1418Z2","name":"Náměstí 28. října","arrival_time":"10:39:00","departure_time":"10:39:00","lat":49.200787,"lon":16.613174,"is_passed":false},{"stop_id":"U1397Z4","name":"Moravské náměstí","arrival_time":"10:41:00","departure_time":"10:41:00","lat":49.199159,"lon":16.608704,"is_passed":false},{"stop_id":"U1073Z4","name":"Česká","arrival_time":"10:44:00","departure_time":"10:44:00","lat":49.198134,"lon":16.605041,"is_passed":false},{"stop_id":"U1121Z1","name":"Grohova","arrival_time":"10:45:00","departure_time":"10:45:00","lat":49.201153,"lon":16.599729,"is_passed":false},{"stop_id":"U1262Z1","name":"Konečného náměstí","arrival_time":"10:47:00","departure_time":"10:47:00","lat":49.204484,"lon":16.595426,"is_passed":false},{"stop_id":"U1552Z1","name":"Rybkova","arrival_time":"10:48:00","departure_time":"10:48:00","lat":49.205908,"lon":16.593602,"is_passed":false},{"stop_id":"U1657Z1","name":"Tábor","arrival_time":"10:50:00","departure_time":"10:50:00","lat":49.210271,"lon":16.587228,"is_passed":false},{"stop_id":"U1282Z1","name":"Králova","arrival_time":"10:51:00","departure_time":"10:51:00","lat":49.211297,"lon":16.583386,"is_passed":false},{"stop_id":"U1047Z1","name":"Burianovo náměstí","arrival_time":"10:52:00","departure_time":"10:52:00","lat":49.212482,"lon":16.578371,"is_passed":false},{"stop_id":"U1400Z1","name":"Mozolky","arrival_time":"10:53:00","departure_time":"10:53:00","lat":49.213712,"lon":16.574628,"is_passed":false},{"stop_id":"U1544Z1","name":"Rosického náměstí","arrival_time":"10:54:00","departure_time":"10:54:00","lat":49.214438,"lon":16.567996,"is_passed":false},{"stop_id":"U1591Z1","name":"Sochorova","arrival_time":"10:55:00","departure_time":"10:55:00","lat":49.213406,"lon":16.564341,"is_passed":false},{"stop_id":"U1217Z1","name":"Vozovna Komín","arrival_time":"10:57:00","departure_time":"10:57:00","lat":49.2132,"lon":16.559792,"is_passed":false},{"stop_id":"U1633Z1","name":"Svratecká","arrival_time":"10:58:00","departure_time":"10:58:00","lat":49.217898,"lon":16.553656,"is_passed":false},{"stop_id":"U1042Z1","name":"Branka","arrival_time":"10:59:00","departure_time":"10:59:00","lat":49.219419,"lon":16.54726,"is_passed":false},{"stop_id":"U1493Z1","name":"Podlesí","arrival_time":"11:00:00","departure_time":"11:00:00","lat":49.218711,"lon":16.542392,"is_passed":false},{"stop_id":"U1226Z1","name":"Kamenolom","arrival_time":"11:01:00","departure_time":"11:01:00","lat":49.221657,"lon":16.536794,"is_passed":false},{"stop_id":"U1796Z1","name":"Zoologická zahrada","arrival_time":"11:03:00","departure_time":"11:03:00","lat":49.227674,"lon":16.532002,"is_passed":false},{"stop_id":"U1527Z1","name":"Přístaviště","arrival_time":"11:04:00","departure_time":"11:04:00","lat":49.22814,"lon":16.521658,"is_passed":false},{"stop_id":"U1537Z1","name":"Rakovecká","arrival_time":"11:06:00","departure_time":"11:17:00","lat":49.225877,"lon":16.518739,"is_passed":false}],"61718":[{"stop_id":"U1537Z2","name":"Rakovecká","arrival_time":"11:17:00","departure_time":"11:17:00","lat":49.226177,"lon":16.519315,"is_passed":false},{"stop_id":"U1527Z2","name":"Přístaviště","arrival_time":"11:18:00","departure_time":"11:18:00","lat":49.228519,"lon":16.522556,"is_passed":false},{"stop_id":"U1796Z2","name":"Zoologická zahrada","arrival_time":"11:20:00","departure_time":"11:20:00","lat":49.22774,"lon":16.531898,"is_passed":false},{"stop_id":"U1226Z2","name":"Kamenolom","arrival_time":"11:21:00","departure_time":"11:21:00","lat":49.221888,"lon":16.536713,"is_passed":false},{"stop_id":"U1493Z2","name":"Podlesí","arrival_time":"11:22:00","departure_time":"11:22:00","lat":49.21871,"lon":16.542217,"is_passed":false},{"stop_id":"U1042Z2","name":"Branka","arrival_time":"11:23:00","departure_time":"11:23:00","lat":49.219368,"lon":16.548224,"is_passed":false},{"stop_id":"U1633Z2","name":"Svratecká","arrival_time":"11:24:00","departure_time":"11:24:00","lat":49.21799,"lon":16.553492,"is_passed":false},{"stop_id":"U1217Z2","name":"Vozovna Komín","arrival_time":"11:26:00","departure_time":"11:26:00","lat":49.213224,"lon":16.559619,"is_passed":false},{"stop_id":"U1591Z2","name":"Sochorova","arrival_time":"11:27:00","departure_time":"11:27:00","lat":49.21349,"lon":16.564933,"is_passed":false},{"stop_id":"U1544Z2","name":"Rosického náměstí","arrival_time":"11:28:00","departure_time":"11:28:00","lat":49.214708,"lon":16.568749,"is_passed":false},{"stop_id":"U1400Z2","name":"Mozolky","arrival_time":"11:29:00","departure_time":"11:29:00","lat":49.21352,"lon":16.575061,"is_passed":false},{"stop_id":"U1047Z2","name":"Burianovo náměstí","arrival_time":"11:30:00","departure_time":"11:30:00","lat":49.212274,"lon":16.578835,"is_passed":false},{"stop_id":"U1657Z2","name":"Tábor","arrival_time":"11:31:00","departure_time":"11:31:00","lat":49.210553,"lon":16.585882,"is_passed":false},{"stop_id":"U1552Z2","name":"Rybkova","arrival_time":"11:33:00","departure_time":"11:33:00","lat":49.206244,"lon":16.593167,"is_passed":false},{"stop_id":"U1262Z2","name":"Konečného náměstí","arrival_time":"11:35:00","departure_time":"11:35:00","lat":49.203961,"lon":16.596051,"is_passed":false},{"stop_id":"U1121Z2","name":"Grohova","arrival_time":"11:36:00","departure_time":"11:36:00","lat":49.201327,"lon":16.59934,"is_passed":false},{"stop_id":"U1073Z2","name":"Česká","arrival_time":"11:39:00","departure_time":"11:39:00","lat":49.197702,"lon":16.606463,"is_passed":false},{"stop_id":"U1397Z3","name":"Moravské náměstí","arrival_time":"11:40:00","departure_time":"11:40:00","lat":49.199309,"lon":16.609047,"is_passed":false},{"stop_id":"U1418Z1","name":"Náměstí 28. října","arrival_time":"11:41:00","departure_time":"11:41:00","lat":49.200961,"lon":16.613794,"is_passed":false},{"stop_id":"U1086Z1","name":"Dětská nemocnice","arrival_time":"11:43:00","departure_time":"11:43:00","lat":49.202836,"lon":16.618608,"is_passed":false},{"stop_id":"U1211Z7","name":"Jugoslávská","arrival_time":"11:45:00","departure_time":"11:45:00","lat":49.203843,"lon":16.624408,"is_passed":false},{"stop_id":"U1773Z1","name":"Vojenská nemocnice","arrival_time":"11:48:00","departure_time":"11:48:00","lat":49.202244,"lon":16.629717,"is_passed":false},{"stop_id":"U1313Z1","name":"Kuldova","arrival_time":"11:49:00","departure_time":"11:49:00","lat":49.201297,"lon":16.634306,"is_passed":false},{"stop_id":"U1611Z1","name":"Stará osada","arrival_time":"11:51:00","departure_time":"12:11:00","lat":49.202521,"lon":16.641948,"is_passed":false}],"61719":[{"stop_id":"U1611Z2","name":"Stará osada","arrival_time":"12:11:00","departure_time":"12:11:00","lat":49.20214,"lon":16.641417,"is_passed":false},{"stop_id":"U1313Z2","name":"Kuldova","arrival_time":"12:12:00","departure_time":"12:12:00","lat":49.201319,"lon":16.634551,"is_passed":false},{"stop_id":"U1773Z2","name":"Vojenská nemocnice","arrival_time":"12:13:00","departure_time":"12:13:00","lat":49.202306,"lon":16.62966,"is_passed":false},{"stop_id":"U1211Z8","name":"Jugoslávská","arrival_time":"12:16:00","departure_time":"12:16:00","lat":49.204197,"lon":16.624075,"is_passed":false},{"stop_id":"U1086Z2","name":"Dětská nemocnice","arrival_time":"12:18:00","departure_time":"12:18:00","lat":49.203029,"lon":16.619052,"is_passed":false},{"stop_id":"U1418Z2","name":"Náměstí 28. října","arrival_time":"12:19:00","departure_time":"12:19:00","lat":49.200787,"lon":16.613174,"is_passed":false},{"stop_id":"U1397Z4","name":"Moravské náměstí","arrival_time":"12:21:00","departure_time":"12:21:00","lat":49.199159,"lon":16.608704,"is_passed":false},{"stop_id":"U1073Z4","name":"Česká","arrival_time":"12:24:00","departure_time":"12:24:00","lat":49.198134,"lon":16.605041,"is_passed":false},{"stop_id":"U1121Z1","name":"Grohova","arrival_time":"12:25:00","departure_time":"12:25:00","lat":49.201153,"lon":16.599729,"is_passed":false},{"stop_id":"U1262Z1","name":"Konečného náměstí","arrival_time":"12:27:00","departure_time":"12:27:00","lat":49.204484,"lon":16.595426,"is_passed":false},{"stop_id":"U1552Z1","name":"Rybkova","arrival_time":"12:28:00","departure_time":"12:28:00","lat":49.205908,"lon":16.593602,"is_passed":false},{"stop_id":"U1657Z1","name":"Tábor","arrival_time":"12:30:00","departure_time":"12:30:00","lat":49.210271,"lon":16.587228,"is_passed":false},{"stop_id":"U1282Z1","name":"Králova","arrival_time":"12:31:00","departure_time":"12:31:00","lat":49.211297,"lon":16.583386,"is_passed":false},{"stop_id":"U1047Z1","name":"Burianovo náměstí","arrival_time":"12:32:00","departure_time":"12:32:00","lat":49.212482,"lon":16.578371,"is_passed":false},{"stop_id":"U1400Z1","name":"Mozolky","arrival_time":"12:33:00","departure_time":"12:33:00","lat":49.213712,"lon":16.574628,"is_passed":false},{"stop_id":"U1544Z1","name":"Rosického náměstí","arrival_time":"12:34:00","departure_time":"12:34:00","lat":49.214438,"lon":16.567996,"is_passed":false},{"stop_id":"U1591Z1","name":"Sochorova","arrival_time":"12:35:00","departure_time":"12:35:00","lat":49.213406,"lon":16.564341,"is_passed":false},{"stop_id":"U1217Z1","name":"Vozovna Komín","arrival_time":"12:37:00","departure_time":"12:37:00","lat":49.2132,"lon":16.559792,"is_passed":false},{"stop_id":"U1633Z1","name":"Svratecká","arrival_time":"12:38:00","departure_time":"12:38:00","lat":49.217898,"lon":16.553656,"is_passed":false},{"stop_id":"U1042Z1","name":"Branka","arrival_time":"12:39:00","departure_time":"12:39:00","lat":49.219419,"lon":16.54726,"is_passed":false},{"stop_id":"U1493Z1","name":"Podlesí","arrival_time":"12:40:00","departure_time":"12:40:00","lat":49.218711,"lon":16.542392,"is_passed":false},{"stop_id":"U1226Z1","name":"Kamenolom","arrival_time":"12:41:00","departure_time":"12:41:00","lat":49.221657,"lon":16.536794,"is_passed":false},{"stop_id":"U1796Z1","name":"Zoologická zahrada","arrival_time":"12:43:00","departure_time":"12:43:00","lat":49.227674,"lon":16.532002,"is_passed":false},{"stop_id":"U1527Z1","name":"Přístaviště","arrival_time":"12:44:00","departure_time":"12:44:00","lat":49.22814,"lon":16.521658,"is_passed":false},{"stop_id":"U1537Z1","name":"Rakovecká","arrival_time":"12:46:00","departure_time":"12:57:00","lat":49.225877,"lon":16.518739,"is_passed":false}],"61720":[{"stop_id":"U1537Z2","name":"Rakovecká","arrival_time":"12:57:00","departure_time":"12:57:00","lat":49.226177,"lon":16.519315,"is_passed":false},{"stop_id":"U1527Z2","name":"Přístaviště","arrival_time":"12:58:00","departure_time":"12:58:00","lat":49.228519,"lon":16.522556,"is_passed":false},{"stop_id":"U1796Z2","name":"Zoologická zahrada","arrival_time":"13:00:00","departure_time":"13:00:00","lat":49.22774,"lon":16.531898,"is_passed":false},{"stop_id":"U1226Z2","name":"Kamenolom","arrival_time":"13:01:00","departure_time":"13:01:00","lat":49.221888,"lon":16.536713,"is_passed":false},{"stop_id":"U1493Z2","name":"Podlesí","arrival_time":"13:02:00","departure_time":"13:02:00","lat":49.21871,"lon":16.542217,"is_passed":false},{"stop_id":"U1042Z2","name":"Branka","arrival_time":"13:03:00","departure_time":"13:03:00","lat":49.219368,"lon":16.548224,"is_passed":false},{"stop_id":"U1633Z2","name":"Svratecká","arrival_time":"13:04:00","departure_time":"13:04:00","lat":49.21799,"lon":16.553492,"is_passed":false},{"stop_id":"U1217Z2","name":"Vozovna Komín","arrival_time":"13:06:00","departure_time":"13:06:00","lat":49.213224,"lon":16.559619,"is_passed":false},{"stop_id":"U1591Z2","name":"Sochorova","arrival_time":"13:07:00","departure_time":"13:07:00","lat":49.21349,"lon":16.564933,"is_passed":false},{"stop_id":"U1544Z2","name":"Rosického náměstí","arrival_time":"13:08:00","departure_time":"13:08:00","lat":49.214708,"lon":16.568749,"is_passed":false},