{"656":[{"stop_id":"U12736Z51","name":"Letovice, železniční stanice","arrival_time":"17:57:00","departure_time":"17:57:00","lat":49.555973,"lon":16.570906,"is_passed":false},{"stop_id":"U22702Z2","name":"Letovice zastávka","arrival_time":"17:59:00","departure_time":"18:00:00","lat":49.536152,"lon":16.576186,"is_passed":false},{"stop_id":"U22701Z2","name":"Zboněk","arrival_time":"18:02:00","departure_time":"18:02:00","lat":49.520482,"lon":16.584439,"is_passed":false},{"stop_id":"U22602Z2","name":"Svitávka","arrival_time":"18:05:00","departure_time":"18:05:00","lat":49.499434,"lon":16.599208,"is_passed":false},{"stop_id":"U12676Z51","name":"Skalice nad Svitavou, žel.st.","arrival_time":"18:08:00","departure_time":"18:13:00","lat":49.480123,"lon":16.609726,"is_passed":false},{"stop_id":"U12511Z51","name":"Doubravice, žel.st.","arrival_time":"18:18:00","departure_time":"18:18:00","lat":49.438707,"lon":16.621809,"is_passed":false},{"stop_id":"U12439Z51","name":"Rájec-Jestřebí, železniční stanice","arrival_time":"18:21:00","departure_time":"18:22:00","lat":49.408206,"lon":16.627711,"is_passed":false},{"stop_id":"U22301Z2","name":"Dolní Lhota","arrival_time":"18:24:00","departure_time":"18:25:00","lat":49.386917,"lon":16.633978,"is_passed":false},{"stop_id":"U22302Z2","name":"Blansko město","arrival_time":"18:27:00","departure_time":"18:28:00","lat":49.360996,"lon":16.639464,"is_passed":false},{"stop_id":"U12342Z29","name":"Blansko, aut. st.","arrival_time":"18:30:00","departure_time":"18:31:00","lat":49.352753,"lon":16.646848,"is_passed":false},{"stop_id":"U12231Z11","name":"Adamov, železniční zastávka","arrival_time":"18:36:00","departure_time":"18:37:00","lat":49.300671,"lon":16.650653,"is_passed":false},{"stop_id":"U12230Z11","name":"Adamov, železniční stanice","arrival_time":"18:38:00","departure_time":"18:39:00","lat":49.295341,"lon":16.663538,"is_passed":false},{"stop_id":"U22101Z2","name":"Babice nad Svitavou","arrival_time":"18:42:00","departure_time":"18:42:00","lat":49.276645,"lon":16.673012,"is_passed":false},{"stop_id":"U12158Z11","name":"Bílovice nad Svitavou, žel. stanice","arrival_time":"18:46:00","departure_time":"18:47:00","lat":49.242715,"lon":16.673677,"is_passed":false},{"stop_id":"U1809Z11","name":"Židenice, nádraží","arrival_time":"18:52:00","departure_time":"18:52:00","lat":49.204282,"lon":16.636042,"is_passed":false},{"stop_id":"U1146Z98","name":"Hlavní nádraží","arrival_time":"18:59:00","departure_time":"19:06:00","lat":49.19035,"lon":16.612342,"is_passed":false},{"stop_id":"U1183Z11","name":"Chrlice, nádraží","arrival_time":"19:14:00","departure_time":"19:17:00","lat":49.132031,"lon":16.657232,"is_passed":false},{"stop_id":"U16149Z11","name":"Sokolnice, železniční stanice","arrival_time":"19:23:00","departure_time":"19:24:00","lat":49.108029,"lon":16.733459,"is_passed":false},{"stop_id":"U26101Z2","name":"Újezd u Brna","arrival_time":"19:25:00","departure_time":"19:26:00","lat":49.107297,"lon":16.745564,"is_passed":false},{"stop_id":"U26102Z2","name":"Hostěrádky-Rešov","arrival_time":"19:29:00","departure_time":"19:29:00","lat":49.119822,"lon":16.782755,"is_passed":false},{"stop_id":"U26201Z2","name":"Zbýšov","arrival_time":"19:32:00","departure_time":"19:32:00","lat":49.132691,"lon":16.806859,"is_passed":false},{"stop_id":"U16212Z11","name":"Křenovice, hor. žel. st.","arrival_time":"19:35:00","departure_time":"19:36:00","lat":49.143553,"lon":16.824564,"is_passed":false},{"stop_id":"U16228Z11","name":"Holubice, žel.st.","arrival_time":"19:40:00","departure_time":"19:53:00","lat":49.179869,"lon":16.824654,"is_passed":false}],"6560":[{"stop_id":"U1696Z3","name":"ÚAN Zvonařka","arrival_time":"15:21:00","departure_time":"15:21:00","lat":49.185364,"lon":16.616151,"is_passed":false},{"stop_id":"U1677Z3","name":"Tržní","arrival_time":"15:25:00","departure_time":"15:25:00","lat":49.189342,"lon":16.630314,"is_passed":false},{"stop_id":"U1068Z3","name":"Černovičky","arrival_time":"15:30:00","departure_time":"15:30:00","lat":49.183143,"lon":16.669108,"is_passed":false},{"stop_id":"U1577Z5","name":"Slatina, sídliště","arrival_time":"15:32:00","departure_time":"15:32:00","lat":49.182195,"lon":16.690725,"is_passed":false},{"stop_id":"U16130Z1","name":"Šlapanice, Bedřichovice, rozc.","arrival_time":"15:35:00","departure_time":"15:35:00","lat":49.182882,"lon":16.723572,"is_passed":false},{"stop_id":"U16105Z1","name":"Jiříkovice, motorest Rohlenka","arrival_time":"15:38:00","departure_time":"15:38:00","lat":49.183436,"lon":16.761042,"is_passed":false},{"stop_id":"U16205Z1","name":"Holubice, kruh","arrival_time":"15:41:00","departure_time":"15:41:00","lat":49.184495,"lon":16.799497,"is_passed":false},{"stop_id":"U16208Z1","name":"Holubice, u mostu","arrival_time":"15:42:00","departure_time":"15:42:00","lat":49.179375,"lon":16.806448,"is_passed":false},{"stop_id":"U16207Z1","name":"Holubice, obecní úřad","arrival_time":"15:43:00","departure_time":"15:43:00","lat":49.177275,"lon":16.813585,"is_passed":false},{"stop_id":"U16204Z1","name":"Holubice, Curdík","arrival_time":"15:45:00","departure_time":"15:45:00","lat":49.17443,"lon":16.822741,"is_passed":false},{"stop_id":"U16334Z1","name":"Velešovice, rozc.","arrival_time":"15:48:00","departure_time":"15:48:00","lat":49.166882,"lon":16.842802,"is_passed":false},{"stop_id":"U16328Z1","name":"Slavkov u Brna, aut. st.","arrival_time":"15:54:00","departure_time":"16:13:00","lat":49.149057,"lon":16.876562,"is_passed":false}],"6561":[{"stop_id":"U16328Z1","name":"Slavkov u Brna, aut. st.","arrival_time":"16:13:00","departure_time":"16:13:00","lat":49.149057,"lon":16.876562,"is_passed":false},{"stop_id":"U16334Z2","name":"Velešovice, rozc.","arrival_time":"16:19:00","departure_time":"16:19:00","lat":49.167572,"lon":16.84187,"is_passed":false},{"stop_id":"U16204Z2","name":"Holubice, Curdík","arrival_time":"16:22:00","departure_time":"16:22:00","lat":49.174368,"lon":16.822201,"is_passed":false},{"stop_id":"U16207Z2","name":"Holubice, obecní úřad","arrival_time":"16:24:00","departure_time":"16:24:00","lat":49.17728,"lon":16.813577,"is_passed":false},{"stop_id":"U16208Z2","name":"Holubice, u mostu","arrival_time":"16:25:00","departure_time":"16:25:00","lat":49.17931,"lon":16.806387,"is_passed":false},{"stop_id":"U16205Z2","name":"Holubice, kruh","arrival_time":"16:26:00","departure_time":"16:26:00","lat":49.184597,"lon":16.799528,"is_passed":false},{"stop_id":"U16105Z2","name":"Jiříkovice, motorest Rohlenka","arrival_time":"16:29:00","departure_time":"16:29:00","lat":49.183667,"lon":16.760583,"is_passed":false},{"stop_id":"U16130Z2","name":"Šlapanice, Bedřichovice, rozc.","arrival_time":"16:32:00","departure_time":"16:32:00","lat":49.182977,"lon":16.72308,"is_passed":false},{"stop_id":"U1577Z6","name":"Slatina, sídliště","arrival_time":"16:35:00","departure_time":"16:35:00","lat":49.18229,"lon":16.690089,"is_passed":false},{"stop_id":"U1068Z4","name":"Černovičky","arrival_time":"16:37:00","departure_time":"16:37:00","lat":49.183907,"lon":16.668247,"is_passed":false},{"stop_id":"U1677Z2","name":"Tržní","arrival_time":"16:42:00","departure_time":"16:42:00","lat":49.189407,"lon":16.629972,"is_passed":false},{"stop_id":"U1696Z3","name":"ÚAN Zvonařka","arrival_time":"16:46:00","departure_time":"17:21:00","lat":49.185364,"lon":16.616151,"is_passed":false}],"6562":[{"stop_id":"U1696Z3","name":"ÚAN Zvonařka","arrival_time":"17:21:00","departure_time":"17:21:00","lat":49.185364,"lon":16.616151,"is_passed":false},{"stop_id":"U1677Z3","name":"Tržní","arrival_time":"17:25:00","departure_time":"17:25:00","lat":49.189342,"lon":16.630314,"is_passed":false},{"stop_id":"U1068Z3","name":"Černovičky","arrival_time":"17:30:00","departure_time":"17:30:00","lat":49.183143,"lon":16.669108,"is_passed":false},{"stop_id":"U1577Z5","name":"Slatina, sídliště","arrival_time":"17:32:00","departure_time":"17:32:00","lat":49.182195,"lon":16.690725,"is_passed":false},{"stop_id":"U16130Z1","name":"Šlapanice, Bedřichovice, rozc.","arrival_time":"17:35:00","departure_time":"17:35:00","lat":49.182882,"lon":16.723572,"is_passed":false},{"stop_id":"U16105Z1","name":"Jiříkovice, motorest Rohlenka","arrival_time":"17:38:00","departure_time":"17:38:00","lat":49.183436,"lon":16.761042,"is_passed":false},{"stop_id":"U16205Z1","name":"Holubice, kruh","arrival_time":"17:41:00","departure_time":"17:41:00","lat":49.184495,"lon":16.799497,"is_passed":false},{"stop_id":"U16208Z1","name":"Holubice, u mostu","arrival_time":"17:42:00","departure_time":"17:42:00","lat":49.179375,"lon":16.806448,"is_passed":false},{"stop_id":"U16207Z1","name":"Holubice, obecní úřad","arrival_time":"17:43:00","departure_time":"17:43:00","lat":49.177275,"lon":16.813585,"is_passed":false},{"stop_id":"U16204Z1","name":"Holubice, Curdík","arrival_time":"17:45:00","departure_time":"17:45:00","lat":49.17443,"lon":16.822741,"is_passed":false},{"stop_id":"U16334Z1","name":"Velešovice, rozc.","arrival_time":"17:48:00","departure_time":"17:48:00","lat":49.166882,"lon":16.842802,"is_passed":false},{"stop_id":"U16328Z69","name":"Slavkov u Brna, aut. st.","arrival_time":"17:54:00","departure_time":"17:54:00","lat":49.149062,"lon":16.876128,"is_passed":false},{"stop_id":"U16331Z1","name":"Slavkov u Brna, poliklinika","arrival_time":"17:56:00","departure_time":"17:58:00","lat":49.156228,"lon":16.87922,"is_passed":false}],"6563":[{"stop_id":"U16328Z1","name":"Slavkov u Brna, aut. st.","arrival_time":"18:43:00","departure_time":"18:43:00","lat":49.149057,"lon":16.876562,"is_passed":false},{"stop_id":"U16334Z2","name":"Velešovice, rozc.","arrival_time":"18:49:00","departure_time":"18:49:00","lat":49.167572,"lon":16.84187,"is_passed":false},{"stop_id":"U16204Z2","name":"Holubice, Curdík","arrival_time":"18:52:00","departure_time":"18:52:00","lat":49.174368,"lon":16.822201,"is_passed":false},{"stop_id":"U16207Z2","name":"Holubice, obecní úřad","arrival_time":"18:54:00","departure_time":"18:54:00","lat":49.17728,"lon":16.813577,"is_passed":false},{"stop_id":"U16208Z2","name":"Holubice, u mostu","arrival_time":"18:55:00","departure_time":"18:55:00","lat":49.17931,"lon":16.806387,"is_passed":false},{"stop_id":"U16205Z2","name":"Holubice, kruh","arrival_time":"18:56:00","departure_time":"18:56:00","lat":49.184597,"lon":16.799528,"is_passed":false},{"stop_id":"U16105Z2","name":"Jiříkovice, motorest Rohlenka","arrival_time":"18:59:00","departure_time":"18:59:00","lat":49.183667,"lon":16.760583,"is_passed":false},{"stop_id":"U16130Z2","name":"Šlapanice, Bedřichovice, rozc.","arrival_time":"19:02:00","departure_time":"19:02:00","lat":49.182977,"lon":16.72308,"is_passed":false},{"stop_id":"U1577Z6","name":"Slatina, sídliště","arrival_time":"19:05:00","departure_time":"19:05:00","lat":49.18229,"lon":16.690089,"is_passed":false},{"stop_id":"U1068Z4","name":"Černovičky","arrival_time":"19:07:00","departure_time":"19:07:00","lat":49.183907,"lon":16.668247,"is_passed":false},{"stop_id":"U1677Z2","name":"Tržní","arrival_time":"19:12:00","departure_time":"19:12:00","lat":49.189407,"lon":16.629972,"is_passed":false},{"stop_id":"U1696Z3","name":"ÚAN Zvonařka","arrival_time":"19:16:00","departure_time":"20:21:00","lat":49.185364,"lon":16.616151,"is_passed":false}],"6564":[{"stop_id":"U1696Z3","name":"ÚAN Zvonařka","arrival_time":"20:21:00","departure_time":"20:21:00","lat":49.185364,"lon":16.616151,"is_passed":false},{"stop_id":"U1677Z3","name":"Tržní","arrival_time":"20:25:00","departure_time":"20:25:00","lat":49.189342,"lon":16.630314,"is_passed":false},{"stop_id":"U1068Z3","name":"Černovičky","arrival_time":"20:30:00","departure_time":"20:30:00","lat":49.183143,"lon":16.669108,"is_passed":false},{"stop_id":"U1577Z5","name":"Slatina, sídliště","arrival_time":"20:32:00","departure_time":"20:32:00","lat":49.182195,"lon":16.690725,"is_passed":false},{"stop_id":"U16130Z1","name":"Šlapanice, Bedřichovice, rozc.","arrival_time":"20:35:00","departure_time":"20:35:00","lat":49.182882,"lon":16.723572,"is_passed":false},{"stop_id":"U16105Z1","name":"Jiříkovice, motorest Rohlenka","arrival_time":"20:38:00","departure_time":"20:38:00","lat":49.183436,"lon":16.761042,"is_passed":false},{"stop_id":"U16205Z1","name":"Holubice, kruh","arrival_time":"20:41:00","departure_time":"20:41:00","lat":49.184495,"lon":16.799497,"is_passed":false},{"stop_id":"U16208Z1","name":"Holubice, u mostu","arrival_time":"20:42:00","departure_time":"20:42:00","lat":49.179375,"lon":16.806448,"is_passed":false},{"stop_id":"U16207Z1","name":"Holubice, obecní úřad","arrival_time":"20:43:00","departure_time":"20:43:00","lat":49.177275,"lon":16.813585,"is_passed":false},{"stop_id":"U16204Z1","name":"Holubice, Curdík","arrival_time":"20:45:00","departure_time":"20:45:00","lat":49.17443,"lon":16.822741,"is_passed":false},{"stop_id":"U16334Z1","name":"Velešovice, rozc.","arrival_time":"20:48:00","departure_time":"20:48:00","lat":49.166882,"lon":16.842802,"is_passed":false},{"stop_id":"U16328Z69","name":"Slavkov u Brna, aut. st.","arrival_time":"20:54:00","departure_time":"20:54:00","lat":49.149062,"lon":16.876128,"is_passed":false},{"stop_id":"U16331Z1","name":"Slavkov u Brna, poliklinika","arrival_time":"20:56:00","departure_time":"20:58:00","lat":49.156228,"lon":16.87922,"is_passed":false}],"6565":[{"stop_id":"U16328Z1","name":"Slavkov u Brna, aut. st.","arrival_time":"21:03:00","departure_time":"21:03:00","lat":49.149057,"lon":16.876562,"is_passed":false},{"stop_id":"U16334Z2","name":"Velešovice, rozc.","arrival_time":"21:09:00","departure_time":"21:09:00","lat":49.167572,"lon":16.84187,"is_passed":false},{"stop_id":"U16204Z2","name":"Holubice, Curdík","arrival_time":"21:12:00","departure_time":"21:12:00","lat":49.174368,"lon":16.822201,"is_passed":false},{"stop_id":"U16207Z2","name":"Holubice, obecní úřad","arrival_time":"21:14:00","departure_time":"21:14:00","lat":49.17728,"lon":16.813577,"is_passed":false},{"stop_id":"U16208Z2","name":"Holubice, u mostu","arrival_time":"21:15:00","departure_time":"21:15:00","lat":49.17931,"lon":16.806387,"is_passed":false},{"stop_id":"U16205Z2","name":"Holubice, kruh","arrival_time":"21:16:00","departure_time":"21:16:00","lat":49.184597,"lon":16.799528,"is_passed":false},{"stop_id":"U16105Z2","name":"Jiříkovice, motorest Rohlenka","arrival_time":"21:19:00","departure_time":"21:19:00","lat":49.183667,"lon":16.760583,"is_passed":false},{"stop_id":"U16130Z2","name":"Šlapanice, Bedřichovice, rozc.","arrival_time":"21:22:00","departure_time":"21:22:00","lat":49.182977,"lon":16.72308,"is_passed":false},{"stop_id":"U1577Z6","name":"Slatina, sídliště","arrival_time":"21:25:00","departure_time":"21:25:00","lat":49.18229,"lon":16.690089,"is_passed":false},{"stop_id":"U1068Z4","name":"Černovičky","arrival_time":"21:27:00","departure_time":"21:27:00","lat":49.183907,"lon":16.668247,"is_passed":false},{"stop_id":"U1677Z2","name":"Tržní","arrival_time":"21:32:00","departure_time":"21:32:00","lat":49.189407,"lon":16.629972,"is_passed":false},{"stop_id":"U1696Z3","name":"ÚAN Zvonařka","arrival_time":"21:36:00","departure_time":"22:31:00","lat":49.185364,"lon":16.616151,"is_passed":false}],"6566":[{"stop_id":"U1696Z3","name":"ÚAN Zvonařka","arrival_time":"22:31:00","departure_time":"22:31:00","lat":49.185364,"lon":16.616151,"is_passed":false},{"stop_id":"U1677Z3","name":"Tržní","arrival_time":"22:35:00","departure_time":"22:35:00","lat":49.189342,"lon":16.630314,"is_passed":false},{"stop_id":"U1068Z3","name":"Černovičky","arrival_time":"22:40:00","departure_time":"22:40:00","lat":49.183143,"lon":16.669108,"is_passed":false},{"stop_id":"U1577Z5","name":"Slatina, sídliště","arrival_time":"22:42:00","departure_time":"22:42:00","lat":49.182195,"lon":16.690725,"is_passed":false},{"stop_id":"U16130Z1","name":"Šlapanice, Bedřichovice, rozc.","arrival_time":"22:45:00","departure_time":"22:45:00","lat":49.182882,"lon":16.723572,"is_passed":false},{"stop_id":"U16105Z1","name":"Jiříkovice, motorest Rohlenka","arrival_time":"22:48:00","departure_time":"22:48:00","lat":49.183436,"lon":16.761042,"is_passed":false},{"stop_id":"U16205Z1","name":"Holubice, kruh","arrival_time":"22:51:00","departure_time":"22:51:00","lat":49.184495,"lon":16.799497,"is_passed":false},{"stop_id":"U16208Z1","name":"Holubice, u mostu","arrival_time":"22:52:00","departure_time":"22:52:00","lat":49.179375,"lon":16.806448,"is_passed":false},{"stop_id":"U16207Z1","name":"Holubice, obecní úřad","arrival_time":"22:53:00","departure_time":"22:53:00","lat":49.177275,"lon":16.813585,"is_passed":false},{"stop_id":"U16204Z1","name":"Holubice, Curdík","arrival_time":"22:55:00","departure_time":"22:55:00","lat":49.17443,"lon":16.822741,"is_passed":false},{"stop_id":"U16334Z1","name":"Velešovice, rozc.","arrival_time":"22:58:00","departure_time":"22:58:00","lat":49.166882,"lon":16.842802,"is_passed":false},{"stop_id":"U16328Z1","name":"Slavkov u Brna, aut. st.","arrival_time":"23:04:00","departure_time":"23:05:00","lat":49.149057,"lon":16.876562,"is_passed":false}],"6567":[{"stop_id":"U16328Z9","name":"Slavkov u Brna, aut. st.","arrival_time":"23:05:00","departure_time":"23:05:00","lat":49.149062,"lon":16.876128,"is_passed":false},{"stop_id":"U16333Z2","name":"Slavkov u Brna, žel. st.","arrival_time":"23:08:00","departure_time":"23:08:00","lat":49.144747,"lon":16.87383,"is_passed":false},{"stop_id":"U16328Z59","name":"Slavkov u Brna, aut. st.","arrival_time":"23:10:00","departure_time":"23:11:00","lat":49.149062,"lon":16.876128,"is_passed":false},{"stop_id":"U16331Z2","name":"Slavkov u Brna, poliklinika","arrival_time":"23:14:00","departure_time":"23:14:00","lat":49.15622,"lon":16.879133,"is_passed":false},{"stop_id":"U16330Z1","name":"Slavkov u Brna, MEZ","arrival_time":"23:16:00","departure_time":"23:16:00","lat":49.153258,"lon":16.885,"is_passed":false},{"stop_id":"U16329Z1","name":"Slavkov u Brna, Cutisín","arrival_time":"23:18:00","departure_time":"23:18:00","lat":49.153278,"lon":16.892047,"is_passed":false},{"stop_id":"U16320Z1","name":"Němčany, točna","arrival_time":"23:25:00","departure_time":"23:25:00","lat":49.168502,"lon":16.919492,"is_passed":false},{"stop_id":"U16319Z2","name":"Němčany, obecní úřad","arrival_time":"23:27:00","departure_time":"23:27:00","lat":49.165137,"lon":16.920447,"is_passed":false},{"stop_id":"U16321Z2","name":"Němčany, u kovárny","arrival_time":"23:29:00","departure_time":"23:29:00","lat":49.161737,"lon":16.918137,"is_passed":false},{"stop_id":"U16311Z1","name":"Hodějice, u mostu","arrival_time":"23:33:00","departure_time":"23:33:00","lat":49.142563,"lon":16.911732,"is_passed":false},{"stop_id":"U16310Z1","name":"Hodějice, točna","arrival_time":"23:35:00","departure_time":"23:35:00","lat":49.14025,"lon":16.919782,"is_passed":false}],"6568":[{"stop_id":"U16328Z5","name":"Slavkov u Brna, aut. st.","arrival_time":"4:36:00","departure_time":"4:36:00","lat":49.148507,"lon":16.876218,"is_passed":false},{"stop_id":"U16332Z1","name":"Slavkov u Brna, rozcestí k žel. st.","arrival_time":"4:38:00","departure_time":"4:38:00","lat":49.143955,"lon":16.878297,"is_passed":false},{"stop_id":"U16223Z1","name":"Vážany nad Litavou","arrival_time":"4:42:00","departure_time":"4:42:00","lat":49.130573,"lon":16.855832,"is_passed":false},{"stop_id":"U16224Z1","name":"Vážany nad Litavou, u mlýna","arrival_time":"4:43:00","departure_time":"4:43:00","lat":49.128988,"lon":16.851545,"is_passed":false},{"stop_id":"U16209Z1","name":"Hrušky","arrival_time":"4:46:00","departure_time":"4:46:00","lat":49.129197,"lon":16.834168,"is_passed":false},{"stop_id":"U16213Z1","name":"Křenovice, u hřbitova","arrival_time":"4:49:00","departure_time":"4:49:00","lat":49.140479,"lon":16.828518,"is_passed":false},{"stop_id":"U16226Z1","name":"Křenovice, Sokolská","arrival_time":"4:50:00","departure_time":"4:50:00","lat":49.143182,"lon":16.830647,"is_passed":false},{"stop_id":"U16212Z1","name":"Křenovice, hor. žel. st.","arrival_time":"4:52:00","departure_time":"5:19:00","lat":49.14337,"lon":16.825192,"is_passed":false}],"6569":[{"stop_id":"U16212Z1","name":"Křenovice, hor. žel. st.","arrival_time":"5:19:00","departure_time":"5:19:00","lat":49.14337,"lon":16.825192,"is_passed":false},{"stop_id":"U16209Z2","name":"Hrušky","arrival_time":"5:24:00","departure_time":"5:24:00","lat":49.12917,"lon":16.83418,"is_passed":false},{"stop_id":"U16224Z2","name":"Vážany nad Litavou, u mlýna","arrival_time":"5:27:00","departure_time":"5:27:00","lat":49.128888,"lon":16.851483,"is_passed":false},{"stop_id":"U16223Z2","name":"Vážany nad Litavou","arrival_time":"5:28:00","departure_time":"5:28:00","lat":49.130573,"lon":16.855832,"is_passed":false},{"stop_id":"U16332Z2","name":"Slavkov u Brna, rozcestí k žel. st.","arrival_time":"5:32:00","departure_time":"5:32:00","lat":49.14503,"lon":16.877933,"is_passed":false},{"stop_id":"U16333Z2","name":"Slavkov u Brna, žel. st.","arrival_time":"5:34:00","departure_time":"5:34:00","lat":49.144747,"lon":16.87383,"is_passed":false},{"stop_id":"U16328Z5","name":"Slavkov u Brna, aut. st.","arrival_time":"5:36:00","departure_time":"5:36:00","lat":49.148507,"lon":16.876218,"is_passed":false}]}