[{"stop_id":"U12936Z11","name":"Březová nad Svitavou, železniční stanice","arrival_time":"6:12:00","departure_time":"6:12:00","lat":49.633104,"lon":16.520656,"is_passed":false},{"stop_id":"U12804Z11","name":"Brněnec, Mor.Chrastová, žel.st.","arrival_time":"6:13:00","departure_time":"6:14:00","lat":49.623616,"lon":16.524459,"is_passed":false},{"stop_id":"U12819Z11","name":"Rozhraní, železniční zastávka","arrival_time":"6:17:00","departure_time":"6:18:00","lat":49.601763,"lon":16.532438,"is_passed":false},{"stop_id":"U12736Z51","name":"Letovice, železniční stanice","arrival_time":"6:22:00","departure_time":"6:23:00","lat":49.555973,"lon":16.570906,"is_passed":false},{"stop_id":"U12676Z51","name":"Skalice nad Svitavou, žel.st.","arrival_time":"6:30:00","departure_time":"6:31:00","lat":49.480123,"lon":16.609726,"is_passed":false},{"stop_id":"U12342Z29","name":"Blansko, aut. st.","arrival_time":"6:40:00","departure_time":"6:42:00","lat":49.352753,"lon":16.646848,"is_passed":false},{"stop_id":"U1146Z98","name":"Hlavní nádraží","arrival_time":"7:02:00","departure_time":"8:56:00","lat":49.19035,"lon":16.612342,"is_passed":false}]