{"704":[{"stop_id":"U15403Z10","name":"Hustopeče, autobusové nádraží","arrival_time":"7:04:00","departure_time":"7:04:00","lat":48.93752,"lon":16.735901,"is_passed":false},{"stop_id":"U15425Z10","name":"Šakvice, železniční stanice","arrival_time":"7:10:00","departure_time":"7:11:00","lat":48.912883,"lon":16.70557,"is_passed":false},{"stop_id":"U25402Z10","name":"Popice","arrival_time":"7:13:00","departure_time":"7:14:00","lat":48.924332,"lon":16.668084,"is_passed":false},{"stop_id":"U25401Z10","name":"Pouzdřany","arrival_time":"7:17:00","departure_time":"7:17:00","lat":48.942025,"lon":16.630527,"is_passed":false},{"stop_id":"U15307Z10","name":"Vranovice, žel.st.","arrival_time":"7:20:00","departure_time":"7:21:00","lat":48.964528,"lon":16.604187,"is_passed":false},{"stop_id":"U15306Z10","name":"Žabčice, žel. st.","arrival_time":"7:24:00","departure_time":"7:25:00","lat":49.010865,"lon":16.594993,"is_passed":false},{"stop_id":"U15222Z10","name":"Hrušovany u Brna, žel. st.","arrival_time":"7:28:00","departure_time":"7:32:00","lat":49.034228,"lon":16.591501,"is_passed":false},{"stop_id":"U15181Z10","name":"Rajhrad, železniční stanice","arrival_time":"7:36:00","departure_time":"7:37:00","lat":49.084966,"lon":16.60532,"is_passed":false},{"stop_id":"U15140Z10","name":"Modřice, železniční stanice","arrival_time":"7:40:00","departure_time":"7:41:00","lat":49.133256,"lon":16.606209,"is_passed":false},{"stop_id":"U1146Z99","name":"Hlavní nádraží","arrival_time":"7:48:00","departure_time":"7:53:00","lat":49.19035,"lon":16.612342,"is_passed":false},{"stop_id":"U1809Z10","name":"Židenice, nádraží","arrival_time":"7:56:00","departure_time":"7:57:00","lat":49.204282,"lon":16.636042,"is_passed":false},{"stop_id":"U1331Z10","name":"Lesná, nádraží","arrival_time":"8:02:00","departure_time":"8:03:00","lat":49.220432,"lon":16.627505,"is_passed":false},{"stop_id":"U1286Z10","name":"Královo Pole, nádraží","arrival_time":"8:06:00","departure_time":"8:07:00","lat":49.231051,"lon":16.596651,"is_passed":false},{"stop_id":"U1557Z10","name":"Řečkovice, nádraží","arrival_time":"8:09:00","departure_time":"8:10:00","lat":49.250794,"lon":16.590446,"is_passed":false},{"stop_id":"U13109Z10","name":"Česká, železniční stanice","arrival_time":"8:13:00","departure_time":"8:14:00","lat":49.284546,"lon":16.566731,"is_passed":false},{"stop_id":"U13143Z10","name":"Kuřim, železniční stanice","arrival_time":"8:17:00","departure_time":"8:18:00","lat":49.301,"lon":16.534523,"is_passed":false},{"stop_id":"U13206Z10","name":"Čebín, železniční stanice","arrival_time":"8:23:00","departure_time":"8:23:00","lat":49.319722,"lon":16.465278,"is_passed":false},{"stop_id":"U13306Z10","name":"Hradčany, železniční stanice","arrival_time":"8:26:00","departure_time":"8:26:00","lat":49.334153,"lon":16.437807,"is_passed":false},{"stop_id":"U13334Z20","name":"Tišnov, železniční stanice","arrival_time":"8:29:00","departure_time":"8:30:00","lat":49.3475,"lon":16.41725,"is_passed":false},{"stop_id":"U13411Z10","name":"Dolní Loučky, železniční stanice","arrival_time":"8:34:00","departure_time":"8:34:00","lat":49.356389,"lon":16.346945,"is_passed":false},{"stop_id":"U13425Z10","name":"Řikonín, železniční stanice","arrival_time":"8:37:00","departure_time":"8:37:00","lat":49.365833,"lon":16.305833,"is_passed":false},{"stop_id":"U13454Z10","name":"Níhov, železniční stanice","arrival_time":"8:41:00","departure_time":"8:41:00","lat":49.336616,"lon":16.270487,"is_passed":false},{"stop_id":"U23501Z1","name":"Vlkov-Osová","arrival_time":"8:46:00","departure_time":"8:46:00","lat":49.326883,"lon":16.202114,"is_passed":false},{"stop_id":"U30305Z1","name":"Osová Bítýška","arrival_time":"8:49:00","departure_time":"8:49:00","lat":49.329893,"lon":16.168305,"is_passed":false},{"stop_id":"U30302Z1","name":"Ořechov","arrival_time":"8:52:00","departure_time":"8:52:00","lat":49.350503,"lon":16.136551,"is_passed":false},{"stop_id":"U30009Z1","name":"Křižanov","arrival_time":"8:58:00","departure_time":"11:00:00","lat":49.384877,"lon":16.080351,"is_passed":false}],"7040":[{"stop_id":"U16544Z1","name":"Ždánice","arrival_time":"16:50:00","departure_time":"16:50:00","lat":49.064517,"lon":17.029768,"is_passed":false},{"stop_id":"U16542Z1","name":"Ždánice, šroubárna","arrival_time":"16:53:00","departure_time":"16:53:00","lat":49.057508,"lon":17.025452,"is_passed":false},{"stop_id":"U16525Z2","name":"Archlebov","arrival_time":"16:57:00","departure_time":"16:57:00","lat":49.043193,"lon":17.003877,"is_passed":false},{"stop_id":"U16449Z2","name":"Žarošice","arrival_time":"17:02:00","departure_time":"17:02:00","lat":49.040472,"lon":16.966415,"is_passed":false},{"stop_id":"U16448Z2","name":"Žarošice, škola","arrival_time":"17:03:00","departure_time":"17:03:00","lat":49.039435,"lon":16.9616,"is_passed":false},{"stop_id":"U16440Z3","name":"Uhřice, Janův Dvůr","arrival_time":"17:07:00","departure_time":"17:07:00","lat":49.022987,"lon":16.962236,"is_passed":false},{"stop_id":"U16436Z1","name":"Násedlovice, kostel","arrival_time":"17:09:00","departure_time":"17:09:00","lat":49.014265,"lon":16.961614,"is_passed":false},{"stop_id":"U16439Z1","name":"Násedlovice","arrival_time":"17:10:00","departure_time":"17:10:00","lat":49.011075,"lon":16.95703,"is_passed":false},{"stop_id":"U16438Z1","name":"Násedlovice, u hřiště","arrival_time":"17:11:00","departure_time":"17:11:00","lat":49.009217,"lon":16.95822,"is_passed":false},{"stop_id":"U16437Z1","name":"Násedlovice, mlýn","arrival_time":"17:13:00","departure_time":"17:46:00","lat":49.007262,"lon":16.966958,"is_passed":false}],"7041":[{"stop_id":"U16437Z2","name":"Násedlovice, mlýn","arrival_time":"17:46:00","departure_time":"17:46:00","lat":49.007317,"lon":16.966767,"is_passed":false},{"stop_id":"U16438Z2","name":"Násedlovice, u hřiště","arrival_time":"17:48:00","departure_time":"17:48:00","lat":49.00918,"lon":16.958217,"is_passed":false},{"stop_id":"U16439Z2","name":"Násedlovice","arrival_time":"17:49:00","departure_time":"17:49:00","lat":49.012059,"lon":16.958993,"is_passed":false},{"stop_id":"U16440Z4","name":"Uhřice, Janův Dvůr","arrival_time":"17:52:00","departure_time":"17:52:00","lat":49.022987,"lon":16.962236,"is_passed":false},{"stop_id":"U16448Z1","name":"Žarošice, škola","arrival_time":"17:56:00","departure_time":"17:56:00","lat":49.039337,"lon":16.96142,"is_passed":false},{"stop_id":"U16449Z1","name":"Žarošice","arrival_time":"17:57:00","departure_time":"17:57:00","lat":49.040617,"lon":16.967482,"is_passed":false},{"stop_id":"U16525Z1","name":"Archlebov","arrival_time":"18:02:00","departure_time":"18:02:00","lat":49.043113,"lon":17.00413,"is_passed":false},{"stop_id":"U16542Z2","name":"Ždánice, šroubárna","arrival_time":"18:06:00","departure_time":"18:06:00","lat":49.057332,"lon":17.025485,"is_passed":false},{"stop_id":"U16544Z1","name":"Ždánice","arrival_time":"18:08:00","departure_time":"18:20:00","lat":49.064517,"lon":17.029768,"is_passed":false}],"7042":[{"stop_id":"U16544Z1","name":"Ždánice","arrival_time":"18:20:00","departure_time":"18:20:00","lat":49.064517,"lon":17.029768,"is_passed":false},{"stop_id":"U16542Z1","name":"Ždánice, šroubárna","arrival_time":"18:23:00","departure_time":"18:23:00","lat":49.057508,"lon":17.025452,"is_passed":false},{"stop_id":"U16525Z2","name":"Archlebov","arrival_time":"18:27:00","departure_time":"18:27:00","lat":49.043193,"lon":17.003877,"is_passed":false},{"stop_id":"U16449Z2","name":"Žarošice","arrival_time":"18:32:00","departure_time":"18:32:00","lat":49.040472,"lon":16.966415,"is_passed":false},{"stop_id":"U16448Z2","name":"Žarošice, škola","arrival_time":"18:33:00","departure_time":"18:33:00","lat":49.039435,"lon":16.9616,"is_passed":false},{"stop_id":"U16440Z3","name":"Uhřice, Janův Dvůr","arrival_time":"18:37:00","departure_time":"18:37:00","lat":49.022987,"lon":16.962236,"is_passed":false},{"stop_id":"U16436Z1","name":"Násedlovice, kostel","arrival_time":"18:39:00","departure_time":"18:39:00","lat":49.014265,"lon":16.961614,"is_passed":false},{"stop_id":"U16439Z1","name":"Násedlovice","arrival_time":"18:40:00","departure_time":"18:40:00","lat":49.011075,"lon":16.95703,"is_passed":false},{"stop_id":"U16438Z1","name":"Násedlovice, u hřiště","arrival_time":"18:41:00","departure_time":"18:41:00","lat":49.009217,"lon":16.95822,"is_passed":false},{"stop_id":"U16437Z1","name":"Násedlovice, mlýn","arrival_time":"18:43:00","departure_time":"18:43:00","lat":49.007262,"lon":16.966958,"is_passed":false}],"7043":[{"stop_id":"U16544Z1","name":"Ždánice","arrival_time":"4:20:00","departure_time":"4:20:00","lat":49.064517,"lon":17.029768,"is_passed":false},{"stop_id":"U16542Z1","name":"Ždánice, šroubárna","arrival_time":"4:23:00","departure_time":"4:23:00","lat":49.057508,"lon":17.025452,"is_passed":false},{"stop_id":"U16525Z2","name":"Archlebov","arrival_time":"4:27:00","departure_time":"4:27:00","lat":49.043193,"lon":17.003877,"is_passed":false},{"stop_id":"U16449Z2","name":"Žarošice","arrival_time":"4:32:00","departure_time":"4:32:00","lat":49.040472,"lon":16.966415,"is_passed":false},{"stop_id":"U16448Z2","name":"Žarošice, škola","arrival_time":"4:33:00","departure_time":"4:33:00","lat":49.039435,"lon":16.9616,"is_passed":false},{"stop_id":"U16440Z3","name":"Uhřice, Janův Dvůr","arrival_time":"4:37:00","departure_time":"4:37:00","lat":49.022987,"lon":16.962236,"is_passed":false},{"stop_id":"U16436Z1","name":"Násedlovice, kostel","arrival_time":"4:39:00","departure_time":"4:39:00","lat":49.014265,"lon":16.961614,"is_passed":false},{"stop_id":"U16439Z1","name":"Násedlovice","arrival_time":"4:40:00","departure_time":"4:40:00","lat":49.011075,"lon":16.95703,"is_passed":false},{"stop_id":"U16438Z1","name":"Násedlovice, u hřiště","arrival_time":"4:41:00","departure_time":"4:41:00","lat":49.009217,"lon":16.95822,"is_passed":false},{"stop_id":"U16437Z1","name":"Násedlovice, mlýn","arrival_time":"4:43:00","departure_time":"4:43:00","lat":49.007262,"lon":16.966958,"is_passed":false},{"stop_id":"U16456Z1","name":"Karlín, farma","arrival_time":"4:48:00","departure_time":"4:48:00","lat":48.983167,"lon":16.974167,"is_passed":false},{"stop_id":"U16455Z1","name":"Karlín","arrival_time":"4:52:00","departure_time":"4:52:00","lat":48.975568,"lon":16.977232,"is_passed":false},{"stop_id":"U16545Z4","name":"Čejč, náměstí","arrival_time":"5:01:00","departure_time":"5:58:00","lat":48.94568,"lon":16.967358,"is_passed":false}],"7044":[{"stop_id":"U16545Z3","name":"Čejč, náměstí","arrival_time":"5:58:00","departure_time":"5:58:00","lat":48.946403,"lon":16.965978,"is_passed":false},{"stop_id":"U16455Z2","name":"Karlín","arrival_time":"6:07:00","departure_time":"6:07:00","lat":48.975618,"lon":16.977372,"is_passed":false},{"stop_id":"U16456Z2","name":"Karlín, farma","arrival_time":"6:11:00","departure_time":"6:11:00","lat":48.983167,"lon":16.974167,"is_passed":false},{"stop_id":"U16437Z2","name":"Násedlovice, mlýn","arrival_time":"6:16:00","departure_time":"6:16:00","lat":49.007317,"lon":16.966767,"is_passed":false},{"stop_id":"U16438Z2","name":"Násedlovice, u hřiště","arrival_time":"6:18:00","departure_time":"6:18:00","lat":49.00918,"lon":16.958217,"is_passed":false},{"stop_id":"U16439Z2","name":"Násedlovice","arrival_time":"6:19:00","departure_time":"6:19:00","lat":49.012059,"lon":16.958993,"is_passed":false},{"stop_id":"U16440Z4","name":"Uhřice, Janův Dvůr","arrival_time":"6:22:00","departure_time":"6:22:00","lat":49.022987,"lon":16.962236,"is_passed":false},{"stop_id":"U16448Z1","name":"Žarošice, škola","arrival_time":"6:26:00","departure_time":"6:26:00","lat":49.039337,"lon":16.96142,"is_passed":false},{"stop_id":"U16449Z1","name":"Žarošice","arrival_time":"6:27:00","departure_time":"6:27:00","lat":49.040617,"lon":16.967482,"is_passed":false},{"stop_id":"U16525Z1","name":"Archlebov","arrival_time":"6:32:00","departure_time":"6:32:00","lat":49.043113,"lon":17.00413,"is_passed":false},{"stop_id":"U16542Z2","name":"Ždánice, šroubárna","arrival_time":"6:36:00","departure_time":"6:36:00","lat":49.057332,"lon":17.025485,"is_passed":false},{"stop_id":"U16544Z1","name":"Ždánice","arrival_time":"6:38:00","departure_time":"6:38:00","lat":49.064517,"lon":17.029768,"is_passed":false}],"7045":[{"stop_id":"U16437Z2","name":"Násedlovice, mlýn","arrival_time":"7:16:00","departure_time":"7:16:00","lat":49.007317,"lon":16.966767,"is_passed":false},{"stop_id":"U16438Z2","name":"Násedlovice, u hřiště","arrival_time":"7:18:00","departure_time":"7:18:00","lat":49.00918,"lon":16.958217,"is_passed":false},{"stop_id":"U16439Z2","name":"Násedlovice","arrival_time":"7:19:00","departure_time":"7:19:00","lat":49.012059,"lon":16.958993,"is_passed":false},{"stop_id":"U16440Z4","name":"Uhřice, Janův Dvůr","arrival_time":"7:22:00","departure_time":"7:22:00","lat":49.022987,"lon":16.962236,"is_passed":false},{"stop_id":"U16448Z1","name":"Žarošice, škola","arrival_time":"7:26:00","departure_time":"7:26:00","lat":49.039337,"lon":16.96142,"is_passed":false},{"stop_id":"U16449Z1","name":"Žarošice","arrival_time":"7:27:00","departure_time":"7:27:00","lat":49.040617,"lon":16.967482,"is_passed":false},{"stop_id":"U16525Z1","name":"Archlebov","arrival_time":"7:32:00","departure_time":"7:32:00","lat":49.043113,"lon":17.00413,"is_passed":false},{"stop_id":"U16527Z3","name":"Dražůvky","arrival_time":"7:36:00","departure_time":"7:36:00","lat":49.031967,"lon":17.020073,"is_passed":false},{"stop_id":"U16526Z1","name":"Dražůvky, rozcestí","arrival_time":"7:37:00","departure_time":"7:37:00","lat":49.039815,"lon":17.022695,"is_passed":false},{"stop_id":"U16542Z2","name":"Ždánice, šroubárna","arrival_time":"7:41:00","departure_time":"7:41:00","lat":49.057332,"lon":17.025485,"is_passed":false},{"stop_id":"U16544Z1","name":"Ždánice","arrival_time":"7:43:00","departure_time":"7:43:00","lat":49.064517,"lon":17.029768,"is_passed":false},{"stop_id":"U16558Z1","name":"Ždánice, škola","arrival_time":"7:44:00","departure_time":"7:44:00","lat":49.067194,"lon":17.027832,"is_passed":false},{"stop_id":"U16543Z1","name":"Ždánice, zdravotní středisko","arrival_time":"7:45:00","departure_time":"9:18:00","lat":49.063885,"lon":17.026308,"is_passed":false}],"7046":[{"stop_id":"U16543Z2","name":"Ždánice, zdravotní středisko","arrival_time":"9:18:00","departure_time":"9:18:00","lat":49.063885,"lon":17.026308,"is_passed":false},{"stop_id":"U16544Z1","name":"Ždánice","arrival_time":"9:20:00","departure_time":"9:20:00","lat":49.064517,"lon":17.029768,"is_passed":false},{"stop_id":"U16542Z1","name":"Ždánice, šroubárna","arrival_time":"9:23:00","departure_time":"9:23:00","lat":49.057508,"lon":17.025452,"is_passed":false},{"stop_id":"U16525Z2","name":"Archlebov","arrival_time":"9:27:00","departure_time":"9:27:00","lat":49.043193,"lon":17.003877,"is_passed":false},{"stop_id":"U16449Z2","name":"Žarošice","arrival_time":"9:32:00","departure_time":"9:32:00","lat":49.040472,"lon":16.966415,"is_passed":false},{"stop_id":"U16448Z2","name":"Žarošice, škola","arrival_time":"9:33:00","departure_time":"9:33:00","lat":49.039435,"lon":16.9616,"is_passed":false},{"stop_id":"U16440Z3","name":"Uhřice, Janův Dvůr","arrival_time":"9:37:00","departure_time":"9:37:00","lat":49.022987,"lon":16.962236,"is_passed":false},{"stop_id":"U16436Z1","name":"Násedlovice, kostel","arrival_time":"9:39:00","departure_time":"9:39:00","lat":49.014265,"lon":16.961614,"is_passed":false},{"stop_id":"U16439Z1","name":"Násedlovice","arrival_time":"9:40:00","departure_time":"9:40:00","lat":49.011075,"lon":16.95703,"is_passed":false},{"stop_id":"U16438Z1","name":"Násedlovice, u hřiště","arrival_time":"9:41:00","departure_time":"9:41:00","lat":49.009217,"lon":16.95822,"is_passed":false},{"stop_id":"U16437Z1","name":"Násedlovice, mlýn","arrival_time":"9:43:00","departure_time":"9:43:00","lat":49.007262,"lon":16.966958,"is_passed":false},{"stop_id":"U16456Z1","name":"Karlín, farma","arrival_time":"9:48:00","departure_time":"9:48:00","lat":48.983167,"lon":16.974167,"is_passed":false},{"stop_id":"U16455Z1","name":"Karlín","arrival_time":"9:52:00","departure_time":"9:52:00","lat":48.975568,"lon":16.977232,"is_passed":false},{"stop_id":"U16545Z4","name":"Čejč, náměstí","arrival_time":"10:01:00","departure_time":"10:58:00","lat":48.94568,"lon":16.967358,"is_passed":false}],"7047":[{"stop_id":"U16545Z3","name":"Čejč, náměstí","arrival_time":"10:58:00","departure_time":"10:58:00","lat":48.946403,"lon":16.965978,"is_passed":false},{"stop_id":"U16455Z2","name":"Karlín","arrival_time":"11:07:00","departure_time":"11:07:00","lat":48.975618,"lon":16.977372,"is_passed":false},{"stop_id":"U16456Z2","name":"Karlín, farma","arrival_time":"11:11:00","departure_time":"11:11:00","lat":48.983167,"lon":16.974167,"is_passed":false},{"stop_id":"U16437Z2","name":"Násedlovice, mlýn","arrival_time":"11:16:00","departure_time":"11:16:00","lat":49.007317,"lon":16.966767,"is_passed":false},{"stop_id":"U16438Z2","name":"Násedlovice, u hřiště","arrival_time":"11:18:00","departure_time":"11:18:00","lat":49.00918,"lon":16.958217,"is_passed":false},{"stop_id":"U16439Z2","name":"Násedlovice","arrival_time":"11:19:00","departure_time":"11:19:00","lat":49.012059,"lon":16.958993,"is_passed":false},{"stop_id":"U16440Z4","name":"Uhřice, Janův Dvůr","arrival_time":"11:22:00","departure_time":"11:22:00","lat":49.022987,"lon":16.962236,"is_passed":false},{"stop_id":"U16448Z1","name":"Žarošice, škola","arrival_time":"11:26:00","departure_time":"11:26:00","lat":49.039337,"lon":16.96142,"is_passed":false},{"stop_id":"U16449Z1","name":"Žarošice","arrival_time":"11:27:00","departure_time":"11:27:00","lat":49.040617,"lon":16.967482,"is_passed":false},{"stop_id":"U16525Z1","name":"Archlebov","arrival_time":"11:32:00","departure_time":"11:32:00","lat":49.043113,"lon":17.00413,"is_passed":false},{"stop_id":"U16542Z2","name":"Ždánice, šroubárna","arrival_time":"11:36:00","departure_time":"11:36:00","lat":49.057332,"lon":17.025485,"is_passed":false},{"stop_id":"U16544Z1","name":"Ždánice","arrival_time":"11:38:00","departure_time":"11:38:00","lat":49.064517,"lon":17.029768,"is_passed":false}],"7048":[{"stop_id":"U16544Z2","name":"Ždánice","arrival_time":"13:41:00","departure_time":"13:41:00","lat":49.064517,"lon":17.029768,"is_passed":false},{"stop_id":"U16539Z2","name":"Ždánice, hvězdárna","arrival_time":"13:43:00","departure_time":"13:43:00","lat":49.065682,"lon":17.03744,"is_passed":false},{"stop_id":"U16535Z2","name":"Lovčice, dolní zastávka","arrival_time":"13:45:00","departure_time":"13:45:00","lat":49.063933,"lon":17.054483,"is_passed":false},{"stop_id":"U16536Z2","name":"Lovčice, prostřední zastávka","arrival_time":"13:47:00","departure_time":"13:47:00","lat":49.067328,"lon":17.062387,"is_passed":false},{"stop_id":"U16537Z2","name":"Lovčice, horní zastávka","arrival_time":"13:49:00","departure_time":"13:49:00","lat":49.068408,"lon":17.070628,"is_passed":false},{"stop_id":"U16616Z2","name":"Nechvalín, dolní zastávka","arrival_time":"13:53:00","departure_time":"13:53:00","lat":49.054045,"lon":17.077948,"is_passed":false},{"stop_id":"U16617Z2","name":"Nechvalín, horní zastávka","arrival_time":"13:55:00","departure_time":"13:55:00","lat":49.049093,"lon":17.083683,"is_passed":false},{"stop_id":"U16618Z2","name":"Ostrovánky","arrival_time":"13:57:00","departure_time":"13:57:00","lat":49.042584,"lon":17.080349,"is_passed":false},{"stop_id":"U16654Z2","name":"Bukovany, Bukovanský mlýn","arrival_time":"13:59:00","departure_time":"13:59:00","lat":49.040895,"lon":17.09218,"is_passed":false},{"stop_id":"U16601Z2","name":"Bukovany","arrival_time":"14:00:00","departure_time":"14:00:00","lat":49.04115,"lon":17.1016,"is_passed":false},{"stop_id":"U16613Z2","name":"Kyjov, pod nemocnicí","arrival_time":"14:06:00","departure_time":"14:06:00","lat":49.007606,"lon":17.114125,"is_passed":false},{"stop_id":"U16608Z16","name":"Kyjov, aut. st.","arrival_time":"14:08:00","departure_time":"14:08:00","lat":49.006873,"lon":17.123912,"is_passed":false}],"7049":[{"stop_id":"U16544Z1","name":"Ždánice","arrival_time":"14:45:00","departure_time":"14:45:00","lat":49.064517,"lon":17.029768,"is_passed":false},{"stop_id":"U16542Z1","name":"Ždánice, šroubárna","arrival_time":"14:48:00","departure_time":"14:48:00","lat":49.057508,"lon":17.025452,"is_passed":false},{"stop_id":"U16526Z2","name":"Dražůvky, rozcestí","arrival_time":"14:52:00","departure_time":"14:52:00","lat":49.039952,"lon":17.022837,"is_passed":false},{"stop_id":"U16527Z3","name":"Dražůvky","arrival_time":"14:53:00","departure_time":"14:53:00","lat":49.031967,"lon":17.020073,"is_passed":false},{"stop_id":"U16525Z2","name":"Archlebov","arrival_time":"14:57:00","departure_time":"14:57:00","lat":49.043193,"lon":17.003877,"is_passed":false},{"stop_id":"U16449Z2","name":"Žarošice","arrival_time":"15:02:00","departure_time":"15:02:00","lat":49.040472,"lon":16.966415,"is_passed":false},{"stop_id":"U16448Z2","name":"Žarošice, škola","arrival_time":"15:03:00","departure_time":"15:03:00","lat":49.039435,"lon":16.9616,"is_passed":false},{"stop_id":"U16440Z3","name":"Uhřice, Janův Dvůr","arrival_time":"15:07:00","departure_time":"15:07:00","lat":49.022987,"lon":16.962236,"is_passed":false},{"stop_id":"U16436Z1","name":"Násedlovice, kostel","arrival_time":"15:09:00","departure_time":"15:09:00","lat":49.014265,"lon":16.961614,"is_passed":false},{"stop_id":"U16439Z1","name":"Násedlovice","arrival_time":"15:10:00","departure_time":"15:10:00","lat":49.011075,"lon":16.95703,"is_passed":false},{"stop_id":"U16438Z1","name":"Násedlovice, u hřiště","arrival_time":"15:11:00","departure_time":"15:11:00","lat":49.009217,"lon":16.95822,"is_passed":false},{"stop_id":"U16437Z1","name":"Násedlovice, mlýn","arrival_time":"15:13:00","departure_time":"15:46:00","lat":49.007262,"lon":16.966958,"is_passed":false}]}