{"716":[{"stop_id":"U13334Z21","name":"Tišnov, železniční stanice","arrival_time":"14:29:00","departure_time":"14:29:00","lat":49.3475,"lon":16.41725,"is_passed":false},{"stop_id":"U13306Z11","name":"Hradčany, železniční stanice","arrival_time":"14:31:00","departure_time":"14:32:00","lat":49.333878,"lon":16.437893,"is_passed":false},{"stop_id":"U13206Z11","name":"Čebín, železniční stanice","arrival_time":"14:34:00","departure_time":"14:35:00","lat":49.319722,"lon":16.465278,"is_passed":false},{"stop_id":"U13143Z11","name":"Kuřim, železniční stanice","arrival_time":"14:40:00","departure_time":"14:41:00","lat":49.301,"lon":16.534523,"is_passed":false},{"stop_id":"U13109Z11","name":"Česká, železniční stanice","arrival_time":"14:43:00","departure_time":"14:44:00","lat":49.284546,"lon":16.566731,"is_passed":false},{"stop_id":"U1557Z11","name":"Řečkovice, nádraží","arrival_time":"14:48:00","departure_time":"14:48:00","lat":49.250794,"lon":16.590446,"is_passed":false},{"stop_id":"U1286Z11","name":"Královo Pole, nádraží","arrival_time":"14:51:00","departure_time":"14:52:00","lat":49.231051,"lon":16.596651,"is_passed":false},{"stop_id":"U1331Z11","name":"Lesná, nádraží","arrival_time":"14:54:00","departure_time":"14:55:00","lat":49.220432,"lon":16.627505,"is_passed":false},{"stop_id":"U1809Z11","name":"Židenice, nádraží","arrival_time":"15:01:00","departure_time":"15:01:00","lat":49.204282,"lon":16.636042,"is_passed":false},{"stop_id":"U1146Z98","name":"Hlavní nádraží","arrival_time":"15:06:00","departure_time":"15:09:00","lat":49.19035,"lon":16.612342,"is_passed":false},{"stop_id":"U11002Z11","name":"Brno-Horní Heršpice","arrival_time":"15:13:00","departure_time":"15:13:00","lat":49.167404,"lon":16.60686,"is_passed":false},{"stop_id":"U15140Z11","name":"Modřice, železniční stanice","arrival_time":"15:17:00","departure_time":"15:18:00","lat":49.133256,"lon":16.606209,"is_passed":false},{"stop_id":"U15181Z11","name":"Rajhrad, železniční stanice","arrival_time":"15:21:00","departure_time":"15:22:00","lat":49.084966,"lon":16.60532,"is_passed":false},{"stop_id":"U15222Z11","name":"Hrušovany u Brna, žel. st.","arrival_time":"15:26:00","departure_time":"15:30:00","lat":49.034228,"lon":16.591501,"is_passed":false},{"stop_id":"U15306Z11","name":"Žabčice, žel. st.","arrival_time":"15:33:00","departure_time":"15:33:00","lat":49.010857,"lon":16.594833,"is_passed":false},{"stop_id":"U15307Z11","name":"Vranovice, žel.st.","arrival_time":"15:37:00","departure_time":"15:38:00","lat":48.964528,"lon":16.604187,"is_passed":false},{"stop_id":"U25401Z11","name":"Pouzdřany","arrival_time":"15:40:00","departure_time":"15:41:00","lat":48.942025,"lon":16.630527,"is_passed":false},{"stop_id":"U25402Z11","name":"Popice","arrival_time":"15:44:00","departure_time":"15:44:00","lat":48.924332,"lon":16.668084,"is_passed":false},{"stop_id":"U15425Z11","name":"Šakvice, železniční stanice","arrival_time":"15:47:00","departure_time":"15:48:00","lat":48.912883,"lon":16.70557,"is_passed":false},{"stop_id":"U15403Z11","name":"Hustopeče, autobusové nádraží","arrival_time":"15:55:00","departure_time":"16:04:00","lat":48.93752,"lon":16.735901,"is_passed":false}],"7160":[{"stop_id":"U16622Z2","name":"Strážovice","arrival_time":"18:16:00","departure_time":"18:16:00","lat":49.0093,"lon":17.047132,"is_passed":false},{"stop_id":"U16635Z2","name":"Stavěšice","arrival_time":"18:20:00","departure_time":"18:20:00","lat":49.002007,"lon":17.02977,"is_passed":false},{"stop_id":"U16529Z2","name":"Nenkovice, škola","arrival_time":"18:23:00","departure_time":"18:23:00","lat":49.004683,"lon":17.01574,"is_passed":false},{"stop_id":"U16528Z2","name":"Nenkovice, obecní úřad","arrival_time":"18:24:00","departure_time":"18:24:00","lat":49.00398,"lon":17.011083,"is_passed":false},{"stop_id":"U16530Z2","name":"Nenkovice, u kašny","arrival_time":"18:25:00","departure_time":"18:25:00","lat":49.001835,"lon":17.008144,"is_passed":false},{"stop_id":"U16534Z2","name":"Želetice","arrival_time":"18:28:00","departure_time":"18:28:00","lat":49.012481,"lon":17.009044,"is_passed":false},{"stop_id":"U16533Z2","name":"Želetice, statek","arrival_time":"18:29:00","departure_time":"18:30:00","lat":49.015307,"lon":17.006765,"is_passed":false}],"7161":[{"stop_id":"U16533Z1","name":"Želetice, statek","arrival_time":"18:30:00","departure_time":"18:30:00","lat":49.01512,"lon":17.006987,"is_passed":false},{"stop_id":"U16534Z1","name":"Želetice","arrival_time":"18:31:00","departure_time":"18:31:00","lat":49.012693,"lon":17.009444,"is_passed":false},{"stop_id":"U16530Z1","name":"Nenkovice, u kašny","arrival_time":"18:34:00","departure_time":"18:34:00","lat":49.001724,"lon":17.007864,"is_passed":false},{"stop_id":"U16528Z1","name":"Nenkovice, obecní úřad","arrival_time":"18:35:00","departure_time":"18:35:00","lat":49.004197,"lon":17.011395,"is_passed":false},{"stop_id":"U16529Z1","name":"Nenkovice, škola","arrival_time":"18:36:00","departure_time":"18:36:00","lat":49.004607,"lon":17.015563,"is_passed":false},{"stop_id":"U16635Z1","name":"Stavěšice","arrival_time":"18:39:00","departure_time":"18:39:00","lat":49.001868,"lon":17.029877,"is_passed":false},{"stop_id":"U16622Z1","name":"Strážovice","arrival_time":"18:43:00","departure_time":"19:16:00","lat":49.0093,"lon":17.047132,"is_passed":false}],"7162":[{"stop_id":"U16622Z2","name":"Strážovice","arrival_time":"19:16:00","departure_time":"19:16:00","lat":49.0093,"lon":17.047132,"is_passed":false},{"stop_id":"U16635Z2","name":"Stavěšice","arrival_time":"19:20:00","departure_time":"19:20:00","lat":49.002007,"lon":17.02977,"is_passed":false},{"stop_id":"U16529Z2","name":"Nenkovice, škola","arrival_time":"19:23:00","departure_time":"19:23:00","lat":49.004683,"lon":17.01574,"is_passed":false},{"stop_id":"U16528Z2","name":"Nenkovice, obecní úřad","arrival_time":"19:24:00","departure_time":"19:24:00","lat":49.00398,"lon":17.011083,"is_passed":false},{"stop_id":"U16530Z2","name":"Nenkovice, u kašny","arrival_time":"19:25:00","departure_time":"19:25:00","lat":49.001835,"lon":17.008144,"is_passed":false},{"stop_id":"U16534Z2","name":"Želetice","arrival_time":"19:28:00","departure_time":"19:28:00","lat":49.012481,"lon":17.009044,"is_passed":false},{"stop_id":"U16533Z2","name":"Želetice, statek","arrival_time":"19:29:00","departure_time":"19:30:00","lat":49.015307,"lon":17.006765,"is_passed":false}],"7163":[{"stop_id":"U16533Z1","name":"Želetice, statek","arrival_time":"19:30:00","departure_time":"19:30:00","lat":49.01512,"lon":17.006987,"is_passed":false},{"stop_id":"U16534Z1","name":"Želetice","arrival_time":"19:31:00","departure_time":"19:31:00","lat":49.012693,"lon":17.009444,"is_passed":false},{"stop_id":"U16530Z1","name":"Nenkovice, u kašny","arrival_time":"19:34:00","departure_time":"19:34:00","lat":49.001724,"lon":17.007864,"is_passed":false},{"stop_id":"U16528Z1","name":"Nenkovice, obecní úřad","arrival_time":"19:35:00","departure_time":"19:35:00","lat":49.004197,"lon":17.011395,"is_passed":false},{"stop_id":"U16529Z1","name":"Nenkovice, škola","arrival_time":"19:36:00","departure_time":"19:36:00","lat":49.004607,"lon":17.015563,"is_passed":false},{"stop_id":"U16635Z1","name":"Stavěšice","arrival_time":"19:39:00","departure_time":"19:39:00","lat":49.001868,"lon":17.029877,"is_passed":false},{"stop_id":"U16622Z1","name":"Strážovice","arrival_time":"19:43:00","departure_time":"20:16:00","lat":49.0093,"lon":17.047132,"is_passed":false}],"7164":[{"stop_id":"U16622Z2","name":"Strážovice","arrival_time":"20:16:00","departure_time":"20:16:00","lat":49.0093,"lon":17.047132,"is_passed":false},{"stop_id":"U16635Z2","name":"Stavěšice","arrival_time":"20:20:00","departure_time":"20:20:00","lat":49.002007,"lon":17.02977,"is_passed":false},{"stop_id":"U16529Z2","name":"Nenkovice, škola","arrival_time":"20:23:00","departure_time":"20:23:00","lat":49.004683,"lon":17.01574,"is_passed":false},{"stop_id":"U16528Z2","name":"Nenkovice, obecní úřad","arrival_time":"20:24:00","departure_time":"20:24:00","lat":49.00398,"lon":17.011083,"is_passed":false},{"stop_id":"U16530Z2","name":"Nenkovice, u kašny","arrival_time":"20:25:00","departure_time":"20:25:00","lat":49.001835,"lon":17.008144,"is_passed":false},{"stop_id":"U16534Z2","name":"Želetice","arrival_time":"20:28:00","departure_time":"20:28:00","lat":49.012481,"lon":17.009044,"is_passed":false},{"stop_id":"U16533Z2","name":"Želetice, statek","arrival_time":"20:29:00","departure_time":"21:00:00","lat":49.015307,"lon":17.006765,"is_passed":false}],"7165":[{"stop_id":"U16533Z1","name":"Želetice, statek","arrival_time":"21:00:00","departure_time":"21:00:00","lat":49.01512,"lon":17.006987,"is_passed":false},{"stop_id":"U16534Z1","name":"Želetice","arrival_time":"21:01:00","departure_time":"21:01:00","lat":49.012693,"lon":17.009444,"is_passed":false},{"stop_id":"U16530Z1","name":"Nenkovice, u kašny","arrival_time":"21:04:00","departure_time":"21:04:00","lat":49.001724,"lon":17.007864,"is_passed":false},{"stop_id":"U16528Z1","name":"Nenkovice, obecní úřad","arrival_time":"21:05:00","departure_time":"21:05:00","lat":49.004197,"lon":17.011395,"is_passed":false},{"stop_id":"U16529Z1","name":"Nenkovice, škola","arrival_time":"21:06:00","departure_time":"21:06:00","lat":49.004607,"lon":17.015563,"is_passed":false},{"stop_id":"U16635Z1","name":"Stavěšice","arrival_time":"21:09:00","departure_time":"21:09:00","lat":49.001868,"lon":17.029877,"is_passed":false},{"stop_id":"U16622Z1","name":"Strážovice","arrival_time":"21:13:00","departure_time":"21:26:00","lat":49.0093,"lon":17.047132,"is_passed":false}],"7166":[{"stop_id":"U16622Z2","name":"Strážovice","arrival_time":"21:26:00","departure_time":"21:26:00","lat":49.0093,"lon":17.047132,"is_passed":false},{"stop_id":"U16635Z2","name":"Stavěšice","arrival_time":"21:30:00","departure_time":"21:30:00","lat":49.002007,"lon":17.02977,"is_passed":false},{"stop_id":"U16529Z2","name":"Nenkovice, škola","arrival_time":"21:33:00","departure_time":"21:33:00","lat":49.004683,"lon":17.01574,"is_passed":false},{"stop_id":"U16528Z2","name":"Nenkovice, obecní úřad","arrival_time":"21:34:00","departure_time":"21:34:00","lat":49.00398,"lon":17.011083,"is_passed":false},{"stop_id":"U16530Z2","name":"Nenkovice, u kašny","arrival_time":"21:35:00","departure_time":"21:35:00","lat":49.001835,"lon":17.008144,"is_passed":false},{"stop_id":"U16534Z2","name":"Želetice","arrival_time":"21:38:00","departure_time":"21:38:00","lat":49.012481,"lon":17.009044,"is_passed":false},{"stop_id":"U16533Z2","name":"Želetice, statek","arrival_time":"21:39:00","departure_time":"22:20:00","lat":49.015307,"lon":17.006765,"is_passed":false}],"7167":[{"stop_id":"U16533Z1","name":"Želetice, statek","arrival_time":"22:20:00","departure_time":"22:20:00","lat":49.01512,"lon":17.006987,"is_passed":false},{"stop_id":"U16534Z1","name":"Želetice","arrival_time":"22:21:00","departure_time":"22:21:00","lat":49.012693,"lon":17.009444,"is_passed":false},{"stop_id":"U16530Z1","name":"Nenkovice, u kašny","arrival_time":"22:24:00","departure_time":"22:24:00","lat":49.001724,"lon":17.007864,"is_passed":false},{"stop_id":"U16528Z1","name":"Nenkovice, obecní úřad","arrival_time":"22:25:00","departure_time":"22:25:00","lat":49.004197,"lon":17.011395,"is_passed":false},{"stop_id":"U16529Z1","name":"Nenkovice, škola","arrival_time":"22:26:00","departure_time":"22:26:00","lat":49.004607,"lon":17.015563,"is_passed":false},{"stop_id":"U16635Z1","name":"Stavěšice","arrival_time":"22:29:00","departure_time":"22:29:00","lat":49.001868,"lon":17.029877,"is_passed":false},{"stop_id":"U16622Z1","name":"Strážovice","arrival_time":"22:33:00","departure_time":"23:46:00","lat":49.0093,"lon":17.047132,"is_passed":false}],"7168":[{"stop_id":"U16622Z2","name":"Strážovice","arrival_time":"23:46:00","departure_time":"23:46:00","lat":49.0093,"lon":17.047132,"is_passed":false},{"stop_id":"U16635Z2","name":"Stavěšice","arrival_time":"23:50:00","departure_time":"23:50:00","lat":49.002007,"lon":17.02977,"is_passed":false},{"stop_id":"U16529Z2","name":"Nenkovice, škola","arrival_time":"23:53:00","departure_time":"23:53:00","lat":49.004683,"lon":17.01574,"is_passed":false},{"stop_id":"U16528Z2","name":"Nenkovice, obecní úřad","arrival_time":"23:54:00","departure_time":"23:54:00","lat":49.00398,"lon":17.011083,"is_passed":false},{"stop_id":"U16530Z2","name":"Nenkovice, u kašny","arrival_time":"23:55:00","departure_time":"23:55:00","lat":49.001835,"lon":17.008144,"is_passed":false},{"stop_id":"U16534Z2","name":"Želetice","arrival_time":"23:58:00","departure_time":"23:58:00","lat":49.012481,"lon":17.009044,"is_passed":false},{"stop_id":"U16533Z2","name":"Želetice, statek","arrival_time":"23:59:00","departure_time":"23:59:00","lat":49.015307,"lon":17.006765,"is_passed":false}],"7169":[{"stop_id":"U16545Z3","name":"Čejč, náměstí","arrival_time":"3:58:00","departure_time":"3:58:00","lat":48.946403,"lon":16.965978,"is_passed":false},{"stop_id":"U16455Z2","name":"Karlín","arrival_time":"4:07:00","departure_time":"4:07:00","lat":48.975618,"lon":16.977372,"is_passed":false},{"stop_id":"U16456Z2","name":"Karlín, farma","arrival_time":"4:11:00","departure_time":"4:11:00","lat":48.983167,"lon":16.974167,"is_passed":false},{"stop_id":"U16437Z2","name":"Násedlovice, mlýn","arrival_time":"4:16:00","departure_time":"4:18:00","lat":49.007317,"lon":16.966767,"is_passed":false},{"stop_id":"U16438Z2","name":"Násedlovice, u hřiště","arrival_time":"4:20:00","departure_time":"4:20:00","lat":49.00918,"lon":16.958217,"is_passed":false},{"stop_id":"U16439Z2","name":"Násedlovice","arrival_time":"4:21:00","departure_time":"4:21:00","lat":49.012059,"lon":16.958993,"is_passed":false},{"stop_id":"U16440Z4","name":"Uhřice, Janův Dvůr","arrival_time":"4:24:00","departure_time":"4:24:00","lat":49.022987,"lon":16.962236,"is_passed":false},{"stop_id":"U16448Z1","name":"Žarošice, škola","arrival_time":"4:28:00","departure_time":"4:28:00","lat":49.039337,"lon":16.96142,"is_passed":false},{"stop_id":"U16449Z1","name":"Žarošice","arrival_time":"4:29:00","departure_time":"4:37:00","lat":49.040617,"lon":16.967482,"is_passed":false},{"stop_id":"U16525Z1","name":"Archlebov","arrival_time":"4:42:00","departure_time":"4:42:00","lat":49.043113,"lon":17.00413,"is_passed":false},{"stop_id":"U16542Z2","name":"Ždánice, šroubárna","arrival_time":"4:46:00","departure_time":"4:46:00","lat":49.057332,"lon":17.025485,"is_passed":false},{"stop_id":"U16544Z1","name":"Ždánice","arrival_time":"4:48:00","departure_time":"5:20:00","lat":49.064517,"lon":17.029768,"is_passed":false}]}