{"717":[{"stop_id":"U15403Z10","name":"Hustopeče, autobusové nádraží","arrival_time":"16:04:00","departure_time":"16:04:00","lat":48.93752,"lon":16.735901,"is_passed":false},{"stop_id":"U15425Z10","name":"Šakvice, železniční stanice","arrival_time":"16:10:00","departure_time":"16:11:00","lat":48.912883,"lon":16.70557,"is_passed":false},{"stop_id":"U25402Z10","name":"Popice","arrival_time":"16:13:00","departure_time":"16:14:00","lat":48.924332,"lon":16.668084,"is_passed":false},{"stop_id":"U25401Z10","name":"Pouzdřany","arrival_time":"16:17:00","departure_time":"16:17:00","lat":48.942025,"lon":16.630527,"is_passed":false},{"stop_id":"U15307Z10","name":"Vranovice, žel.st.","arrival_time":"16:20:00","departure_time":"16:21:00","lat":48.964528,"lon":16.604187,"is_passed":false},{"stop_id":"U15306Z10","name":"Žabčice, žel. st.","arrival_time":"16:24:00","departure_time":"16:25:00","lat":49.010865,"lon":16.594993,"is_passed":false},{"stop_id":"U15222Z10","name":"Hrušovany u Brna, žel. st.","arrival_time":"16:28:00","departure_time":"16:32:00","lat":49.034228,"lon":16.591501,"is_passed":false},{"stop_id":"U15181Z10","name":"Rajhrad, železniční stanice","arrival_time":"16:36:00","departure_time":"16:37:00","lat":49.084966,"lon":16.60532,"is_passed":false},{"stop_id":"U15140Z10","name":"Modřice, železniční stanice","arrival_time":"16:40:00","departure_time":"16:41:00","lat":49.133256,"lon":16.606209,"is_passed":false},{"stop_id":"U1146Z99","name":"Hlavní nádraží","arrival_time":"16:48:00","departure_time":"16:53:00","lat":49.19035,"lon":16.612342,"is_passed":false},{"stop_id":"U1809Z10","name":"Židenice, nádraží","arrival_time":"16:56:00","departure_time":"16:57:00","lat":49.204282,"lon":16.636042,"is_passed":false},{"stop_id":"U1331Z10","name":"Lesná, nádraží","arrival_time":"17:02:00","departure_time":"17:03:00","lat":49.220432,"lon":16.627505,"is_passed":false},{"stop_id":"U1286Z10","name":"Královo Pole, nádraží","arrival_time":"17:06:00","departure_time":"17:07:00","lat":49.231051,"lon":16.596651,"is_passed":false},{"stop_id":"U1557Z10","name":"Řečkovice, nádraží","arrival_time":"17:09:00","departure_time":"17:10:00","lat":49.250794,"lon":16.590446,"is_passed":false},{"stop_id":"U13109Z10","name":"Česká, železniční stanice","arrival_time":"17:13:00","departure_time":"17:14:00","lat":49.284546,"lon":16.566731,"is_passed":false},{"stop_id":"U13143Z10","name":"Kuřim, železniční stanice","arrival_time":"17:17:00","departure_time":"17:18:00","lat":49.301,"lon":16.534523,"is_passed":false},{"stop_id":"U13206Z10","name":"Čebín, železniční stanice","arrival_time":"17:23:00","departure_time":"17:23:00","lat":49.319722,"lon":16.465278,"is_passed":false},{"stop_id":"U13306Z10","name":"Hradčany, železniční stanice","arrival_time":"17:26:00","departure_time":"17:26:00","lat":49.334153,"lon":16.437807,"is_passed":false},{"stop_id":"U13334Z20","name":"Tišnov, železniční stanice","arrival_time":"17:29:00","departure_time":"17:30:00","lat":49.3475,"lon":16.41725,"is_passed":false},{"stop_id":"U13411Z10","name":"Dolní Loučky, železniční stanice","arrival_time":"17:34:00","departure_time":"17:34:00","lat":49.356389,"lon":16.346945,"is_passed":false},{"stop_id":"U13425Z10","name":"Řikonín, železniční stanice","arrival_time":"17:37:00","departure_time":"17:37:00","lat":49.365833,"lon":16.305833,"is_passed":false},{"stop_id":"U13454Z10","name":"Níhov, železniční stanice","arrival_time":"17:41:00","departure_time":"17:41:00","lat":49.336616,"lon":16.270487,"is_passed":false},{"stop_id":"U23501Z1","name":"Vlkov-Osová","arrival_time":"17:46:00","departure_time":"17:46:00","lat":49.326883,"lon":16.202114,"is_passed":false},{"stop_id":"U30305Z1","name":"Osová Bítýška","arrival_time":"17:49:00","departure_time":"17:49:00","lat":49.329893,"lon":16.168305,"is_passed":false},{"stop_id":"U30302Z1","name":"Ořechov","arrival_time":"17:52:00","departure_time":"17:52:00","lat":49.350503,"lon":16.136551,"is_passed":false},{"stop_id":"U30009Z1","name":"Křižanov","arrival_time":"17:58:00","departure_time":"19:00:00","lat":49.384877,"lon":16.080351,"is_passed":false}],"7170":[{"stop_id":"U16544Z1","name":"Ždánice","arrival_time":"5:20:00","departure_time":"5:20:00","lat":49.064517,"lon":17.029768,"is_passed":false},{"stop_id":"U16542Z1","name":"Ždánice, šroubárna","arrival_time":"5:23:00","departure_time":"5:23:00","lat":49.057508,"lon":17.025452,"is_passed":false},{"stop_id":"U16525Z2","name":"Archlebov","arrival_time":"5:27:00","departure_time":"5:27:00","lat":49.043193,"lon":17.003877,"is_passed":false},{"stop_id":"U16449Z2","name":"Žarošice","arrival_time":"5:32:00","departure_time":"5:32:00","lat":49.040472,"lon":16.966415,"is_passed":false},{"stop_id":"U16448Z2","name":"Žarošice, škola","arrival_time":"5:33:00","departure_time":"5:33:00","lat":49.039435,"lon":16.9616,"is_passed":false},{"stop_id":"U16440Z3","name":"Uhřice, Janův Dvůr","arrival_time":"5:37:00","departure_time":"5:37:00","lat":49.022987,"lon":16.962236,"is_passed":false},{"stop_id":"U16436Z1","name":"Násedlovice, kostel","arrival_time":"5:39:00","departure_time":"5:39:00","lat":49.014265,"lon":16.961614,"is_passed":false},{"stop_id":"U16439Z1","name":"Násedlovice","arrival_time":"5:40:00","departure_time":"5:40:00","lat":49.011075,"lon":16.95703,"is_passed":false},{"stop_id":"U16438Z1","name":"Násedlovice, u hřiště","arrival_time":"5:41:00","departure_time":"5:41:00","lat":49.009217,"lon":16.95822,"is_passed":false},{"stop_id":"U16437Z1","name":"Násedlovice, mlýn","arrival_time":"5:43:00","departure_time":"5:43:00","lat":49.007262,"lon":16.966958,"is_passed":false},{"stop_id":"U16456Z1","name":"Karlín, farma","arrival_time":"5:48:00","departure_time":"5:48:00","lat":48.983167,"lon":16.974167,"is_passed":false},{"stop_id":"U16455Z1","name":"Karlín","arrival_time":"5:52:00","departure_time":"5:52:00","lat":48.975568,"lon":16.977232,"is_passed":false},{"stop_id":"U16545Z4","name":"Čejč, náměstí","arrival_time":"6:01:00","departure_time":"6:01:00","lat":48.94568,"lon":16.967358,"is_passed":false}],"7171":[{"stop_id":"U16545Z4","name":"Čejč, náměstí","arrival_time":"6:21:00","departure_time":"6:21:00","lat":48.94568,"lon":16.967358,"is_passed":false},{"stop_id":"U16556Z2","name":"Hovorany, zdravotní středisko","arrival_time":"6:23:00","departure_time":"6:23:00","lat":48.949749,"lon":16.981078,"is_passed":false},{"stop_id":"U16555Z2","name":"Hovorany, škola","arrival_time":"6:25:00","departure_time":"6:25:00","lat":48.953908,"lon":16.984808,"is_passed":false},{"stop_id":"U16553Z2","name":"Hovorany, kostel","arrival_time":"6:27:00","departure_time":"6:27:00","lat":48.954573,"lon":16.99834,"is_passed":false},{"stop_id":"U16552Z2","name":"Hovorany, důl","arrival_time":"6:29:00","departure_time":"6:29:00","lat":48.956683,"lon":17.010608,"is_passed":false},{"stop_id":"U16813Z2","name":"Šardice","arrival_time":"6:32:00","departure_time":"6:32:00","lat":48.964017,"lon":17.028398,"is_passed":false},{"stop_id":"U16814Z2","name":"Šardice, u kapličky","arrival_time":"6:33:00","departure_time":"6:33:00","lat":48.961887,"lon":17.033457,"is_passed":false},{"stop_id":"U16816Z2","name":"Šardice, ZD","arrival_time":"6:34:00","departure_time":"6:34:00","lat":48.962023,"lon":17.043865,"is_passed":false},{"stop_id":"U16815Z2","name":"Šardice, Padělky","arrival_time":"6:35:00","departure_time":"6:35:00","lat":48.964032,"lon":17.051408,"is_passed":false},{"stop_id":"U16807Z2","name":"Svatobořice-Mistřín, Mistřín","arrival_time":"6:37:00","departure_time":"6:37:00","lat":48.971735,"lon":17.080763,"is_passed":false},{"stop_id":"U16810Z2","name":"Svatobořice-Mistřín, škola","arrival_time":"6:38:00","departure_time":"6:38:00","lat":48.974187,"lon":17.086079,"is_passed":false},{"stop_id":"U16806Z2","name":"Svatobořice-Mistřín, kulturní dům","arrival_time":"6:40:00","departure_time":"6:40:00","lat":48.977932,"lon":17.090462,"is_passed":false},{"stop_id":"U16809Z2","name":"Svatobořice-Mistřín, restaurace","arrival_time":"6:42:00","departure_time":"6:42:00","lat":48.983528,"lon":17.094782,"is_passed":false},{"stop_id":"U16811Z2","name":"Svatobořice-Mistřín, textilka","arrival_time":"6:44:00","departure_time":"6:44:00","lat":48.991569,"lon":17.101103,"is_passed":false},{"stop_id":"U16639Z2","name":"Kyjov, nemocnice, křižovatka","arrival_time":"6:47:00","departure_time":"6:47:00","lat":49.007137,"lon":17.113345,"is_passed":false},{"stop_id":"U16608Z16","name":"Kyjov, aut. st.","arrival_time":"6:50:00","departure_time":"7:06:00","lat":49.006873,"lon":17.123912,"is_passed":false}],"7172":[{"stop_id":"U16608Z10","name":"Kyjov, aut. st.","arrival_time":"7:06:00","departure_time":"7:06:00","lat":49.006523,"lon":17.124417,"is_passed":false},{"stop_id":"U16639Z1","name":"Kyjov, nemocnice, křižovatka","arrival_time":"7:08:00","departure_time":"7:08:00","lat":49.00725,"lon":17.113458,"is_passed":false},{"stop_id":"U16811Z1","name":"Svatobořice-Mistřín, textilka","arrival_time":"7:12:00","departure_time":"7:12:00","lat":48.991854,"lon":17.101184,"is_passed":false},{"stop_id":"U16809Z1","name":"Svatobořice-Mistřín, restaurace","arrival_time":"7:14:00","departure_time":"7:14:00","lat":48.98316,"lon":17.09427,"is_passed":false},{"stop_id":"U16812Z1","name":"Svatobořice-Mistřín, železniční stanice","arrival_time":"7:17:00","departure_time":"7:17:00","lat":48.975367,"lon":17.096775,"is_passed":false},{"stop_id":"U16806Z1","name":"Svatobořice-Mistřín, kulturní dům","arrival_time":"7:19:00","departure_time":"7:19:00","lat":48.977759,"lon":17.08999,"is_passed":false},{"stop_id":"U16810Z1","name":"Svatobořice-Mistřín, škola","arrival_time":"7:20:00","departure_time":"7:20:00","lat":48.973884,"lon":17.08519,"is_passed":false},{"stop_id":"U16807Z1","name":"Svatobořice-Mistřín, Mistřín","arrival_time":"7:22:00","departure_time":"7:22:00","lat":48.97174,"lon":17.080342,"is_passed":false},{"stop_id":"U16815Z1","name":"Šardice, Padělky","arrival_time":"7:24:00","departure_time":"7:24:00","lat":48.963713,"lon":17.049882,"is_passed":false},{"stop_id":"U16816Z1","name":"Šardice, ZD","arrival_time":"7:25:00","departure_time":"7:25:00","lat":48.962157,"lon":17.04396,"is_passed":false},{"stop_id":"U16814Z1","name":"Šardice, u kapličky","arrival_time":"7:26:00","departure_time":"7:26:00","lat":48.961947,"lon":17.03349,"is_passed":false},{"stop_id":"U16813Z1","name":"Šardice","arrival_time":"7:27:00","departure_time":"7:27:00","lat":48.963971,"lon":17.028606,"is_passed":false},{"stop_id":"U16552Z1","name":"Hovorany, důl","arrival_time":"7:30:00","departure_time":"7:30:00","lat":48.956725,"lon":17.010222,"is_passed":false},{"stop_id":"U16553Z1","name":"Hovorany, kostel","arrival_time":"7:32:00","departure_time":"7:32:00","lat":48.954818,"lon":16.998017,"is_passed":false},{"stop_id":"U16555Z1","name":"Hovorany, škola","arrival_time":"7:34:00","departure_time":"7:34:00","lat":48.953233,"lon":16.983643,"is_passed":false},{"stop_id":"U16556Z1","name":"Hovorany, zdravotní středisko","arrival_time":"7:35:00","departure_time":"7:35:00","lat":48.949956,"lon":16.981331,"is_passed":false},{"stop_id":"U16545Z3","name":"Čejč, náměstí","arrival_time":"7:37:00","departure_time":"7:51:00","lat":48.946403,"lon":16.965978,"is_passed":false}],"7173":[{"stop_id":"U16545Z4","name":"Čejč, náměstí","arrival_time":"7:51:00","departure_time":"7:51:00","lat":48.94568,"lon":16.967358,"is_passed":false},{"stop_id":"U16556Z2","name":"Hovorany, zdravotní středisko","arrival_time":"7:53:00","departure_time":"7:53:00","lat":48.949749,"lon":16.981078,"is_passed":false},{"stop_id":"U16555Z2","name":"Hovorany, škola","arrival_time":"7:55:00","departure_time":"7:55:00","lat":48.953908,"lon":16.984808,"is_passed":false},{"stop_id":"U16553Z2","name":"Hovorany, kostel","arrival_time":"7:57:00","departure_time":"7:57:00","lat":48.954573,"lon":16.99834,"is_passed":false},{"stop_id":"U16552Z2","name":"Hovorany, důl","arrival_time":"7:59:00","departure_time":"7:59:00","lat":48.956683,"lon":17.010608,"is_passed":false},{"stop_id":"U16813Z2","name":"Šardice","arrival_time":"8:02:00","departure_time":"8:02:00","lat":48.964017,"lon":17.028398,"is_passed":false},{"stop_id":"U16814Z2","name":"Šardice, u kapličky","arrival_time":"8:03:00","departure_time":"8:03:00","lat":48.961887,"lon":17.033457,"is_passed":false},{"stop_id":"U16816Z2","name":"Šardice, ZD","arrival_time":"8:04:00","departure_time":"8:04:00","lat":48.962023,"lon":17.043865,"is_passed":false},{"stop_id":"U16815Z2","name":"Šardice, Padělky","arrival_time":"8:05:00","departure_time":"8:05:00","lat":48.964032,"lon":17.051408,"is_passed":false},{"stop_id":"U16807Z2","name":"Svatobořice-Mistřín, Mistřín","arrival_time":"8:07:00","departure_time":"8:07:00","lat":48.971735,"lon":17.080763,"is_passed":false},{"stop_id":"U16810Z2","name":"Svatobořice-Mistřín, škola","arrival_time":"8:08:00","departure_time":"8:08:00","lat":48.974187,"lon":17.086079,"is_passed":false},{"stop_id":"U16806Z2","name":"Svatobořice-Mistřín, kulturní dům","arrival_time":"8:10:00","departure_time":"8:10:00","lat":48.977932,"lon":17.090462,"is_passed":false},{"stop_id":"U16809Z2","name":"Svatobořice-Mistřín, restaurace","arrival_time":"8:12:00","departure_time":"8:12:00","lat":48.983528,"lon":17.094782,"is_passed":false},{"stop_id":"U16811Z2","name":"Svatobořice-Mistřín, textilka","arrival_time":"8:14:00","departure_time":"8:14:00","lat":48.991569,"lon":17.101103,"is_passed":false},{"stop_id":"U16639Z2","name":"Kyjov, nemocnice, křižovatka","arrival_time":"8:17:00","departure_time":"8:17:00","lat":49.007137,"lon":17.113345,"is_passed":false},{"stop_id":"U16608Z16","name":"Kyjov, aut. st.","arrival_time":"8:20:00","departure_time":"9:39:00","lat":49.006873,"lon":17.123912,"is_passed":false}],"7174":[{"stop_id":"U16608Z10","name":"Kyjov, aut. st.","arrival_time":"9:39:00","departure_time":"9:39:00","lat":49.006523,"lon":17.124417,"is_passed":false},{"stop_id":"U16639Z1","name":"Kyjov, nemocnice, křižovatka","arrival_time":"9:41:00","departure_time":"9:41:00","lat":49.00725,"lon":17.113458,"is_passed":false},{"stop_id":"U16811Z1","name":"Svatobořice-Mistřín, textilka","arrival_time":"9:45:00","departure_time":"9:45:00","lat":48.991854,"lon":17.101184,"is_passed":false},{"stop_id":"U16809Z1","name":"Svatobořice-Mistřín, restaurace","arrival_time":"9:47:00","departure_time":"9:47:00","lat":48.98316,"lon":17.09427,"is_passed":false},{"stop_id":"U16806Z1","name":"Svatobořice-Mistřín, kulturní dům","arrival_time":"9:49:00","departure_time":"9:49:00","lat":48.977759,"lon":17.08999,"is_passed":false},{"stop_id":"U16810Z1","name":"Svatobořice-Mistřín, škola","arrival_time":"9:50:00","departure_time":"9:50:00","lat":48.973884,"lon":17.08519,"is_passed":false},{"stop_id":"U16807Z1","name":"Svatobořice-Mistřín, Mistřín","arrival_time":"9:52:00","departure_time":"9:52:00","lat":48.97174,"lon":17.080342,"is_passed":false},{"stop_id":"U16815Z1","name":"Šardice, Padělky","arrival_time":"9:54:00","departure_time":"9:54:00","lat":48.963713,"lon":17.049882,"is_passed":false},{"stop_id":"U16816Z1","name":"Šardice, ZD","arrival_time":"9:55:00","departure_time":"9:55:00","lat":48.962157,"lon":17.04396,"is_passed":false},{"stop_id":"U16814Z1","name":"Šardice, u kapličky","arrival_time":"9:56:00","departure_time":"9:56:00","lat":48.961947,"lon":17.03349,"is_passed":false},{"stop_id":"U16813Z1","name":"Šardice","arrival_time":"9:57:00","departure_time":"9:57:00","lat":48.963971,"lon":17.028606,"is_passed":false},{"stop_id":"U16552Z1","name":"Hovorany, důl","arrival_time":"10:00:00","departure_time":"10:00:00","lat":48.956725,"lon":17.010222,"is_passed":false},{"stop_id":"U16553Z1","name":"Hovorany, kostel","arrival_time":"10:02:00","departure_time":"10:02:00","lat":48.954818,"lon":16.998017,"is_passed":false},{"stop_id":"U16555Z1","name":"Hovorany, škola","arrival_time":"10:04:00","departure_time":"10:04:00","lat":48.953233,"lon":16.983643,"is_passed":false},{"stop_id":"U16556Z1","name":"Hovorany, zdravotní středisko","arrival_time":"10:05:00","departure_time":"10:05:00","lat":48.949956,"lon":16.981331,"is_passed":false},{"stop_id":"U16545Z3","name":"Čejč, náměstí","arrival_time":"10:07:00","departure_time":"10:10:00","lat":48.946403,"lon":16.965978,"is_passed":false},{"stop_id":"U16462Z2","name":"Terezín","arrival_time":"10:14:00","departure_time":"10:14:00","lat":48.956778,"lon":16.940897,"is_passed":false},{"stop_id":"U16454Z1","name":"Brumovice, železniční stanice","arrival_time":"10:17:00","departure_time":"10:17:00","lat":48.947167,"lon":16.905878,"is_passed":false},{"stop_id":"U15538Z1","name":"Kobylí","arrival_time":"10:21:00","departure_time":"11:39:00","lat":48.931883,"lon":16.884127,"is_passed":false}],"7175":[{"stop_id":"U15538Z2","name":"Kobylí","arrival_time":"11:39:00","departure_time":"11:39:00","lat":48.932237,"lon":16.884008,"is_passed":false},{"stop_id":"U16454Z2","name":"Brumovice, železniční stanice","arrival_time":"11:43:00","departure_time":"11:43:00","lat":48.947167,"lon":16.905878,"is_passed":false},{"stop_id":"U16462Z1","name":"Terezín","arrival_time":"11:46:00","departure_time":"11:46:00","lat":48.956737,"lon":16.940727,"is_passed":false},{"stop_id":"U16545Z4","name":"Čejč, náměstí","arrival_time":"11:50:00","departure_time":"11:51:00","lat":48.94568,"lon":16.967358,"is_passed":false},{"stop_id":"U16556Z2","name":"Hovorany, zdravotní středisko","arrival_time":"11:53:00","departure_time":"11:53:00","lat":48.949749,"lon":16.981078,"is_passed":false},{"stop_id":"U16555Z2","name":"Hovorany, škola","arrival_time":"11:55:00","departure_time":"11:55:00","lat":48.953908,"lon":16.984808,"is_passed":false},{"stop_id":"U16553Z2","name":"Hovorany, kostel","arrival_time":"11:57:00","departure_time":"11:57:00","lat":48.954573,"lon":16.99834,"is_passed":false},{"stop_id":"U16552Z2","name":"Hovorany, důl","arrival_time":"11:59:00","departure_time":"11:59:00","lat":48.956683,"lon":17.010608,"is_passed":false},{"stop_id":"U16813Z2","name":"Šardice","arrival_time":"12:02:00","departure_time":"12:02:00","lat":48.964017,"lon":17.028398,"is_passed":false},{"stop_id":"U16814Z2","name":"Šardice, u kapličky","arrival_time":"12:03:00","departure_time":"12:03:00","lat":48.961887,"lon":17.033457,"is_passed":false},{"stop_id":"U16816Z2","name":"Šardice, ZD","arrival_time":"12:04:00","departure_time":"12:04:00","lat":48.962023,"lon":17.043865,"is_passed":false},{"stop_id":"U16815Z2","name":"Šardice, Padělky","arrival_time":"12:05:00","departure_time":"12:05:00","lat":48.964032,"lon":17.051408,"is_passed":false},{"stop_id":"U16807Z2","name":"Svatobořice-Mistřín, Mistřín","arrival_time":"12:07:00","departure_time":"12:07:00","lat":48.971735,"lon":17.080763,"is_passed":false},{"stop_id":"U16810Z2","name":"Svatobořice-Mistřín, škola","arrival_time":"12:08:00","departure_time":"12:08:00","lat":48.974187,"lon":17.086079,"is_passed":false},{"stop_id":"U16806Z2","name":"Svatobořice-Mistřín, kulturní dům","arrival_time":"12:10:00","departure_time":"12:10:00","lat":48.977932,"lon":17.090462,"is_passed":false},{"stop_id":"U16809Z2","name":"Svatobořice-Mistřín, restaurace","arrival_time":"12:12:00","departure_time":"12:12:00","lat":48.983528,"lon":17.094782,"is_passed":false},{"stop_id":"U16811Z2","name":"Svatobořice-Mistřín, textilka","arrival_time":"12:14:00","departure_time":"12:14:00","lat":48.991569,"lon":17.101103,"is_passed":false},{"stop_id":"U16639Z2","name":"Kyjov, nemocnice, křižovatka","arrival_time":"12:17:00","departure_time":"12:17:00","lat":49.007137,"lon":17.113345,"is_passed":false},{"stop_id":"U16608Z16","name":"Kyjov, aut. st.","arrival_time":"12:20:00","departure_time":"12:21:00","lat":49.006873,"lon":17.123912,"is_passed":false}],"7176":[{"stop_id":"U16608Z10","name":"Kyjov, aut. st.","arrival_time":"12:21:00","departure_time":"12:21:00","lat":49.006523,"lon":17.124417,"is_passed":false},{"stop_id":"U16639Z1","name":"Kyjov, nemocnice, křižovatka","arrival_time":"12:23:00","departure_time":"12:23:00","lat":49.00725,"lon":17.113458,"is_passed":false},{"stop_id":"U16811Z1","name":"Svatobořice-Mistřín, textilka","arrival_time":"12:27:00","departure_time":"12:27:00","lat":48.991854,"lon":17.101184,"is_passed":false},{"stop_id":"U16809Z1","name":"Svatobořice-Mistřín, restaurace","arrival_time":"12:29:00","departure_time":"12:29:00","lat":48.98316,"lon":17.09427,"is_passed":false},{"stop_id":"U16806Z1","name":"Svatobořice-Mistřín, kulturní dům","arrival_time":"12:31:00","departure_time":"12:31:00","lat":48.977759,"lon":17.08999,"is_passed":false},{"stop_id":"U16810Z1","name":"Svatobořice-Mistřín, škola","arrival_time":"12:32:00","departure_time":"12:32:00","lat":48.973884,"lon":17.08519,"is_passed":false},{"stop_id":"U16807Z1","name":"Svatobořice-Mistřín, Mistřín","arrival_time":"12:34:00","departure_time":"12:34:00","lat":48.97174,"lon":17.080342,"is_passed":false},{"stop_id":"U16815Z1","name":"Šardice, Padělky","arrival_time":"12:36:00","departure_time":"12:36:00","lat":48.963713,"lon":17.049882,"is_passed":false},{"stop_id":"U16816Z1","name":"Šardice, ZD","arrival_time":"12:37:00","departure_time":"12:37:00","lat":48.962157,"lon":17.04396,"is_passed":false},{"stop_id":"U16814Z1","name":"Šardice, u kapličky","arrival_time":"12:38:00","departure_time":"12:38:00","lat":48.961947,"lon":17.03349,"is_passed":false},{"stop_id":"U16813Z1","name":"Šardice","arrival_time":"12:39:00","departure_time":"12:39:00","lat":48.963971,"lon":17.028606,"is_passed":false},{"stop_id":"U16552Z1","name":"Hovorany, důl","arrival_time":"12:42:00","departure_time":"12:42:00","lat":48.956725,"lon":17.010222,"is_passed":false},{"stop_id":"U16553Z1","name":"Hovorany, kostel","arrival_time":"12:44:00","departure_time":"12:44:00","lat":48.954818,"lon":16.998017,"is_passed":false},{"stop_id":"U16555Z1","name":"Hovorany, škola","arrival_time":"12:46:00","departure_time":"12:46:00","lat":48.953233,"lon":16.983643,"is_passed":false},{"stop_id":"U16556Z1","name":"Hovorany, zdravotní středisko","arrival_time":"12:47:00","departure_time":"12:47:00","lat":48.949956,"lon":16.981331,"is_passed":false},{"stop_id":"U16545Z3","name":"Čejč, náměstí","arrival_time":"12:49:00","departure_time":"14:10:00","lat":48.946403,"lon":16.965978,"is_passed":false}],"7177":[{"stop_id":"U16545Z3","name":"Čejč, náměstí","arrival_time":"14:10:00","departure_time":"14:10:00","lat":48.946403,"lon":16.965978,"is_passed":false},{"stop_id":"U16462Z2","name":"Terezín","arrival_time":"14:14:00","departure_time":"14:14:00","lat":48.956778,"lon":16.940897,"is_passed":false},{"stop_id":"U16454Z1","name":"Brumovice, železniční stanice","arrival_time":"14:17:00","departure_time":"14:17:00","lat":48.947167,"lon":16.905878,"is_passed":false},{"stop_id":"U15538Z1","name":"Kobylí","arrival_time":"14:21:00","departure_time":"14:39:00","lat":48.931883,"lon":16.884127,"is_passed":false}],"7178":[{"stop_id":"U15538Z2","name":"Kobylí","arrival_time":"14:39:00","departure_time":"14:39:00","lat":48.932237,"lon":16.884008,"is_passed":false},{"stop_id":"U16454Z2","name":"Brumovice, železniční stanice","arrival_time":"14:43:00","departure_time":"14:43:00","lat":48.947167,"lon":16.905878,"is_passed":false},{"stop_id":"U16462Z1","name":"Terezín","arrival_time":"14:46:00","departure_time":"14:46:00","lat":48.956737,"lon":16.940727,"is_passed":false},{"stop_id":"U16545Z4","name":"Čejč, náměstí","arrival_time":"14:50:00","departure_time":"14:51:00","lat":48.94568,"lon":16.967358,"is_passed":false},{"stop_id":"U16556Z2","name":"Hovorany, zdravotní středisko","arrival_time":"14:53:00","departure_time":"14:53:00","lat":48.949749,"lon":16.981078,"is_passed":false},{"stop_id":"U16555Z2","name":"Hovorany, škola","arrival_time":"14:55:00","departure_time":"14:55:00","lat":48.953908,"lon":16.984808,"is_passed":false},{"stop_id":"U16553Z2","name":"Hovorany, kostel","arrival_time":"14:57:00","departure_time":"14:57:00","lat":48.954573,"lon":16.99834,"is_passed":false},{"stop_id":"U16552Z2","name":"Hovorany, důl","arrival_time":"14:59:00","departure_time":"14:59:00","lat":48.956683,"lon":17.010608,"is_passed":false},{"stop_id":"U16813Z2","name":"Šardice","arrival_time":"15:02:00","departure_time":"15:02:00","lat":48.964017,"lon":17.028398,"is_passed":false},{"stop_id":"U16814Z2","name":"Šardice, u kapličky","arrival_time":"15:03:00","departure_time":"15:03:00","lat":48.961887,"lon":17.033457,"is_passed":false},{"stop_id":"U16816Z2","name":"Šardice, ZD","arrival_time":"15:04:00","departure_time":"15:04:00","lat":48.962023,"lon":17.043865,"is_passed":false},{"stop_id":"U16815Z2","name":"Šardice, Padělky","arrival_time":"15:05:00","departure_time":"15:05:00","lat":48.964032,"lon":17.051408,"is_passed":false},{"stop_id":"U16807Z2","name":"Svatobořice-Mistřín, Mistřín","arrival_time":"15:07:00","departure_time":"15:07:00","lat":48.971735,"lon":17.080763,"is_passed":false},{"stop_id":"U16810Z2","name":"Svatobořice-Mistřín, škola","arrival_time":"15:08:00","departure_time":"15:08:00","lat":48.974187,"lon":17.086079,"is_passed":false},{"stop_id":"U16806Z2","name":"Svatobořice-Mistřín, kulturní dům","arrival_time":"15:10:00","departure_time":"15:10:00","lat":48.977932,"lon":17.090462,"is_passed":false},{"stop_id":"U16809Z2","name":"Svatobořice-Mistřín, restaurace","arrival_time":"15:12:00","departure_time":"15:12:00","lat":48.983528,"lon":17.094782,"is_passed":false},{"stop_id":"U16811Z2","name":"Svatobořice-Mistřín, textilka","arrival_time":"15:14:00","departure_time":"15:14:00","lat":48.991569,"lon":17.101103,"is_passed":false},{"stop_id":"U16639Z2","name":"Kyjov, nemocnice, křižovatka","arrival_time":"15:17:00","departure_time":"15:17:00","lat":49.007137,"lon":17.113345,"is_passed":false},{"stop_id":"U16608Z16","name":"Kyjov, aut. st.","arrival_time":"15:20:00","departure_time":"15:39:00","lat":49.006873,"lon":17.123912,"is_passed":false}],"7179":[{"stop_id":"U16608Z10","name":"Kyjov, aut. st.","arrival_time":"15:39:00","departure_time":"15:39:00","lat":49.006523,"lon":17.124417,"is_passed":false},{"stop_id":"U16639Z1","name":"Kyjov, nemocnice, křižovatka","arrival_time":"15:41:00","departure_time":"15:41:00","lat":49.00725,"lon":17.113458,"is_passed":false},{"stop_id":"U16811Z1","name":"Svatobořice-Mistřín, textilka","arrival_time":"15:45:00","departure_time":"15:45:00","lat":48.991854,"lon":17.101184,"is_passed":false},{"stop_id":"U16809Z1","name":"Svatobořice-Mistřín, restaurace","arrival_time":"15:47:00","departure_time":"15:47:00","lat":48.98316,"lon":17.09427,"is_passed":false},{"stop_id":"U16806Z1","name":"Svatobořice-Mistřín, kulturní dům","arrival_time":"15:49:00","departure_time":"15:49:00","lat":48.977759,"lon":17.08999,"is_passed":false},{"stop_id":"U16810Z1","name":"Svatobořice-Mistřín, škola","arrival_time":"15:50:00","departure_time":"15:50:00","lat":48.973884,"lon":17.08519,"is_passed":false},{"stop_id":"U16807Z1","name":"Svatobořice-Mistřín, Mistřín","arrival_time":"15:52:00","departure_time":"15:52:00","lat":48.97174,"lon":17.080342,"is_passed":false},{"stop_id":"U16815Z1","name":"Šardice, Padělky","arrival_time":"15:54:00","departure_time":"15:54:00","lat":48.963713,"lon":17.049882,"is_passed":false},{"stop_id":"U16816Z1","name":"Šardice, ZD","arrival_time":"15:55:00","departure_time":"15:55:00","lat":48.962157,"lon":17.04396,"is_passed":false},{"stop_id":"U16814Z1","name":"Šardice, u kapličky","arrival_time":"15:56:00","departure_time":"15:56:00","lat":48.961947,"lon":17.03349,"is_passed":false},{"stop_id":"U16813Z1","name":"Šardice","arrival_time":"15:57:00","departure_time":"15:57:00","lat":48.963971,"lon":17.028606,"is_passed":false},{"stop_id":"U16552Z1","name":"Hovorany, důl","arrival_time":"16:00:00","departure_time":"16:00:00","lat":48.956725,"lon":17.010222,"is_passed":false},{"stop_id":"U16553Z1","name":"Hovorany, kostel","arrival_time":"16:02:00","departure_time":"16:02:00","lat":48.954818,"lon":16.998017,"is_passed":false},{"stop_id":"U16555Z1","name":"Hovorany, škola","arrival_time":"16:04:00","departure_time":"16:04:00","lat":48.953233,"lon":16.983643,"is_passed":false},{"stop_id":"U16556Z1","name":"Hovorany, zdravotní středisko","arrival_time":"16:05:00","departure_time":"16:05:00","lat":48.949956,"lon":16.981331,"is_passed":false},{"stop_id":"U16545Z3","name":"Čejč, náměstí","arrival_time":"16:07:00","departure_time":"16:10:00","lat":48.946403,"lon":16.965978,"is_passed":false},{"stop_id":"U16462Z2","name":"Terezín","arrival_time":"16:14:00","departure_time":"16:14:00","lat":48.956778,"lon":16.940897,"is_passed":false},{"stop_id":"U16454Z1","name":"Brumovice, železniční stanice","arrival_time":"16:17:00","departure_time":"16:17:00","lat":48.947167,"lon":16.905878,"is_passed":false},{"stop_id":"U15538Z1","name":"Kobylí","arrival_time":"16:21:00","departure_time":"16:39:00","lat":48.931883,"lon":16.884127,"is_passed":false}]}