[{"stop_id":"U16149Z1","name":"Sokolnice, železniční stanice","arrival_time":"6:36:00","departure_time":"6:36:00","lat":49.108328,"lon":16.73367,"is_passed":false},{"stop_id":"U16157Z1","name":"Újezd u Brna, Revoluční","arrival_time":"6:38:00","departure_time":"6:38:00","lat":49.106258,"lon":16.749987,"is_passed":false},{"stop_id":"U16156Z1","name":"Újezd u Brna, městský úřad","arrival_time":"6:40:00","departure_time":"6:40:00","lat":49.104578,"lon":16.757317,"is_passed":false},{"stop_id":"U16144Z1","name":"Újezd u Brna, penzion","arrival_time":"6:42:00","departure_time":"6:42:00","lat":49.106932,"lon":16.766288,"is_passed":false},{"stop_id":"U16103Z1","name":"Hostěrádky-Rešov","arrival_time":"6:45:00","departure_time":"6:45:00","lat":49.117268,"lon":16.785517,"is_passed":false},{"stop_id":"U16222Z1","name":"Šaratice","arrival_time":"6:48:00","departure_time":"6:48:00","lat":49.11691,"lon":16.802618,"is_passed":false},{"stop_id":"U16216Z1","name":"Milešovice, sídliště","arrival_time":"6:55:00","departure_time":"6:55:00","lat":49.08962,"lon":16.84996,"is_passed":false},{"stop_id":"U16217Z1","name":"Milešovice, zast.","arrival_time":"6:56:00","departure_time":"6:56:00","lat":49.086494,"lon":16.850765,"is_passed":false},{"stop_id":"U16215Z1","name":"Milešovice, host. Laštůvka","arrival_time":"6:58:00","departure_time":"7:09:00","lat":49.082413,"lon":16.854648,"is_passed":false}]