[{"stop_id":"U17446Z11","name":"Vyškov, železniční stanice","arrival_time":"4:22:00","departure_time":"4:22:00","lat":49.277222,"lon":16.990833,"is_passed":false},{"stop_id":"U27501Z2","name":"Hoštice-Heroltice","arrival_time":"4:27:00","departure_time":"4:27:00","lat":49.291389,"lon":17.057778,"is_passed":false},{"stop_id":"U17514Z21","name":"Ivanovice na Hané, aut. st.","arrival_time":"4:30:00","departure_time":"4:31:00","lat":49.306111,"lon":17.086945,"is_passed":false},{"stop_id":"U27502Z2","name":"Chvalkovice na Hané","arrival_time":"4:33:00","departure_time":"4:34:00","lat":49.321667,"lon":17.111389,"is_passed":false},{"stop_id":"U27503Z2","name":"Nezamyslice","arrival_time":"4:37:00","departure_time":"4:44:00","lat":49.336,"lon":17.1625,"is_passed":false}]