[{"stop_id":"U27503Z1","name":"Nezamyslice","arrival_time":"5:21:00","departure_time":"5:21:00","lat":49.336,"lon":17.1625,"is_passed":false},{"stop_id":"U27502Z1","name":"Chvalkovice na Hané","arrival_time":"5:25:00","departure_time":"5:26:00","lat":49.321667,"lon":17.111389,"is_passed":false},{"stop_id":"U17514Z20","name":"Ivanovice na Hané, aut. st.","arrival_time":"5:28:00","departure_time":"5:29:00","lat":49.306111,"lon":17.086945,"is_passed":false},{"stop_id":"U27501Z1","name":"Hoštice-Heroltice","arrival_time":"5:31:00","departure_time":"5:31:00","lat":49.291389,"lon":17.057778,"is_passed":false},{"stop_id":"U17446Z10","name":"Vyškov, železniční stanice","arrival_time":"5:37:00","departure_time":"5:37:00","lat":49.277222,"lon":16.990833,"is_passed":false}]