[{"stop_id":"U16149Z2","name":"Sokolnice, železniční stanice","arrival_time":"6:34:00","departure_time":"6:34:00","lat":49.108258,"lon":16.734145,"is_passed":false},{"stop_id":"U15225Z1","name":"Nesvačilka","arrival_time":"6:42:00","departure_time":"6:42:00","lat":49.063982,"lon":16.754355,"is_passed":false},{"stop_id":"U15226Z1","name":"Těšany","arrival_time":"6:47:00","departure_time":"6:47:00","lat":49.039299,"lon":16.771319,"is_passed":false},{"stop_id":"U16340Z2","name":"Borkovany","arrival_time":"6:52:00","departure_time":"6:52:00","lat":49.028703,"lon":16.80985,"is_passed":false},{"stop_id":"U16341Z2","name":"Borkovany, Tomášov","arrival_time":"6:54:00","departure_time":"6:54:00","lat":49.029167,"lon":16.8048,"is_passed":false},{"stop_id":"U15365Z1","name":"Šitbořice, Nikolčická","arrival_time":"7:00:00","departure_time":"7:00:00","lat":49.01632,"lon":16.775213,"is_passed":false},{"stop_id":"U15364Z1","name":"Šitbořice, na kopci","arrival_time":"7:02:00","departure_time":"7:02:00","lat":49.011417,"lon":16.777987,"is_passed":false},{"stop_id":"U15348Z1","name":"Diváky, dílny","arrival_time":"7:05:00","departure_time":"7:05:00","lat":48.994063,"lon":16.78372,"is_passed":false},{"stop_id":"U15350Z1","name":"Diváky, obecní úřad","arrival_time":"7:07:00","departure_time":"7:09:00","lat":48.989215,"lon":16.789256,"is_passed":false}]