[{"stop_id":"U16149Z2","name":"Sokolnice, železniční stanice","arrival_time":"17:56:00","departure_time":"17:56:00","lat":49.108258,"lon":16.734145,"is_passed":false},{"stop_id":"U15225Z1","name":"Nesvačilka","arrival_time":"18:04:00","departure_time":"18:04:00","lat":49.063982,"lon":16.754355,"is_passed":false},{"stop_id":"U15226Z1","name":"Těšany","arrival_time":"18:09:00","departure_time":"18:09:00","lat":49.039299,"lon":16.771319,"is_passed":false},{"stop_id":"U15365Z1","name":"Šitbořice, Nikolčická","arrival_time":"18:14:00","departure_time":"18:14:00","lat":49.01632,"lon":16.775213,"is_passed":false},{"stop_id":"U15372Z2","name":"Nikolčice, škola","arrival_time":"18:18:00","departure_time":"18:18:00","lat":48.996083,"lon":16.753651,"is_passed":false},{"stop_id":"U15360Z1","name":"Nikolčice, Jednota","arrival_time":"18:20:00","departure_time":"18:20:00","lat":48.992492,"lon":16.753741,"is_passed":false},{"stop_id":"U15350Z1","name":"Diváky, obecní úřad","arrival_time":"18:26:00","departure_time":"18:26:00","lat":48.989215,"lon":16.789256,"is_passed":false},{"stop_id":"U15349Z1","name":"Diváky, dolní konec","arrival_time":"18:27:00","departure_time":"18:27:00","lat":48.99102,"lon":16.798233,"is_passed":false},{"stop_id":"U15351Z1","name":"Diváky, samota","arrival_time":"18:28:00","departure_time":"18:28:00","lat":48.987765,"lon":16.803443,"is_passed":false},{"stop_id":"U15346Z1","name":"Boleradice, u kříže","arrival_time":"18:31:00","departure_time":"18:31:00","lat":48.969485,"lon":16.806917,"is_passed":false},{"stop_id":"U15344Z1","name":"Boleradice","arrival_time":"18:33:00","departure_time":"19:17:00","lat":48.967457,"lon":16.81428,"is_passed":false}]