{"739":[{"stop_id":"U15403Z10","name":"Hustopeče, autobusové nádraží","arrival_time":"21:04:00","departure_time":"21:04:00","lat":48.93752,"lon":16.735901,"is_passed":false},{"stop_id":"U15425Z10","name":"Šakvice, železniční stanice","arrival_time":"21:10:00","departure_time":"21:11:00","lat":48.912883,"lon":16.70557,"is_passed":false},{"stop_id":"U25402Z10","name":"Popice","arrival_time":"21:13:00","departure_time":"21:14:00","lat":48.924332,"lon":16.668084,"is_passed":false},{"stop_id":"U25401Z10","name":"Pouzdřany","arrival_time":"21:17:00","departure_time":"21:17:00","lat":48.942025,"lon":16.630527,"is_passed":false},{"stop_id":"U15307Z10","name":"Vranovice, žel.st.","arrival_time":"21:20:00","departure_time":"21:21:00","lat":48.964528,"lon":16.604187,"is_passed":false},{"stop_id":"U15306Z10","name":"Žabčice, žel. st.","arrival_time":"21:24:00","departure_time":"21:25:00","lat":49.010865,"lon":16.594993,"is_passed":false},{"stop_id":"U15222Z10","name":"Hrušovany u Brna, žel. st.","arrival_time":"21:28:00","departure_time":"21:32:00","lat":49.034228,"lon":16.591501,"is_passed":false},{"stop_id":"U15181Z10","name":"Rajhrad, železniční stanice","arrival_time":"21:36:00","departure_time":"21:37:00","lat":49.084966,"lon":16.60532,"is_passed":false},{"stop_id":"U15140Z10","name":"Modřice, železniční stanice","arrival_time":"21:40:00","departure_time":"21:41:00","lat":49.133256,"lon":16.606209,"is_passed":false},{"stop_id":"U11002Z10","name":"Brno-Horní Heršpice","arrival_time":"21:44:00","departure_time":"21:45:00","lat":49.167404,"lon":16.60686,"is_passed":false},{"stop_id":"U1146Z99","name":"Hlavní nádraží","arrival_time":"21:49:00","departure_time":"21:53:00","lat":49.19035,"lon":16.612342,"is_passed":false},{"stop_id":"U1809Z10","name":"Židenice, nádraží","arrival_time":"21:56:00","departure_time":"21:57:00","lat":49.204282,"lon":16.636042,"is_passed":false},{"stop_id":"U1331Z10","name":"Lesná, nádraží","arrival_time":"22:02:00","departure_time":"22:03:00","lat":49.220432,"lon":16.627505,"is_passed":false},{"stop_id":"U1286Z10","name":"Královo Pole, nádraží","arrival_time":"22:06:00","departure_time":"22:07:00","lat":49.231051,"lon":16.596651,"is_passed":false},{"stop_id":"U1557Z10","name":"Řečkovice, nádraží","arrival_time":"22:09:00","departure_time":"22:10:00","lat":49.250794,"lon":16.590446,"is_passed":false},{"stop_id":"U13109Z10","name":"Česká, železniční stanice","arrival_time":"22:13:00","departure_time":"22:14:00","lat":49.284546,"lon":16.566731,"is_passed":false},{"stop_id":"U13143Z10","name":"Kuřim, železniční stanice","arrival_time":"22:17:00","departure_time":"22:18:00","lat":49.301,"lon":16.534523,"is_passed":false},{"stop_id":"U13206Z10","name":"Čebín, železniční stanice","arrival_time":"22:23:00","departure_time":"22:23:00","lat":49.319722,"lon":16.465278,"is_passed":false},{"stop_id":"U13306Z10","name":"Hradčany, železniční stanice","arrival_time":"22:26:00","departure_time":"22:26:00","lat":49.334153,"lon":16.437807,"is_passed":false},{"stop_id":"U13334Z20","name":"Tišnov, železniční stanice","arrival_time":"22:29:00","departure_time":"22:30:00","lat":49.3475,"lon":16.41725,"is_passed":false},{"stop_id":"U13411Z10","name":"Dolní Loučky, železniční stanice","arrival_time":"22:34:00","departure_time":"22:34:00","lat":49.356389,"lon":16.346945,"is_passed":false},{"stop_id":"U13425Z10","name":"Řikonín, železniční stanice","arrival_time":"22:37:00","departure_time":"22:37:00","lat":49.365833,"lon":16.305833,"is_passed":false},{"stop_id":"U13454Z10","name":"Níhov, železniční stanice","arrival_time":"22:41:00","departure_time":"22:41:00","lat":49.336616,"lon":16.270487,"is_passed":false},{"stop_id":"U23501Z1","name":"Vlkov-Osová","arrival_time":"22:46:00","departure_time":"22:46:00","lat":49.326883,"lon":16.202114,"is_passed":false},{"stop_id":"U30305Z1","name":"Osová Bítýška","arrival_time":"22:49:00","departure_time":"22:49:00","lat":49.329893,"lon":16.168305,"is_passed":false},{"stop_id":"U30302Z1","name":"Ořechov","arrival_time":"22:52:00","departure_time":"22:52:00","lat":49.350503,"lon":16.136551,"is_passed":false},{"stop_id":"U30009Z1","name":"Křižanov","arrival_time":"22:58:00","departure_time":"22:58:00","lat":49.384877,"lon":16.080351,"is_passed":false}],"7390":[{"stop_id":"U16825Z2","name":"Čeložnice","arrival_time":"5:53:00","departure_time":"5:53:00","lat":49.051555,"lon":17.154533,"is_passed":false},{"stop_id":"U16826Z2","name":"Čeložnice, Domov důchodců","arrival_time":"5:54:00","departure_time":"5:54:00","lat":49.048863,"lon":17.154308,"is_passed":false},{"stop_id":"U16835Z2","name":"Kostelec, horní zastávka","arrival_time":"5:58:00","departure_time":"5:58:00","lat":49.032285,"lon":17.149582,"is_passed":false},{"stop_id":"U16836Z2","name":"Kostelec, točna","arrival_time":"6:00:00","departure_time":"6:00:00","lat":49.026817,"lon":17.152758,"is_passed":false},{"stop_id":"U16609Z2","name":"Kyjov, Brandlova sídliště","arrival_time":"6:05:00","departure_time":"6:05:00","lat":49.011808,"lon":17.136515,"is_passed":false},{"stop_id":"U16608Z16","name":"Kyjov, aut. st.","arrival_time":"6:07:00","departure_time":"6:23:00","lat":49.006873,"lon":17.123912,"is_passed":false}],"7391":[{"stop_id":"U16608Z3","name":"Kyjov, aut. st.","arrival_time":"6:23:00","departure_time":"6:23:00","lat":49.006715,"lon":17.124547,"is_passed":false},{"stop_id":"U16609Z1","name":"Kyjov, Brandlova sídliště","arrival_time":"6:25:00","departure_time":"6:25:00","lat":49.012038,"lon":17.136722,"is_passed":false},{"stop_id":"U16836Z2","name":"Kostelec, točna","arrival_time":"6:30:00","departure_time":"6:30:00","lat":49.026817,"lon":17.152758,"is_passed":false},{"stop_id":"U16835Z1","name":"Kostelec, horní zastávka","arrival_time":"6:32:00","departure_time":"6:32:00","lat":49.032285,"lon":17.149582,"is_passed":false},{"stop_id":"U16826Z1","name":"Čeložnice, Domov důchodců","arrival_time":"6:36:00","departure_time":"6:36:00","lat":49.048863,"lon":17.154308,"is_passed":false},{"stop_id":"U16825Z1","name":"Čeložnice","arrival_time":"6:37:00","departure_time":"6:38:00","lat":49.051555,"lon":17.154533,"is_passed":false}],"7392":[{"stop_id":"U16825Z2","name":"Čeložnice","arrival_time":"6:38:00","departure_time":"6:38:00","lat":49.051555,"lon":17.154533,"is_passed":false},{"stop_id":"U16826Z2","name":"Čeložnice, Domov důchodců","arrival_time":"6:39:00","departure_time":"6:39:00","lat":49.048863,"lon":17.154308,"is_passed":false},{"stop_id":"U16835Z2","name":"Kostelec, horní zastávka","arrival_time":"6:43:00","departure_time":"6:43:00","lat":49.032285,"lon":17.149582,"is_passed":false},{"stop_id":"U16836Z2","name":"Kostelec, točna","arrival_time":"6:45:00","departure_time":"6:45:00","lat":49.026817,"lon":17.152758,"is_passed":false},{"stop_id":"U16609Z2","name":"Kyjov, Brandlova sídliště","arrival_time":"6:50:00","departure_time":"6:50:00","lat":49.011808,"lon":17.136515,"is_passed":false},{"stop_id":"U16608Z16","name":"Kyjov, aut. st.","arrival_time":"6:52:00","departure_time":"6:52:00","lat":49.006873,"lon":17.123912,"is_passed":false}],"7393":[{"stop_id":"U16608Z4","name":"Kyjov, aut. st.","arrival_time":"7:09:00","departure_time":"7:09:00","lat":49.006715,"lon":17.124547,"is_passed":false},{"stop_id":"U16609Z1","name":"Kyjov, Brandlova sídliště","arrival_time":"7:11:00","departure_time":"7:11:00","lat":49.012038,"lon":17.136722,"is_passed":false},{"stop_id":"U16833Z1","name":"Kelčany, u sklepů","arrival_time":"7:14:00","departure_time":"7:14:00","lat":49.012553,"lon":17.176447,"is_passed":false},{"stop_id":"U16834Z1","name":"Kelčany, ZSP","arrival_time":"7:15:00","departure_time":"7:15:00","lat":49.012325,"lon":17.184113,"is_passed":false},{"stop_id":"U16827Z2","name":"Hýsly","arrival_time":"7:18:00","departure_time":"7:18:00","lat":49.024093,"lon":17.183113,"is_passed":false},{"stop_id":"U16828Z2","name":"Hýsly, Moštěnice, dvůr","arrival_time":"7:20:00","departure_time":"7:20:00","lat":49.030195,"lon":17.180302,"is_passed":false},{"stop_id":"U16840Z2","name":"Moravany, Moštěnská","arrival_time":"7:22:00","departure_time":"7:22:00","lat":49.037033,"lon":17.172578,"is_passed":false},{"stop_id":"U16838Z2","name":"Moravany","arrival_time":"7:24:00","departure_time":"7:24:00","lat":49.039392,"lon":17.168022,"is_passed":false},{"stop_id":"U16836Z2","name":"Kostelec, točna","arrival_time":"7:29:00","departure_time":"7:29:00","lat":49.026817,"lon":17.152758,"is_passed":false},{"stop_id":"U16609Z2","name":"Kyjov, Brandlova sídliště","arrival_time":"7:34:00","departure_time":"7:34:00","lat":49.011808,"lon":17.136515,"is_passed":false},{"stop_id":"U16608Z16","name":"Kyjov, aut. st.","arrival_time":"7:36:00","departure_time":"7:36:00","lat":49.006873,"lon":17.123912,"is_passed":false}],"7394":[{"stop_id":"U16608Z3","name":"Kyjov, aut. st.","arrival_time":"8:23:00","departure_time":"8:23:00","lat":49.006715,"lon":17.124547,"is_passed":false},{"stop_id":"U16609Z1","name":"Kyjov, Brandlova sídliště","arrival_time":"8:25:00","departure_time":"8:25:00","lat":49.012038,"lon":17.136722,"is_passed":false},{"stop_id":"U16836Z2","name":"Kostelec, točna","arrival_time":"8:30:00","departure_time":"8:30:00","lat":49.026817,"lon":17.152758,"is_passed":false},{"stop_id":"U16835Z1","name":"Kostelec, horní zastávka","arrival_time":"8:32:00","departure_time":"8:32:00","lat":49.032285,"lon":17.149582,"is_passed":false},{"stop_id":"U16826Z1","name":"Čeložnice, Domov důchodců","arrival_time":"8:36:00","departure_time":"8:36:00","lat":49.048863,"lon":17.154308,"is_passed":false},{"stop_id":"U16825Z1","name":"Čeložnice","arrival_time":"8:37:00","departure_time":"8:53:00","lat":49.051555,"lon":17.154533,"is_passed":false}],"7395":[{"stop_id":"U16825Z2","name":"Čeložnice","arrival_time":"8:53:00","departure_time":"8:53:00","lat":49.051555,"lon":17.154533,"is_passed":false},{"stop_id":"U16826Z2","name":"Čeložnice, Domov důchodců","arrival_time":"8:54:00","departure_time":"8:54:00","lat":49.048863,"lon":17.154308,"is_passed":false},{"stop_id":"U16835Z2","name":"Kostelec, horní zastávka","arrival_time":"8:58:00","departure_time":"8:58:00","lat":49.032285,"lon":17.149582,"is_passed":false},{"stop_id":"U16836Z2","name":"Kostelec, točna","arrival_time":"9:00:00","departure_time":"9:00:00","lat":49.026817,"lon":17.152758,"is_passed":false},{"stop_id":"U16609Z2","name":"Kyjov, Brandlova sídliště","arrival_time":"9:05:00","departure_time":"9:05:00","lat":49.011808,"lon":17.136515,"is_passed":false},{"stop_id":"U16608Z16","name":"Kyjov, aut. st.","arrival_time":"9:07:00","departure_time":"9:07:00","lat":49.006873,"lon":17.123912,"is_passed":false}],"7396":[{"stop_id":"U16608Z4","name":"Kyjov, aut. st.","arrival_time":"10:59:00","departure_time":"10:59:00","lat":49.006715,"lon":17.124547,"is_passed":false},{"stop_id":"U16609Z1","name":"Kyjov, Brandlova sídliště","arrival_time":"11:01:00","departure_time":"11:01:00","lat":49.012038,"lon":17.136722,"is_passed":false},{"stop_id":"U16836Z1","name":"Kostelec, točna","arrival_time":"11:06:00","departure_time":"11:06:00","lat":49.026817,"lon":17.152758,"is_passed":false},{"stop_id":"U16838Z1","name":"Moravany","arrival_time":"11:11:00","departure_time":"11:11:00","lat":49.03939,"lon":17.16802,"is_passed":false},{"stop_id":"U16840Z1","name":"Moravany, Moštěnská","arrival_time":"11:13:00","departure_time":"11:13:00","lat":49.037068,"lon":17.17237,"is_passed":false},{"stop_id":"U16828Z1","name":"Hýsly, Moštěnice, dvůr","arrival_time":"11:15:00","departure_time":"11:15:00","lat":49.02998,"lon":17.180055,"is_passed":false},{"stop_id":"U16827Z1","name":"Hýsly","arrival_time":"11:17:00","departure_time":"11:17:00","lat":49.023667,"lon":17.183032,"is_passed":false},{"stop_id":"U16834Z2","name":"Kelčany, ZSP","arrival_time":"11:20:00","departure_time":"11:20:00","lat":49.012325,"lon":17.184113,"is_passed":false},{"stop_id":"U16833Z2","name":"Kelčany, u sklepů","arrival_time":"11:21:00","departure_time":"11:21:00","lat":49.01266,"lon":17.176467,"is_passed":false},{"stop_id":"U16609Z2","name":"Kyjov, Brandlova sídliště","arrival_time":"11:24:00","departure_time":"11:24:00","lat":49.011808,"lon":17.136515,"is_passed":false},{"stop_id":"U16608Z16","name":"Kyjov, aut. st.","arrival_time":"11:26:00","departure_time":"11:26:00","lat":49.006873,"lon":17.123912,"is_passed":false}],"7397":[{"stop_id":"U16608Z3","name":"Kyjov, aut. st.","arrival_time":"11:53:00","departure_time":"11:53:00","lat":49.006715,"lon":17.124547,"is_passed":false},{"stop_id":"U16609Z1","name":"Kyjov, Brandlova sídliště","arrival_time":"11:55:00","departure_time":"11:55:00","lat":49.012038,"lon":17.136722,"is_passed":false},{"stop_id":"U16836Z2","name":"Kostelec, točna","arrival_time":"12:00:00","departure_time":"12:00:00","lat":49.026817,"lon":17.152758,"is_passed":false},{"stop_id":"U16835Z1","name":"Kostelec, horní zastávka","arrival_time":"12:02:00","departure_time":"12:02:00","lat":49.032285,"lon":17.149582,"is_passed":false},{"stop_id":"U16826Z1","name":"Čeložnice, Domov důchodců","arrival_time":"12:06:00","departure_time":"12:06:00","lat":49.048863,"lon":17.154308,"is_passed":false},{"stop_id":"U16825Z1","name":"Čeložnice","arrival_time":"12:07:00","departure_time":"13:08:00","lat":49.051555,"lon":17.154533,"is_passed":false}],"7398":[{"stop_id":"U16825Z2","name":"Čeložnice","arrival_time":"13:08:00","departure_time":"13:08:00","lat":49.051555,"lon":17.154533,"is_passed":false},{"stop_id":"U16826Z2","name":"Čeložnice, Domov důchodců","arrival_time":"13:09:00","departure_time":"13:09:00","lat":49.048863,"lon":17.154308,"is_passed":false},{"stop_id":"U16835Z2","name":"Kostelec, horní zastávka","arrival_time":"13:13:00","departure_time":"13:13:00","lat":49.032285,"lon":17.149582,"is_passed":false},{"stop_id":"U16836Z2","name":"Kostelec, točna","arrival_time":"13:15:00","departure_time":"13:15:00","lat":49.026817,"lon":17.152758,"is_passed":false},{"stop_id":"U16609Z2","name":"Kyjov, Brandlova sídliště","arrival_time":"13:20:00","departure_time":"13:20:00","lat":49.011808,"lon":17.136515,"is_passed":false},{"stop_id":"U16608Z16","name":"Kyjov, aut. st.","arrival_time":"13:22:00","departure_time":"13:55:00","lat":49.006873,"lon":17.123912,"is_passed":false}],"7399":[{"stop_id":"U16608Z3","name":"Kyjov, aut. st.","arrival_time":"13:55:00","departure_time":"13:55:00","lat":49.006715,"lon":17.124547,"is_passed":false},{"stop_id":"U16609Z1","name":"Kyjov, Brandlova sídliště","arrival_time":"13:57:00","departure_time":"13:57:00","lat":49.012038,"lon":17.136722,"is_passed":false},{"stop_id":"U16836Z2","name":"Kostelec, točna","arrival_time":"14:02:00","departure_time":"14:02:00","lat":49.026817,"lon":17.152758,"is_passed":false},{"stop_id":"U16835Z1","name":"Kostelec, horní zastávka","arrival_time":"14:04:00","departure_time":"14:04:00","lat":49.032285,"lon":17.149582,"is_passed":false},{"stop_id":"U16826Z1","name":"Čeložnice, Domov důchodců","arrival_time":"14:07:00","departure_time":"14:07:00","lat":49.048863,"lon":17.154308,"is_passed":false},{"stop_id":"U16825Z1","name":"Čeložnice","arrival_time":"14:08:00","departure_time":"14:08:00","lat":49.051555,"lon":17.154533,"is_passed":false}]}