[{"stop_id":"U16214Z2","name":"Lovčičky","arrival_time":"4:14:00","departure_time":"4:14:00","lat":49.06822,"lon":16.84938,"is_passed":false},{"stop_id":"U16218Z2","name":"Otnice, dělnický dům","arrival_time":"4:18:00","departure_time":"4:18:00","lat":49.082798,"lon":16.818935,"is_passed":false},{"stop_id":"U16219Z2","name":"Otnice, host. U Marků","arrival_time":"4:20:00","departure_time":"4:20:00","lat":49.087211,"lon":16.812819,"is_passed":false},{"stop_id":"U16357Z2","name":"Otnice, Na Konci","arrival_time":"4:21:00","departure_time":"4:21:00","lat":49.089658,"lon":16.805781,"is_passed":false},{"stop_id":"U16222Z1","name":"Šaratice","arrival_time":"4:26:00","departure_time":"4:26:00","lat":49.11691,"lon":16.802618,"is_passed":false},{"stop_id":"U16225Z1","name":"Zbýšov","arrival_time":"4:30:00","departure_time":"4:30:00","lat":49.129982,"lon":16.809457,"is_passed":false},{"stop_id":"U16213Z1","name":"Křenovice, u hřbitova","arrival_time":"4:33:00","departure_time":"4:33:00","lat":49.140479,"lon":16.828518,"is_passed":false},{"stop_id":"U16211Z1","name":"Křenovice, dol. žel. st.","arrival_time":"4:34:00","departure_time":"4:34:00","lat":49.142898,"lon":16.831243,"is_passed":false},{"stop_id":"U16327Z1","name":"Slavkov u Brna, Agrozávod","arrival_time":"4:37:00","departure_time":"4:37:00","lat":49.149505,"lon":16.853373,"is_passed":false},{"stop_id":"U16328Z59","name":"Slavkov u Brna, aut. st.","arrival_time":"4:42:00","departure_time":"4:44:00","lat":49.149062,"lon":16.876128,"is_passed":false},{"stop_id":"U16330Z1","name":"Slavkov u Brna, MEZ","arrival_time":"4:46:00","departure_time":"4:46:00","lat":49.153258,"lon":16.885,"is_passed":false},{"stop_id":"U16329Z1","name":"Slavkov u Brna, Cutisín","arrival_time":"4:48:00","departure_time":"4:48:00","lat":49.153278,"lon":16.892047,"is_passed":false},{"stop_id":"U16311Z1","name":"Hodějice, u mostu","arrival_time":"4:51:00","departure_time":"4:51:00","lat":49.142563,"lon":16.911732,"is_passed":false},{"stop_id":"U16310Z1","name":"Hodějice, točna","arrival_time":"4:53:00","departure_time":"5:15:00","lat":49.14025,"lon":16.919782,"is_passed":false}]