{"743":[{"stop_id":"U30009Z2","name":"Křižanov","arrival_time":"13:00:00","departure_time":"13:00:00","lat":49.384694,"lon":16.080389,"is_passed":false},{"stop_id":"U30302Z2","name":"Ořechov","arrival_time":"13:04:00","departure_time":"13:04:00","lat":49.350447,"lon":16.136416,"is_passed":false},{"stop_id":"U30305Z2","name":"Osová Bítýška","arrival_time":"13:08:00","departure_time":"13:08:00","lat":49.329893,"lon":16.168305,"is_passed":false},{"stop_id":"U23501Z2","name":"Vlkov-Osová","arrival_time":"13:10:00","departure_time":"13:11:00","lat":49.326883,"lon":16.202114,"is_passed":false},{"stop_id":"U13454Z11","name":"Níhov, železniční stanice","arrival_time":"13:15:00","departure_time":"13:16:00","lat":49.33637,"lon":16.270573,"is_passed":false},{"stop_id":"U13425Z11","name":"Řikonín, železniční stanice","arrival_time":"13:19:00","departure_time":"13:20:00","lat":49.365833,"lon":16.305833,"is_passed":false},{"stop_id":"U13411Z11","name":"Dolní Loučky, železniční stanice","arrival_time":"13:22:00","departure_time":"13:22:00","lat":49.356389,"lon":16.346945,"is_passed":false},{"stop_id":"U13334Z21","name":"Tišnov, železniční stanice","arrival_time":"13:28:00","departure_time":"13:29:00","lat":49.3475,"lon":16.41725,"is_passed":false},{"stop_id":"U13306Z11","name":"Hradčany, železniční stanice","arrival_time":"13:31:00","departure_time":"13:32:00","lat":49.333878,"lon":16.437893,"is_passed":false},{"stop_id":"U13206Z11","name":"Čebín, železniční stanice","arrival_time":"13:34:00","departure_time":"13:35:00","lat":49.319722,"lon":16.465278,"is_passed":false},{"stop_id":"U13143Z11","name":"Kuřim, železniční stanice","arrival_time":"13:40:00","departure_time":"13:41:00","lat":49.301,"lon":16.534523,"is_passed":false},{"stop_id":"U13109Z11","name":"Česká, železniční stanice","arrival_time":"13:43:00","departure_time":"13:44:00","lat":49.284546,"lon":16.566731,"is_passed":false},{"stop_id":"U1557Z11","name":"Řečkovice, nádraží","arrival_time":"13:48:00","departure_time":"13:48:00","lat":49.250794,"lon":16.590446,"is_passed":false},{"stop_id":"U1286Z11","name":"Královo Pole, nádraží","arrival_time":"13:51:00","departure_time":"13:52:00","lat":49.231051,"lon":16.596651,"is_passed":false},{"stop_id":"U1331Z11","name":"Lesná, nádraží","arrival_time":"13:54:00","departure_time":"13:55:00","lat":49.220432,"lon":16.627505,"is_passed":false},{"stop_id":"U1809Z11","name":"Židenice, nádraží","arrival_time":"14:01:00","departure_time":"14:01:00","lat":49.204282,"lon":16.636042,"is_passed":false},{"stop_id":"U1146Z98","name":"Hlavní nádraží","arrival_time":"14:06:00","departure_time":"14:09:00","lat":49.19035,"lon":16.612342,"is_passed":false},{"stop_id":"U11002Z11","name":"Brno-Horní Heršpice","arrival_time":"14:13:00","departure_time":"14:13:00","lat":49.167404,"lon":16.60686,"is_passed":false},{"stop_id":"U15140Z11","name":"Modřice, železniční stanice","arrival_time":"14:17:00","departure_time":"14:18:00","lat":49.133256,"lon":16.606209,"is_passed":false},{"stop_id":"U15181Z11","name":"Rajhrad, železniční stanice","arrival_time":"14:21:00","departure_time":"14:22:00","lat":49.084966,"lon":16.60532,"is_passed":false},{"stop_id":"U15222Z11","name":"Hrušovany u Brna, žel. st.","arrival_time":"14:26:00","departure_time":"14:30:00","lat":49.034228,"lon":16.591501,"is_passed":false},{"stop_id":"U15306Z11","name":"Žabčice, žel. st.","arrival_time":"14:33:00","departure_time":"14:33:00","lat":49.010857,"lon":16.594833,"is_passed":false},{"stop_id":"U15307Z11","name":"Vranovice, žel.st.","arrival_time":"14:37:00","departure_time":"14:38:00","lat":48.964528,"lon":16.604187,"is_passed":false},{"stop_id":"U25401Z11","name":"Pouzdřany","arrival_time":"14:40:00","departure_time":"14:41:00","lat":48.942025,"lon":16.630527,"is_passed":false},{"stop_id":"U25402Z11","name":"Popice","arrival_time":"14:44:00","departure_time":"14:44:00","lat":48.924332,"lon":16.668084,"is_passed":false},{"stop_id":"U15425Z11","name":"Šakvice, železniční stanice","arrival_time":"14:47:00","departure_time":"14:48:00","lat":48.912883,"lon":16.70557,"is_passed":false},{"stop_id":"U15403Z11","name":"Hustopeče, autobusové nádraží","arrival_time":"14:55:00","departure_time":"15:04:00","lat":48.93752,"lon":16.735901,"is_passed":false}],"7430":[{"stop_id":"U16652Z1","name":"Kyjov, Langobardská","arrival_time":"16:20:00","departure_time":"16:20:00","lat":49.004284,"lon":17.108918,"is_passed":false},{"stop_id":"U16639Z82","name":"Kyjov, nemocnice, křižovatka","arrival_time":"16:21:00","departure_time":"16:21:00","lat":49.007137,"lon":17.113345,"is_passed":false},{"stop_id":"U16637Z82","name":"Kyjov, nadjezd","arrival_time":"16:22:00","departure_time":"16:22:00","lat":49.00762,"lon":17.11903,"is_passed":false},{"stop_id":"U16608Z82","name":"Kyjov, aut. st.","arrival_time":"16:23:00","departure_time":"16:23:00","lat":49.006463,"lon":17.124008,"is_passed":false},{"stop_id":"U16638Z82","name":"Kyjov, náměstí TGM","arrival_time":"16:26:00","departure_time":"16:26:00","lat":49.009988,"lon":17.122645,"is_passed":false},{"stop_id":"U16648Z82","name":"Kyjov, Újezd, škola","arrival_time":"16:28:00","departure_time":"16:28:00","lat":49.010588,"lon":17.13151,"is_passed":false},{"stop_id":"U16646Z82","name":"Kyjov, Újezd, Dvořákova","arrival_time":"16:29:00","departure_time":"16:29:00","lat":49.01324,"lon":17.133735,"is_passed":false},{"stop_id":"U16644Z82","name":"Kyjov, smuteční síň","arrival_time":"16:30:00","departure_time":"16:30:00","lat":49.015572,"lon":17.134788,"is_passed":false},{"stop_id":"U16643Z82","name":"Kyjov, sídliště Karla Čapka","arrival_time":"16:31:00","departure_time":"16:31:00","lat":49.018148,"lon":17.134067,"is_passed":false},{"stop_id":"U16640Z82","name":"Kyjov, Nětčice, obecní dům","arrival_time":"16:33:00","departure_time":"16:33:00","lat":49.019152,"lon":17.128983,"is_passed":false},{"stop_id":"U16649Z82","name":"Kyjov, Zahradní","arrival_time":"16:35:00","departure_time":"16:35:00","lat":49.016012,"lon":17.127543,"is_passed":false},{"stop_id":"U16610Z82","name":"Kyjov, ČSAD","arrival_time":"16:37:00","departure_time":"16:37:00","lat":49.019932,"lon":17.124135,"is_passed":false},{"stop_id":"U16607Z82","name":"Kyjov, Boršov","arrival_time":"16:38:00","departure_time":"16:38:00","lat":49.025162,"lon":17.122555,"is_passed":false},{"stop_id":"U16606Z82","name":"Kyjov, Boršov, horní zastávka","arrival_time":"16:39:00","departure_time":"16:39:00","lat":49.029765,"lon":17.121605,"is_passed":false}],"7431":[{"stop_id":"U16604Z81","name":"Kyjov, Bohuslavice, železniční stanice","arrival_time":"4:53:00","departure_time":"4:53:00","lat":49.055327,"lon":17.11939,"is_passed":false},{"stop_id":"U16605Z81","name":"Kyjov, Bohuslavice","arrival_time":"4:55:00","departure_time":"4:55:00","lat":49.049703,"lon":17.123475,"is_passed":false},{"stop_id":"U16602Z81","name":"Kyjov, Bohuslavice, rozcestí","arrival_time":"4:56:00","departure_time":"4:56:00","lat":49.042658,"lon":17.11904,"is_passed":false},{"stop_id":"U16606Z81","name":"Kyjov, Boršov, horní zastávka","arrival_time":"4:58:00","departure_time":"4:58:00","lat":49.029722,"lon":17.121369,"is_passed":false},{"stop_id":"U16607Z81","name":"Kyjov, Boršov","arrival_time":"4:59:00","departure_time":"4:59:00","lat":49.025162,"lon":17.122555,"is_passed":false},{"stop_id":"U16610Z81","name":"Kyjov, ČSAD","arrival_time":"5:00:00","departure_time":"5:00:00","lat":49.019932,"lon":17.124135,"is_passed":false},{"stop_id":"U16649Z81","name":"Kyjov, Zahradní","arrival_time":"5:02:00","departure_time":"5:02:00","lat":49.016012,"lon":17.127543,"is_passed":false},{"stop_id":"U16640Z81","name":"Kyjov, Nětčice, obecní dům","arrival_time":"5:04:00","departure_time":"5:04:00","lat":49.019152,"lon":17.128983,"is_passed":false},{"stop_id":"U16643Z81","name":"Kyjov, sídliště Karla Čapka","arrival_time":"5:06:00","departure_time":"5:06:00","lat":49.018148,"lon":17.134067,"is_passed":false},{"stop_id":"U16644Z81","name":"Kyjov, smuteční síň","arrival_time":"5:07:00","departure_time":"5:07:00","lat":49.015572,"lon":17.134788,"is_passed":false},{"stop_id":"U16646Z81","name":"Kyjov, Újezd, Dvořákova","arrival_time":"5:08:00","departure_time":"5:08:00","lat":49.01324,"lon":17.133735,"is_passed":false},{"stop_id":"U16648Z81","name":"Kyjov, Újezd, škola","arrival_time":"5:09:00","departure_time":"5:09:00","lat":49.010588,"lon":17.13151,"is_passed":false},{"stop_id":"U16653Z81","name":"Kyjov, u fary","arrival_time":"5:10:00","departure_time":"5:10:00","lat":49.009047,"lon":17.128765,"is_passed":false},{"stop_id":"U16641Z81","name":"Kyjov, Palackého","arrival_time":"5:11:00","departure_time":"5:11:00","lat":49.008143,"lon":17.130642,"is_passed":false},{"stop_id":"U16608Z81","name":"Kyjov, aut. st.","arrival_time":"5:14:00","departure_time":"5:14:00","lat":49.006675,"lon":17.124582,"is_passed":false},{"stop_id":"U16637Z81","name":"Kyjov, nadjezd","arrival_time":"5:15:00","departure_time":"5:15:00","lat":49.00762,"lon":17.11903,"is_passed":false},{"stop_id":"U16612Z81","name":"Kyjov, nemocnice","arrival_time":"5:17:00","departure_time":"5:17:00","lat":49.007061,"lon":17.111463,"is_passed":false}],"7432":[{"stop_id":"U16608Z84","name":"Kyjov, aut. st.","arrival_time":"5:30:00","departure_time":"5:30:00","lat":49.006463,"lon":17.124008,"is_passed":false},{"stop_id":"U16641Z82","name":"Kyjov, Palackého","arrival_time":"5:33:00","departure_time":"5:33:00","lat":49.008143,"lon":17.130642,"is_passed":false},{"stop_id":"U16653Z82","name":"Kyjov, u fary","arrival_time":"5:34:00","departure_time":"5:34:00","lat":49.008947,"lon":17.128812,"is_passed":false},{"stop_id":"U16636Z82","name":"Kyjov, gymnázium","arrival_time":"5:35:00","departure_time":"5:35:00","lat":49.011762,"lon":17.12633,"is_passed":false},{"stop_id":"U16642Z82","name":"Kyjov, poliklinika","arrival_time":"5:36:00","departure_time":"5:36:00","lat":49.014672,"lon":17.125657,"is_passed":false},{"stop_id":"U16610Z82","name":"Kyjov, ČSAD","arrival_time":"5:38:00","departure_time":"5:38:00","lat":49.019932,"lon":17.124135,"is_passed":false},{"stop_id":"U16607Z82","name":"Kyjov, Boršov","arrival_time":"5:39:00","departure_time":"5:39:00","lat":49.025162,"lon":17.122555,"is_passed":false},{"stop_id":"U16606Z82","name":"Kyjov, Boršov, horní zastávka","arrival_time":"5:40:00","departure_time":"5:40:00","lat":49.029765,"lon":17.121605,"is_passed":false}],"7433":[{"stop_id":"U16606Z81","name":"Kyjov, Boršov, horní zastávka","arrival_time":"5:40:00","departure_time":"5:40:00","lat":49.029722,"lon":17.121369,"is_passed":false},{"stop_id":"U16607Z81","name":"Kyjov, Boršov","arrival_time":"5:41:00","departure_time":"5:41:00","lat":49.025162,"lon":17.122555,"is_passed":false},{"stop_id":"U16610Z81","name":"Kyjov, ČSAD","arrival_time":"5:42:00","departure_time":"5:42:00","lat":49.019932,"lon":17.124135,"is_passed":false},{"stop_id":"U16642Z81","name":"Kyjov, poliklinika","arrival_time":"5:44:00","departure_time":"5:44:00","lat":49.014672,"lon":17.125657,"is_passed":false},{"stop_id":"U16636Z81","name":"Kyjov, gymnázium","arrival_time":"5:45:00","departure_time":"5:45:00","lat":49.011762,"lon":17.12633,"is_passed":false},{"stop_id":"U16653Z81","name":"Kyjov, u fary","arrival_time":"5:46:00","departure_time":"5:46:00","lat":49.009047,"lon":17.128765,"is_passed":false},{"stop_id":"U16641Z81","name":"Kyjov, Palackého","arrival_time":"5:47:00","departure_time":"5:47:00","lat":49.008143,"lon":17.130642,"is_passed":false},{"stop_id":"U16608Z81","name":"Kyjov, aut. st.","arrival_time":"5:50:00","departure_time":"5:50:00","lat":49.006675,"lon":17.124582,"is_passed":false},{"stop_id":"U16637Z81","name":"Kyjov, nadjezd","arrival_time":"5:51:00","departure_time":"5:51:00","lat":49.00762,"lon":17.11903,"is_passed":false},{"stop_id":"U16612Z81","name":"Kyjov, nemocnice","arrival_time":"5:53:00","departure_time":"6:13:00","lat":49.007061,"lon":17.111463,"is_passed":false}],"7434":[{"stop_id":"U16612Z82","name":"Kyjov, nemocnice","arrival_time":"6:13:00","departure_time":"6:13:00","lat":49.006845,"lon":17.11013,"is_passed":false},{"stop_id":"U16637Z82","name":"Kyjov, nadjezd","arrival_time":"6:14:00","departure_time":"6:14:00","lat":49.00762,"lon":17.11903,"is_passed":false},{"stop_id":"U16608Z84","name":"Kyjov, aut. st.","arrival_time":"6:16:00","departure_time":"6:16:00","lat":49.006463,"lon":17.124008,"is_passed":false},{"stop_id":"U16641Z82","name":"Kyjov, Palackého","arrival_time":"6:19:00","departure_time":"6:19:00","lat":49.008143,"lon":17.130642,"is_passed":false},{"stop_id":"U16653Z82","name":"Kyjov, u fary","arrival_time":"6:20:00","departure_time":"6:20:00","lat":49.008947,"lon":17.128812,"is_passed":false},{"stop_id":"U16636Z82","name":"Kyjov, gymnázium","arrival_time":"6:21:00","departure_time":"6:21:00","lat":49.011762,"lon":17.12633,"is_passed":false},{"stop_id":"U16642Z82","name":"Kyjov, poliklinika","arrival_time":"6:22:00","departure_time":"6:22:00","lat":49.014672,"lon":17.125657,"is_passed":false},{"stop_id":"U16610Z82","name":"Kyjov, ČSAD","arrival_time":"6:24:00","departure_time":"6:24:00","lat":49.019932,"lon":17.124135,"is_passed":false},{"stop_id":"U16607Z82","name":"Kyjov, Boršov","arrival_time":"6:25:00","departure_time":"6:25:00","lat":49.025162,"lon":17.122555,"is_passed":false},{"stop_id":"U16606Z82","name":"Kyjov, Boršov, horní zastávka","arrival_time":"6:26:00","departure_time":"6:26:00","lat":49.029765,"lon":17.121605,"is_passed":false},{"stop_id":"U16602Z82","name":"Kyjov, Bohuslavice, rozcestí","arrival_time":"6:28:00","departure_time":"6:28:00","lat":49.042673,"lon":17.119217,"is_passed":false},{"stop_id":"U16605Z82","name":"Kyjov, Bohuslavice","arrival_time":"6:29:00","departure_time":"6:29:00","lat":49.049703,"lon":17.123475,"is_passed":false},{"stop_id":"U16604Z82","name":"Kyjov, Bohuslavice, železniční stanice","arrival_time":"6:31:00","departure_time":"6:31:00","lat":49.055327,"lon":17.11939,"is_passed":false}],"7435":[{"stop_id":"U16604Z81","name":"Kyjov, Bohuslavice, železniční stanice","arrival_time":"6:31:00","departure_time":"6:31:00","lat":49.055327,"lon":17.11939,"is_passed":false},{"stop_id":"U16605Z81","name":"Kyjov, Bohuslavice","arrival_time":"6:33:00","departure_time":"6:33:00","lat":49.049703,"lon":17.123475,"is_passed":false},{"stop_id":"U16602Z81","name":"Kyjov, Bohuslavice, rozcestí","arrival_time":"6:34:00","departure_time":"6:34:00","lat":49.042658,"lon":17.11904,"is_passed":false},{"stop_id":"U16606Z81","name":"Kyjov, Boršov, horní zastávka","arrival_time":"6:36:00","departure_time":"6:36:00","lat":49.029722,"lon":17.121369,"is_passed":false},{"stop_id":"U16607Z81","name":"Kyjov, Boršov","arrival_time":"6:37:00","departure_time":"6:37:00","lat":49.025162,"lon":17.122555,"is_passed":false},{"stop_id":"U16610Z81","name":"Kyjov, ČSAD","arrival_time":"6:38:00","departure_time":"6:38:00","lat":49.019932,"lon":17.124135,"is_passed":false},{"stop_id":"U16642Z81","name":"Kyjov, poliklinika","arrival_time":"6:40:00","departure_time":"6:40:00","lat":49.014672,"lon":17.125657,"is_passed":false},{"stop_id":"U16636Z81","name":"Kyjov, gymnázium","arrival_time":"6:41:00","departure_time":"6:41:00","lat":49.011762,"lon":17.12633,"is_passed":false},{"stop_id":"U16653Z81","name":"Kyjov, u fary","arrival_time":"6:42:00","departure_time":"6:42:00","lat":49.009047,"lon":17.128765,"is_passed":false},{"stop_id":"U16641Z81","name":"Kyjov, Palackého","arrival_time":"6:43:00","departure_time":"6:43:00","lat":49.008143,"lon":17.130642,"is_passed":false},{"stop_id":"U16608Z81","name":"Kyjov, aut. st.","arrival_time":"6:46:00","departure_time":"6:46:00","lat":49.006675,"lon":17.124582,"is_passed":false},{"stop_id":"U16637Z81","name":"Kyjov, nadjezd","arrival_time":"6:47:00","departure_time":"6:47:00","lat":49.00762,"lon":17.11903,"is_passed":false},{"stop_id":"U16612Z81","name":"Kyjov, nemocnice","arrival_time":"6:49:00","departure_time":"7:05:00","lat":49.007061,"lon":17.111463,"is_passed":false}],"7436":[{"stop_id":"U16612Z82","name":"Kyjov, nemocnice","arrival_time":"7:05:00","departure_time":"7:05:00","lat":49.006845,"lon":17.11013,"is_passed":false},{"stop_id":"U16637Z82","name":"Kyjov, nadjezd","arrival_time":"7:06:00","departure_time":"7:06:00","lat":49.00762,"lon":17.11903,"is_passed":false},{"stop_id":"U16608Z84","name":"Kyjov, aut. st.","arrival_time":"7:08:00","departure_time":"7:08:00","lat":49.006463,"lon":17.124008,"is_passed":false},{"stop_id":"U16641Z82","name":"Kyjov, Palackého","arrival_time":"7:11:00","departure_time":"7:11:00","lat":49.008143,"lon":17.130642,"is_passed":false},{"stop_id":"U16653Z82","name":"Kyjov, u fary","arrival_time":"7:12:00","departure_time":"7:12:00","lat":49.008947,"lon":17.128812,"is_passed":false},{"stop_id":"U16636Z82","name":"Kyjov, gymnázium","arrival_time":"7:13:00","departure_time":"7:13:00","lat":49.011762,"lon":17.12633,"is_passed":false},{"stop_id":"U16642Z82","name":"Kyjov, poliklinika","arrival_time":"7:14:00","departure_time":"7:14:00","lat":49.014672,"lon":17.125657,"is_passed":false},{"stop_id":"U16610Z82","name":"Kyjov, ČSAD","arrival_time":"7:16:00","departure_time":"7:16:00","lat":49.019932,"lon":17.124135,"is_passed":false},{"stop_id":"U16607Z82","name":"Kyjov, Boršov","arrival_time":"7:17:00","departure_time":"7:17:00","lat":49.025162,"lon":17.122555,"is_passed":false},{"stop_id":"U16606Z82","name":"Kyjov, Boršov, horní zastávka","arrival_time":"7:18:00","departure_time":"7:18:00","lat":49.029765,"lon":17.121605,"is_passed":false},{"stop_id":"U16602Z82","name":"Kyjov, Bohuslavice, rozcestí","arrival_time":"7:20:00","departure_time":"7:20:00","lat":49.042673,"lon":17.119217,"is_passed":false},{"stop_id":"U16605Z82","name":"Kyjov, Bohuslavice","arrival_time":"7:21:00","departure_time":"7:21:00","lat":49.049703,"lon":17.123475,"is_passed":false},{"stop_id":"U16604Z82","name":"Kyjov, Bohuslavice, železniční stanice","arrival_time":"7:23:00","departure_time":"7:25:00","lat":49.055327,"lon":17.11939,"is_passed":false}],"7437":[{"stop_id":"U16604Z81","name":"Kyjov, Bohuslavice, železniční stanice","arrival_time":"7:25:00","departure_time":"7:25:00","lat":49.055327,"lon":17.11939,"is_passed":false},{"stop_id":"U16605Z81","name":"Kyjov, Bohuslavice","arrival_time":"7:27:00","departure_time":"7:27:00","lat":49.049703,"lon":17.123475,"is_passed":false},{"stop_id":"U16602Z81","name":"Kyjov, Bohuslavice, rozcestí","arrival_time":"7:28:00","departure_time":"7:28:00","lat":49.042658,"lon":17.11904,"is_passed":false},{"stop_id":"U16606Z81","name":"Kyjov, Boršov, horní zastávka","arrival_time":"7:30:00","departure_time":"7:30:00","lat":49.029722,"lon":17.121369,"is_passed":false},{"stop_id":"U16607Z81","name":"Kyjov, Boršov","arrival_time":"7:31:00","departure_time":"7:31:00","lat":49.025162,"lon":17.122555,"is_passed":false},{"stop_id":"U16610Z81","name":"Kyjov, ČSAD","arrival_time":"7:32:00","departure_time":"7:32:00","lat":49.019932,"lon":17.124135,"is_passed":false},{"stop_id":"U16642Z81","name":"Kyjov, poliklinika","arrival_time":"7:34:00","departure_time":"7:34:00","lat":49.014672,"lon":17.125657,"is_passed":false},{"stop_id":"U16636Z81","name":"Kyjov, gymnázium","arrival_time":"7:35:00","departure_time":"7:35:00","lat":49.011762,"lon":17.12633,"is_passed":false},{"stop_id":"U16653Z81","name":"Kyjov, u fary","arrival_time":"7:36:00","departure_time":"7:36:00","lat":49.009047,"lon":17.128765,"is_passed":false},{"stop_id":"U16641Z81","name":"Kyjov, Palackého","arrival_time":"7:37:00","departure_time":"7:37:00","lat":49.008143,"lon":17.130642,"is_passed":false},{"stop_id":"U16608Z81","name":"Kyjov, aut. st.","arrival_time":"7:40:00","departure_time":"7:40:00","lat":49.006675,"lon":17.124582,"is_passed":false},{"stop_id":"U16637Z81","name":"Kyjov, nadjezd","arrival_time":"7:41:00","departure_time":"7:41:00","lat":49.00762,"lon":17.11903,"is_passed":false},{"stop_id":"U16612Z81","name":"Kyjov, nemocnice","arrival_time":"7:43:00","departure_time":"8:05:00","lat":49.007061,"lon":17.111463,"is_passed":false}],"7438":[{"stop_id":"U16612Z82","name":"Kyjov, nemocnice","arrival_time":"8:05:00","departure_time":"8:05:00","lat":49.006845,"lon":17.11013,"is_passed":false},{"stop_id":"U16637Z82","name":"Kyjov, nadjezd","arrival_time":"8:06:00","departure_time":"8:06:00","lat":49.00762,"lon":17.11903,"is_passed":false},{"stop_id":"U16608Z84","name":"Kyjov, aut. st.","arrival_time":"8:08:00","departure_time":"8:08:00","lat":49.006463,"lon":17.124008,"is_passed":false},{"stop_id":"U16641Z82","name":"Kyjov, Palackého","arrival_time":"8:11:00","departure_time":"8:11:00","lat":49.008143,"lon":17.130642,"is_passed":false},{"stop_id":"U16653Z82","name":"Kyjov, u fary","arrival_time":"8:12:00","departure_time":"8:12:00","lat":49.008947,"lon":17.128812,"is_passed":false},{"stop_id":"U16636Z82","name":"Kyjov, gymnázium","arrival_time":"8:13:00","departure_time":"8:13:00","lat":49.011762,"lon":17.12633,"is_passed":false},{"stop_id":"U16642Z82","name":"Kyjov, poliklinika","arrival_time":"8:14:00","departure_time":"8:14:00","lat":49.014672,"lon":17.125657,"is_passed":false},{"stop_id":"U16610Z82","name":"Kyjov, ČSAD","arrival_time":"8:16:00","departure_time":"8:16:00","lat":49.019932,"lon":17.124135,"is_passed":false},{"stop_id":"U16607Z82","name":"Kyjov, Boršov","arrival_time":"8:17:00","departure_time":"8:17:00","lat":49.025162,"lon":17.122555,"is_passed":false},{"stop_id":"U16606Z82","name":"Kyjov, Boršov, horní zastávka","arrival_time":"8:18:00","departure_time":"8:18:00","lat":49.029765,"lon":17.121605,"is_passed":false},{"stop_id":"U16602Z82","name":"Kyjov, Bohuslavice, rozcestí","arrival_time":"8:20:00","departure_time":"8:20:00","lat":49.042673,"lon":17.119217,"is_passed":false},{"stop_id":"U16605Z82","name":"Kyjov, Bohuslavice","arrival_time":"8:21:00","departure_time":"8:21:00","lat":49.049703,"lon":17.123475,"is_passed":false},{"stop_id":"U16604Z82","name":"Kyjov, Bohuslavice, železniční stanice","arrival_time":"8:23:00","departure_time":"8:55:00","lat":49.055327,"lon":17.11939,"is_passed":false}],"7439":[{"stop_id":"U16604Z81","name":"Kyjov, Bohuslavice, železniční stanice","arrival_time":"8:55:00","departure_time":"8:55:00","lat":49.055327,"lon":17.11939,"is_passed":false},{"stop_id":"U16605Z81","name":"Kyjov, Bohuslavice","arrival_time":"8:57:00","departure_time":"8:57:00","lat":49.049703,"lon":17.123475,"is_passed":false},{"stop_id":"U16602Z81","name":"Kyjov, Bohuslavice, rozcestí","arrival_time":"8:58:00","departure_time":"8:58:00","lat":49.042658,"lon":17.11904,"is_passed":false},{"stop_id":"U16606Z81","name":"Kyjov, Boršov, horní zastávka","arrival_time":"9:00:00","departure_time":"9:00:00","lat":49.029722,"lon":17.121369,"is_passed":false},{"stop_id":"U16607Z81","name":"Kyjov, Boršov","arrival_time":"9:01:00","departure_time":"9:01:00","lat":49.025162,"lon":17.122555,"is_passed":false},{"stop_id":"U16610Z81","name":"Kyjov, ČSAD","arrival_time":"9:02:00","departure_time":"9:02:00","lat":49.019932,"lon":17.124135,"is_passed":false},{"stop_id":"U16642Z81","name":"Kyjov, poliklinika","arrival_time":"9:04:00","departure_time":"9:04:00","lat":49.014672,"lon":17.125657,"is_passed":false},{"stop_id":"U16636Z81","name":"Kyjov, gymnázium","arrival_time":"9:05:00","departure_time":"9:05:00","lat":49.011762,"lon":17.12633,"is_passed":false},{"stop_id":"U16653Z81","name":"Kyjov, u fary","arrival_time":"9:06:00","departure_time":"9:06:00","lat":49.009047,"lon":17.128765,"is_passed":false},{"stop_id":"U16641Z81","name":"Kyjov, Palackého","arrival_time":"9:07:00","departure_time":"9:07:00","lat":49.008143,"lon":17.130642,"is_passed":false},{"stop_id":"U16608Z81","name":"Kyjov, aut. st.","arrival_time":"9:10:00","departure_time":"9:10:00","lat":49.006675,"lon":17.124582,"is_passed":false},{"stop_id":"U16637Z81","name":"Kyjov, nadjezd","arrival_time":"9:11:00","departure_time":"9:11:00","lat":49.00762,"lon":17.11903,"is_passed":false},{"stop_id":"U16639Z81","name":"Kyjov, nemocnice, křižovatka","arrival_time":"9:12:00","departure_time":"9:12:00","lat":49.00725,"lon":17.113458,"is_passed":false},{"stop_id":"U16652Z2","name":"Kyjov, Langobardská","arrival_time":"9:13:00","departure_time":"9:40:00","lat":49.004285,"lon":17.108917,"is_passed":false}]}