[{"stop_id":"U16214Z2","name":"Lovčičky","arrival_time":"20:44:00","departure_time":"20:44:00","lat":49.06822,"lon":16.84938,"is_passed":false},{"stop_id":"U16218Z2","name":"Otnice, dělnický dům","arrival_time":"20:48:00","departure_time":"20:48:00","lat":49.082798,"lon":16.818935,"is_passed":false},{"stop_id":"U16219Z2","name":"Otnice, host. U Marků","arrival_time":"20:50:00","departure_time":"20:50:00","lat":49.087211,"lon":16.812819,"is_passed":false},{"stop_id":"U16357Z2","name":"Otnice, Na Konci","arrival_time":"20:51:00","departure_time":"20:51:00","lat":49.089658,"lon":16.805781,"is_passed":false},{"stop_id":"U16222Z1","name":"Šaratice","arrival_time":"20:56:00","departure_time":"20:56:00","lat":49.11691,"lon":16.802618,"is_passed":false},{"stop_id":"U16225Z1","name":"Zbýšov","arrival_time":"21:00:00","departure_time":"21:00:00","lat":49.129982,"lon":16.809457,"is_passed":false},{"stop_id":"U16213Z1","name":"Křenovice, u hřbitova","arrival_time":"21:03:00","departure_time":"21:03:00","lat":49.140479,"lon":16.828518,"is_passed":false},{"stop_id":"U16211Z1","name":"Křenovice, dol. žel. st.","arrival_time":"21:04:00","departure_time":"21:04:00","lat":49.142898,"lon":16.831243,"is_passed":false},{"stop_id":"U16327Z1","name":"Slavkov u Brna, Agrozávod","arrival_time":"21:07:00","departure_time":"21:07:00","lat":49.149505,"lon":16.853373,"is_passed":false},{"stop_id":"U16328Z9","name":"Slavkov u Brna, aut. st.","arrival_time":"21:12:00","departure_time":"21:12:00","lat":49.149062,"lon":16.876128,"is_passed":false},{"stop_id":"U16333Z2","name":"Slavkov u Brna, žel. st.","arrival_time":"21:15:00","departure_time":"21:58:00","lat":49.144747,"lon":16.87383,"is_passed":false}]