{"758":[{"stop_id":"U30009Z2","name":"Křižanov","arrival_time":"17:00:00","departure_time":"17:00:00","lat":49.384694,"lon":16.080389,"is_passed":false},{"stop_id":"U30302Z2","name":"Ořechov","arrival_time":"17:04:00","departure_time":"17:04:00","lat":49.350447,"lon":16.136416,"is_passed":false},{"stop_id":"U30305Z2","name":"Osová Bítýška","arrival_time":"17:08:00","departure_time":"17:08:00","lat":49.329893,"lon":16.168305,"is_passed":false},{"stop_id":"U23501Z2","name":"Vlkov-Osová","arrival_time":"17:10:00","departure_time":"17:11:00","lat":49.326883,"lon":16.202114,"is_passed":false},{"stop_id":"U13454Z11","name":"Níhov, železniční stanice","arrival_time":"17:15:00","departure_time":"17:16:00","lat":49.33637,"lon":16.270573,"is_passed":false},{"stop_id":"U13425Z11","name":"Řikonín, železniční stanice","arrival_time":"17:19:00","departure_time":"17:20:00","lat":49.365833,"lon":16.305833,"is_passed":false},{"stop_id":"U13411Z11","name":"Dolní Loučky, železniční stanice","arrival_time":"17:22:00","departure_time":"17:22:00","lat":49.356389,"lon":16.346945,"is_passed":false},{"stop_id":"U13334Z21","name":"Tišnov, železniční stanice","arrival_time":"17:28:00","departure_time":"17:29:00","lat":49.3475,"lon":16.41725,"is_passed":false},{"stop_id":"U13306Z11","name":"Hradčany, železniční stanice","arrival_time":"17:31:00","departure_time":"17:32:00","lat":49.333878,"lon":16.437893,"is_passed":false},{"stop_id":"U13206Z11","name":"Čebín, železniční stanice","arrival_time":"17:34:00","departure_time":"17:35:00","lat":49.319722,"lon":16.465278,"is_passed":false},{"stop_id":"U13143Z11","name":"Kuřim, železniční stanice","arrival_time":"17:40:00","departure_time":"17:41:00","lat":49.301,"lon":16.534523,"is_passed":false},{"stop_id":"U13109Z11","name":"Česká, železniční stanice","arrival_time":"17:43:00","departure_time":"17:44:00","lat":49.284546,"lon":16.566731,"is_passed":false},{"stop_id":"U1557Z11","name":"Řečkovice, nádraží","arrival_time":"17:48:00","departure_time":"17:48:00","lat":49.250794,"lon":16.590446,"is_passed":false},{"stop_id":"U1286Z11","name":"Královo Pole, nádraží","arrival_time":"17:51:00","departure_time":"17:52:00","lat":49.231051,"lon":16.596651,"is_passed":false},{"stop_id":"U1331Z11","name":"Lesná, nádraží","arrival_time":"17:54:00","departure_time":"17:55:00","lat":49.220432,"lon":16.627505,"is_passed":false},{"stop_id":"U1809Z11","name":"Židenice, nádraží","arrival_time":"18:01:00","departure_time":"18:01:00","lat":49.204282,"lon":16.636042,"is_passed":false},{"stop_id":"U1146Z98","name":"Hlavní nádraží","arrival_time":"18:06:00","departure_time":"18:09:00","lat":49.19035,"lon":16.612342,"is_passed":false},{"stop_id":"U11002Z11","name":"Brno-Horní Heršpice","arrival_time":"18:13:00","departure_time":"18:13:00","lat":49.167404,"lon":16.60686,"is_passed":false},{"stop_id":"U15140Z11","name":"Modřice, železniční stanice","arrival_time":"18:17:00","departure_time":"18:18:00","lat":49.133256,"lon":16.606209,"is_passed":false},{"stop_id":"U15181Z11","name":"Rajhrad, železniční stanice","arrival_time":"18:21:00","departure_time":"18:22:00","lat":49.084966,"lon":16.60532,"is_passed":false},{"stop_id":"U15222Z11","name":"Hrušovany u Brna, žel. st.","arrival_time":"18:26:00","departure_time":"18:30:00","lat":49.034228,"lon":16.591501,"is_passed":false},{"stop_id":"U15306Z11","name":"Žabčice, žel. st.","arrival_time":"18:33:00","departure_time":"18:33:00","lat":49.010857,"lon":16.594833,"is_passed":false},{"stop_id":"U15307Z11","name":"Vranovice, žel.st.","arrival_time":"18:37:00","departure_time":"18:38:00","lat":48.964528,"lon":16.604187,"is_passed":false},{"stop_id":"U25401Z11","name":"Pouzdřany","arrival_time":"18:40:00","departure_time":"18:41:00","lat":48.942025,"lon":16.630527,"is_passed":false},{"stop_id":"U25402Z11","name":"Popice","arrival_time":"18:44:00","departure_time":"18:44:00","lat":48.924332,"lon":16.668084,"is_passed":false},{"stop_id":"U15425Z11","name":"Šakvice, železniční stanice","arrival_time":"18:47:00","departure_time":"18:48:00","lat":48.912883,"lon":16.70557,"is_passed":false},{"stop_id":"U15403Z11","name":"Hustopeče, autobusové nádraží","arrival_time":"18:55:00","departure_time":"19:04:00","lat":48.93752,"lon":16.735901,"is_passed":false}],"7580":[{"stop_id":"U17220Z1","name":"Viničné Šumice, točna","arrival_time":"23:25:00","departure_time":"23:25:00","lat":49.212718,"lon":16.8107,"is_passed":false},{"stop_id":"U17210Z2","name":"Pozořice, Velké Lipky","arrival_time":"23:28:00","departure_time":"23:28:00","lat":49.209561,"lon":16.798872,"is_passed":false},{"stop_id":"U17212Z2","name":"Pozořice, náměstí","arrival_time":"23:30:00","departure_time":"23:30:00","lat":49.209871,"lon":16.790286,"is_passed":false},{"stop_id":"U16227Z1","name":"Holubice, GLP Park","arrival_time":"23:36:00","departure_time":"23:36:00","lat":49.188149,"lon":16.810898,"is_passed":false},{"stop_id":"U16105Z2","name":"Jiříkovice, motorest Rohlenka","arrival_time":"23:40:00","departure_time":"23:40:00","lat":49.183667,"lon":16.760583,"is_passed":false},{"stop_id":"U16130Z2","name":"Šlapanice, Bedřichovice, rozc.","arrival_time":"23:43:00","departure_time":"23:43:00","lat":49.182977,"lon":16.72308,"is_passed":false},{"stop_id":"U1577Z6","name":"Slatina, sídliště","arrival_time":"23:45:00","departure_time":"23:45:00","lat":49.18229,"lon":16.690089,"is_passed":false},{"stop_id":"U1068Z4","name":"Černovičky","arrival_time":"23:46:00","departure_time":"23:46:00","lat":49.183907,"lon":16.668247,"is_passed":false},{"stop_id":"U1677Z2","name":"Tržní","arrival_time":"23:50:00","departure_time":"23:50:00","lat":49.189407,"lon":16.629972,"is_passed":false},{"stop_id":"U1798Z5","name":"Zvonařka","arrival_time":"23:52:00","departure_time":"23:52:00","lat":49.18754,"lon":16.620139,"is_passed":false},{"stop_id":"U1146Z7","name":"Hlavní nádraží","arrival_time":"23:55:00","departure_time":"23:55:00","lat":49.19213,"lon":16.613467,"is_passed":false}],"7581":[{"stop_id":"U1146Z8","name":"Hlavní nádraží","arrival_time":"0:00:00","departure_time":"0:00:00","lat":49.191893,"lon":16.613334,"is_passed":false},{"stop_id":"U1677Z1","name":"Tržní","arrival_time":"0:03:00","departure_time":"0:03:00","lat":49.189973,"lon":16.632193,"is_passed":false},{"stop_id":"U1068Z3","name":"Černovičky","arrival_time":"0:07:00","departure_time":"0:07:00","lat":49.183143,"lon":16.669108,"is_passed":false},{"stop_id":"U1577Z5","name":"Slatina, sídliště","arrival_time":"0:09:00","departure_time":"0:09:00","lat":49.182195,"lon":16.690725,"is_passed":false},{"stop_id":"U16130Z1","name":"Šlapanice, Bedřichovice, rozc.","arrival_time":"0:12:00","departure_time":"0:12:00","lat":49.182882,"lon":16.723572,"is_passed":false},{"stop_id":"U16105Z1","name":"Jiříkovice, motorest Rohlenka","arrival_time":"0:15:00","departure_time":"0:15:00","lat":49.183436,"lon":16.761042,"is_passed":false},{"stop_id":"U16142Z1","name":"Tvarožná, zemědělské družstvo","arrival_time":"0:16:00","departure_time":"0:16:00","lat":49.185906,"lon":16.765089,"is_passed":false},{"stop_id":"U16153Z1","name":"Tvarožná","arrival_time":"0:17:00","departure_time":"0:17:00","lat":49.190736,"lon":16.770347,"is_passed":false},{"stop_id":"U16140Z1","name":"Tvarožná, sokolovna","arrival_time":"0:19:00","departure_time":"0:19:00","lat":49.193053,"lon":16.776292,"is_passed":false},{"stop_id":"U17215Z1","name":"Sivice","arrival_time":"0:22:00","departure_time":"0:22:00","lat":49.201394,"lon":16.783639,"is_passed":false},{"stop_id":"U17212Z1","name":"Pozořice, náměstí","arrival_time":"0:25:00","departure_time":"0:25:00","lat":49.208924,"lon":16.790865,"is_passed":false}],"7582":[{"stop_id":"U16101Z2","name":"Blažovice, hostinec","arrival_time":"4:14:00","departure_time":"4:14:00","lat":49.166001,"lon":16.786446,"is_passed":false},{"stop_id":"U16102Z2","name":"Blažovice, pod kostelem","arrival_time":"4:15:00","departure_time":"4:15:00","lat":49.162842,"lon":16.783037,"is_passed":false},{"stop_id":"U16104Z2","name":"Jiříkovice","arrival_time":"4:19:00","departure_time":"4:19:00","lat":49.166323,"lon":16.757805,"is_passed":false},{"stop_id":"U16121Z2","name":"Ponětovice, železniční stanice","arrival_time":"4:22:00","departure_time":"4:22:00","lat":49.154698,"lon":16.747757,"is_passed":false},{"stop_id":"U16120Z2","name":"Ponětovice","arrival_time":"4:23:00","departure_time":"4:23:00","lat":49.152307,"lon":16.742117,"is_passed":false},{"stop_id":"U16159Z4","name":"Šlapanice, Kalvodova","arrival_time":"4:27:00","departure_time":"4:27:00","lat":49.166805,"lon":16.72634,"is_passed":false},{"stop_id":"U16163Z2","name":"Šlapanice, Riegrova","arrival_time":"4:28:00","departure_time":"4:49:00","lat":49.168445,"lon":16.726032,"is_passed":false}],"7583":[{"stop_id":"U16163Z1","name":"Šlapanice, Riegrova","arrival_time":"4:49:00","departure_time":"4:49:00","lat":49.168445,"lon":16.726032,"is_passed":false},{"stop_id":"U16159Z3","name":"Šlapanice, Kalvodova","arrival_time":"4:50:00","departure_time":"4:50:00","lat":49.165936,"lon":16.726067,"is_passed":false},{"stop_id":"U16104Z1","name":"Jiříkovice","arrival_time":"4:54:00","departure_time":"4:54:00","lat":49.16632,"lon":16.757892,"is_passed":false},{"stop_id":"U16102Z1","name":"Blažovice, pod kostelem","arrival_time":"4:58:00","departure_time":"4:58:00","lat":49.162833,"lon":16.78274,"is_passed":false},{"stop_id":"U16101Z1","name":"Blažovice, hostinec","arrival_time":"4:59:00","departure_time":"5:00:00","lat":49.166001,"lon":16.786446,"is_passed":false}],"7584":[{"stop_id":"U16101Z2","name":"Blažovice, hostinec","arrival_time":"5:00:00","departure_time":"5:00:00","lat":49.166001,"lon":16.786446,"is_passed":false},{"stop_id":"U16102Z2","name":"Blažovice, pod kostelem","arrival_time":"5:01:00","departure_time":"5:01:00","lat":49.162842,"lon":16.783037,"is_passed":false},{"stop_id":"U16104Z2","name":"Jiříkovice","arrival_time":"5:05:00","departure_time":"5:05:00","lat":49.166323,"lon":16.757805,"is_passed":false},{"stop_id":"U16121Z2","name":"Ponětovice, železniční stanice","arrival_time":"5:08:00","departure_time":"5:08:00","lat":49.154698,"lon":16.747757,"is_passed":false},{"stop_id":"U16120Z2","name":"Ponětovice","arrival_time":"5:09:00","departure_time":"5:09:00","lat":49.152307,"lon":16.742117,"is_passed":false},{"stop_id":"U16159Z4","name":"Šlapanice, Kalvodova","arrival_time":"5:13:00","departure_time":"5:13:00","lat":49.166805,"lon":16.72634,"is_passed":false},{"stop_id":"U16163Z2","name":"Šlapanice, Riegrova","arrival_time":"5:14:00","departure_time":"5:19:00","lat":49.168445,"lon":16.726032,"is_passed":false}],"7585":[{"stop_id":"U16163Z1","name":"Šlapanice, Riegrova","arrival_time":"5:19:00","departure_time":"5:19:00","lat":49.168445,"lon":16.726032,"is_passed":false},{"stop_id":"U16159Z3","name":"Šlapanice, Kalvodova","arrival_time":"5:20:00","departure_time":"5:20:00","lat":49.165936,"lon":16.726067,"is_passed":false},{"stop_id":"U16104Z1","name":"Jiříkovice","arrival_time":"5:24:00","departure_time":"5:24:00","lat":49.16632,"lon":16.757892,"is_passed":false},{"stop_id":"U16102Z1","name":"Blažovice, pod kostelem","arrival_time":"5:28:00","departure_time":"5:28:00","lat":49.162833,"lon":16.78274,"is_passed":false},{"stop_id":"U16101Z1","name":"Blažovice, hostinec","arrival_time":"5:29:00","departure_time":"5:30:00","lat":49.166001,"lon":16.786446,"is_passed":false}],"7586":[{"stop_id":"U16101Z2","name":"Blažovice, hostinec","arrival_time":"5:30:00","departure_time":"5:30:00","lat":49.166001,"lon":16.786446,"is_passed":false},{"stop_id":"U16102Z2","name":"Blažovice, pod kostelem","arrival_time":"5:31:00","departure_time":"5:31:00","lat":49.162842,"lon":16.783037,"is_passed":false},{"stop_id":"U16104Z2","name":"Jiříkovice","arrival_time":"5:35:00","departure_time":"5:35:00","lat":49.166323,"lon":16.757805,"is_passed":false},{"stop_id":"U16121Z2","name":"Ponětovice, železniční stanice","arrival_time":"5:38:00","departure_time":"5:38:00","lat":49.154698,"lon":16.747757,"is_passed":false},{"stop_id":"U16120Z2","name":"Ponětovice","arrival_time":"5:39:00","departure_time":"5:39:00","lat":49.152307,"lon":16.742117,"is_passed":false},{"stop_id":"U16159Z4","name":"Šlapanice, Kalvodova","arrival_time":"5:43:00","departure_time":"5:43:00","lat":49.166805,"lon":16.72634,"is_passed":false},{"stop_id":"U16163Z2","name":"Šlapanice, Riegrova","arrival_time":"5:44:00","departure_time":"5:44:00","lat":49.168445,"lon":16.726032,"is_passed":false}],"7587":[{"stop_id":"U16163Z1","name":"Šlapanice, Riegrova","arrival_time":"5:44:00","departure_time":"5:44:00","lat":49.168445,"lon":16.726032,"is_passed":false},{"stop_id":"U16159Z3","name":"Šlapanice, Kalvodova","arrival_time":"5:45:00","departure_time":"5:45:00","lat":49.165936,"lon":16.726067,"is_passed":false},{"stop_id":"U16120Z1","name":"Ponětovice","arrival_time":"5:48:00","departure_time":"5:48:00","lat":49.152352,"lon":16.740815,"is_passed":false},{"stop_id":"U16121Z1","name":"Ponětovice, železniční stanice","arrival_time":"5:49:00","departure_time":"5:49:00","lat":49.154645,"lon":16.747738,"is_passed":false},{"stop_id":"U16104Z1","name":"Jiříkovice","arrival_time":"5:53:00","departure_time":"5:53:00","lat":49.16632,"lon":16.757892,"is_passed":false},{"stop_id":"U16102Z1","name":"Blažovice, pod kostelem","arrival_time":"5:57:00","departure_time":"5:57:00","lat":49.162833,"lon":16.78274,"is_passed":false},{"stop_id":"U16101Z1","name":"Blažovice, hostinec","arrival_time":"5:58:00","departure_time":"6:04:00","lat":49.166001,"lon":16.786446,"is_passed":false}],"7588":[{"stop_id":"U16101Z2","name":"Blažovice, hostinec","arrival_time":"6:04:00","departure_time":"6:04:00","lat":49.166001,"lon":16.786446,"is_passed":false},{"stop_id":"U16102Z2","name":"Blažovice, pod kostelem","arrival_time":"6:05:00","departure_time":"6:05:00","lat":49.162842,"lon":16.783037,"is_passed":false},{"stop_id":"U16104Z2","name":"Jiříkovice","arrival_time":"6:09:00","departure_time":"6:09:00","lat":49.166323,"lon":16.757805,"is_passed":false},{"stop_id":"U16121Z2","name":"Ponětovice, železniční stanice","arrival_time":"6:12:00","departure_time":"6:12:00","lat":49.154698,"lon":16.747757,"is_passed":false},{"stop_id":"U16120Z2","name":"Ponětovice","arrival_time":"6:13:00","departure_time":"6:13:00","lat":49.152307,"lon":16.742117,"is_passed":false},{"stop_id":"U16159Z4","name":"Šlapanice, Kalvodova","arrival_time":"6:17:00","departure_time":"6:17:00","lat":49.166805,"lon":16.72634,"is_passed":false},{"stop_id":"U16163Z2","name":"Šlapanice, Riegrova","arrival_time":"6:18:00","departure_time":"7:54:00","lat":49.168445,"lon":16.726032,"is_passed":false}],"7589":[{"stop_id":"U16163Z1","name":"Šlapanice, Riegrova","arrival_time":"7:54:00","departure_time":"7:54:00","lat":49.168445,"lon":16.726032,"is_passed":false},{"stop_id":"U16159Z3","name":"Šlapanice, Kalvodova","arrival_time":"7:55:00","departure_time":"7:55:00","lat":49.165936,"lon":16.726067,"is_passed":false},{"stop_id":"U16120Z1","name":"Ponětovice","arrival_time":"7:58:00","departure_time":"7:58:00","lat":49.152352,"lon":16.740815,"is_passed":false},{"stop_id":"U16121Z1","name":"Ponětovice, železniční stanice","arrival_time":"7:59:00","departure_time":"7:59:00","lat":49.154645,"lon":16.747738,"is_passed":false},{"stop_id":"U16104Z1","name":"Jiříkovice","arrival_time":"8:03:00","departure_time":"8:03:00","lat":49.16632,"lon":16.757892,"is_passed":false},{"stop_id":"U16102Z1","name":"Blažovice, pod kostelem","arrival_time":"8:07:00","departure_time":"8:07:00","lat":49.162833,"lon":16.78274,"is_passed":false},{"stop_id":"U16101Z1","name":"Blažovice, hostinec","arrival_time":"8:08:00","departure_time":"8:09:00","lat":49.166001,"lon":16.786446,"is_passed":false}]}