[{"stop_id":"U1696Z6","name":"ÚAN Zvonařka","arrival_time":"21:32:00","departure_time":"21:32:00","lat":49.185364,"lon":16.616151,"is_passed":false},{"stop_id":"U1677Z3","name":"Tržní","arrival_time":"21:36:00","departure_time":"21:36:00","lat":49.189342,"lon":16.630314,"is_passed":false},{"stop_id":"U16206Z1","name":"Holubice, nadjezd","arrival_time":"21:49:00","departure_time":"21:49:00","lat":49.178081,"lon":16.819173,"is_passed":false},{"stop_id":"U16334Z1","name":"Velešovice, rozc.","arrival_time":"21:51:00","departure_time":"21:51:00","lat":49.166882,"lon":16.842802,"is_passed":false},{"stop_id":"U16328Z3","name":"Slavkov u Brna, aut. st.","arrival_time":"21:57:00","departure_time":"21:57:00","lat":49.149057,"lon":16.876562,"is_passed":false},{"stop_id":"U16332Z1","name":"Slavkov u Brna, rozcestí k žel. st.","arrival_time":"22:00:00","departure_time":"22:00:00","lat":49.143955,"lon":16.878297,"is_passed":false},{"stop_id":"U16337Z1","name":"Nížkovice, rozcestí","arrival_time":"22:03:00","departure_time":"22:03:00","lat":49.11212,"lon":16.895599,"is_passed":false},{"stop_id":"U16336Z1","name":"Heršpice, Bílý Vlk","arrival_time":"22:06:00","departure_time":"22:06:00","lat":49.095813,"lon":16.909428,"is_passed":false},{"stop_id":"U16445Z1","name":"Žarošice, Těšanka","arrival_time":"22:08:00","departure_time":"22:08:00","lat":49.079005,"lon":16.936517,"is_passed":false},{"stop_id":"U16446Z1","name":"Žarošice, Zdravá Voda","arrival_time":"22:10:00","departure_time":"22:10:00","lat":49.065466,"lon":16.945145,"is_passed":false},{"stop_id":"U16444Z1","name":"Žarošice, Silničná, rozcestí Uhřice","arrival_time":"22:13:00","departure_time":"22:13:00","lat":49.051812,"lon":16.953006,"is_passed":false},{"stop_id":"U16448Z1","name":"Žarošice, škola","arrival_time":"22:16:00","departure_time":"22:16:00","lat":49.039337,"lon":16.96142,"is_passed":false},{"stop_id":"U16449Z1","name":"Žarošice","arrival_time":"22:17:00","departure_time":"22:17:00","lat":49.040617,"lon":16.967482,"is_passed":false},{"stop_id":"U16525Z1","name":"Archlebov","arrival_time":"22:22:00","departure_time":"22:22:00","lat":49.043113,"lon":17.00413,"is_passed":false},{"stop_id":"U16527Z1","name":"Dražůvky","arrival_time":"22:26:00","departure_time":"22:26:00","lat":49.031967,"lon":17.020073,"is_passed":false},{"stop_id":"U16533Z1","name":"Želetice, statek","arrival_time":"22:30:00","departure_time":"22:30:00","lat":49.01512,"lon":17.006987,"is_passed":false},{"stop_id":"U16534Z1","name":"Želetice","arrival_time":"22:31:00","departure_time":"22:31:00","lat":49.012693,"lon":17.009444,"is_passed":false},{"stop_id":"U16530Z1","name":"Nenkovice, u kašny","arrival_time":"22:34:00","departure_time":"22:34:00","lat":49.001724,"lon":17.007864,"is_passed":false},{"stop_id":"U16528Z1","name":"Nenkovice, obecní úřad","arrival_time":"22:35:00","departure_time":"22:35:00","lat":49.004197,"lon":17.011395,"is_passed":false},{"stop_id":"U16529Z1","name":"Nenkovice, škola","arrival_time":"22:36:00","departure_time":"22:36:00","lat":49.004607,"lon":17.015563,"is_passed":false},{"stop_id":"U16635Z1","name":"Stavěšice","arrival_time":"22:39:00","departure_time":"22:39:00","lat":49.001868,"lon":17.029877,"is_passed":false},{"stop_id":"U16622Z1","name":"Strážovice","arrival_time":"22:43:00","departure_time":"22:43:00","lat":49.0093,"lon":17.047132,"is_passed":false},{"stop_id":"U16612Z1","name":"Kyjov, nemocnice","arrival_time":"22:50:00","departure_time":"22:50:00","lat":49.006845,"lon":17.11013,"is_passed":false},{"stop_id":"U16608Z16","name":"Kyjov, aut. st.","arrival_time":"22:52:00","departure_time":"22:52:00","lat":49.006873,"lon":17.123912,"is_passed":false}]