[{"stop_id":"U16401Z6","name":"Bučovice, aut. st.","arrival_time":"4:35:00","departure_time":"4:35:00","lat":49.148057,"lon":17.001665,"is_passed":false},{"stop_id":"U16451Z2","name":"Bučovice, zdravotní středisko","arrival_time":"4:37:00","departure_time":"4:37:00","lat":49.14811,"lon":17.005643,"is_passed":false},{"stop_id":"U16434Z1","name":"Bučovice, Vícemilice","arrival_time":"4:39:00","departure_time":"4:39:00","lat":49.14097,"lon":17.018388,"is_passed":false},{"stop_id":"U16511Z1","name":"Nevojice, točna","arrival_time":"4:43:00","departure_time":"4:43:00","lat":49.137013,"lon":17.047757,"is_passed":false},{"stop_id":"U16557Z1","name":"Nesovice, čerpací stanice","arrival_time":"4:47:00","departure_time":"4:47:00","lat":49.149513,"lon":17.080224,"is_passed":false},{"stop_id":"U16509Z1","name":"Nesovice, železniční stanice","arrival_time":"4:48:00","departure_time":"4:50:00","lat":49.149095,"lon":17.079312,"is_passed":false},{"stop_id":"U16508Z1","name":"Nesovice, požární zbrojnice","arrival_time":"4:52:00","departure_time":"4:52:00","lat":49.150423,"lon":17.081728,"is_passed":false},{"stop_id":"U16502Z1","name":"Milonice","arrival_time":"4:54:00","departure_time":"4:54:00","lat":49.15835,"lon":17.072118,"is_passed":false},{"stop_id":"U16514Z1","name":"Uhřice, rozcestí","arrival_time":"4:55:00","departure_time":"4:55:00","lat":49.163227,"lon":17.067172,"is_passed":false},{"stop_id":"U16513Z1","name":"Uhřice, na návsi","arrival_time":"4:57:00","departure_time":"4:57:00","lat":49.171422,"lon":17.07905,"is_passed":false},{"stop_id":"U16515Z2","name":"Hvězdlice, Nové Hvězdlice, rozcestí","arrival_time":"5:02:00","departure_time":"5:02:00","lat":49.191246,"lon":17.094247,"is_passed":false},{"stop_id":"U16516Z1","name":"Hvězdlice, Nové Hvězdlice","arrival_time":"5:04:00","departure_time":"5:18:00","lat":49.193314,"lon":17.083975,"is_passed":false}]