{"762":[{"stop_id":"U13334Z21","name":"Tišnov, železniční stanice","arrival_time":"11:59:00","departure_time":"11:59:00","lat":49.3475,"lon":16.41725,"is_passed":false},{"stop_id":"U13306Z11","name":"Hradčany, železniční stanice","arrival_time":"12:01:00","departure_time":"12:02:00","lat":49.333878,"lon":16.437893,"is_passed":false},{"stop_id":"U13206Z11","name":"Čebín, železniční stanice","arrival_time":"12:04:00","departure_time":"12:05:00","lat":49.319722,"lon":16.465278,"is_passed":false},{"stop_id":"U13143Z11","name":"Kuřim, železniční stanice","arrival_time":"12:10:00","departure_time":"12:11:00","lat":49.301,"lon":16.534523,"is_passed":false},{"stop_id":"U13109Z11","name":"Česká, železniční stanice","arrival_time":"12:13:00","departure_time":"12:14:00","lat":49.284546,"lon":16.566731,"is_passed":false},{"stop_id":"U1557Z11","name":"Řečkovice, nádraží","arrival_time":"12:18:00","departure_time":"12:18:00","lat":49.250794,"lon":16.590446,"is_passed":false},{"stop_id":"U1286Z11","name":"Královo Pole, nádraží","arrival_time":"12:21:00","departure_time":"12:22:00","lat":49.231051,"lon":16.596651,"is_passed":false},{"stop_id":"U1331Z11","name":"Lesná, nádraží","arrival_time":"12:24:00","departure_time":"12:25:00","lat":49.220432,"lon":16.627505,"is_passed":false},{"stop_id":"U1809Z11","name":"Židenice, nádraží","arrival_time":"12:31:00","departure_time":"12:31:00","lat":49.204282,"lon":16.636042,"is_passed":false},{"stop_id":"U1146Z98","name":"Hlavní nádraží","arrival_time":"12:36:00","departure_time":"12:40:00","lat":49.19035,"lon":16.612342,"is_passed":false},{"stop_id":"U15140Z11","name":"Modřice, železniční stanice","arrival_time":"12:46:00","departure_time":"12:47:00","lat":49.133256,"lon":16.606209,"is_passed":false},{"stop_id":"U15135Z11","name":"Popovice, u tratě","arrival_time":"12:49:00","departure_time":"12:50:00","lat":49.103463,"lon":16.605647,"is_passed":false},{"stop_id":"U15181Z11","name":"Rajhrad, železniční stanice","arrival_time":"12:52:00","departure_time":"12:52:00","lat":49.084966,"lon":16.60532,"is_passed":false},{"stop_id":"U25201Z11","name":"Vojkovice nad Svratkou, žel. st.","arrival_time":"12:55:00","departure_time":"12:56:00","lat":49.056208,"lon":16.597445,"is_passed":false},{"stop_id":"U15222Z11","name":"Hrušovany u Brna, žel. st.","arrival_time":"12:58:00","departure_time":"12:59:00","lat":49.034228,"lon":16.591501,"is_passed":false},{"stop_id":"U15241Z22","name":"Židlochovice, železniční stanice","arrival_time":"13:03:00","departure_time":"13:57:00","lat":49.033178,"lon":16.617165,"is_passed":false}],"7620":[{"stop_id":"U1716Z11","name":"Úzká","arrival_time":"15:42:00","departure_time":"15:42:00","lat":49.188931,"lon":16.612782,"is_passed":false},{"stop_id":"U1463Z2","name":"Opuštěná","arrival_time":"15:45:00","departure_time":"15:45:00","lat":49.185245,"lon":16.613024,"is_passed":false},{"stop_id":"U1677Z1","name":"Tržní","arrival_time":"15:49:00","departure_time":"15:49:00","lat":49.189973,"lon":16.632193,"is_passed":false},{"stop_id":"U1068Z3","name":"Černovičky","arrival_time":"15:53:00","departure_time":"15:53:00","lat":49.183143,"lon":16.669108,"is_passed":false},{"stop_id":"U1577Z5","name":"Slatina, sídliště","arrival_time":"15:57:00","departure_time":"15:57:00","lat":49.182195,"lon":16.690725,"is_passed":false},{"stop_id":"U16130Z1","name":"Šlapanice, Bedřichovice, rozc.","arrival_time":"16:02:00","departure_time":"16:02:00","lat":49.182882,"lon":16.723572,"is_passed":false},{"stop_id":"U16105Z1","name":"Jiříkovice, motorest Rohlenka","arrival_time":"16:05:00","departure_time":"16:05:00","lat":49.183436,"lon":16.761042,"is_passed":false},{"stop_id":"U16142Z1","name":"Tvarožná, zemědělské družstvo","arrival_time":"16:06:00","departure_time":"16:06:00","lat":49.185906,"lon":16.765089,"is_passed":false},{"stop_id":"U16153Z1","name":"Tvarožná","arrival_time":"16:07:00","departure_time":"16:07:00","lat":49.190736,"lon":16.770347,"is_passed":false},{"stop_id":"U16140Z1","name":"Tvarožná, sokolovna","arrival_time":"16:09:00","departure_time":"16:09:00","lat":49.193053,"lon":16.776292,"is_passed":false},{"stop_id":"U17215Z1","name":"Sivice","arrival_time":"16:12:00","departure_time":"16:12:00","lat":49.201394,"lon":16.783639,"is_passed":false},{"stop_id":"U17212Z1","name":"Pozořice, náměstí","arrival_time":"16:15:00","departure_time":"16:15:00","lat":49.208924,"lon":16.790865,"is_passed":false},{"stop_id":"U17211Z1","name":"Pozořice, Jezera","arrival_time":"16:18:00","departure_time":"16:18:00","lat":49.215403,"lon":16.795607,"is_passed":false},{"stop_id":"U17212Z3","name":"Pozořice, náměstí","arrival_time":"16:19:00","departure_time":"16:19:00","lat":49.209464,"lon":16.791047,"is_passed":false},{"stop_id":"U17210Z1","name":"Pozořice, Velké Lipky","arrival_time":"16:20:00","departure_time":"16:20:00","lat":49.209336,"lon":16.79656,"is_passed":false},{"stop_id":"U17207Z1","name":"Kovalovice, na kopci","arrival_time":"16:21:00","departure_time":"16:21:00","lat":49.206132,"lon":16.807718,"is_passed":false},{"stop_id":"U17208Z1","name":"Kovalovice, obecní úřad","arrival_time":"16:22:00","departure_time":"16:22:00","lat":49.204735,"lon":16.81897,"is_passed":false},{"stop_id":"U17206Z1","name":"Kovalovice, Dražka","arrival_time":"16:23:00","departure_time":"16:23:00","lat":49.206533,"lon":16.824383,"is_passed":false},{"stop_id":"U17217Z1","name":"Viničné Šumice, obecní úřad","arrival_time":"16:25:00","departure_time":"16:25:00","lat":49.212478,"lon":16.825983,"is_passed":false},{"stop_id":"U17216Z1","name":"Viničné Šumice, Hradská","arrival_time":"16:26:00","departure_time":"16:26:00","lat":49.21438,"lon":16.821803,"is_passed":false},{"stop_id":"U17218Z1","name":"Viničné Šumice, Psénky","arrival_time":"16:27:00","departure_time":"16:27:00","lat":49.213833,"lon":16.817523,"is_passed":false},{"stop_id":"U17220Z1","name":"Viničné Šumice, točna","arrival_time":"16:28:00","departure_time":"16:51:00","lat":49.212718,"lon":16.8107,"is_passed":false}],"7621":[{"stop_id":"U17220Z2","name":"Viničné Šumice, točna","arrival_time":"16:51:00","departure_time":"16:51:00","lat":49.212718,"lon":16.8107,"is_passed":false},{"stop_id":"U17218Z2","name":"Viničné Šumice, Psénky","arrival_time":"16:52:00","departure_time":"16:52:00","lat":49.213227,"lon":16.815287,"is_passed":false},{"stop_id":"U17216Z2","name":"Viničné Šumice, Hradská","arrival_time":"16:53:00","departure_time":"16:53:00","lat":49.214327,"lon":16.821805,"is_passed":false},{"stop_id":"U17217Z2","name":"Viničné Šumice, obecní úřad","arrival_time":"16:54:00","departure_time":"16:54:00","lat":49.212442,"lon":16.82585,"is_passed":false},{"stop_id":"U17206Z2","name":"Kovalovice, Dražka","arrival_time":"16:56:00","departure_time":"16:56:00","lat":49.206257,"lon":16.824293,"is_passed":false},{"stop_id":"U17208Z2","name":"Kovalovice, obecní úřad","arrival_time":"16:57:00","departure_time":"16:57:00","lat":49.204713,"lon":16.818635,"is_passed":false},{"stop_id":"U17207Z2","name":"Kovalovice, na kopci","arrival_time":"16:58:00","departure_time":"16:58:00","lat":49.20635,"lon":16.807393,"is_passed":false},{"stop_id":"U17210Z2","name":"Pozořice, Velké Lipky","arrival_time":"17:00:00","departure_time":"17:00:00","lat":49.209561,"lon":16.798872,"is_passed":false},{"stop_id":"U17212Z2","name":"Pozořice, náměstí","arrival_time":"17:02:00","departure_time":"17:02:00","lat":49.209871,"lon":16.790286,"is_passed":false},{"stop_id":"U17215Z2","name":"Sivice","arrival_time":"17:04:00","departure_time":"17:04:00","lat":49.201272,"lon":16.783517,"is_passed":false},{"stop_id":"U16140Z2","name":"Tvarožná, sokolovna","arrival_time":"17:06:00","departure_time":"17:06:00","lat":49.193067,"lon":16.775881,"is_passed":false},{"stop_id":"U16153Z2","name":"Tvarožná","arrival_time":"17:08:00","departure_time":"17:08:00","lat":49.190839,"lon":16.770364,"is_passed":false},{"stop_id":"U16142Z2","name":"Tvarožná, zemědělské družstvo","arrival_time":"17:09:00","departure_time":"17:09:00","lat":49.185883,"lon":16.764842,"is_passed":false},{"stop_id":"U16105Z2","name":"Jiříkovice, motorest Rohlenka","arrival_time":"17:10:00","departure_time":"17:10:00","lat":49.183667,"lon":16.760583,"is_passed":false},{"stop_id":"U16130Z2","name":"Šlapanice, Bedřichovice, rozc.","arrival_time":"17:13:00","departure_time":"17:13:00","lat":49.182977,"lon":16.72308,"is_passed":false},{"stop_id":"U1577Z6","name":"Slatina, sídliště","arrival_time":"17:17:00","departure_time":"17:17:00","lat":49.18229,"lon":16.690089,"is_passed":false},{"stop_id":"U1068Z4","name":"Černovičky","arrival_time":"17:19:00","departure_time":"17:19:00","lat":49.183907,"lon":16.668247,"is_passed":false},{"stop_id":"U1677Z2","name":"Tržní","arrival_time":"17:25:00","departure_time":"17:25:00","lat":49.189407,"lon":16.629972,"is_passed":false},{"stop_id":"U1798Z5","name":"Zvonařka","arrival_time":"17:28:00","departure_time":"17:28:00","lat":49.18754,"lon":16.620139,"is_passed":false},{"stop_id":"U1716Z3","name":"Úzká","arrival_time":"17:32:00","departure_time":"17:52:00","lat":49.189244,"lon":16.613733,"is_passed":false}],"7622":[{"stop_id":"U1716Z11","name":"Úzká","arrival_time":"17:52:00","departure_time":"17:52:00","lat":49.188931,"lon":16.612782,"is_passed":false},{"stop_id":"U1463Z2","name":"Opuštěná","arrival_time":"17:55:00","departure_time":"17:55:00","lat":49.185245,"lon":16.613024,"is_passed":false},{"stop_id":"U1677Z1","name":"Tržní","arrival_time":"17:59:00","departure_time":"17:59:00","lat":49.189973,"lon":16.632193,"is_passed":false},{"stop_id":"U1068Z3","name":"Černovičky","arrival_time":"18:03:00","departure_time":"18:03:00","lat":49.183143,"lon":16.669108,"is_passed":false},{"stop_id":"U1577Z5","name":"Slatina, sídliště","arrival_time":"18:06:00","departure_time":"18:06:00","lat":49.182195,"lon":16.690725,"is_passed":false},{"stop_id":"U16130Z1","name":"Šlapanice, Bedřichovice, rozc.","arrival_time":"18:11:00","departure_time":"18:11:00","lat":49.182882,"lon":16.723572,"is_passed":false},{"stop_id":"U16105Z1","name":"Jiříkovice, motorest Rohlenka","arrival_time":"18:14:00","departure_time":"18:14:00","lat":49.183436,"lon":16.761042,"is_passed":false},{"stop_id":"U16142Z1","name":"Tvarožná, zemědělské družstvo","arrival_time":"18:15:00","departure_time":"18:15:00","lat":49.185906,"lon":16.765089,"is_passed":false},{"stop_id":"U16153Z1","name":"Tvarožná","arrival_time":"18:16:00","departure_time":"18:16:00","lat":49.190736,"lon":16.770347,"is_passed":false},{"stop_id":"U16140Z1","name":"Tvarožná, sokolovna","arrival_time":"18:18:00","departure_time":"18:18:00","lat":49.193053,"lon":16.776292,"is_passed":false},{"stop_id":"U17215Z1","name":"Sivice","arrival_time":"18:21:00","departure_time":"18:21:00","lat":49.201394,"lon":16.783639,"is_passed":false},{"stop_id":"U17212Z1","name":"Pozořice, náměstí","arrival_time":"18:24:00","departure_time":"18:24:00","lat":49.208924,"lon":16.790865,"is_passed":false},{"stop_id":"U17211Z1","name":"Pozořice, Jezera","arrival_time":"18:27:00","departure_time":"18:27:00","lat":49.215403,"lon":16.795607,"is_passed":false},{"stop_id":"U17212Z3","name":"Pozořice, náměstí","arrival_time":"18:28:00","departure_time":"18:28:00","lat":49.209464,"lon":16.791047,"is_passed":false},{"stop_id":"U17210Z1","name":"Pozořice, Velké Lipky","arrival_time":"18:29:00","departure_time":"18:29:00","lat":49.209336,"lon":16.79656,"is_passed":false},{"stop_id":"U17207Z1","name":"Kovalovice, na kopci","arrival_time":"18:30:00","departure_time":"18:30:00","lat":49.206132,"lon":16.807718,"is_passed":false},{"stop_id":"U17208Z1","name":"Kovalovice, obecní úřad","arrival_time":"18:31:00","departure_time":"18:31:00","lat":49.204735,"lon":16.81897,"is_passed":false},{"stop_id":"U17206Z1","name":"Kovalovice, Dražka","arrival_time":"18:32:00","departure_time":"18:32:00","lat":49.206533,"lon":16.824383,"is_passed":false},{"stop_id":"U17217Z1","name":"Viničné Šumice, obecní úřad","arrival_time":"18:34:00","departure_time":"18:34:00","lat":49.212478,"lon":16.825983,"is_passed":false},{"stop_id":"U17216Z1","name":"Viničné Šumice, Hradská","arrival_time":"18:35:00","departure_time":"18:35:00","lat":49.21438,"lon":16.821803,"is_passed":false},{"stop_id":"U17218Z1","name":"Viničné Šumice, Psénky","arrival_time":"18:36:00","departure_time":"18:36:00","lat":49.213833,"lon":16.817523,"is_passed":false},{"stop_id":"U17220Z1","name":"Viničné Šumice, točna","arrival_time":"18:37:00","departure_time":"19:03:00","lat":49.212718,"lon":16.8107,"is_passed":false}],"7623":[{"stop_id":"U17220Z2","name":"Viničné Šumice, točna","arrival_time":"19:03:00","departure_time":"19:03:00","lat":49.212718,"lon":16.8107,"is_passed":false},{"stop_id":"U17218Z2","name":"Viničné Šumice, Psénky","arrival_time":"19:04:00","departure_time":"19:04:00","lat":49.213227,"lon":16.815287,"is_passed":false},{"stop_id":"U17216Z2","name":"Viničné Šumice, Hradská","arrival_time":"19:05:00","departure_time":"19:05:00","lat":49.214327,"lon":16.821805,"is_passed":false},{"stop_id":"U17217Z2","name":"Viničné Šumice, obecní úřad","arrival_time":"19:06:00","departure_time":"19:06:00","lat":49.212442,"lon":16.82585,"is_passed":false},{"stop_id":"U17206Z2","name":"Kovalovice, Dražka","arrival_time":"19:08:00","departure_time":"19:08:00","lat":49.206257,"lon":16.824293,"is_passed":false},{"stop_id":"U17208Z2","name":"Kovalovice, obecní úřad","arrival_time":"19:09:00","departure_time":"19:09:00","lat":49.204713,"lon":16.818635,"is_passed":false},{"stop_id":"U17207Z2","name":"Kovalovice, na kopci","arrival_time":"19:10:00","departure_time":"19:10:00","lat":49.20635,"lon":16.807393,"is_passed":false},{"stop_id":"U17210Z2","name":"Pozořice, Velké Lipky","arrival_time":"19:12:00","departure_time":"19:12:00","lat":49.209561,"lon":16.798872,"is_passed":false},{"stop_id":"U17212Z2","name":"Pozořice, náměstí","arrival_time":"19:14:00","departure_time":"19:14:00","lat":49.209871,"lon":16.790286,"is_passed":false},{"stop_id":"U17215Z2","name":"Sivice","arrival_time":"19:16:00","departure_time":"19:16:00","lat":49.201272,"lon":16.783517,"is_passed":false},{"stop_id":"U16140Z2","name":"Tvarožná, sokolovna","arrival_time":"19:18:00","departure_time":"19:18:00","lat":49.193067,"lon":16.775881,"is_passed":false},{"stop_id":"U16153Z2","name":"Tvarožná","arrival_time":"19:20:00","departure_time":"19:20:00","lat":49.190839,"lon":16.770364,"is_passed":false},{"stop_id":"U16142Z2","name":"Tvarožná, zemědělské družstvo","arrival_time":"19:21:00","departure_time":"19:21:00","lat":49.185883,"lon":16.764842,"is_passed":false},{"stop_id":"U16105Z2","name":"Jiříkovice, motorest Rohlenka","arrival_time":"19:22:00","departure_time":"19:22:00","lat":49.183667,"lon":16.760583,"is_passed":false},{"stop_id":"U16130Z2","name":"Šlapanice, Bedřichovice, rozc.","arrival_time":"19:25:00","departure_time":"19:25:00","lat":49.182977,"lon":16.72308,"is_passed":false},{"stop_id":"U1577Z6","name":"Slatina, sídliště","arrival_time":"19:28:00","departure_time":"19:28:00","lat":49.18229,"lon":16.690089,"is_passed":false},{"stop_id":"U1068Z4","name":"Černovičky","arrival_time":"19:30:00","departure_time":"19:30:00","lat":49.183907,"lon":16.668247,"is_passed":false},{"stop_id":"U1677Z2","name":"Tržní","arrival_time":"19:35:00","departure_time":"19:35:00","lat":49.189407,"lon":16.629972,"is_passed":false},{"stop_id":"U1798Z5","name":"Zvonařka","arrival_time":"19:37:00","departure_time":"19:37:00","lat":49.18754,"lon":16.620139,"is_passed":false},{"stop_id":"U1716Z3","name":"Úzká","arrival_time":"19:40:00","departure_time":"19:52:00","lat":49.189244,"lon":16.613733,"is_passed":false}],"7624":[{"stop_id":"U1716Z11","name":"Úzká","arrival_time":"19:52:00","departure_time":"19:52:00","lat":49.188931,"lon":16.612782,"is_passed":false},{"stop_id":"U1463Z2","name":"Opuštěná","arrival_time":"19:55:00","departure_time":"19:55:00","lat":49.185245,"lon":16.613024,"is_passed":false},{"stop_id":"U1677Z1","name":"Tržní","arrival_time":"19:58:00","departure_time":"19:58:00","lat":49.189973,"lon":16.632193,"is_passed":false},{"stop_id":"U1068Z3","name":"Černovičky","arrival_time":"20:02:00","departure_time":"20:02:00","lat":49.183143,"lon":16.669108,"is_passed":false},{"stop_id":"U1577Z5","name":"Slatina, sídliště","arrival_time":"20:05:00","departure_time":"20:05:00","lat":49.182195,"lon":16.690725,"is_passed":false},{"stop_id":"U16130Z1","name":"Šlapanice, Bedřichovice, rozc.","arrival_time":"20:10:00","departure_time":"20:10:00","lat":49.182882,"lon":16.723572,"is_passed":false},{"stop_id":"U16105Z1","name":"Jiříkovice, motorest Rohlenka","arrival_time":"20:13:00","departure_time":"20:13:00","lat":49.183436,"lon":16.761042,"is_passed":false},{"stop_id":"U16142Z1","name":"Tvarožná, zemědělské družstvo","arrival_time":"20:14:00","departure_time":"20:14:00","lat":49.185906,"lon":16.765089,"is_passed":false},{"stop_id":"U16153Z1","name":"Tvarožná","arrival_time":"20:15:00","departure_time":"20:15:00","lat":49.190736,"lon":16.770347,"is_passed":false},{"stop_id":"U16140Z1","name":"Tvarožná, sokolovna","arrival_time":"20:17:00","departure_time":"20:17:00","lat":49.193053,"lon":16.776292,"is_passed":false},{"stop_id":"U17215Z1","name":"Sivice","arrival_time":"20:20:00","departure_time":"20:20:00","lat":49.201394,"lon":16.783639,"is_passed":false},{"stop_id":"U17212Z1","name":"Pozořice, náměstí","arrival_time":"20:23:00","departure_time":"20:23:00","lat":49.208924,"lon":16.790865,"is_passed":false},{"stop_id":"U17211Z1","name":"Pozořice, Jezera","arrival_time":"20:26:00","departure_time":"20:26:00","lat":49.215403,"lon":16.795607,"is_passed":false},{"stop_id":"U17212Z3","name":"Pozořice, náměstí","arrival_time":"20:27:00","departure_time":"20:27:00","lat":49.209464,"lon":16.791047,"is_passed":false},{"stop_id":"U17210Z1","name":"Pozořice, Velké Lipky","arrival_time":"20:28:00","departure_time":"20:28:00","lat":49.209336,"lon":16.79656,"is_passed":false},{"stop_id":"U17207Z1","name":"Kovalovice, na kopci","arrival_time":"20:29:00","departure_time":"20:29:00","lat":49.206132,"lon":16.807718,"is_passed":false},{"stop_id":"U17208Z1","name":"Kovalovice, obecní úřad","arrival_time":"20:30:00","departure_time":"20:30:00","lat":49.204735,"lon":16.81897,"is_passed":false},{"stop_id":"U17206Z1","name":"Kovalovice, Dražka","arrival_time":"20:31:00","departure_time":"20:31:00","lat":49.206533,"lon":16.824383,"is_passed":false},{"stop_id":"U17217Z1","name":"Viničné Šumice, obecní úřad","arrival_time":"20:33:00","departure_time":"20:33:00","lat":49.212478,"lon":16.825983,"is_passed":false},{"stop_id":"U17216Z1","name":"Viničné Šumice, Hradská","arrival_time":"20:34:00","departure_time":"20:34:00","lat":49.21438,"lon":16.821803,"is_passed":false},{"stop_id":"U17218Z1","name":"Viničné Šumice, Psénky","arrival_time":"20:35:00","departure_time":"20:35:00","lat":49.213833,"lon":16.817523,"is_passed":false},{"stop_id":"U17220Z1","name":"Viničné Šumice, točna","arrival_time":"20:36:00","departure_time":"20:36:00","lat":49.212718,"lon":16.8107,"is_passed":false}],"7625":[{"stop_id":"U17220Z2","name":"Viničné Šumice, točna","arrival_time":"17:21:00","departure_time":"17:21:00","lat":49.212718,"lon":16.8107,"is_passed":false},{"stop_id":"U17218Z2","name":"Viničné Šumice, Psénky","arrival_time":"17:22:00","departure_time":"17:22:00","lat":49.213227,"lon":16.815287,"is_passed":false},{"stop_id":"U17216Z2","name":"Viničné Šumice, Hradská","arrival_time":"17:23:00","departure_time":"17:23:00","lat":49.214327,"lon":16.821805,"is_passed":false},{"stop_id":"U17217Z2","name":"Viničné Šumice, obecní úřad","arrival_time":"17:24:00","departure_time":"17:24:00","lat":49.212442,"lon":16.82585,"is_passed":false},{"stop_id":"U17206Z2","name":"Kovalovice, Dražka","arrival_time":"17:26:00","departure_time":"17:26:00","lat":49.206257,"lon":16.824293,"is_passed":false},{"stop_id":"U17208Z2","name":"Kovalovice, obecní úřad","arrival_time":"17:27:00","departure_time":"17:27:00","lat":49.204713,"lon":16.818635,"is_passed":false},{"stop_id":"U17207Z2","name":"Kovalovice, na kopci","arrival_time":"17:28:00","departure_time":"17:28:00","lat":49.20635,"lon":16.807393,"is_passed":false},{"stop_id":"U17210Z2","name":"Pozořice, Velké Lipky","arrival_time":"17:30:00","departure_time":"17:30:00","lat":49.209561,"lon":16.798872,"is_passed":false},{"stop_id":"U17212Z2","name":"Pozořice, náměstí","arrival_time":"17:32:00","departure_time":"17:32:00","lat":49.209871,"lon":16.790286,"is_passed":false},{"stop_id":"U17215Z2","name":"Sivice","arrival_time":"17:34:00","departure_time":"17:34:00","lat":49.201272,"lon":16.783517,"is_passed":false},{"stop_id":"U16140Z2","name":"Tvarožná, sokolovna","arrival_time":"17:36:00","departure_time":"17:36:00","lat":49.193067,"lon":16.775881,"is_passed":false},{"stop_id":"U16153Z2","name":"Tvarožná","arrival_time":"17:38:00","departure_time":"17:38:00","lat":49.190839,"lon":16.770364,"is_passed":false},{"stop_id":"U16142Z2","name":"Tvarožná, zemědělské družstvo","arrival_time":"17:39:00","departure_time":"17:39:00","lat":49.185883,"lon":16.764842,"is_passed":false},{"stop_id":"U16105Z2","name":"Jiříkovice, motorest Rohlenka","arrival_time":"17:40:00","departure_time":"17:40:00","lat":49.183667,"lon":16.760583,"is_passed":false},{"stop_id":"U16130Z2","name":"Šlapanice, Bedřichovice, rozc.","arrival_time":"17:43:00","departure_time":"17:43:00","lat":49.182977,"lon":16.72308,"is_passed":false},{"stop_id":"U1577Z6","name":"Slatina, sídliště","arrival_time":"17:47:00","departure_time":"17:47:00","lat":49.18229,"lon":16.690089,"is_passed":false},{"stop_id":"U1068Z4","name":"Černovičky","arrival_time":"17:49:00","departure_time":"17:49:00","lat":49.183907,"lon":16.668247,"is_passed":false},{"stop_id":"U1677Z2","name":"Tržní","arrival_time":"17:55:00","departure_time":"17:55:00","lat":49.189407,"lon":16.629972,"is_passed":false},{"stop_id":"U1798Z5","name":"Zvonařka","arrival_time":"17:58:00","departure_time":"17:58:00","lat":49.18754,"lon":16.620139,"is_passed":false},{"stop_id":"U1716Z3","name":"Úzká","arrival_time":"18:02:00","departure_time":"18:22:00","lat":49.189244,"lon":16.613733,"is_passed":false}],"7626":[{"stop_id":"U1716Z11","name":"Úzká","arrival_time":"18:22:00","departure_time":"18:22:00","lat":49.188931,"lon":16.612782,"is_passed":false},{"stop_id":"U1463Z2","name":"Opuštěná","arrival_time":"18:25:00","departure_time":"18:25:00","lat":49.185245,"lon":16.613024,"is_passed":false},{"stop_id":"U1677Z1","name":"Tržní","arrival_time":"18:28:00","departure_time":"18:28:00","lat":49.189973,"lon":16.632193,"is_passed":false},{"stop_id":"U1068Z3","name":"Černovičky","arrival_time":"18:32:00","departure_time":"18:32:00","lat":49.183143,"lon":16.669108,"is_passed":false},{"stop_id":"U1577Z5","name":"Slatina, sídliště","arrival_time":"18:35:00","departure_time":"18:35:00","lat":49.182195,"lon":16.690725,"is_passed":false},{"stop_id":"U16130Z1","name":"Šlapanice, Bedřichovice, rozc.","arrival_time":"18:40:00","departure_time":"18:40:00","lat":49.182882,"lon":16.723572,"is_passed":false},{"stop_id":"U16105Z1","name":"Jiříkovice, motorest Rohlenka","arrival_time":"18:43:00","departure_time":"18:43:00","lat":49.183436,"lon":16.761042,"is_passed":false},{"stop_id":"U16142Z1","name":"Tvarožná, zemědělské družstvo","arrival_time":"18:44:00","departure_time":"18:44:00","lat":49.185906,"lon":16.765089,"is_passed":false},{"stop_id":"U16153Z1","name":"Tvarožná","arrival_time":"18:45:00","departure_time":"18:45:00","lat":49.190736,"lon":16.770347,"is_passed":false},{"stop_id":"U16140Z1","name":"Tvarožná, sokolovna","arrival_time":"18:47:00","departure_time":"18:47:00","lat":49.193053,"lon":16.776292,"is_passed":false},{"stop_id":"U17215Z1","name":"Sivice","arrival_time":"18:50:00","departure_time":"18:50:00","lat":49.201394,"lon":16.783639,"is_passed":false},{"stop_id":"U17212Z1","name":"Pozořice, náměstí","arrival_time":"18:53:00","departure_time":"18:53:00","lat":49.208924,"lon":16.790865,"is_passed":false},{"stop_id":"U17211Z1","name":"Pozořice, Jezera","arrival_time":"18:56:00","departure_time":"18:56:00","lat":49.215403,"lon":16.795607,"is_passed":false},{"stop_id":"U17212Z3","name":"Pozořice, náměstí","arrival_time":"18:57:00","departure_time":"18:57:00","lat":49.209464,"lon":16.791047,"is_passed":false},{"stop_id":"U17210Z1","name":"Pozořice, Velké Lipky","arrival_time":"18:58:00","departure_time":"18:58:00","lat":49.209336,"lon":16.79656,"is_passed":false},{"stop_id":"U17207Z1","name":"Kovalovice, na kopci","arrival_time":"18:59:00","departure_time":"18:59:00","lat":49.206132,"lon":16.807718,"is_passed":false},{"stop_id":"U17208Z1","name":"Kovalovice, obecní úřad","arrival_time":"19:00:00","departure_time":"19:00:00","lat":49.204735,"lon":16.81897,"is_passed":false},{"stop_id":"U17206Z1","name":"Kovalovice, Dražka","arrival_time":"19:01:00","departure_time":"19:01:00","lat":49.206533,"lon":16.824383,"is_passed":false},{"stop_id":"U17217Z1","name":"Viničné Šumice, obecní úřad","arrival_time":"19:03:00","departure_time":"19:03:00","lat":49.212478,"lon":16.825983,"is_passed":false},{"stop_id":"U17216Z1","name":"Viničné Šumice, Hradská","arrival_time":"19:04:00","departure_time":"19:04:00","lat":49.21438,"lon":16.821803,"is_passed":false},{"stop_id":"U17218Z1","name":"Viničné Šumice, Psénky","arrival_time":"19:05:00","departure_time":"19:05:00","lat":49.213833,"lon":16.817523,"is_passed":false},{"stop_id":"U17220Z1","name":"Viničné Šumice, točna","arrival_time":"19:06:00","departure_time":"20:03:00","lat":49.212718,"lon":16.8107,"is_passed":false}],"7627":[{"stop_id":"U17220Z2","name":"Viničné Šumice, točna","arrival_time":"20:03:00","departure_time":"20:03:00","lat":49.212718,"lon":16.8107,"is_passed":false},{"stop_id":"U17218Z2","name":"Viničné Šumice, Psénky","arrival_time":"20:04:00","departure_time":"20:04:00","lat":49.213227,"lon":16.815287,"is_passed":false},{"stop_id":"U17216Z2","name":"Viničné Šumice, Hradská","arrival_time":"20:05:00","departure_time":"20:05:00","lat":49.214327,"lon":16.821805,"is_passed":false},{"stop_id":"U17217Z2","name":"Viničné Šumice, obecní úřad","arrival_time":"20:06:00","departure_time":"20:06:00","lat":49.212442,"lon":16.82585,"is_passed":false},{"stop_id":"U17206Z2","name":"Kovalovice, Dražka","arrival_time":"20:08:00","departure_time":"20:08:00","lat":49.206257,"lon":16.824293,"is_passed":false},{"stop_id":"U17208Z2","name":"Kovalovice, obecní úřad","arrival_time":"20:09:00","departure_time":"20:09:00","lat":49.204713,"lon":16.818635,"is_passed":false},{"stop_id":"U17207Z2","name":"Kovalovice, na kopci","arrival_time":"20:10:00","departure_time":"20:10:00","lat":49.20635,"lon":16.807393,"is_passed":false},{"stop_id":"U17210Z2","name":"Pozořice, Velké Lipky","arrival_time":"20:12:00","departure_time":"20:12:00","lat":49.209561,"lon":16.798872,"is_passed":false},{"stop_id":"U17212Z2","name":"Pozořice, náměstí","arrival_time":"20:14:00","departure_time":"20:14:00","lat":49.209871,"lon":16.790286,"is_passed":false},{"stop_id":"U17215Z2","name":"Sivice","arrival_time":"20:16:00","departure_time":"20:16:00","lat":49.201272,"lon":16.783517,"is_passed":false},{"stop_id":"U16140Z2","name":"Tvarožná, sokolovna","arrival_time":"20:18:00","departure_time":"20:18:00","lat":49.193067,"lon":16.775881,"is_passed":false},{"stop_id":"U16153Z2","name":"Tvarožná","arrival_time":"20:20:00","departure_time":"20:20:00","lat":49.190839,"lon":16.770364,"is_passed":false},{"stop_id":"U16142Z2","name":"Tvarožná, zemědělské družstvo","arrival_time":"20:21:00","departure_time":"20:21:00","lat":49.185883,"lon":16.764842,"is_passed":false},{"stop_id":"U16105Z2","name":"Jiříkovice, motorest Rohlenka","arrival_time":"20:22:00","departure_time":"20:22:00","lat":49.183667,"lon":16.760583,"is_passed":false},{"stop_id":"U16130Z2","name":"Šlapanice, Bedřichovice, rozc.","arrival_time":"20:25:00","departure_time":"20:25:00","lat":49.182977,"lon":16.72308,"is_passed":false},{"stop_id":"U1577Z6","name":"Slatina, sídliště","arrival_time":"20:28:00","departure_time":"20:28:00","lat":49.18229,"lon":16.690089,"is_passed":false},{"stop_id":"U1068Z4","name":"Černovičky","arrival_time":"20:30:00","departure_time":"20:30:00","lat":49.183907,"lon":16.668247,"is_passed":false},{"stop_id":"U1677Z2","name":"Tržní","arrival_time":"20:35:00","departure_time":"20:35:00","lat":49.189407,"lon":16.629972,"is_passed":false},{"stop_id":"U1798Z5","name":"Zvonařka","arrival_time":"20:37:00","departure_time":"20:37:00","lat":49.18754,"lon":16.620139,"is_passed":false},{"stop_id":"U1716Z3","name":"Úzká","arrival_time":"20:40:00","departure_time":"20:46:00","lat":49.189244,"lon":16.613733,"is_passed":false}],"7628":[{"stop_id":"U1716Z11","name":"Úzká","arrival_time":"20:46:00","departure_time":"20:46:00","lat":49.188931,"lon":16.612782,"is_passed":false},{"stop_id":"U1463Z2","name":"Opuštěná","arrival_time":"20:49:00","departure_time":"20:49:00","lat":49.185245,"lon":16.613024,"is_passed":false},{"stop_id":"U1677Z1","name":"Tržní","arrival_time":"20:52:00","departure_time":"20:52:00","lat":49.189973,"lon":16.632193,"is_passed":false},{"stop_id":"U1068Z3","name":"Černovičky","arrival_time":"20:56:00","departure_time":"20:56:00","lat":49.183143,"lon":16.669108,"is_passed":false},{"stop_id":"U1577Z5","name":"Slatina, sídliště","arrival_time":"20:59:00","departure_time":"20:59:00","lat":49.182195,"lon":16.690725,"is_passed":false},{"stop_id":"U16130Z1","name":"Šlapanice, Bedřichovice, rozc.","arrival_time":"21:04:00","departure_time":"21:04:00","lat":49.182882,"lon":16.723572,"is_passed":false},{"stop_id":"U16105Z1","name":"Jiříkovice, motorest Rohlenka","arrival_time":"21:07:00","departure_time":"21:07:00","lat":49.183436,"lon":16.761042,"is_passed":false},{"stop_id":"U16142Z1","name":"Tvarožná, zemědělské družstvo","arrival_time":"21:08:00","departure_time":"21:08:00","lat":49.185906,"lon":16.765089,"is_passed":false},{"stop_id":"U16153Z1","name":"Tvarožná","arrival_time":"21:09:00","departure_time":"21:09:00","lat":49.190736,"lon":16.770347,"is_passed":false},{"stop_id":"U16140Z1","name":"Tvarožná, sokolovna","arrival_time":"21:11:00","departure_time":"21:11:00","lat":49.193053,"lon":16.776292,"is_passed":false},{"stop_id":"U17215Z1","name":"Sivice","arrival_time":"21:14:00","departure_time":"21:14:00","lat":49.201394,"lon":16.783639,"is_passed":false},{"stop_id":"U17212Z1","name":"Pozořice, náměstí","arrival_time":"21:17:00","departure_time":"21:17:00","lat":49.208924,"lon":16.790865,"is_passed":false},{"stop_id":"U17211Z1","name":"Pozořice, Jezera","arrival_time":"21:20:00","departure_time":"21:20:00","lat":49.215403,"lon":16.795607,"is_passed":false},{"stop_id":"U17212Z3","name":"Pozořice, náměstí","arrival_time":"21:21:00","departure_time":"21:21:00","lat":49.209464,"lon":16.791047,"is_passed":false},{"stop_id":"U17210Z1","name":"Pozořice, Velké Lipky","arrival_time":"21:22:00","departure_time":"21:22:00","lat":49.209336,"lon":16.79656,"is_passed":false},{"stop_id":"U17207Z1","name":"Kovalovice, na kopci","arrival_time":"21:23:00","departure_time":"21:23:00","lat":49.206132,"lon":16.807718,"is_passed":false},{"stop_id":"U17208Z1","name":"Kovalovice, obecní úřad","arrival_time":"21:24:00","departure_time":"21:24:00","lat":49.204735,"lon":16.81897,"is_passed":false},{"stop_id":"U17206Z1","name":"Kovalovice, Dražka","arrival_time":"21:25:00","departure_time":"21:25:00","lat":49.206533,"lon":16.824383,"is_passed":false},{"stop_id":"U17217Z1","name":"Viničné Šumice, obecní úřad","arrival_time":"21:27:00","departure_time":"21:27:00","lat":49.212478,"lon":16.825983,"is_passed":false},{"stop_id":"U17216Z1","name":"Viničné Šumice, Hradská","arrival_time":"21:28:00","departure_time":"21:28:00","lat":49.21438,"lon":16.821803,"is_passed":false},{"stop_id":"U17218Z1","name":"Viničné Šumice, Psénky","arrival_time":"21:29:00","departure_time":"21:29:00","lat":49.213833,"lon":16.817523,"is_passed":false},{"stop_id":"U17220Z1","name":"Viničné Šumice, točna","arrival_time":"21:30:00","departure_time":"22:10:00","lat":49.212718,"lon":16.8107,"is_passed":false}],"7629":[{"stop_id":"U17220Z2","name":"Viničné Šumice, točna","arrival_time":"22:10:00","departure_time":"22:10:00","lat":49.212718,"lon":16.8107,"is_passed":false},{"stop_id":"U17218Z2","name":"Viničné Šumice, Psénky","arrival_time":"22:11:00","departure_time":"22:11:00","lat":49.213227,"lon":16.815287,"is_passed":false},{"stop_id":"U17216Z2","name":"Viničné Šumice, Hradská","arrival_time":"22:12:00","departure_time":"22:12:00","lat":49.214327,"lon":16.821805,"is_passed":false},{"stop_id":"U17217Z2","name":"Viničné Šumice, obecní úřad","arrival_time":"22:13:00","departure_time":"22:13:00","lat":49.212442,"lon":16.82585,"is_passed":false},{"stop_id":"U17206Z2","name":"Kovalovice, Dražka","arrival_time":"22:15:00","departure_time":"22:15:00","lat":49.206257,"lon":16.824293,"is_passed":false},{"stop_id":"U17208Z2","name":"Kovalovice, obecní úřad","arrival_time":"22:16:00","departure_time":"22:16:00","lat":49.204713,"lon":16.818635,"is_passed":false},{"stop_id":"U17207Z2","name":"Kovalovice, na kopci","arrival_time":"22:17:00","departure_time":"22:17:00","lat":49.20635,"lon":16.807393,"is_passed":false},{"stop_id":"U17210Z2","name":"Pozořice, Velké Lipky","arrival_time":"22:19:00","departure_time":"22:19:00","lat":49.209561,"lon":16.798872,"is_passed":false},{"stop_id":"U17212Z2","name":"Pozořice, náměstí","arrival_time":"22:21:00","departure_time":"22:21:00","lat":49.209871,"lon":16.790286,"is_passed":false},{"stop_id":"U17215Z2","name":"Sivice","arrival_time":"22:23:00","departure_time":"22:23:00","lat":49.201272,"lon":16.783517,"is_passed":false},{"stop_id":"U16140Z2","name":"Tvarožná, sokolovna","arrival_time":"22:25:00","departure_time":"22:25:00","lat":49.193067,"lon":16.775881,"is_passed":false},{"stop_id":"U16153Z2","name":"Tvarožná","arrival_time":"22:27:00","departure_time":"22:27:00","lat":49.190839,"lon":16.770364,"is_passed":false},{"stop_id":"U16142Z2","name":"Tvarožná, zemědělské družstvo","arrival_time":"22:28:00","departure_time":"22:28:00","lat":49.185883,"lon":16.764842,"is_passed":false},{"stop_id":"U16105Z2","name":"Jiříkovice, motorest Rohlenka","arrival_time":"22:29:00","departure_time":"22:29:00","lat":49.183667,"lon":16.760583,"is_passed":false},{"stop_id":"U16130Z2","name":"Šlapanice, Bedřichovice, rozc.","arrival_time":"22:32:00","departure_time":"22:32:00","lat":49.182977,"lon":16.72308,"is_passed":false},{"stop_id":"U1577Z6","name":"Slatina, sídliště","arrival_time":"22:34:00","departure_time":"22:34:00","lat":49.18229,"lon":16.690089,"is_passed":false},{"stop_id":"U1068Z4","name":"Černovičky","arrival_time":"22:35:00","departure_time":"22:35:00","lat":49.183907,"lon":16.668247,"is_passed":false},{"stop_id":"U1677Z2","name":"Tržní","arrival_time":"22:39:00","departure_time":"22:39:00","lat":49.189407,"lon":16.629972,"is_passed":false},{"stop_id":"U1798Z5","name":"Zvonařka","arrival_time":"22:41:00","departure_time":"22:41:00","lat":49.18754,"lon":16.620139,"is_passed":false},{"stop_id":"U1716Z3","name":"Úzká","arrival_time":"22:42:00","departure_time":"22:46:00","lat":49.189244,"lon":16.613733,"is_passed":false}]}