{"762":[{"stop_id":"U15241Z21","name":"Židlochovice, železniční stanice","arrival_time":"8:36:00","departure_time":"8:36:00","lat":49.033113,"lon":16.617218,"is_passed":false},{"stop_id":"U15222Z10","name":"Hrušovany u Brna, žel. st.","arrival_time":"8:39:00","departure_time":"8:40:00","lat":49.034228,"lon":16.591501,"is_passed":false},{"stop_id":"U25201Z10","name":"Vojkovice nad Svratkou, žel. st.","arrival_time":"8:43:00","departure_time":"8:43:00","lat":49.056208,"lon":16.597445,"is_passed":false},{"stop_id":"U15181Z10","name":"Rajhrad, železniční stanice","arrival_time":"8:46:00","departure_time":"8:47:00","lat":49.084966,"lon":16.60532,"is_passed":false},{"stop_id":"U15135Z10","name":"Popovice, u tratě","arrival_time":"8:49:00","departure_time":"8:49:00","lat":49.103463,"lon":16.605647,"is_passed":false},{"stop_id":"U15140Z10","name":"Modřice, železniční stanice","arrival_time":"8:52:00","departure_time":"8:53:00","lat":49.133256,"lon":16.606209,"is_passed":false},{"stop_id":"U1146Z99","name":"Hlavní nádraží","arrival_time":"9:00:00","departure_time":"13:27:00","lat":49.19035,"lon":16.612342,"is_passed":false}],"7620":[{"stop_id":"U16228Z2","name":"Holubice, žel.st.","arrival_time":"8:44:00","departure_time":"8:44:00","lat":49.179141,"lon":16.822052,"is_passed":false},{"stop_id":"U16204Z2","name":"Holubice, Curdík","arrival_time":"8:45:00","departure_time":"8:45:00","lat":49.174368,"lon":16.822201,"is_passed":false},{"stop_id":"U16207Z2","name":"Holubice, obecní úřad","arrival_time":"8:47:00","departure_time":"8:47:00","lat":49.17728,"lon":16.813577,"is_passed":false},{"stop_id":"U16208Z2","name":"Holubice, u mostu","arrival_time":"8:48:00","departure_time":"8:48:00","lat":49.17931,"lon":16.806387,"is_passed":false},{"stop_id":"U16227Z1","name":"Holubice, GLP Park","arrival_time":"8:52:00","departure_time":"8:52:00","lat":49.188149,"lon":16.810898,"is_passed":false},{"stop_id":"U17212Z1","name":"Pozořice, náměstí","arrival_time":"8:58:00","departure_time":"13:28:00","lat":49.208924,"lon":16.790865,"is_passed":false}],"7621":[{"stop_id":"U17212Z2","name":"Pozořice, náměstí","arrival_time":"13:28:00","departure_time":"13:28:00","lat":49.209871,"lon":16.790286,"is_passed":false},{"stop_id":"U16227Z1","name":"Holubice, GLP Park","arrival_time":"13:34:00","departure_time":"13:34:00","lat":49.188149,"lon":16.810898,"is_passed":false},{"stop_id":"U16208Z1","name":"Holubice, u mostu","arrival_time":"13:38:00","departure_time":"13:38:00","lat":49.179375,"lon":16.806448,"is_passed":false},{"stop_id":"U16207Z1","name":"Holubice, obecní úřad","arrival_time":"13:39:00","departure_time":"13:39:00","lat":49.177275,"lon":16.813585,"is_passed":false},{"stop_id":"U16204Z1","name":"Holubice, Curdík","arrival_time":"13:41:00","departure_time":"13:41:00","lat":49.17443,"lon":16.822741,"is_passed":false},{"stop_id":"U16228Z2","name":"Holubice, žel.st.","arrival_time":"13:42:00","departure_time":"13:44:00","lat":49.179141,"lon":16.822052,"is_passed":false}],"7622":[{"stop_id":"U16228Z2","name":"Holubice, žel.st.","arrival_time":"13:44:00","departure_time":"13:44:00","lat":49.179141,"lon":16.822052,"is_passed":false},{"stop_id":"U16204Z2","name":"Holubice, Curdík","arrival_time":"13:45:00","departure_time":"13:45:00","lat":49.174368,"lon":16.822201,"is_passed":false},{"stop_id":"U16207Z2","name":"Holubice, obecní úřad","arrival_time":"13:47:00","departure_time":"13:47:00","lat":49.17728,"lon":16.813577,"is_passed":false},{"stop_id":"U16208Z2","name":"Holubice, u mostu","arrival_time":"13:48:00","departure_time":"13:48:00","lat":49.17931,"lon":16.806387,"is_passed":false},{"stop_id":"U16227Z1","name":"Holubice, GLP Park","arrival_time":"13:52:00","departure_time":"13:52:00","lat":49.188149,"lon":16.810898,"is_passed":false},{"stop_id":"U17212Z1","name":"Pozořice, náměstí","arrival_time":"13:58:00","departure_time":"14:28:00","lat":49.208924,"lon":16.790865,"is_passed":false}],"7623":[{"stop_id":"U17212Z2","name":"Pozořice, náměstí","arrival_time":"14:28:00","departure_time":"14:28:00","lat":49.209871,"lon":16.790286,"is_passed":false},{"stop_id":"U16227Z1","name":"Holubice, GLP Park","arrival_time":"14:34:00","departure_time":"14:34:00","lat":49.188149,"lon":16.810898,"is_passed":false},{"stop_id":"U16208Z1","name":"Holubice, u mostu","arrival_time":"14:38:00","departure_time":"14:38:00","lat":49.179375,"lon":16.806448,"is_passed":false},{"stop_id":"U16207Z1","name":"Holubice, obecní úřad","arrival_time":"14:39:00","departure_time":"14:39:00","lat":49.177275,"lon":16.813585,"is_passed":false},{"stop_id":"U16204Z1","name":"Holubice, Curdík","arrival_time":"14:41:00","departure_time":"14:41:00","lat":49.17443,"lon":16.822741,"is_passed":false},{"stop_id":"U16228Z2","name":"Holubice, žel.st.","arrival_time":"14:42:00","departure_time":"14:44:00","lat":49.179141,"lon":16.822052,"is_passed":false}],"7624":[{"stop_id":"U16228Z2","name":"Holubice, žel.st.","arrival_time":"14:44:00","departure_time":"14:44:00","lat":49.179141,"lon":16.822052,"is_passed":false},{"stop_id":"U16204Z2","name":"Holubice, Curdík","arrival_time":"14:45:00","departure_time":"14:45:00","lat":49.174368,"lon":16.822201,"is_passed":false},{"stop_id":"U16207Z2","name":"Holubice, obecní úřad","arrival_time":"14:47:00","departure_time":"14:47:00","lat":49.17728,"lon":16.813577,"is_passed":false},{"stop_id":"U16208Z2","name":"Holubice, u mostu","arrival_time":"14:48:00","departure_time":"14:48:00","lat":49.17931,"lon":16.806387,"is_passed":false},{"stop_id":"U16227Z1","name":"Holubice, GLP Park","arrival_time":"14:52:00","departure_time":"14:52:00","lat":49.188149,"lon":16.810898,"is_passed":false},{"stop_id":"U17212Z1","name":"Pozořice, náměstí","arrival_time":"14:58:00","departure_time":"15:28:00","lat":49.208924,"lon":16.790865,"is_passed":false}],"7625":[{"stop_id":"U17212Z2","name":"Pozořice, náměstí","arrival_time":"15:28:00","departure_time":"15:28:00","lat":49.209871,"lon":16.790286,"is_passed":false},{"stop_id":"U16227Z1","name":"Holubice, GLP Park","arrival_time":"15:34:00","departure_time":"15:34:00","lat":49.188149,"lon":16.810898,"is_passed":false},{"stop_id":"U16208Z1","name":"Holubice, u mostu","arrival_time":"15:38:00","departure_time":"15:38:00","lat":49.179375,"lon":16.806448,"is_passed":false},{"stop_id":"U16207Z1","name":"Holubice, obecní úřad","arrival_time":"15:39:00","departure_time":"15:39:00","lat":49.177275,"lon":16.813585,"is_passed":false},{"stop_id":"U16204Z1","name":"Holubice, Curdík","arrival_time":"15:41:00","departure_time":"15:41:00","lat":49.17443,"lon":16.822741,"is_passed":false},{"stop_id":"U16228Z2","name":"Holubice, žel.st.","arrival_time":"15:42:00","departure_time":"15:44:00","lat":49.179141,"lon":16.822052,"is_passed":false}],"7626":[{"stop_id":"U16228Z2","name":"Holubice, žel.st.","arrival_time":"15:44:00","departure_time":"15:44:00","lat":49.179141,"lon":16.822052,"is_passed":false},{"stop_id":"U16204Z2","name":"Holubice, Curdík","arrival_time":"15:45:00","departure_time":"15:45:00","lat":49.174368,"lon":16.822201,"is_passed":false},{"stop_id":"U16207Z2","name":"Holubice, obecní úřad","arrival_time":"15:47:00","departure_time":"15:47:00","lat":49.17728,"lon":16.813577,"is_passed":false},{"stop_id":"U16208Z2","name":"Holubice, u mostu","arrival_time":"15:48:00","departure_time":"15:48:00","lat":49.17931,"lon":16.806387,"is_passed":false},{"stop_id":"U16227Z1","name":"Holubice, GLP Park","arrival_time":"15:52:00","departure_time":"15:52:00","lat":49.188149,"lon":16.810898,"is_passed":false},{"stop_id":"U17212Z1","name":"Pozořice, náměstí","arrival_time":"15:58:00","departure_time":"16:28:00","lat":49.208924,"lon":16.790865,"is_passed":false}],"7627":[{"stop_id":"U17212Z2","name":"Pozořice, náměstí","arrival_time":"16:28:00","departure_time":"16:28:00","lat":49.209871,"lon":16.790286,"is_passed":false},{"stop_id":"U16227Z1","name":"Holubice, GLP Park","arrival_time":"16:34:00","departure_time":"16:34:00","lat":49.188149,"lon":16.810898,"is_passed":false},{"stop_id":"U16208Z1","name":"Holubice, u mostu","arrival_time":"16:38:00","departure_time":"16:38:00","lat":49.179375,"lon":16.806448,"is_passed":false},{"stop_id":"U16207Z1","name":"Holubice, obecní úřad","arrival_time":"16:39:00","departure_time":"16:39:00","lat":49.177275,"lon":16.813585,"is_passed":false},{"stop_id":"U16204Z1","name":"Holubice, Curdík","arrival_time":"16:41:00","departure_time":"16:41:00","lat":49.17443,"lon":16.822741,"is_passed":false},{"stop_id":"U16228Z2","name":"Holubice, žel.st.","arrival_time":"16:42:00","departure_time":"16:44:00","lat":49.179141,"lon":16.822052,"is_passed":false}],"7628":[{"stop_id":"U16228Z2","name":"Holubice, žel.st.","arrival_time":"16:44:00","departure_time":"16:44:00","lat":49.179141,"lon":16.822052,"is_passed":false},{"stop_id":"U16204Z2","name":"Holubice, Curdík","arrival_time":"16:45:00","departure_time":"16:45:00","lat":49.174368,"lon":16.822201,"is_passed":false},{"stop_id":"U16207Z2","name":"Holubice, obecní úřad","arrival_time":"16:47:00","departure_time":"16:47:00","lat":49.17728,"lon":16.813577,"is_passed":false},{"stop_id":"U16208Z2","name":"Holubice, u mostu","arrival_time":"16:48:00","departure_time":"16:48:00","lat":49.17931,"lon":16.806387,"is_passed":false},{"stop_id":"U16227Z1","name":"Holubice, GLP Park","arrival_time":"16:52:00","departure_time":"16:52:00","lat":49.188149,"lon":16.810898,"is_passed":false},{"stop_id":"U17212Z1","name":"Pozořice, náměstí","arrival_time":"16:58:00","departure_time":"17:28:00","lat":49.208924,"lon":16.790865,"is_passed":false}],"7629":[{"stop_id":"U17212Z2","name":"Pozořice, náměstí","arrival_time":"17:28:00","departure_time":"17:28:00","lat":49.209871,"lon":16.790286,"is_passed":false},{"stop_id":"U16227Z1","name":"Holubice, GLP Park","arrival_time":"17:34:00","departure_time":"17:34:00","lat":49.188149,"lon":16.810898,"is_passed":false},{"stop_id":"U16208Z1","name":"Holubice, u mostu","arrival_time":"17:38:00","departure_time":"17:38:00","lat":49.179375,"lon":16.806448,"is_passed":false},{"stop_id":"U16207Z1","name":"Holubice, obecní úřad","arrival_time":"17:39:00","departure_time":"17:39:00","lat":49.177275,"lon":16.813585,"is_passed":false},{"stop_id":"U16204Z1","name":"Holubice, Curdík","arrival_time":"17:41:00","departure_time":"17:41:00","lat":49.17443,"lon":16.822741,"is_passed":false},{"stop_id":"U16228Z2","name":"Holubice, žel.st.","arrival_time":"17:42:00","departure_time":"17:44:00","lat":49.179141,"lon":16.822052,"is_passed":false}]}