{"768":[{"stop_id":"U13334Z21","name":"Tišnov, železniční stanice","arrival_time":"18:29:00","departure_time":"18:29:00","lat":49.3475,"lon":16.41725,"is_passed":false},{"stop_id":"U13306Z11","name":"Hradčany, železniční stanice","arrival_time":"18:31:00","departure_time":"18:32:00","lat":49.333878,"lon":16.437893,"is_passed":false},{"stop_id":"U13206Z11","name":"Čebín, železniční stanice","arrival_time":"18:34:00","departure_time":"18:35:00","lat":49.319722,"lon":16.465278,"is_passed":false},{"stop_id":"U13143Z11","name":"Kuřim, železniční stanice","arrival_time":"18:40:00","departure_time":"18:41:00","lat":49.301,"lon":16.534523,"is_passed":false},{"stop_id":"U13109Z11","name":"Česká, železniční stanice","arrival_time":"18:43:00","departure_time":"18:44:00","lat":49.284546,"lon":16.566731,"is_passed":false},{"stop_id":"U1557Z11","name":"Řečkovice, nádraží","arrival_time":"18:48:00","departure_time":"18:48:00","lat":49.250794,"lon":16.590446,"is_passed":false},{"stop_id":"U1286Z11","name":"Královo Pole, nádraží","arrival_time":"18:51:00","departure_time":"18:52:00","lat":49.231051,"lon":16.596651,"is_passed":false},{"stop_id":"U1331Z11","name":"Lesná, nádraží","arrival_time":"18:54:00","departure_time":"18:55:00","lat":49.220432,"lon":16.627505,"is_passed":false},{"stop_id":"U1809Z11","name":"Židenice, nádraží","arrival_time":"19:01:00","departure_time":"19:01:00","lat":49.204282,"lon":16.636042,"is_passed":false},{"stop_id":"U1146Z98","name":"Hlavní nádraží","arrival_time":"19:06:00","departure_time":"19:09:00","lat":49.19035,"lon":16.612342,"is_passed":false},{"stop_id":"U11002Z11","name":"Brno-Horní Heršpice","arrival_time":"19:13:00","departure_time":"19:14:00","lat":49.167404,"lon":16.60686,"is_passed":false},{"stop_id":"U15140Z11","name":"Modřice, železniční stanice","arrival_time":"19:17:00","departure_time":"19:18:00","lat":49.133256,"lon":16.606209,"is_passed":false},{"stop_id":"U15181Z11","name":"Rajhrad, železniční stanice","arrival_time":"19:21:00","departure_time":"19:22:00","lat":49.084966,"lon":16.60532,"is_passed":false},{"stop_id":"U15222Z11","name":"Hrušovany u Brna, žel. st.","arrival_time":"19:26:00","departure_time":"19:30:00","lat":49.034228,"lon":16.591501,"is_passed":false},{"stop_id":"U15306Z11","name":"Žabčice, žel. st.","arrival_time":"19:33:00","departure_time":"19:33:00","lat":49.010857,"lon":16.594833,"is_passed":false},{"stop_id":"U15307Z11","name":"Vranovice, žel.st.","arrival_time":"19:37:00","departure_time":"19:38:00","lat":48.964528,"lon":16.604187,"is_passed":false},{"stop_id":"U25401Z11","name":"Pouzdřany","arrival_time":"19:40:00","departure_time":"19:41:00","lat":48.942025,"lon":16.630527,"is_passed":false},{"stop_id":"U25402Z11","name":"Popice","arrival_time":"19:44:00","departure_time":"19:44:00","lat":48.924332,"lon":16.668084,"is_passed":false},{"stop_id":"U15425Z11","name":"Šakvice, železniční stanice","arrival_time":"19:47:00","departure_time":"19:48:00","lat":48.912883,"lon":16.70557,"is_passed":false},{"stop_id":"U15403Z11","name":"Hustopeče, autobusové nádraží","arrival_time":"19:55:00","departure_time":"20:04:00","lat":48.93752,"lon":16.735901,"is_passed":false}],"7680":[{"stop_id":"U17335Z5","name":"Rousínov, autobusová stanice","arrival_time":"5:29:00","departure_time":"5:29:00","lat":49.202992,"lon":16.884865,"is_passed":false},{"stop_id":"U17341Z1","name":"Rousínov, zdravotní středisko","arrival_time":"5:31:00","departure_time":"5:31:00","lat":49.203685,"lon":16.878213,"is_passed":false},{"stop_id":"U17329Z1","name":"Rousínov, betonárka","arrival_time":"5:33:00","departure_time":"5:33:00","lat":49.207363,"lon":16.871207,"is_passed":false},{"stop_id":"U17333Z1","name":"Rousínov, Královopolské Vážany","arrival_time":"5:35:00","departure_time":"5:35:00","lat":49.214167,"lon":16.869172,"is_passed":false},{"stop_id":"U17340Z1","name":"Rousínov, Vítovice","arrival_time":"5:39:00","departure_time":"5:42:00","lat":49.218105,"lon":16.848654,"is_passed":false}],"7681":[{"stop_id":"U17340Z1","name":"Rousínov, Vítovice","arrival_time":"5:42:00","departure_time":"5:42:00","lat":49.218105,"lon":16.848654,"is_passed":false},{"stop_id":"U17333Z2","name":"Rousínov, Královopolské Vážany","arrival_time":"5:46:00","departure_time":"5:46:00","lat":49.214078,"lon":16.869153,"is_passed":false},{"stop_id":"U17329Z2","name":"Rousínov, betonárka","arrival_time":"5:48:00","departure_time":"5:48:00","lat":49.207305,"lon":16.871175,"is_passed":false},{"stop_id":"U17341Z2","name":"Rousínov, zdravotní středisko","arrival_time":"5:50:00","departure_time":"5:50:00","lat":49.20362,"lon":16.87814,"is_passed":false},{"stop_id":"U17335Z11","name":"Rousínov, autobusová stanice","arrival_time":"5:52:00","departure_time":"5:52:00","lat":49.202992,"lon":16.884865,"is_passed":false}],"7682":[{"stop_id":"U17335Z13","name":"Rousínov, autobusová stanice","arrival_time":"6:40:00","departure_time":"6:40:00","lat":49.202992,"lon":16.884865,"is_passed":false},{"stop_id":"U17336Z1","name":"Rousínov, Rousínovec","arrival_time":"6:42:00","departure_time":"6:42:00","lat":49.197257,"lon":16.884543,"is_passed":false},{"stop_id":"U17334Z1","name":"Rousínov, Kroužek","arrival_time":"6:45:00","departure_time":"6:45:00","lat":49.19414,"lon":16.895983,"is_passed":false}],"7683":[{"stop_id":"U17334Z1","name":"Rousínov, Kroužek","arrival_time":"6:45:00","departure_time":"6:45:00","lat":49.19414,"lon":16.895983,"is_passed":false},{"stop_id":"U17336Z2","name":"Rousínov, Rousínovec","arrival_time":"6:48:00","departure_time":"6:48:00","lat":49.197155,"lon":16.884472,"is_passed":false},{"stop_id":"U17335Z12","name":"Rousínov, autobusová stanice","arrival_time":"6:50:00","departure_time":"6:54:00","lat":49.202992,"lon":16.884865,"is_passed":false}],"7684":[{"stop_id":"U17335Z5","name":"Rousínov, autobusová stanice","arrival_time":"6:54:00","departure_time":"6:54:00","lat":49.202992,"lon":16.884865,"is_passed":false},{"stop_id":"U17339Z1","name":"Rousínov, škola","arrival_time":"6:56:00","departure_time":"6:56:00","lat":49.207269,"lon":16.88335,"is_passed":false},{"stop_id":"U17307Z1","name":"Habrovany","arrival_time":"7:00:00","departure_time":"7:00:00","lat":49.231838,"lon":16.877673,"is_passed":false},{"stop_id":"U17319Z1","name":"Olšany, lom","arrival_time":"7:02:00","departure_time":"7:02:00","lat":49.240303,"lon":16.866715,"is_passed":false},{"stop_id":"U17318Z1","name":"Olšany","arrival_time":"7:04:00","departure_time":"7:07:00","lat":49.248937,"lon":16.863638,"is_passed":false}],"7685":[{"stop_id":"U17318Z1","name":"Olšany","arrival_time":"7:07:00","departure_time":"7:07:00","lat":49.248937,"lon":16.863638,"is_passed":false},{"stop_id":"U17319Z2","name":"Olšany, lom","arrival_time":"7:09:00","departure_time":"7:09:00","lat":49.240513,"lon":16.866533,"is_passed":false},{"stop_id":"U17307Z2","name":"Habrovany","arrival_time":"7:11:00","departure_time":"7:11:00","lat":49.230958,"lon":16.87732,"is_passed":false},{"stop_id":"U17340Z1","name":"Rousínov, Vítovice","arrival_time":"7:17:00","departure_time":"7:17:00","lat":49.218105,"lon":16.848654,"is_passed":false},{"stop_id":"U17333Z2","name":"Rousínov, Královopolské Vážany","arrival_time":"7:21:00","departure_time":"7:21:00","lat":49.214078,"lon":16.869153,"is_passed":false},{"stop_id":"U17329Z2","name":"Rousínov, betonárka","arrival_time":"7:23:00","departure_time":"7:23:00","lat":49.207305,"lon":16.871175,"is_passed":false},{"stop_id":"U17341Z2","name":"Rousínov, zdravotní středisko","arrival_time":"7:25:00","departure_time":"7:25:00","lat":49.20362,"lon":16.87814,"is_passed":false},{"stop_id":"U17335Z11","name":"Rousínov, autobusová stanice","arrival_time":"7:27:00","departure_time":"7:35:00","lat":49.202992,"lon":16.884865,"is_passed":false}],"7686":[{"stop_id":"U17335Z5","name":"Rousínov, autobusová stanice","arrival_time":"7:35:00","departure_time":"7:35:00","lat":49.202992,"lon":16.884865,"is_passed":false},{"stop_id":"U17341Z1","name":"Rousínov, zdravotní středisko","arrival_time":"7:37:00","departure_time":"7:37:00","lat":49.203685,"lon":16.878213,"is_passed":false},{"stop_id":"U17329Z1","name":"Rousínov, betonárka","arrival_time":"7:39:00","departure_time":"7:39:00","lat":49.207363,"lon":16.871207,"is_passed":false},{"stop_id":"U17333Z1","name":"Rousínov, Královopolské Vážany","arrival_time":"7:41:00","departure_time":"7:41:00","lat":49.214167,"lon":16.869172,"is_passed":false},{"stop_id":"U17340Z1","name":"Rousínov, Vítovice","arrival_time":"7:45:00","departure_time":"7:45:00","lat":49.218105,"lon":16.848654,"is_passed":false},{"stop_id":"U17307Z1","name":"Habrovany","arrival_time":"7:51:00","departure_time":"7:51:00","lat":49.231838,"lon":16.877673,"is_passed":false},{"stop_id":"U17319Z1","name":"Olšany, lom","arrival_time":"7:53:00","departure_time":"7:53:00","lat":49.240303,"lon":16.866715,"is_passed":false},{"stop_id":"U17318Z1","name":"Olšany","arrival_time":"7:55:00","departure_time":"8:07:00","lat":49.248937,"lon":16.863638,"is_passed":false}],"7687":[{"stop_id":"U17318Z1","name":"Olšany","arrival_time":"8:07:00","departure_time":"8:07:00","lat":49.248937,"lon":16.863638,"is_passed":false},{"stop_id":"U17319Z2","name":"Olšany, lom","arrival_time":"8:09:00","departure_time":"8:09:00","lat":49.240513,"lon":16.866533,"is_passed":false},{"stop_id":"U17307Z2","name":"Habrovany","arrival_time":"8:11:00","departure_time":"8:11:00","lat":49.230958,"lon":16.87732,"is_passed":false},{"stop_id":"U17340Z1","name":"Rousínov, Vítovice","arrival_time":"8:17:00","departure_time":"8:17:00","lat":49.218105,"lon":16.848654,"is_passed":false},{"stop_id":"U17333Z2","name":"Rousínov, Královopolské Vážany","arrival_time":"8:21:00","departure_time":"8:21:00","lat":49.214078,"lon":16.869153,"is_passed":false},{"stop_id":"U17329Z2","name":"Rousínov, betonárka","arrival_time":"8:23:00","departure_time":"8:23:00","lat":49.207305,"lon":16.871175,"is_passed":false},{"stop_id":"U17341Z2","name":"Rousínov, zdravotní středisko","arrival_time":"8:25:00","departure_time":"8:25:00","lat":49.20362,"lon":16.87814,"is_passed":false},{"stop_id":"U17335Z11","name":"Rousínov, autobusová stanice","arrival_time":"8:27:00","departure_time":"9:35:00","lat":49.202992,"lon":16.884865,"is_passed":false}],"7688":[{"stop_id":"U17335Z5","name":"Rousínov, autobusová stanice","arrival_time":"9:35:00","departure_time":"9:35:00","lat":49.202992,"lon":16.884865,"is_passed":false},{"stop_id":"U17341Z1","name":"Rousínov, zdravotní středisko","arrival_time":"9:37:00","departure_time":"9:37:00","lat":49.203685,"lon":16.878213,"is_passed":false},{"stop_id":"U17329Z1","name":"Rousínov, betonárka","arrival_time":"9:39:00","departure_time":"9:39:00","lat":49.207363,"lon":16.871207,"is_passed":false},{"stop_id":"U17333Z1","name":"Rousínov, Královopolské Vážany","arrival_time":"9:41:00","departure_time":"9:41:00","lat":49.214167,"lon":16.869172,"is_passed":false},{"stop_id":"U17340Z1","name":"Rousínov, Vítovice","arrival_time":"9:45:00","departure_time":"9:45:00","lat":49.218105,"lon":16.848654,"is_passed":false},{"stop_id":"U17307Z1","name":"Habrovany","arrival_time":"9:51:00","departure_time":"9:51:00","lat":49.231838,"lon":16.877673,"is_passed":false},{"stop_id":"U17319Z1","name":"Olšany, lom","arrival_time":"9:53:00","departure_time":"9:53:00","lat":49.240303,"lon":16.866715,"is_passed":false},{"stop_id":"U17318Z1","name":"Olšany","arrival_time":"9:55:00","departure_time":"10:07:00","lat":49.248937,"lon":16.863638,"is_passed":false}],"7689":[{"stop_id":"U17318Z1","name":"Olšany","arrival_time":"10:07:00","departure_time":"10:07:00","lat":49.248937,"lon":16.863638,"is_passed":false},{"stop_id":"U17319Z2","name":"Olšany, lom","arrival_time":"10:09:00","departure_time":"10:09:00","lat":49.240513,"lon":16.866533,"is_passed":false},{"stop_id":"U17307Z2","name":"Habrovany","arrival_time":"10:11:00","departure_time":"10:11:00","lat":49.230958,"lon":16.87732,"is_passed":false},{"stop_id":"U17340Z1","name":"Rousínov, Vítovice","arrival_time":"10:17:00","departure_time":"10:17:00","lat":49.218105,"lon":16.848654,"is_passed":false},{"stop_id":"U17333Z2","name":"Rousínov, Královopolské Vážany","arrival_time":"10:21:00","departure_time":"10:21:00","lat":49.214078,"lon":16.869153,"is_passed":false},{"stop_id":"U17329Z2","name":"Rousínov, betonárka","arrival_time":"10:23:00","departure_time":"10:23:00","lat":49.207305,"lon":16.871175,"is_passed":false},{"stop_id":"U17341Z2","name":"Rousínov, zdravotní středisko","arrival_time":"10:25:00","departure_time":"10:25:00","lat":49.20362,"lon":16.87814,"is_passed":false},{"stop_id":"U17335Z11","name":"Rousínov, autobusová stanice","arrival_time":"10:27:00","departure_time":"11:35:00","lat":49.202992,"lon":16.884865,"is_passed":false}]}