[{"stop_id":"U16509Z1","name":"Nesovice, železniční stanice","arrival_time":"20:20:00","departure_time":"20:20:00","lat":49.149095,"lon":17.079312,"is_passed":false},{"stop_id":"U16508Z1","name":"Nesovice, požární zbrojnice","arrival_time":"20:22:00","departure_time":"20:22:00","lat":49.150423,"lon":17.081728,"is_passed":false},{"stop_id":"U16502Z1","name":"Milonice","arrival_time":"20:24:00","departure_time":"20:24:00","lat":49.15835,"lon":17.072118,"is_passed":false},{"stop_id":"U16514Z1","name":"Uhřice, rozcestí","arrival_time":"20:25:00","departure_time":"20:25:00","lat":49.163227,"lon":17.067172,"is_passed":false},{"stop_id":"U16513Z1","name":"Uhřice, na návsi","arrival_time":"20:27:00","departure_time":"20:27:00","lat":49.171422,"lon":17.07905,"is_passed":false},{"stop_id":"U16515Z2","name":"Hvězdlice, Nové Hvězdlice, rozcestí","arrival_time":"20:32:00","departure_time":"20:32:00","lat":49.191246,"lon":17.094247,"is_passed":false},{"stop_id":"U16516Z1","name":"Hvězdlice, Nové Hvězdlice","arrival_time":"20:34:00","departure_time":"20:34:00","lat":49.193314,"lon":17.083975,"is_passed":false},{"stop_id":"U16521Z1","name":"Chvalkovice","arrival_time":"20:39:00","departure_time":"20:39:00","lat":49.18721,"lon":17.110492,"is_passed":false},{"stop_id":"U16520Z1","name":"Chvalkovice, u hřiště","arrival_time":"20:41:00","departure_time":"20:41:00","lat":49.189783,"lon":17.11772,"is_passed":false},{"stop_id":"U16524Z1","name":"Nemochovice","arrival_time":"20:44:00","departure_time":"20:44:00","lat":49.17912,"lon":17.13714,"is_passed":false},{"stop_id":"U16626Z1","name":"Brankovice, obecní úřad","arrival_time":"20:48:00","departure_time":"21:01:00","lat":49.156312,"lon":17.134952,"is_passed":false}]