[{"stop_id":"U16632Z1","name":"Kožušice, točna","arrival_time":"22:02:00","departure_time":"22:02:00","lat":49.156771,"lon":17.187265,"is_passed":false},{"stop_id":"U16633Z2","name":"Kožušice","arrival_time":"22:03:00","departure_time":"22:03:00","lat":49.157687,"lon":17.18727,"is_passed":false},{"stop_id":"U16634Z2","name":"Malínky","arrival_time":"22:07:00","departure_time":"22:07:00","lat":49.159158,"lon":17.161372,"is_passed":false},{"stop_id":"U16625Z2","name":"Brankovice, křižovatka","arrival_time":"22:09:00","departure_time":"22:09:00","lat":49.153328,"lon":17.135862,"is_passed":false},{"stop_id":"U16630Z2","name":"Dobročkovice, rozcestí","arrival_time":"22:12:00","departure_time":"22:12:00","lat":49.150134,"lon":17.121907,"is_passed":false},{"stop_id":"U16631Z1","name":"Dobročkovice","arrival_time":"22:15:00","departure_time":"22:15:00","lat":49.16243,"lon":17.10881,"is_passed":false},{"stop_id":"U16509Z3","name":"Nesovice, železniční stanice","arrival_time":"22:20:00","departure_time":"22:20:00","lat":49.149095,"lon":17.079312,"is_passed":false}]