[{"stop_id":"U16509Z4","name":"Nesovice, železniční stanice","arrival_time":"13:22:00","departure_time":"13:22:00","lat":49.149095,"lon":17.079312,"is_passed":false},{"stop_id":"U16506Z1","name":"Nesovice, obecní úřad","arrival_time":"13:23:00","departure_time":"13:23:00","lat":49.148808,"lon":17.082913,"is_passed":false},{"stop_id":"U16505Z1","name":"Nesovice, Kotáry","arrival_time":"13:24:00","departure_time":"13:24:00","lat":49.149117,"lon":17.092515,"is_passed":false},{"stop_id":"U16512Z1","name":"Snovídky","arrival_time":"13:28:00","departure_time":"13:28:00","lat":49.13304,"lon":17.10617,"is_passed":false},{"stop_id":"U16503Z1","name":"Nemotice, železniční stanice","arrival_time":"13:31:00","departure_time":"13:31:00","lat":49.13415,"lon":17.116908,"is_passed":false},{"stop_id":"U16504Z1","name":"Nemotice","arrival_time":"13:32:00","departure_time":"13:32:00","lat":49.12968,"lon":17.124725,"is_passed":false},{"stop_id":"U16623Z1","name":"Mouchnice, Na Požárech","arrival_time":"13:37:00","departure_time":"13:37:00","lat":49.116308,"lon":17.135068,"is_passed":false},{"stop_id":"U16624Z1","name":"Mouchnice","arrival_time":"13:38:00","departure_time":"13:38:00","lat":49.112052,"lon":17.135112,"is_passed":false},{"stop_id":"U16793Z2","name":"Koryčany, náměstí","arrival_time":"13:41:00","departure_time":"13:41:00","lat":49.106225,"lon":17.163642,"is_passed":false},{"stop_id":"U16792Z2","name":"Koryčany, závod","arrival_time":"13:44:00","departure_time":"14:17:00","lat":49.111707,"lon":17.169467,"is_passed":false}]