{"774":[{"stop_id":"U30009Z2","name":"Křižanov","arrival_time":"5:00:00","departure_time":"5:00:00","lat":49.384694,"lon":16.080389,"is_passed":false},{"stop_id":"U30302Z2","name":"Ořechov","arrival_time":"5:04:00","departure_time":"5:04:00","lat":49.350447,"lon":16.136416,"is_passed":false},{"stop_id":"U30305Z2","name":"Osová Bítýška","arrival_time":"5:08:00","departure_time":"5:08:00","lat":49.329893,"lon":16.168305,"is_passed":false},{"stop_id":"U23501Z2","name":"Vlkov-Osová","arrival_time":"5:10:00","departure_time":"5:11:00","lat":49.326883,"lon":16.202114,"is_passed":false},{"stop_id":"U13454Z11","name":"Níhov, železniční stanice","arrival_time":"5:15:00","departure_time":"5:16:00","lat":49.33637,"lon":16.270573,"is_passed":false},{"stop_id":"U13425Z11","name":"Řikonín, železniční stanice","arrival_time":"5:19:00","departure_time":"5:20:00","lat":49.365833,"lon":16.305833,"is_passed":false},{"stop_id":"U13411Z11","name":"Dolní Loučky, železniční stanice","arrival_time":"5:22:00","departure_time":"5:22:00","lat":49.356389,"lon":16.346945,"is_passed":false},{"stop_id":"U13334Z21","name":"Tišnov, železniční stanice","arrival_time":"5:28:00","departure_time":"5:29:00","lat":49.3475,"lon":16.41725,"is_passed":false},{"stop_id":"U13306Z11","name":"Hradčany, železniční stanice","arrival_time":"5:31:00","departure_time":"5:32:00","lat":49.333878,"lon":16.437893,"is_passed":false},{"stop_id":"U13206Z11","name":"Čebín, železniční stanice","arrival_time":"5:34:00","departure_time":"5:35:00","lat":49.319722,"lon":16.465278,"is_passed":false},{"stop_id":"U13143Z11","name":"Kuřim, železniční stanice","arrival_time":"5:40:00","departure_time":"5:41:00","lat":49.301,"lon":16.534523,"is_passed":false},{"stop_id":"U13109Z11","name":"Česká, železniční stanice","arrival_time":"5:43:00","departure_time":"5:44:00","lat":49.284546,"lon":16.566731,"is_passed":false},{"stop_id":"U1557Z11","name":"Řečkovice, nádraží","arrival_time":"5:48:00","departure_time":"5:48:00","lat":49.250794,"lon":16.590446,"is_passed":false},{"stop_id":"U1286Z11","name":"Královo Pole, nádraží","arrival_time":"5:51:00","departure_time":"5:52:00","lat":49.231051,"lon":16.596651,"is_passed":false},{"stop_id":"U1331Z11","name":"Lesná, nádraží","arrival_time":"5:54:00","departure_time":"5:55:00","lat":49.220432,"lon":16.627505,"is_passed":false},{"stop_id":"U1809Z11","name":"Židenice, nádraží","arrival_time":"6:01:00","departure_time":"6:01:00","lat":49.204282,"lon":16.636042,"is_passed":false},{"stop_id":"U1146Z98","name":"Hlavní nádraží","arrival_time":"6:06:00","departure_time":"6:09:00","lat":49.19035,"lon":16.612342,"is_passed":false},{"stop_id":"U15140Z11","name":"Modřice, železniční stanice","arrival_time":"6:15:00","departure_time":"6:18:00","lat":49.133256,"lon":16.606209,"is_passed":false},{"stop_id":"U15181Z11","name":"Rajhrad, železniční stanice","arrival_time":"6:21:00","departure_time":"6:22:00","lat":49.084966,"lon":16.60532,"is_passed":false},{"stop_id":"U15222Z11","name":"Hrušovany u Brna, žel. st.","arrival_time":"6:26:00","departure_time":"6:30:00","lat":49.034228,"lon":16.591501,"is_passed":false},{"stop_id":"U15306Z11","name":"Žabčice, žel. st.","arrival_time":"6:33:00","departure_time":"6:33:00","lat":49.010857,"lon":16.594833,"is_passed":false},{"stop_id":"U15307Z11","name":"Vranovice, žel.st.","arrival_time":"6:37:00","departure_time":"6:38:00","lat":48.964528,"lon":16.604187,"is_passed":false},{"stop_id":"U25401Z11","name":"Pouzdřany","arrival_time":"6:40:00","departure_time":"6:41:00","lat":48.942025,"lon":16.630527,"is_passed":false},{"stop_id":"U25402Z11","name":"Popice","arrival_time":"6:44:00","departure_time":"6:44:00","lat":48.924332,"lon":16.668084,"is_passed":false},{"stop_id":"U15425Z11","name":"Šakvice, železniční stanice","arrival_time":"6:47:00","departure_time":"6:48:00","lat":48.912883,"lon":16.70557,"is_passed":false},{"stop_id":"U15403Z11","name":"Hustopeče, autobusové nádraží","arrival_time":"6:55:00","departure_time":"7:04:00","lat":48.93752,"lon":16.735901,"is_passed":false}],"7740":[{"stop_id":"U16632Z1","name":"Kožušice, točna","arrival_time":"9:16:00","departure_time":"9:16:00","lat":49.156771,"lon":17.187265,"is_passed":false},{"stop_id":"U16633Z2","name":"Kožušice","arrival_time":"9:17:00","departure_time":"9:17:00","lat":49.157687,"lon":17.18727,"is_passed":false},{"stop_id":"U16634Z2","name":"Malínky","arrival_time":"9:21:00","departure_time":"9:21:00","lat":49.159158,"lon":17.161372,"is_passed":false},{"stop_id":"U16625Z2","name":"Brankovice, křižovatka","arrival_time":"9:23:00","departure_time":"9:23:00","lat":49.153328,"lon":17.135862,"is_passed":false},{"stop_id":"U16628Z3","name":"Brankovice, železniční stanice","arrival_time":"9:26:00","departure_time":"9:26:00","lat":49.150708,"lon":17.133665,"is_passed":false},{"stop_id":"U16630Z2","name":"Dobročkovice, rozcestí","arrival_time":"9:30:00","departure_time":"9:30:00","lat":49.150134,"lon":17.121907,"is_passed":false},{"stop_id":"U16631Z1","name":"Dobročkovice","arrival_time":"9:33:00","departure_time":"9:33:00","lat":49.16243,"lon":17.10881,"is_passed":false},{"stop_id":"U16509Z3","name":"Nesovice, železniční stanice","arrival_time":"9:39:00","departure_time":"10:29:00","lat":49.149095,"lon":17.079312,"is_passed":false}],"7741":[{"stop_id":"U16509Z3","name":"Nesovice, železniční stanice","arrival_time":"10:29:00","departure_time":"10:29:00","lat":49.149095,"lon":17.079312,"is_passed":false},{"stop_id":"U16631Z1","name":"Dobročkovice","arrival_time":"10:36:00","departure_time":"10:36:00","lat":49.16243,"lon":17.10881,"is_passed":false},{"stop_id":"U16630Z1","name":"Dobročkovice, rozcestí","arrival_time":"10:39:00","departure_time":"10:39:00","lat":49.149935,"lon":17.121458,"is_passed":false},{"stop_id":"U16628Z2","name":"Brankovice, železniční stanice","arrival_time":"10:43:00","departure_time":"10:43:00","lat":49.150708,"lon":17.133665,"is_passed":false},{"stop_id":"U16625Z1","name":"Brankovice, křižovatka","arrival_time":"10:46:00","departure_time":"10:46:00","lat":49.153315,"lon":17.136175,"is_passed":false},{"stop_id":"U16634Z1","name":"Malínky","arrival_time":"10:48:00","departure_time":"10:48:00","lat":49.159148,"lon":17.160988,"is_passed":false},{"stop_id":"U16633Z1","name":"Kožušice","arrival_time":"10:52:00","departure_time":"10:52:00","lat":49.157645,"lon":17.187003,"is_passed":false},{"stop_id":"U16632Z1","name":"Kožušice, točna","arrival_time":"10:53:00","departure_time":"11:11:00","lat":49.156771,"lon":17.187265,"is_passed":false}],"7742":[{"stop_id":"U16632Z1","name":"Kožušice, točna","arrival_time":"11:11:00","departure_time":"11:11:00","lat":49.156771,"lon":17.187265,"is_passed":false},{"stop_id":"U16633Z2","name":"Kožušice","arrival_time":"11:12:00","departure_time":"11:12:00","lat":49.157687,"lon":17.18727,"is_passed":false},{"stop_id":"U16634Z2","name":"Malínky","arrival_time":"11:16:00","departure_time":"11:16:00","lat":49.159158,"lon":17.161372,"is_passed":false},{"stop_id":"U16625Z2","name":"Brankovice, křižovatka","arrival_time":"11:18:00","departure_time":"11:18:00","lat":49.153328,"lon":17.135862,"is_passed":false},{"stop_id":"U16628Z3","name":"Brankovice, železniční stanice","arrival_time":"11:21:00","departure_time":"11:21:00","lat":49.150708,"lon":17.133665,"is_passed":false},{"stop_id":"U16630Z2","name":"Dobročkovice, rozcestí","arrival_time":"11:25:00","departure_time":"11:25:00","lat":49.150134,"lon":17.121907,"is_passed":false},{"stop_id":"U16631Z1","name":"Dobročkovice","arrival_time":"11:28:00","departure_time":"11:28:00","lat":49.16243,"lon":17.10881,"is_passed":false},{"stop_id":"U16509Z3","name":"Nesovice, železniční stanice","arrival_time":"11:34:00","departure_time":"12:29:00","lat":49.149095,"lon":17.079312,"is_passed":false}],"7743":[{"stop_id":"U16509Z3","name":"Nesovice, železniční stanice","arrival_time":"12:29:00","departure_time":"12:29:00","lat":49.149095,"lon":17.079312,"is_passed":false},{"stop_id":"U16631Z1","name":"Dobročkovice","arrival_time":"12:36:00","departure_time":"12:38:00","lat":49.16243,"lon":17.10881,"is_passed":false}],"7744":[{"stop_id":"U16631Z1","name":"Dobročkovice","arrival_time":"12:38:00","departure_time":"12:38:00","lat":49.16243,"lon":17.10881,"is_passed":false},{"stop_id":"U16509Z3","name":"Nesovice, železniční stanice","arrival_time":"12:44:00","departure_time":"13:49:00","lat":49.149095,"lon":17.079312,"is_passed":false}],"7745":[{"stop_id":"U16509Z3","name":"Nesovice, železniční stanice","arrival_time":"13:49:00","departure_time":"13:49:00","lat":49.149095,"lon":17.079312,"is_passed":false},{"stop_id":"U16631Z1","name":"Dobročkovice","arrival_time":"13:56:00","departure_time":"13:56:00","lat":49.16243,"lon":17.10881,"is_passed":false},{"stop_id":"U16630Z1","name":"Dobročkovice, rozcestí","arrival_time":"13:59:00","departure_time":"13:59:00","lat":49.149935,"lon":17.121458,"is_passed":false},{"stop_id":"U16627Z1","name":"Brankovice, škola","arrival_time":"14:03:00","departure_time":"14:03:00","lat":49.15603,"lon":17.129673,"is_passed":false},{"stop_id":"U16625Z1","name":"Brankovice, křižovatka","arrival_time":"14:05:00","departure_time":"14:05:00","lat":49.153315,"lon":17.136175,"is_passed":false},{"stop_id":"U16634Z1","name":"Malínky","arrival_time":"14:07:00","departure_time":"14:07:00","lat":49.159148,"lon":17.160988,"is_passed":false},{"stop_id":"U16633Z1","name":"Kožušice","arrival_time":"14:11:00","departure_time":"14:11:00","lat":49.157645,"lon":17.187003,"is_passed":false},{"stop_id":"U16790Z1","name":"Střílky, náměstí","arrival_time":"14:17:00","departure_time":"15:00:00","lat":49.145214,"lon":17.214831,"is_passed":false}],"7746":[{"stop_id":"U16790Z2","name":"Střílky, náměstí","arrival_time":"15:00:00","departure_time":"15:00:00","lat":49.145214,"lon":17.214831,"is_passed":false},{"stop_id":"U16633Z2","name":"Kožušice","arrival_time":"15:06:00","departure_time":"15:06:00","lat":49.157687,"lon":17.18727,"is_passed":false},{"stop_id":"U16634Z2","name":"Malínky","arrival_time":"15:10:00","departure_time":"15:10:00","lat":49.159158,"lon":17.161372,"is_passed":false},{"stop_id":"U16625Z2","name":"Brankovice, křižovatka","arrival_time":"15:12:00","departure_time":"15:12:00","lat":49.153328,"lon":17.135862,"is_passed":false},{"stop_id":"U16627Z1","name":"Brankovice, škola","arrival_time":"15:13:00","departure_time":"15:13:00","lat":49.15603,"lon":17.129673,"is_passed":false},{"stop_id":"U16630Z2","name":"Dobročkovice, rozcestí","arrival_time":"15:18:00","departure_time":"15:18:00","lat":49.150134,"lon":17.121907,"is_passed":false},{"stop_id":"U16631Z1","name":"Dobročkovice","arrival_time":"15:21:00","departure_time":"15:21:00","lat":49.16243,"lon":17.10881,"is_passed":false},{"stop_id":"U16509Z3","name":"Nesovice, železniční stanice","arrival_time":"15:27:00","departure_time":"15:29:00","lat":49.149095,"lon":17.079312,"is_passed":false}],"7747":[{"stop_id":"U16509Z3","name":"Nesovice, železniční stanice","arrival_time":"15:29:00","departure_time":"15:29:00","lat":49.149095,"lon":17.079312,"is_passed":false},{"stop_id":"U16631Z1","name":"Dobročkovice","arrival_time":"15:36:00","departure_time":"15:36:00","lat":49.16243,"lon":17.10881,"is_passed":false},{"stop_id":"U16630Z1","name":"Dobročkovice, rozcestí","arrival_time":"15:39:00","departure_time":"15:39:00","lat":49.149935,"lon":17.121458,"is_passed":false},{"stop_id":"U16627Z1","name":"Brankovice, škola","arrival_time":"15:44:00","departure_time":"15:44:00","lat":49.15603,"lon":17.129673,"is_passed":false},{"stop_id":"U16625Z1","name":"Brankovice, křižovatka","arrival_time":"15:46:00","departure_time":"15:46:00","lat":49.153315,"lon":17.136175,"is_passed":false},{"stop_id":"U16634Z1","name":"Malínky","arrival_time":"15:48:00","departure_time":"15:48:00","lat":49.159148,"lon":17.160988,"is_passed":false},{"stop_id":"U16633Z1","name":"Kožušice","arrival_time":"15:52:00","departure_time":"15:52:00","lat":49.157645,"lon":17.187003,"is_passed":false},{"stop_id":"U16632Z1","name":"Kožušice, točna","arrival_time":"15:53:00","departure_time":"15:55:00","lat":49.156771,"lon":17.187265,"is_passed":false}],"7748":[{"stop_id":"U16632Z1","name":"Kožušice, točna","arrival_time":"15:55:00","departure_time":"15:55:00","lat":49.156771,"lon":17.187265,"is_passed":false},{"stop_id":"U16633Z2","name":"Kožušice","arrival_time":"15:56:00","departure_time":"15:56:00","lat":49.157687,"lon":17.18727,"is_passed":false},{"stop_id":"U16634Z2","name":"Malínky","arrival_time":"16:00:00","departure_time":"16:00:00","lat":49.159158,"lon":17.161372,"is_passed":false},{"stop_id":"U16625Z2","name":"Brankovice, křižovatka","arrival_time":"16:02:00","departure_time":"16:02:00","lat":49.153328,"lon":17.135862,"is_passed":false},{"stop_id":"U16630Z2","name":"Dobročkovice, rozcestí","arrival_time":"16:05:00","departure_time":"16:05:00","lat":49.150134,"lon":17.121907,"is_passed":false},{"stop_id":"U16631Z1","name":"Dobročkovice","arrival_time":"16:08:00","departure_time":"16:08:00","lat":49.16243,"lon":17.10881,"is_passed":false},{"stop_id":"U16509Z3","name":"Nesovice, železniční stanice","arrival_time":"16:14:00","departure_time":"16:24:00","lat":49.149095,"lon":17.079312,"is_passed":false}],"7749":[{"stop_id":"U16509Z3","name":"Nesovice, železniční stanice","arrival_time":"16:24:00","departure_time":"16:24:00","lat":49.149095,"lon":17.079312,"is_passed":false},{"stop_id":"U16631Z1","name":"Dobročkovice","arrival_time":"16:31:00","departure_time":"16:31:00","lat":49.16243,"lon":17.10881,"is_passed":false},{"stop_id":"U16630Z1","name":"Dobročkovice, rozcestí","arrival_time":"16:34:00","departure_time":"16:34:00","lat":49.149935,"lon":17.121458,"is_passed":false},{"stop_id":"U16625Z1","name":"Brankovice, křižovatka","arrival_time":"16:37:00","departure_time":"16:37:00","lat":49.153315,"lon":17.136175,"is_passed":false},{"stop_id":"U16634Z1","name":"Malínky","arrival_time":"16:39:00","departure_time":"16:39:00","lat":49.159148,"lon":17.160988,"is_passed":false},{"stop_id":"U16633Z1","name":"Kožušice","arrival_time":"16:43:00","departure_time":"16:43:00","lat":49.157645,"lon":17.187003,"is_passed":false},{"stop_id":"U16790Z1","name":"Střílky, náměstí","arrival_time":"16:49:00","departure_time":"16:49:00","lat":49.145214,"lon":17.214831,"is_passed":false}]}