{"774":[{"stop_id":"U13334Z21","name":"Tišnov, železniční stanice","arrival_time":"9:59:00","departure_time":"9:59:00","lat":49.3475,"lon":16.41725,"is_passed":false},{"stop_id":"U13306Z11","name":"Hradčany, železniční stanice","arrival_time":"10:01:00","departure_time":"10:02:00","lat":49.333878,"lon":16.437893,"is_passed":false},{"stop_id":"U13206Z11","name":"Čebín, železniční stanice","arrival_time":"10:04:00","departure_time":"10:05:00","lat":49.319722,"lon":16.465278,"is_passed":false},{"stop_id":"U13143Z11","name":"Kuřim, železniční stanice","arrival_time":"10:10:00","departure_time":"10:11:00","lat":49.301,"lon":16.534523,"is_passed":false},{"stop_id":"U13109Z11","name":"Česká, železniční stanice","arrival_time":"10:13:00","departure_time":"10:14:00","lat":49.284546,"lon":16.566731,"is_passed":false},{"stop_id":"U1557Z11","name":"Řečkovice, nádraží","arrival_time":"10:18:00","departure_time":"10:18:00","lat":49.250794,"lon":16.590446,"is_passed":false},{"stop_id":"U1286Z11","name":"Královo Pole, nádraží","arrival_time":"10:21:00","departure_time":"10:22:00","lat":49.231051,"lon":16.596651,"is_passed":false},{"stop_id":"U1331Z11","name":"Lesná, nádraží","arrival_time":"10:24:00","departure_time":"10:25:00","lat":49.220432,"lon":16.627505,"is_passed":false},{"stop_id":"U1809Z11","name":"Židenice, nádraží","arrival_time":"10:31:00","departure_time":"10:31:00","lat":49.204282,"lon":16.636042,"is_passed":false},{"stop_id":"U1146Z98","name":"Hlavní nádraží","arrival_time":"10:36:00","departure_time":"10:40:00","lat":49.19035,"lon":16.612342,"is_passed":false},{"stop_id":"U15140Z11","name":"Modřice, železniční stanice","arrival_time":"10:46:00","departure_time":"10:47:00","lat":49.133256,"lon":16.606209,"is_passed":false},{"stop_id":"U15135Z11","name":"Popovice, u tratě","arrival_time":"10:49:00","departure_time":"10:50:00","lat":49.103463,"lon":16.605647,"is_passed":false},{"stop_id":"U15181Z11","name":"Rajhrad, železniční stanice","arrival_time":"10:52:00","departure_time":"10:52:00","lat":49.084966,"lon":16.60532,"is_passed":false},{"stop_id":"U25201Z11","name":"Vojkovice nad Svratkou, žel. st.","arrival_time":"10:55:00","departure_time":"10:56:00","lat":49.056208,"lon":16.597445,"is_passed":false},{"stop_id":"U15222Z11","name":"Hrušovany u Brna, žel. st.","arrival_time":"10:58:00","departure_time":"10:59:00","lat":49.034228,"lon":16.591501,"is_passed":false},{"stop_id":"U15241Z22","name":"Židlochovice, železniční stanice","arrival_time":"11:03:00","departure_time":"11:56:00","lat":49.033178,"lon":16.617165,"is_passed":false}],"7740":[{"stop_id":"U17318Z1","name":"Olšany","arrival_time":"10:07:00","departure_time":"10:07:00","lat":49.248937,"lon":16.863638,"is_passed":false},{"stop_id":"U17319Z2","name":"Olšany, lom","arrival_time":"10:09:00","departure_time":"10:09:00","lat":49.240513,"lon":16.866533,"is_passed":false},{"stop_id":"U17307Z2","name":"Habrovany","arrival_time":"10:11:00","departure_time":"10:11:00","lat":49.230958,"lon":16.87732,"is_passed":false},{"stop_id":"U17340Z1","name":"Rousínov, Vítovice","arrival_time":"10:17:00","departure_time":"10:17:00","lat":49.218105,"lon":16.848654,"is_passed":false},{"stop_id":"U17333Z2","name":"Rousínov, Královopolské Vážany","arrival_time":"10:21:00","departure_time":"10:21:00","lat":49.214078,"lon":16.869153,"is_passed":false},{"stop_id":"U17329Z2","name":"Rousínov, betonárka","arrival_time":"10:23:00","departure_time":"10:23:00","lat":49.207305,"lon":16.871175,"is_passed":false},{"stop_id":"U17341Z2","name":"Rousínov, zdravotní středisko","arrival_time":"10:25:00","departure_time":"10:25:00","lat":49.20362,"lon":16.87814,"is_passed":false},{"stop_id":"U17335Z11","name":"Rousínov, autobusová stanice","arrival_time":"10:27:00","departure_time":"11:35:00","lat":49.202992,"lon":16.884865,"is_passed":false}],"7741":[{"stop_id":"U17335Z5","name":"Rousínov, autobusová stanice","arrival_time":"11:35:00","departure_time":"11:35:00","lat":49.202992,"lon":16.884865,"is_passed":false},{"stop_id":"U17341Z1","name":"Rousínov, zdravotní středisko","arrival_time":"11:37:00","departure_time":"11:37:00","lat":49.203685,"lon":16.878213,"is_passed":false},{"stop_id":"U17329Z1","name":"Rousínov, betonárka","arrival_time":"11:39:00","departure_time":"11:39:00","lat":49.207363,"lon":16.871207,"is_passed":false},{"stop_id":"U17333Z1","name":"Rousínov, Královopolské Vážany","arrival_time":"11:41:00","departure_time":"11:41:00","lat":49.214167,"lon":16.869172,"is_passed":false},{"stop_id":"U17340Z1","name":"Rousínov, Vítovice","arrival_time":"11:45:00","departure_time":"11:45:00","lat":49.218105,"lon":16.848654,"is_passed":false},{"stop_id":"U17307Z1","name":"Habrovany","arrival_time":"11:51:00","departure_time":"11:51:00","lat":49.231838,"lon":16.877673,"is_passed":false},{"stop_id":"U17319Z1","name":"Olšany, lom","arrival_time":"11:53:00","departure_time":"11:53:00","lat":49.240303,"lon":16.866715,"is_passed":false},{"stop_id":"U17318Z1","name":"Olšany","arrival_time":"11:55:00","departure_time":"12:07:00","lat":49.248937,"lon":16.863638,"is_passed":false}],"7742":[{"stop_id":"U17318Z1","name":"Olšany","arrival_time":"12:07:00","departure_time":"12:07:00","lat":49.248937,"lon":16.863638,"is_passed":false},{"stop_id":"U17319Z2","name":"Olšany, lom","arrival_time":"12:09:00","departure_time":"12:09:00","lat":49.240513,"lon":16.866533,"is_passed":false},{"stop_id":"U17307Z2","name":"Habrovany","arrival_time":"12:11:00","departure_time":"12:11:00","lat":49.230958,"lon":16.87732,"is_passed":false},{"stop_id":"U17340Z1","name":"Rousínov, Vítovice","arrival_time":"12:17:00","departure_time":"12:17:00","lat":49.218105,"lon":16.848654,"is_passed":false},{"stop_id":"U17333Z2","name":"Rousínov, Královopolské Vážany","arrival_time":"12:21:00","departure_time":"12:21:00","lat":49.214078,"lon":16.869153,"is_passed":false},{"stop_id":"U17329Z2","name":"Rousínov, betonárka","arrival_time":"12:23:00","departure_time":"12:23:00","lat":49.207305,"lon":16.871175,"is_passed":false},{"stop_id":"U17341Z2","name":"Rousínov, zdravotní středisko","arrival_time":"12:25:00","departure_time":"12:25:00","lat":49.20362,"lon":16.87814,"is_passed":false},{"stop_id":"U17335Z11","name":"Rousínov, autobusová stanice","arrival_time":"12:27:00","departure_time":"12:27:00","lat":49.202992,"lon":16.884865,"is_passed":false}],"7743":[{"stop_id":"U17335Z13","name":"Rousínov, autobusová stanice","arrival_time":"13:40:00","departure_time":"13:40:00","lat":49.202992,"lon":16.884865,"is_passed":false},{"stop_id":"U17336Z1","name":"Rousínov, Rousínovec","arrival_time":"13:42:00","departure_time":"13:42:00","lat":49.196897,"lon":16.884259,"is_passed":false},{"stop_id":"U17334Z1","name":"Rousínov, Kroužek","arrival_time":"13:45:00","departure_time":"13:45:00","lat":49.19414,"lon":16.895983,"is_passed":false}],"7744":[{"stop_id":"U17334Z1","name":"Rousínov, Kroužek","arrival_time":"13:45:00","departure_time":"13:45:00","lat":49.19414,"lon":16.895983,"is_passed":false},{"stop_id":"U17336Z2","name":"Rousínov, Rousínovec","arrival_time":"13:48:00","departure_time":"13:48:00","lat":49.196263,"lon":16.884811,"is_passed":false},{"stop_id":"U17335Z12","name":"Rousínov, autobusová stanice","arrival_time":"13:50:00","departure_time":"13:50:00","lat":49.202992,"lon":16.884865,"is_passed":false},{"stop_id":"U17330Z1","name":"Rousínov, Čechyně, náves","arrival_time":"13:55:00","departure_time":"13:55:00","lat":49.208238,"lon":16.897568,"is_passed":false}],"7745":[{"stop_id":"U17330Z1","name":"Rousínov, Čechyně, náves","arrival_time":"13:55:00","departure_time":"13:55:00","lat":49.208238,"lon":16.897568,"is_passed":false},{"stop_id":"U17335Z13","name":"Rousínov, autobusová stanice","arrival_time":"14:00:00","departure_time":"14:00:00","lat":49.202992,"lon":16.884865,"is_passed":false}],"7746":[{"stop_id":"U17335Z5","name":"Rousínov, autobusová stanice","arrival_time":"14:05:00","departure_time":"14:05:00","lat":49.202992,"lon":16.884865,"is_passed":false},{"stop_id":"U17341Z1","name":"Rousínov, zdravotní středisko","arrival_time":"14:07:00","departure_time":"14:07:00","lat":49.203685,"lon":16.878213,"is_passed":false},{"stop_id":"U17329Z1","name":"Rousínov, betonárka","arrival_time":"14:09:00","departure_time":"14:09:00","lat":49.207363,"lon":16.871207,"is_passed":false},{"stop_id":"U17333Z1","name":"Rousínov, Královopolské Vážany","arrival_time":"14:11:00","departure_time":"14:11:00","lat":49.214167,"lon":16.869172,"is_passed":false},{"stop_id":"U17340Z1","name":"Rousínov, Vítovice","arrival_time":"14:15:00","departure_time":"14:17:00","lat":49.218105,"lon":16.848654,"is_passed":false}],"7747":[{"stop_id":"U17340Z1","name":"Rousínov, Vítovice","arrival_time":"14:17:00","departure_time":"14:17:00","lat":49.218105,"lon":16.848654,"is_passed":false},{"stop_id":"U17333Z2","name":"Rousínov, Královopolské Vážany","arrival_time":"14:21:00","departure_time":"14:21:00","lat":49.214078,"lon":16.869153,"is_passed":false},{"stop_id":"U17329Z2","name":"Rousínov, betonárka","arrival_time":"14:23:00","departure_time":"14:23:00","lat":49.207305,"lon":16.871175,"is_passed":false},{"stop_id":"U17341Z2","name":"Rousínov, zdravotní středisko","arrival_time":"14:25:00","departure_time":"14:25:00","lat":49.20362,"lon":16.87814,"is_passed":false},{"stop_id":"U17335Z11","name":"Rousínov, autobusová stanice","arrival_time":"14:27:00","departure_time":"14:27:00","lat":49.202992,"lon":16.884865,"is_passed":false}],"7748":[{"stop_id":"U17335Z14","name":"Rousínov, autobusová stanice","arrival_time":"14:35:00","departure_time":"14:35:00","lat":49.202992,"lon":16.884865,"is_passed":false},{"stop_id":"U17361Z1","name":"Rousínov, EDP","arrival_time":"14:39:00","departure_time":"14:45:00","lat":49.197842,"lon":16.877389,"is_passed":false}],"7749":[{"stop_id":"U17361Z2","name":"Rousínov, EDP","arrival_time":"14:45:00","departure_time":"14:45:00","lat":49.197772,"lon":16.877368,"is_passed":false},{"stop_id":"U17335Z6","name":"Rousínov, autobusová stanice","arrival_time":"14:49:00","departure_time":"14:49:00","lat":49.202819,"lon":16.885074,"is_passed":false}]}