{"774":[{"stop_id":"U30009Z2","name":"Křižanov","arrival_time":"5:00:00","departure_time":"5:00:00","lat":49.384694,"lon":16.080389,"is_passed":false},{"stop_id":"U30302Z2","name":"Ořechov","arrival_time":"5:04:00","departure_time":"5:04:00","lat":49.350447,"lon":16.136416,"is_passed":false},{"stop_id":"U30305Z2","name":"Osová Bítýška","arrival_time":"5:08:00","departure_time":"5:08:00","lat":49.329893,"lon":16.168305,"is_passed":false},{"stop_id":"U23501Z2","name":"Vlkov-Osová","arrival_time":"5:10:00","departure_time":"5:11:00","lat":49.326883,"lon":16.202114,"is_passed":false},{"stop_id":"U13454Z11","name":"Níhov, železniční stanice","arrival_time":"5:15:00","departure_time":"5:16:00","lat":49.33637,"lon":16.270573,"is_passed":false},{"stop_id":"U13425Z11","name":"Řikonín, železniční stanice","arrival_time":"5:19:00","departure_time":"5:20:00","lat":49.365833,"lon":16.305833,"is_passed":false},{"stop_id":"U13411Z11","name":"Dolní Loučky, železniční stanice","arrival_time":"5:22:00","departure_time":"5:22:00","lat":49.356389,"lon":16.346945,"is_passed":false},{"stop_id":"U13334Z21","name":"Tišnov, železniční stanice","arrival_time":"5:28:00","departure_time":"5:29:00","lat":49.3475,"lon":16.41725,"is_passed":false},{"stop_id":"U13306Z11","name":"Hradčany, železniční stanice","arrival_time":"5:31:00","departure_time":"5:32:00","lat":49.333878,"lon":16.437893,"is_passed":false},{"stop_id":"U13206Z11","name":"Čebín, železniční stanice","arrival_time":"5:34:00","departure_time":"5:35:00","lat":49.319722,"lon":16.465278,"is_passed":false},{"stop_id":"U13143Z11","name":"Kuřim, železniční stanice","arrival_time":"5:40:00","departure_time":"5:41:00","lat":49.301,"lon":16.534523,"is_passed":false},{"stop_id":"U13109Z11","name":"Česká, železniční stanice","arrival_time":"5:43:00","departure_time":"5:44:00","lat":49.284546,"lon":16.566731,"is_passed":false},{"stop_id":"U1557Z11","name":"Řečkovice, nádraží","arrival_time":"5:48:00","departure_time":"5:48:00","lat":49.250794,"lon":16.590446,"is_passed":false},{"stop_id":"U1286Z11","name":"Královo Pole, nádraží","arrival_time":"5:51:00","departure_time":"5:52:00","lat":49.231051,"lon":16.596651,"is_passed":false},{"stop_id":"U1331Z11","name":"Lesná, nádraží","arrival_time":"5:54:00","departure_time":"5:55:00","lat":49.220432,"lon":16.627505,"is_passed":false},{"stop_id":"U1809Z11","name":"Židenice, nádraží","arrival_time":"6:01:00","departure_time":"6:01:00","lat":49.204282,"lon":16.636042,"is_passed":false},{"stop_id":"U1146Z98","name":"Hlavní nádraží","arrival_time":"6:06:00","departure_time":"6:09:00","lat":49.19035,"lon":16.612342,"is_passed":false},{"stop_id":"U15140Z11","name":"Modřice, železniční stanice","arrival_time":"6:15:00","departure_time":"6:18:00","lat":49.133256,"lon":16.606209,"is_passed":false},{"stop_id":"U15181Z11","name":"Rajhrad, železniční stanice","arrival_time":"6:21:00","departure_time":"6:22:00","lat":49.084966,"lon":16.60532,"is_passed":false},{"stop_id":"U15222Z11","name":"Hrušovany u Brna, žel. st.","arrival_time":"6:26:00","departure_time":"6:30:00","lat":49.034228,"lon":16.591501,"is_passed":false},{"stop_id":"U15306Z11","name":"Žabčice, žel. st.","arrival_time":"6:33:00","departure_time":"6:33:00","lat":49.010857,"lon":16.594833,"is_passed":false},{"stop_id":"U15307Z11","name":"Vranovice, žel.st.","arrival_time":"6:37:00","departure_time":"6:38:00","lat":48.964528,"lon":16.604187,"is_passed":false},{"stop_id":"U25401Z11","name":"Pouzdřany","arrival_time":"6:40:00","departure_time":"6:41:00","lat":48.942025,"lon":16.630527,"is_passed":false},{"stop_id":"U25402Z11","name":"Popice","arrival_time":"6:44:00","departure_time":"6:44:00","lat":48.924332,"lon":16.668084,"is_passed":false},{"stop_id":"U15425Z11","name":"Šakvice, železniční stanice","arrival_time":"6:47:00","departure_time":"6:48:00","lat":48.912883,"lon":16.70557,"is_passed":false},{"stop_id":"U15403Z11","name":"Hustopeče, autobusové nádraží","arrival_time":"6:55:00","departure_time":"7:04:00","lat":48.93752,"lon":16.735901,"is_passed":false}],"7740":[{"stop_id":"U16627Z1","name":"Brankovice, škola","arrival_time":"13:05:00","departure_time":"13:05:00","lat":49.15603,"lon":17.129673,"is_passed":false},{"stop_id":"U16630Z2","name":"Dobročkovice, rozcestí","arrival_time":"13:10:00","departure_time":"13:10:00","lat":49.150134,"lon":17.121907,"is_passed":false},{"stop_id":"U16631Z1","name":"Dobročkovice","arrival_time":"13:13:00","departure_time":"13:13:00","lat":49.16243,"lon":17.10881,"is_passed":false},{"stop_id":"U16509Z3","name":"Nesovice, železniční stanice","arrival_time":"13:19:00","departure_time":"13:22:00","lat":49.149095,"lon":17.079312,"is_passed":false}],"7741":[{"stop_id":"U16509Z4","name":"Nesovice, železniční stanice","arrival_time":"13:22:00","departure_time":"13:22:00","lat":49.149095,"lon":17.079312,"is_passed":false},{"stop_id":"U16506Z1","name":"Nesovice, obecní úřad","arrival_time":"13:23:00","departure_time":"13:23:00","lat":49.148808,"lon":17.082913,"is_passed":false},{"stop_id":"U16505Z1","name":"Nesovice, Kotáry","arrival_time":"13:24:00","departure_time":"13:24:00","lat":49.149117,"lon":17.092515,"is_passed":false},{"stop_id":"U16512Z1","name":"Snovídky","arrival_time":"13:28:00","departure_time":"13:28:00","lat":49.13304,"lon":17.10617,"is_passed":false},{"stop_id":"U16503Z1","name":"Nemotice, železniční stanice","arrival_time":"13:31:00","departure_time":"13:31:00","lat":49.13415,"lon":17.116908,"is_passed":false},{"stop_id":"U16504Z1","name":"Nemotice","arrival_time":"13:32:00","departure_time":"13:32:00","lat":49.12968,"lon":17.124725,"is_passed":false},{"stop_id":"U16623Z1","name":"Mouchnice, Na Požárech","arrival_time":"13:37:00","departure_time":"13:37:00","lat":49.116308,"lon":17.135068,"is_passed":false},{"stop_id":"U16624Z1","name":"Mouchnice","arrival_time":"13:38:00","departure_time":"13:38:00","lat":49.112052,"lon":17.135112,"is_passed":false},{"stop_id":"U16793Z2","name":"Koryčany, náměstí","arrival_time":"13:41:00","departure_time":"13:41:00","lat":49.106225,"lon":17.163642,"is_passed":false},{"stop_id":"U16792Z2","name":"Koryčany, závod","arrival_time":"13:44:00","departure_time":"14:17:00","lat":49.111707,"lon":17.169467,"is_passed":false}],"7742":[{"stop_id":"U16792Z1","name":"Koryčany, závod","arrival_time":"14:17:00","departure_time":"14:17:00","lat":49.111695,"lon":17.169497,"is_passed":false},{"stop_id":"U16793Z1","name":"Koryčany, náměstí","arrival_time":"14:20:00","departure_time":"14:20:00","lat":49.106098,"lon":17.163237,"is_passed":false},{"stop_id":"U16624Z2","name":"Mouchnice","arrival_time":"14:23:00","departure_time":"14:23:00","lat":49.112142,"lon":17.135145,"is_passed":false},{"stop_id":"U16623Z2","name":"Mouchnice, Na Požárech","arrival_time":"14:24:00","departure_time":"14:24:00","lat":49.116365,"lon":17.135258,"is_passed":false},{"stop_id":"U16504Z2","name":"Nemotice","arrival_time":"14:29:00","departure_time":"14:29:00","lat":49.129713,"lon":17.125008,"is_passed":false},{"stop_id":"U16503Z2","name":"Nemotice, železniční stanice","arrival_time":"14:30:00","departure_time":"14:30:00","lat":49.134107,"lon":17.116798,"is_passed":false},{"stop_id":"U16512Z2","name":"Snovídky","arrival_time":"14:33:00","departure_time":"14:33:00","lat":49.133113,"lon":17.106213,"is_passed":false},{"stop_id":"U16505Z2","name":"Nesovice, Kotáry","arrival_time":"14:37:00","departure_time":"14:37:00","lat":49.149153,"lon":17.092268,"is_passed":false},{"stop_id":"U16506Z2","name":"Nesovice, obecní úřad","arrival_time":"14:38:00","departure_time":"14:38:00","lat":49.148482,"lon":17.082872,"is_passed":false},{"stop_id":"U16509Z5","name":"Nesovice, železniční stanice","arrival_time":"14:39:00","departure_time":"14:39:00","lat":49.149095,"lon":17.079312,"is_passed":false},{"stop_id":"U16508Z1","name":"Nesovice, požární zbrojnice","arrival_time":"14:41:00","departure_time":"14:41:00","lat":49.150423,"lon":17.081728,"is_passed":false},{"stop_id":"U16502Z1","name":"Milonice","arrival_time":"14:43:00","departure_time":"14:43:00","lat":49.15835,"lon":17.072118,"is_passed":false},{"stop_id":"U16514Z1","name":"Uhřice, rozcestí","arrival_time":"14:44:00","departure_time":"14:44:00","lat":49.163227,"lon":17.067172,"is_passed":false},{"stop_id":"U16501Z1","name":"Milonice, Roštoutky, statek","arrival_time":"14:47:00","departure_time":"14:47:00","lat":49.178395,"lon":17.05641,"is_passed":false},{"stop_id":"U16424Z2","name":"Kozlany","arrival_time":"14:51:00","departure_time":"14:51:00","lat":49.203988,"lon":17.035198,"is_passed":false},{"stop_id":"U16418Z2","name":"Bohdalice-Pavlovice, Hradčany","arrival_time":"14:53:00","departure_time":"14:53:00","lat":49.209898,"lon":17.032628,"is_passed":false},{"stop_id":"U16417Z2","name":"Bohdalice-Pavlovice, Bohdalice","arrival_time":"14:55:00","departure_time":"14:56:00","lat":49.214043,"lon":17.030467,"is_passed":false}],"7743":[{"stop_id":"U16417Z2","name":"Bohdalice-Pavlovice, Bohdalice","arrival_time":"14:56:00","departure_time":"14:56:00","lat":49.214043,"lon":17.030467,"is_passed":false},{"stop_id":"U16418Z1","name":"Bohdalice-Pavlovice, Hradčany","arrival_time":"14:58:00","departure_time":"14:58:00","lat":49.210095,"lon":17.03258,"is_passed":false},{"stop_id":"U16424Z1","name":"Kozlany","arrival_time":"14:59:00","departure_time":"14:59:00","lat":49.2037,"lon":17.035175,"is_passed":false},{"stop_id":"U16501Z2","name":"Milonice, Roštoutky, statek","arrival_time":"15:03:00","departure_time":"15:03:00","lat":49.178187,"lon":17.056393,"is_passed":false},{"stop_id":"U16513Z3","name":"Uhřice, na návsi","arrival_time":"15:08:00","departure_time":"15:08:00","lat":49.171422,"lon":17.07905,"is_passed":false},{"stop_id":"U16502Z2","name":"Milonice","arrival_time":"15:11:00","departure_time":"15:11:00","lat":49.158132,"lon":17.072158,"is_passed":false},{"stop_id":"U16508Z2","name":"Nesovice, požární zbrojnice","arrival_time":"15:13:00","departure_time":"15:13:00","lat":49.150655,"lon":17.08152,"is_passed":false},{"stop_id":"U16509Z4","name":"Nesovice, železniční stanice","arrival_time":"15:14:00","departure_time":"15:27:00","lat":49.149095,"lon":17.079312,"is_passed":false},{"stop_id":"U16506Z1","name":"Nesovice, obecní úřad","arrival_time":"15:28:00","departure_time":"15:28:00","lat":49.148808,"lon":17.082913,"is_passed":false},{"stop_id":"U16505Z1","name":"Nesovice, Kotáry","arrival_time":"15:29:00","departure_time":"15:29:00","lat":49.149117,"lon":17.092515,"is_passed":false},{"stop_id":"U16512Z1","name":"Snovídky","arrival_time":"15:33:00","departure_time":"15:33:00","lat":49.13304,"lon":17.10617,"is_passed":false},{"stop_id":"U16503Z1","name":"Nemotice, železniční stanice","arrival_time":"15:36:00","departure_time":"15:36:00","lat":49.13415,"lon":17.116908,"is_passed":false},{"stop_id":"U16504Z1","name":"Nemotice","arrival_time":"15:37:00","departure_time":"15:37:00","lat":49.12968,"lon":17.124725,"is_passed":false},{"stop_id":"U16623Z1","name":"Mouchnice, Na Požárech","arrival_time":"15:42:00","departure_time":"15:42:00","lat":49.116308,"lon":17.135068,"is_passed":false},{"stop_id":"U16624Z1","name":"Mouchnice","arrival_time":"15:43:00","departure_time":"15:43:00","lat":49.112052,"lon":17.135112,"is_passed":false},{"stop_id":"U16793Z2","name":"Koryčany, náměstí","arrival_time":"15:46:00","departure_time":"16:00:00","lat":49.106225,"lon":17.163642,"is_passed":false}],"7744":[{"stop_id":"U16793Z1","name":"Koryčany, náměstí","arrival_time":"16:00:00","departure_time":"16:00:00","lat":49.106098,"lon":17.163237,"is_passed":false},{"stop_id":"U16624Z2","name":"Mouchnice","arrival_time":"16:03:00","departure_time":"16:03:00","lat":49.112142,"lon":17.135145,"is_passed":false},{"stop_id":"U16623Z2","name":"Mouchnice, Na Požárech","arrival_time":"16:04:00","departure_time":"16:04:00","lat":49.116365,"lon":17.135258,"is_passed":false},{"stop_id":"U16504Z2","name":"Nemotice","arrival_time":"16:09:00","departure_time":"16:09:00","lat":49.129713,"lon":17.125008,"is_passed":false},{"stop_id":"U16503Z2","name":"Nemotice, železniční stanice","arrival_time":"16:10:00","departure_time":"16:10:00","lat":49.134107,"lon":17.116798,"is_passed":false},{"stop_id":"U16512Z2","name":"Snovídky","arrival_time":"16:13:00","departure_time":"16:13:00","lat":49.133113,"lon":17.106213,"is_passed":false},{"stop_id":"U16505Z2","name":"Nesovice, Kotáry","arrival_time":"16:17:00","departure_time":"16:17:00","lat":49.149153,"lon":17.092268,"is_passed":false},{"stop_id":"U16506Z2","name":"Nesovice, obecní úřad","arrival_time":"16:18:00","departure_time":"16:18:00","lat":49.148482,"lon":17.082872,"is_passed":false},{"stop_id":"U16509Z5","name":"Nesovice, železniční stanice","arrival_time":"16:19:00","departure_time":"16:39:00","lat":49.149095,"lon":17.079312,"is_passed":false}],"7745":[{"stop_id":"U16509Z5","name":"Nesovice, železniční stanice","arrival_time":"16:39:00","departure_time":"16:39:00","lat":49.149095,"lon":17.079312,"is_passed":false},{"stop_id":"U16508Z1","name":"Nesovice, požární zbrojnice","arrival_time":"16:41:00","departure_time":"16:41:00","lat":49.150423,"lon":17.081728,"is_passed":false},{"stop_id":"U16502Z1","name":"Milonice","arrival_time":"16:43:00","departure_time":"16:43:00","lat":49.15835,"lon":17.072118,"is_passed":false},{"stop_id":"U16514Z1","name":"Uhřice, rozcestí","arrival_time":"16:44:00","departure_time":"16:44:00","lat":49.163227,"lon":17.067172,"is_passed":false},{"stop_id":"U16501Z1","name":"Milonice, Roštoutky, statek","arrival_time":"16:47:00","departure_time":"16:47:00","lat":49.178395,"lon":17.05641,"is_passed":false},{"stop_id":"U16424Z2","name":"Kozlany","arrival_time":"16:51:00","departure_time":"16:51:00","lat":49.203988,"lon":17.035198,"is_passed":false},{"stop_id":"U16418Z2","name":"Bohdalice-Pavlovice, Hradčany","arrival_time":"16:53:00","departure_time":"16:53:00","lat":49.209898,"lon":17.032628,"is_passed":false},{"stop_id":"U16417Z2","name":"Bohdalice-Pavlovice, Bohdalice","arrival_time":"16:55:00","departure_time":"16:56:00","lat":49.214043,"lon":17.030467,"is_passed":false}],"7746":[{"stop_id":"U16417Z2","name":"Bohdalice-Pavlovice, Bohdalice","arrival_time":"16:56:00","departure_time":"16:56:00","lat":49.214043,"lon":17.030467,"is_passed":false},{"stop_id":"U16418Z1","name":"Bohdalice-Pavlovice, Hradčany","arrival_time":"16:58:00","departure_time":"16:58:00","lat":49.210095,"lon":17.03258,"is_passed":false},{"stop_id":"U16424Z1","name":"Kozlany","arrival_time":"16:59:00","departure_time":"16:59:00","lat":49.2037,"lon":17.035175,"is_passed":false},{"stop_id":"U16501Z2","name":"Milonice, Roštoutky, statek","arrival_time":"17:03:00","departure_time":"17:03:00","lat":49.178187,"lon":17.056393,"is_passed":false},{"stop_id":"U16513Z3","name":"Uhřice, na návsi","arrival_time":"17:08:00","departure_time":"17:08:00","lat":49.171422,"lon":17.07905,"is_passed":false},{"stop_id":"U16502Z2","name":"Milonice","arrival_time":"17:11:00","departure_time":"17:11:00","lat":49.158132,"lon":17.072158,"is_passed":false},{"stop_id":"U16508Z2","name":"Nesovice, požární zbrojnice","arrival_time":"17:13:00","departure_time":"17:13:00","lat":49.150655,"lon":17.08152,"is_passed":false},{"stop_id":"U16509Z4","name":"Nesovice, železniční stanice","arrival_time":"17:15:00","departure_time":"17:22:00","lat":49.149095,"lon":17.079312,"is_passed":false},{"stop_id":"U16506Z1","name":"Nesovice, obecní úřad","arrival_time":"17:23:00","departure_time":"17:23:00","lat":49.148808,"lon":17.082913,"is_passed":false},{"stop_id":"U16505Z1","name":"Nesovice, Kotáry","arrival_time":"17:24:00","departure_time":"17:24:00","lat":49.149117,"lon":17.092515,"is_passed":false},{"stop_id":"U16512Z1","name":"Snovídky","arrival_time":"17:28:00","departure_time":"17:28:00","lat":49.13304,"lon":17.10617,"is_passed":false},{"stop_id":"U16503Z1","name":"Nemotice, železniční stanice","arrival_time":"17:31:00","departure_time":"17:31:00","lat":49.13415,"lon":17.116908,"is_passed":false},{"stop_id":"U16504Z1","name":"Nemotice","arrival_time":"17:32:00","departure_time":"17:32:00","lat":49.12968,"lon":17.124725,"is_passed":false},{"stop_id":"U16623Z1","name":"Mouchnice, Na Požárech","arrival_time":"17:37:00","departure_time":"17:37:00","lat":49.116308,"lon":17.135068,"is_passed":false},{"stop_id":"U16624Z1","name":"Mouchnice","arrival_time":"17:38:00","departure_time":"17:38:00","lat":49.112052,"lon":17.135112,"is_passed":false},{"stop_id":"U16793Z2","name":"Koryčany, náměstí","arrival_time":"17:41:00","departure_time":"18:20:00","lat":49.106225,"lon":17.163642,"is_passed":false}],"7747":[{"stop_id":"U16793Z1","name":"Koryčany, náměstí","arrival_time":"18:20:00","departure_time":"18:20:00","lat":49.106098,"lon":17.163237,"is_passed":false},{"stop_id":"U16624Z2","name":"Mouchnice","arrival_time":"18:23:00","departure_time":"18:23:00","lat":49.112142,"lon":17.135145,"is_passed":false},{"stop_id":"U16623Z2","name":"Mouchnice, Na Požárech","arrival_time":"18:24:00","departure_time":"18:24:00","lat":49.116365,"lon":17.135258,"is_passed":false},{"stop_id":"U16504Z2","name":"Nemotice","arrival_time":"18:29:00","departure_time":"18:29:00","lat":49.129713,"lon":17.125008,"is_passed":false},{"stop_id":"U16503Z2","name":"Nemotice, železniční stanice","arrival_time":"18:30:00","departure_time":"18:31:00","lat":49.134107,"lon":17.116798,"is_passed":false}],"7748":[{"stop_id":"U16503Z1","name":"Nemotice, železniční stanice","arrival_time":"18:31:00","departure_time":"18:31:00","lat":49.13415,"lon":17.116908,"is_passed":false},{"stop_id":"U16504Z1","name":"Nemotice","arrival_time":"18:32:00","departure_time":"18:32:00","lat":49.12968,"lon":17.124725,"is_passed":false},{"stop_id":"U16623Z1","name":"Mouchnice, Na Požárech","arrival_time":"18:37:00","departure_time":"18:37:00","lat":49.116308,"lon":17.135068,"is_passed":false},{"stop_id":"U16624Z1","name":"Mouchnice","arrival_time":"18:38:00","departure_time":"18:38:00","lat":49.112052,"lon":17.135112,"is_passed":false},{"stop_id":"U16793Z2","name":"Koryčany, náměstí","arrival_time":"18:41:00","departure_time":"19:20:00","lat":49.106225,"lon":17.163642,"is_passed":false}],"7749":[{"stop_id":"U16793Z1","name":"Koryčany, náměstí","arrival_time":"19:20:00","departure_time":"19:20:00","lat":49.106098,"lon":17.163237,"is_passed":false},{"stop_id":"U16624Z2","name":"Mouchnice","arrival_time":"19:23:00","departure_time":"19:23:00","lat":49.112142,"lon":17.135145,"is_passed":false},{"stop_id":"U16623Z2","name":"Mouchnice, Na Požárech","arrival_time":"19:24:00","departure_time":"19:24:00","lat":49.116365,"lon":17.135258,"is_passed":false},{"stop_id":"U16504Z2","name":"Nemotice","arrival_time":"19:29:00","departure_time":"19:29:00","lat":49.129713,"lon":17.125008,"is_passed":false},{"stop_id":"U16503Z2","name":"Nemotice, železniční stanice","arrival_time":"19:30:00","departure_time":"19:31:00","lat":49.134107,"lon":17.116798,"is_passed":false}]}