{"777":[{"stop_id":"U15403Z10","name":"Hustopeče, autobusové nádraží","arrival_time":"13:04:00","departure_time":"13:04:00","lat":48.93752,"lon":16.735901,"is_passed":false},{"stop_id":"U15425Z10","name":"Šakvice, železniční stanice","arrival_time":"13:10:00","departure_time":"13:11:00","lat":48.912883,"lon":16.70557,"is_passed":false},{"stop_id":"U25402Z10","name":"Popice","arrival_time":"13:13:00","departure_time":"13:14:00","lat":48.924332,"lon":16.668084,"is_passed":false},{"stop_id":"U25401Z10","name":"Pouzdřany","arrival_time":"13:17:00","departure_time":"13:17:00","lat":48.942025,"lon":16.630527,"is_passed":false},{"stop_id":"U15307Z10","name":"Vranovice, žel.st.","arrival_time":"13:20:00","departure_time":"13:21:00","lat":48.964528,"lon":16.604187,"is_passed":false},{"stop_id":"U15306Z10","name":"Žabčice, žel. st.","arrival_time":"13:24:00","departure_time":"13:25:00","lat":49.010865,"lon":16.594993,"is_passed":false},{"stop_id":"U15222Z10","name":"Hrušovany u Brna, žel. st.","arrival_time":"13:28:00","departure_time":"13:32:00","lat":49.034228,"lon":16.591501,"is_passed":false},{"stop_id":"U15181Z10","name":"Rajhrad, železniční stanice","arrival_time":"13:36:00","departure_time":"13:37:00","lat":49.084966,"lon":16.60532,"is_passed":false},{"stop_id":"U15140Z10","name":"Modřice, železniční stanice","arrival_time":"13:40:00","departure_time":"13:41:00","lat":49.133256,"lon":16.606209,"is_passed":false},{"stop_id":"U1146Z99","name":"Hlavní nádraží","arrival_time":"13:48:00","departure_time":"13:53:00","lat":49.19035,"lon":16.612342,"is_passed":false},{"stop_id":"U1809Z10","name":"Židenice, nádraží","arrival_time":"13:56:00","departure_time":"13:57:00","lat":49.204282,"lon":16.636042,"is_passed":false},{"stop_id":"U1331Z10","name":"Lesná, nádraží","arrival_time":"14:02:00","departure_time":"14:03:00","lat":49.220432,"lon":16.627505,"is_passed":false},{"stop_id":"U1286Z10","name":"Královo Pole, nádraží","arrival_time":"14:06:00","departure_time":"14:07:00","lat":49.231051,"lon":16.596651,"is_passed":false},{"stop_id":"U1557Z10","name":"Řečkovice, nádraží","arrival_time":"14:09:00","departure_time":"14:10:00","lat":49.250794,"lon":16.590446,"is_passed":false},{"stop_id":"U13109Z10","name":"Česká, železniční stanice","arrival_time":"14:13:00","departure_time":"14:14:00","lat":49.284546,"lon":16.566731,"is_passed":false},{"stop_id":"U13143Z10","name":"Kuřim, železniční stanice","arrival_time":"14:17:00","departure_time":"14:18:00","lat":49.301,"lon":16.534523,"is_passed":false},{"stop_id":"U13206Z10","name":"Čebín, železniční stanice","arrival_time":"14:23:00","departure_time":"14:23:00","lat":49.319722,"lon":16.465278,"is_passed":false},{"stop_id":"U13306Z10","name":"Hradčany, železniční stanice","arrival_time":"14:26:00","departure_time":"14:26:00","lat":49.334153,"lon":16.437807,"is_passed":false},{"stop_id":"U13334Z20","name":"Tišnov, železniční stanice","arrival_time":"14:29:00","departure_time":"14:30:00","lat":49.3475,"lon":16.41725,"is_passed":false},{"stop_id":"U13411Z10","name":"Dolní Loučky, železniční stanice","arrival_time":"14:34:00","departure_time":"14:34:00","lat":49.356389,"lon":16.346945,"is_passed":false},{"stop_id":"U13425Z10","name":"Řikonín, železniční stanice","arrival_time":"14:37:00","departure_time":"14:37:00","lat":49.365833,"lon":16.305833,"is_passed":false},{"stop_id":"U13454Z10","name":"Níhov, železniční stanice","arrival_time":"14:41:00","departure_time":"14:41:00","lat":49.336616,"lon":16.270487,"is_passed":false},{"stop_id":"U23501Z1","name":"Vlkov-Osová","arrival_time":"14:46:00","departure_time":"14:46:00","lat":49.326883,"lon":16.202114,"is_passed":false},{"stop_id":"U30305Z1","name":"Osová Bítýška","arrival_time":"14:49:00","departure_time":"14:49:00","lat":49.329893,"lon":16.168305,"is_passed":false},{"stop_id":"U30302Z1","name":"Ořechov","arrival_time":"14:52:00","departure_time":"14:52:00","lat":49.350503,"lon":16.136551,"is_passed":false},{"stop_id":"U30009Z1","name":"Křižanov","arrival_time":"14:58:00","departure_time":"16:00:00","lat":49.384877,"lon":16.080351,"is_passed":false}],"7770":[{"stop_id":"U16449Z1","name":"Žarošice","arrival_time":"23:27:00","departure_time":"23:27:00","lat":49.040617,"lon":16.967482,"is_passed":false},{"stop_id":"U16525Z1","name":"Archlebov","arrival_time":"23:32:00","departure_time":"23:32:00","lat":49.043113,"lon":17.00413,"is_passed":false},{"stop_id":"U16542Z2","name":"Ždánice, šroubárna","arrival_time":"23:36:00","departure_time":"23:36:00","lat":49.057332,"lon":17.025485,"is_passed":false},{"stop_id":"U16544Z1","name":"Ždánice","arrival_time":"23:38:00","departure_time":"23:38:00","lat":49.064517,"lon":17.029768,"is_passed":false}],"7771":[{"stop_id":"U16437Z2","name":"Násedlovice, mlýn","arrival_time":"4:48:00","departure_time":"4:48:00","lat":49.007317,"lon":16.966767,"is_passed":false},{"stop_id":"U16438Z2","name":"Násedlovice, u hřiště","arrival_time":"4:50:00","departure_time":"4:50:00","lat":49.00918,"lon":16.958217,"is_passed":false},{"stop_id":"U16439Z2","name":"Násedlovice","arrival_time":"4:51:00","departure_time":"4:51:00","lat":49.012059,"lon":16.958993,"is_passed":false},{"stop_id":"U16440Z4","name":"Uhřice, Janův Dvůr","arrival_time":"4:54:00","departure_time":"4:54:00","lat":49.022987,"lon":16.962236,"is_passed":false},{"stop_id":"U16448Z1","name":"Žarošice, škola","arrival_time":"4:58:00","departure_time":"4:58:00","lat":49.039337,"lon":16.96142,"is_passed":false},{"stop_id":"U16449Z1","name":"Žarošice","arrival_time":"4:59:00","departure_time":"5:11:00","lat":49.040617,"lon":16.967482,"is_passed":false},{"stop_id":"U16525Z1","name":"Archlebov","arrival_time":"5:16:00","departure_time":"5:16:00","lat":49.043113,"lon":17.00413,"is_passed":false},{"stop_id":"U16542Z2","name":"Ždánice, šroubárna","arrival_time":"5:20:00","departure_time":"5:20:00","lat":49.057332,"lon":17.025485,"is_passed":false},{"stop_id":"U16544Z1","name":"Ždánice","arrival_time":"5:22:00","departure_time":"5:50:00","lat":49.064517,"lon":17.029768,"is_passed":false}],"7772":[{"stop_id":"U16544Z1","name":"Ždánice","arrival_time":"5:50:00","departure_time":"5:50:00","lat":49.064517,"lon":17.029768,"is_passed":false},{"stop_id":"U16542Z1","name":"Ždánice, šroubárna","arrival_time":"5:53:00","departure_time":"5:53:00","lat":49.057508,"lon":17.025452,"is_passed":false},{"stop_id":"U16525Z2","name":"Archlebov","arrival_time":"5:57:00","departure_time":"5:57:00","lat":49.043193,"lon":17.003877,"is_passed":false},{"stop_id":"U16449Z2","name":"Žarošice","arrival_time":"6:02:00","departure_time":"6:02:00","lat":49.040472,"lon":16.966415,"is_passed":false},{"stop_id":"U16448Z2","name":"Žarošice, škola","arrival_time":"6:03:00","departure_time":"6:03:00","lat":49.039435,"lon":16.9616,"is_passed":false},{"stop_id":"U16440Z3","name":"Uhřice, Janův Dvůr","arrival_time":"6:07:00","departure_time":"6:07:00","lat":49.022987,"lon":16.962236,"is_passed":false},{"stop_id":"U16436Z1","name":"Násedlovice, kostel","arrival_time":"6:09:00","departure_time":"6:09:00","lat":49.014265,"lon":16.961614,"is_passed":false},{"stop_id":"U16439Z1","name":"Násedlovice","arrival_time":"6:10:00","departure_time":"6:10:00","lat":49.011075,"lon":16.95703,"is_passed":false},{"stop_id":"U16438Z1","name":"Násedlovice, u hřiště","arrival_time":"6:11:00","departure_time":"6:11:00","lat":49.009217,"lon":16.95822,"is_passed":false},{"stop_id":"U16437Z1","name":"Násedlovice, mlýn","arrival_time":"6:13:00","departure_time":"6:46:00","lat":49.007262,"lon":16.966958,"is_passed":false}],"7773":[{"stop_id":"U16437Z2","name":"Násedlovice, mlýn","arrival_time":"6:46:00","departure_time":"6:46:00","lat":49.007317,"lon":16.966767,"is_passed":false},{"stop_id":"U16438Z2","name":"Násedlovice, u hřiště","arrival_time":"6:48:00","departure_time":"6:48:00","lat":49.00918,"lon":16.958217,"is_passed":false},{"stop_id":"U16439Z2","name":"Násedlovice","arrival_time":"6:49:00","departure_time":"6:49:00","lat":49.012059,"lon":16.958993,"is_passed":false},{"stop_id":"U16440Z4","name":"Uhřice, Janův Dvůr","arrival_time":"6:52:00","departure_time":"6:52:00","lat":49.022987,"lon":16.962236,"is_passed":false},{"stop_id":"U16448Z1","name":"Žarošice, škola","arrival_time":"6:56:00","departure_time":"6:56:00","lat":49.039337,"lon":16.96142,"is_passed":false},{"stop_id":"U16449Z1","name":"Žarošice","arrival_time":"6:57:00","departure_time":"6:57:00","lat":49.040617,"lon":16.967482,"is_passed":false},{"stop_id":"U16525Z1","name":"Archlebov","arrival_time":"7:02:00","departure_time":"7:02:00","lat":49.043113,"lon":17.00413,"is_passed":false},{"stop_id":"U16527Z3","name":"Dražůvky","arrival_time":"7:06:00","departure_time":"7:06:00","lat":49.031967,"lon":17.020073,"is_passed":false},{"stop_id":"U16526Z1","name":"Dražůvky, rozcestí","arrival_time":"7:07:00","departure_time":"7:07:00","lat":49.039815,"lon":17.022695,"is_passed":false},{"stop_id":"U16542Z2","name":"Ždánice, šroubárna","arrival_time":"7:11:00","departure_time":"7:11:00","lat":49.057332,"lon":17.025485,"is_passed":false},{"stop_id":"U16544Z1","name":"Ždánice","arrival_time":"7:13:00","departure_time":"7:20:00","lat":49.064517,"lon":17.029768,"is_passed":false}],"7774":[{"stop_id":"U16544Z1","name":"Ždánice","arrival_time":"7:20:00","departure_time":"7:20:00","lat":49.064517,"lon":17.029768,"is_passed":false},{"stop_id":"U16542Z1","name":"Ždánice, šroubárna","arrival_time":"7:23:00","departure_time":"7:23:00","lat":49.057508,"lon":17.025452,"is_passed":false},{"stop_id":"U16525Z2","name":"Archlebov","arrival_time":"7:27:00","departure_time":"7:27:00","lat":49.043193,"lon":17.003877,"is_passed":false},{"stop_id":"U16449Z2","name":"Žarošice","arrival_time":"7:32:00","departure_time":"7:32:00","lat":49.040472,"lon":16.966415,"is_passed":false},{"stop_id":"U16448Z2","name":"Žarošice, škola","arrival_time":"7:33:00","departure_time":"7:33:00","lat":49.039435,"lon":16.9616,"is_passed":false},{"stop_id":"U16440Z3","name":"Uhřice, Janův Dvůr","arrival_time":"7:37:00","departure_time":"7:37:00","lat":49.022987,"lon":16.962236,"is_passed":false},{"stop_id":"U16436Z1","name":"Násedlovice, kostel","arrival_time":"7:39:00","departure_time":"7:39:00","lat":49.014265,"lon":16.961614,"is_passed":false},{"stop_id":"U16439Z1","name":"Násedlovice","arrival_time":"7:40:00","departure_time":"7:40:00","lat":49.011075,"lon":16.95703,"is_passed":false},{"stop_id":"U16438Z1","name":"Násedlovice, u hřiště","arrival_time":"7:41:00","departure_time":"7:41:00","lat":49.009217,"lon":16.95822,"is_passed":false},{"stop_id":"U16437Z1","name":"Násedlovice, mlýn","arrival_time":"7:43:00","departure_time":"9:16:00","lat":49.007262,"lon":16.966958,"is_passed":false}],"7775":[{"stop_id":"U16437Z2","name":"Násedlovice, mlýn","arrival_time":"9:16:00","departure_time":"9:16:00","lat":49.007317,"lon":16.966767,"is_passed":false},{"stop_id":"U16438Z2","name":"Násedlovice, u hřiště","arrival_time":"9:18:00","departure_time":"9:18:00","lat":49.00918,"lon":16.958217,"is_passed":false},{"stop_id":"U16439Z2","name":"Násedlovice","arrival_time":"9:19:00","departure_time":"9:19:00","lat":49.012059,"lon":16.958993,"is_passed":false},{"stop_id":"U16440Z4","name":"Uhřice, Janův Dvůr","arrival_time":"9:22:00","departure_time":"9:22:00","lat":49.022987,"lon":16.962236,"is_passed":false},{"stop_id":"U16448Z1","name":"Žarošice, škola","arrival_time":"9:26:00","departure_time":"9:26:00","lat":49.039337,"lon":16.96142,"is_passed":false},{"stop_id":"U16449Z1","name":"Žarošice","arrival_time":"9:27:00","departure_time":"9:27:00","lat":49.040617,"lon":16.967482,"is_passed":false},{"stop_id":"U16525Z1","name":"Archlebov","arrival_time":"9:32:00","departure_time":"9:32:00","lat":49.043113,"lon":17.00413,"is_passed":false},{"stop_id":"U16542Z2","name":"Ždánice, šroubárna","arrival_time":"9:36:00","departure_time":"9:36:00","lat":49.057332,"lon":17.025485,"is_passed":false},{"stop_id":"U16544Z1","name":"Ždánice","arrival_time":"9:38:00","departure_time":"13:20:00","lat":49.064517,"lon":17.029768,"is_passed":false}],"7776":[{"stop_id":"U16544Z1","name":"Ždánice","arrival_time":"13:20:00","departure_time":"13:20:00","lat":49.064517,"lon":17.029768,"is_passed":false},{"stop_id":"U16542Z1","name":"Ždánice, šroubárna","arrival_time":"13:23:00","departure_time":"13:23:00","lat":49.057508,"lon":17.025452,"is_passed":false},{"stop_id":"U16525Z2","name":"Archlebov","arrival_time":"13:27:00","departure_time":"13:27:00","lat":49.043193,"lon":17.003877,"is_passed":false},{"stop_id":"U16449Z2","name":"Žarošice","arrival_time":"13:32:00","departure_time":"13:32:00","lat":49.040472,"lon":16.966415,"is_passed":false},{"stop_id":"U16465Z1","name":"Žarošice, za školou","arrival_time":"13:33:00","departure_time":"13:33:00","lat":49.03792,"lon":16.961528,"is_passed":false},{"stop_id":"U16440Z3","name":"Uhřice, Janův Dvůr","arrival_time":"13:37:00","departure_time":"13:37:00","lat":49.022987,"lon":16.962236,"is_passed":false},{"stop_id":"U16436Z1","name":"Násedlovice, kostel","arrival_time":"13:39:00","departure_time":"13:39:00","lat":49.014265,"lon":16.961614,"is_passed":false},{"stop_id":"U16439Z1","name":"Násedlovice","arrival_time":"13:40:00","departure_time":"13:40:00","lat":49.011075,"lon":16.95703,"is_passed":false},{"stop_id":"U16438Z1","name":"Násedlovice, u hřiště","arrival_time":"13:41:00","departure_time":"13:41:00","lat":49.009217,"lon":16.95822,"is_passed":false},{"stop_id":"U16437Z1","name":"Násedlovice, mlýn","arrival_time":"13:43:00","departure_time":"14:16:00","lat":49.007262,"lon":16.966958,"is_passed":false}],"7777":[{"stop_id":"U16437Z2","name":"Násedlovice, mlýn","arrival_time":"14:16:00","departure_time":"14:16:00","lat":49.007317,"lon":16.966767,"is_passed":false},{"stop_id":"U16438Z2","name":"Násedlovice, u hřiště","arrival_time":"14:18:00","departure_time":"14:18:00","lat":49.00918,"lon":16.958217,"is_passed":false},{"stop_id":"U16439Z2","name":"Násedlovice","arrival_time":"14:19:00","departure_time":"14:19:00","lat":49.012059,"lon":16.958993,"is_passed":false},{"stop_id":"U16440Z4","name":"Uhřice, Janův Dvůr","arrival_time":"14:22:00","departure_time":"14:22:00","lat":49.022987,"lon":16.962236,"is_passed":false},{"stop_id":"U16448Z1","name":"Žarošice, škola","arrival_time":"14:26:00","departure_time":"14:26:00","lat":49.039337,"lon":16.96142,"is_passed":false},{"stop_id":"U16449Z1","name":"Žarošice","arrival_time":"14:27:00","departure_time":"14:27:00","lat":49.040617,"lon":16.967482,"is_passed":false},{"stop_id":"U16525Z1","name":"Archlebov","arrival_time":"14:32:00","departure_time":"14:32:00","lat":49.043113,"lon":17.00413,"is_passed":false},{"stop_id":"U16542Z2","name":"Ždánice, šroubárna","arrival_time":"14:36:00","departure_time":"14:36:00","lat":49.057332,"lon":17.025485,"is_passed":false},{"stop_id":"U16544Z1","name":"Ždánice","arrival_time":"14:38:00","departure_time":"15:20:00","lat":49.064517,"lon":17.029768,"is_passed":false}],"7778":[{"stop_id":"U16544Z1","name":"Ždánice","arrival_time":"15:20:00","departure_time":"15:20:00","lat":49.064517,"lon":17.029768,"is_passed":false},{"stop_id":"U16542Z1","name":"Ždánice, šroubárna","arrival_time":"15:23:00","departure_time":"15:23:00","lat":49.057508,"lon":17.025452,"is_passed":false},{"stop_id":"U16525Z2","name":"Archlebov","arrival_time":"15:27:00","departure_time":"15:27:00","lat":49.043193,"lon":17.003877,"is_passed":false},{"stop_id":"U16449Z2","name":"Žarošice","arrival_time":"15:32:00","departure_time":"15:32:00","lat":49.040472,"lon":16.966415,"is_passed":false},{"stop_id":"U16448Z2","name":"Žarošice, škola","arrival_time":"15:33:00","departure_time":"15:33:00","lat":49.039435,"lon":16.9616,"is_passed":false},{"stop_id":"U16440Z3","name":"Uhřice, Janův Dvůr","arrival_time":"15:37:00","departure_time":"15:37:00","lat":49.022987,"lon":16.962236,"is_passed":false},{"stop_id":"U16436Z1","name":"Násedlovice, kostel","arrival_time":"15:39:00","departure_time":"15:39:00","lat":49.014265,"lon":16.961614,"is_passed":false},{"stop_id":"U16439Z1","name":"Násedlovice","arrival_time":"15:40:00","departure_time":"15:40:00","lat":49.011075,"lon":16.95703,"is_passed":false},{"stop_id":"U16438Z1","name":"Násedlovice, u hřiště","arrival_time":"15:41:00","departure_time":"15:41:00","lat":49.009217,"lon":16.95822,"is_passed":false},{"stop_id":"U16437Z1","name":"Násedlovice, mlýn","arrival_time":"15:43:00","departure_time":"15:43:00","lat":49.007262,"lon":16.966958,"is_passed":false},{"stop_id":"U16456Z1","name":"Karlín, farma","arrival_time":"15:48:00","departure_time":"15:48:00","lat":48.983167,"lon":16.974167,"is_passed":false},{"stop_id":"U16455Z1","name":"Karlín","arrival_time":"15:52:00","departure_time":"15:52:00","lat":48.975568,"lon":16.977232,"is_passed":false},{"stop_id":"U16545Z4","name":"Čejč, náměstí","arrival_time":"16:01:00","departure_time":"16:58:00","lat":48.94568,"lon":16.967358,"is_passed":false}],"7779":[{"stop_id":"U16545Z3","name":"Čejč, náměstí","arrival_time":"16:58:00","departure_time":"16:58:00","lat":48.946403,"lon":16.965978,"is_passed":false},{"stop_id":"U16455Z2","name":"Karlín","arrival_time":"17:07:00","departure_time":"17:07:00","lat":48.975618,"lon":16.977372,"is_passed":false},{"stop_id":"U16456Z2","name":"Karlín, farma","arrival_time":"17:11:00","departure_time":"17:11:00","lat":48.983167,"lon":16.974167,"is_passed":false},{"stop_id":"U16437Z2","name":"Násedlovice, mlýn","arrival_time":"17:16:00","departure_time":"17:16:00","lat":49.007317,"lon":16.966767,"is_passed":false},{"stop_id":"U16438Z2","name":"Násedlovice, u hřiště","arrival_time":"17:18:00","departure_time":"17:18:00","lat":49.00918,"lon":16.958217,"is_passed":false},{"stop_id":"U16439Z2","name":"Násedlovice","arrival_time":"17:19:00","departure_time":"17:19:00","lat":49.012059,"lon":16.958993,"is_passed":false},{"stop_id":"U16440Z4","name":"Uhřice, Janův Dvůr","arrival_time":"17:22:00","departure_time":"17:22:00","lat":49.022987,"lon":16.962236,"is_passed":false},{"stop_id":"U16448Z1","name":"Žarošice, škola","arrival_time":"17:26:00","departure_time":"17:26:00","lat":49.039337,"lon":16.96142,"is_passed":false},{"stop_id":"U16449Z1","name":"Žarošice","arrival_time":"17:27:00","departure_time":"17:27:00","lat":49.040617,"lon":16.967482,"is_passed":false},{"stop_id":"U16525Z1","name":"Archlebov","arrival_time":"17:32:00","departure_time":"17:32:00","lat":49.043113,"lon":17.00413,"is_passed":false},{"stop_id":"U16542Z2","name":"Ždánice, šroubárna","arrival_time":"17:36:00","departure_time":"17:36:00","lat":49.057332,"lon":17.025485,"is_passed":false},{"stop_id":"U16544Z1","name":"Ždánice","arrival_time":"17:38:00","departure_time":"17:50:00","lat":49.064517,"lon":17.029768,"is_passed":false}]}