{"777":[{"stop_id":"U1146Z99","name":"Hlavní nádraží","arrival_time":"5:00:00","departure_time":"5:00:00","lat":49.19035,"lon":16.612342,"is_passed":false},{"stop_id":"U12342Z30","name":"Blansko, aut. st.","arrival_time":"5:18:00","departure_time":"5:19:00","lat":49.352753,"lon":16.646848,"is_passed":false},{"stop_id":"U12676Z50","name":"Skalice nad Svitavou, žel.st.","arrival_time":"5:28:00","departure_time":"5:29:00","lat":49.480123,"lon":16.609726,"is_passed":false},{"stop_id":"U12736Z50","name":"Letovice, železniční stanice","arrival_time":"5:36:00","departure_time":"5:37:00","lat":49.555973,"lon":16.570906,"is_passed":false},{"stop_id":"U12936Z10","name":"Březová nad Svitavou, železniční stanice","arrival_time":"5:44:00","departure_time":"5:45:00","lat":49.633104,"lon":16.520656,"is_passed":false}],"7770":[{"stop_id":"U16228Z2","name":"Holubice, žel.st.","arrival_time":"15:44:00","departure_time":"15:44:00","lat":49.179141,"lon":16.822052,"is_passed":false},{"stop_id":"U16204Z2","name":"Holubice, Curdík","arrival_time":"15:45:00","departure_time":"15:45:00","lat":49.174368,"lon":16.822201,"is_passed":false},{"stop_id":"U16207Z2","name":"Holubice, obecní úřad","arrival_time":"15:47:00","departure_time":"15:47:00","lat":49.17728,"lon":16.813577,"is_passed":false},{"stop_id":"U16208Z2","name":"Holubice, u mostu","arrival_time":"15:48:00","departure_time":"15:48:00","lat":49.17931,"lon":16.806387,"is_passed":false},{"stop_id":"U16227Z1","name":"Holubice, GLP Park","arrival_time":"15:52:00","departure_time":"15:52:00","lat":49.188149,"lon":16.810898,"is_passed":false},{"stop_id":"U17212Z1","name":"Pozořice, náměstí","arrival_time":"15:58:00","departure_time":"16:28:00","lat":49.208924,"lon":16.790865,"is_passed":false}],"7771":[{"stop_id":"U17212Z2","name":"Pozořice, náměstí","arrival_time":"16:28:00","departure_time":"16:28:00","lat":49.209871,"lon":16.790286,"is_passed":false},{"stop_id":"U16227Z1","name":"Holubice, GLP Park","arrival_time":"16:34:00","departure_time":"16:34:00","lat":49.188149,"lon":16.810898,"is_passed":false},{"stop_id":"U16208Z1","name":"Holubice, u mostu","arrival_time":"16:38:00","departure_time":"16:38:00","lat":49.179375,"lon":16.806448,"is_passed":false},{"stop_id":"U16207Z1","name":"Holubice, obecní úřad","arrival_time":"16:39:00","departure_time":"16:39:00","lat":49.177275,"lon":16.813585,"is_passed":false},{"stop_id":"U16204Z1","name":"Holubice, Curdík","arrival_time":"16:41:00","departure_time":"16:41:00","lat":49.17443,"lon":16.822741,"is_passed":false},{"stop_id":"U16228Z2","name":"Holubice, žel.st.","arrival_time":"16:42:00","departure_time":"16:44:00","lat":49.179141,"lon":16.822052,"is_passed":false}],"7772":[{"stop_id":"U16228Z2","name":"Holubice, žel.st.","arrival_time":"16:44:00","departure_time":"16:44:00","lat":49.179141,"lon":16.822052,"is_passed":false},{"stop_id":"U16204Z2","name":"Holubice, Curdík","arrival_time":"16:45:00","departure_time":"16:45:00","lat":49.174368,"lon":16.822201,"is_passed":false},{"stop_id":"U16207Z2","name":"Holubice, obecní úřad","arrival_time":"16:47:00","departure_time":"16:47:00","lat":49.17728,"lon":16.813577,"is_passed":false},{"stop_id":"U16208Z2","name":"Holubice, u mostu","arrival_time":"16:48:00","departure_time":"16:48:00","lat":49.17931,"lon":16.806387,"is_passed":false},{"stop_id":"U16227Z1","name":"Holubice, GLP Park","arrival_time":"16:52:00","departure_time":"16:52:00","lat":49.188149,"lon":16.810898,"is_passed":false},{"stop_id":"U17212Z1","name":"Pozořice, náměstí","arrival_time":"16:58:00","departure_time":"17:28:00","lat":49.208924,"lon":16.790865,"is_passed":false}],"7773":[{"stop_id":"U17212Z2","name":"Pozořice, náměstí","arrival_time":"17:28:00","departure_time":"17:28:00","lat":49.209871,"lon":16.790286,"is_passed":false},{"stop_id":"U16227Z1","name":"Holubice, GLP Park","arrival_time":"17:34:00","departure_time":"17:34:00","lat":49.188149,"lon":16.810898,"is_passed":false},{"stop_id":"U16208Z1","name":"Holubice, u mostu","arrival_time":"17:38:00","departure_time":"17:38:00","lat":49.179375,"lon":16.806448,"is_passed":false},{"stop_id":"U16207Z1","name":"Holubice, obecní úřad","arrival_time":"17:39:00","departure_time":"17:39:00","lat":49.177275,"lon":16.813585,"is_passed":false},{"stop_id":"U16204Z1","name":"Holubice, Curdík","arrival_time":"17:41:00","departure_time":"17:41:00","lat":49.17443,"lon":16.822741,"is_passed":false},{"stop_id":"U16228Z2","name":"Holubice, žel.st.","arrival_time":"17:42:00","departure_time":"17:44:00","lat":49.179141,"lon":16.822052,"is_passed":false}],"7774":[{"stop_id":"U16228Z2","name":"Holubice, žel.st.","arrival_time":"17:44:00","departure_time":"17:44:00","lat":49.179141,"lon":16.822052,"is_passed":false},{"stop_id":"U16204Z2","name":"Holubice, Curdík","arrival_time":"17:45:00","departure_time":"17:45:00","lat":49.174368,"lon":16.822201,"is_passed":false},{"stop_id":"U16207Z2","name":"Holubice, obecní úřad","arrival_time":"17:47:00","departure_time":"17:47:00","lat":49.17728,"lon":16.813577,"is_passed":false},{"stop_id":"U16208Z2","name":"Holubice, u mostu","arrival_time":"17:48:00","departure_time":"17:48:00","lat":49.17931,"lon":16.806387,"is_passed":false},{"stop_id":"U16227Z1","name":"Holubice, GLP Park","arrival_time":"17:52:00","departure_time":"17:52:00","lat":49.188149,"lon":16.810898,"is_passed":false},{"stop_id":"U17212Z1","name":"Pozořice, náměstí","arrival_time":"17:58:00","departure_time":"18:28:00","lat":49.208924,"lon":16.790865,"is_passed":false}],"7775":[{"stop_id":"U17212Z2","name":"Pozořice, náměstí","arrival_time":"18:28:00","departure_time":"18:28:00","lat":49.209871,"lon":16.790286,"is_passed":false},{"stop_id":"U16227Z1","name":"Holubice, GLP Park","arrival_time":"18:34:00","departure_time":"18:34:00","lat":49.188149,"lon":16.810898,"is_passed":false},{"stop_id":"U16208Z1","name":"Holubice, u mostu","arrival_time":"18:38:00","departure_time":"18:38:00","lat":49.179375,"lon":16.806448,"is_passed":false},{"stop_id":"U16207Z1","name":"Holubice, obecní úřad","arrival_time":"18:39:00","departure_time":"18:39:00","lat":49.177275,"lon":16.813585,"is_passed":false},{"stop_id":"U16204Z1","name":"Holubice, Curdík","arrival_time":"18:41:00","departure_time":"18:41:00","lat":49.17443,"lon":16.822741,"is_passed":false},{"stop_id":"U16228Z2","name":"Holubice, žel.st.","arrival_time":"18:42:00","departure_time":"18:44:00","lat":49.179141,"lon":16.822052,"is_passed":false}],"7776":[{"stop_id":"U16228Z2","name":"Holubice, žel.st.","arrival_time":"18:44:00","departure_time":"18:44:00","lat":49.179141,"lon":16.822052,"is_passed":false},{"stop_id":"U16204Z2","name":"Holubice, Curdík","arrival_time":"18:45:00","departure_time":"18:45:00","lat":49.174368,"lon":16.822201,"is_passed":false},{"stop_id":"U16207Z2","name":"Holubice, obecní úřad","arrival_time":"18:47:00","departure_time":"18:47:00","lat":49.17728,"lon":16.813577,"is_passed":false},{"stop_id":"U16208Z2","name":"Holubice, u mostu","arrival_time":"18:48:00","departure_time":"18:48:00","lat":49.17931,"lon":16.806387,"is_passed":false},{"stop_id":"U16227Z1","name":"Holubice, GLP Park","arrival_time":"18:52:00","departure_time":"18:52:00","lat":49.188149,"lon":16.810898,"is_passed":false},{"stop_id":"U17212Z1","name":"Pozořice, náměstí","arrival_time":"18:58:00","departure_time":"19:28:00","lat":49.208924,"lon":16.790865,"is_passed":false}],"7777":[{"stop_id":"U17212Z2","name":"Pozořice, náměstí","arrival_time":"19:28:00","departure_time":"19:28:00","lat":49.209871,"lon":16.790286,"is_passed":false},{"stop_id":"U16227Z1","name":"Holubice, GLP Park","arrival_time":"19:34:00","departure_time":"19:34:00","lat":49.188149,"lon":16.810898,"is_passed":false},{"stop_id":"U16208Z1","name":"Holubice, u mostu","arrival_time":"19:38:00","departure_time":"19:38:00","lat":49.179375,"lon":16.806448,"is_passed":false},{"stop_id":"U16207Z1","name":"Holubice, obecní úřad","arrival_time":"19:39:00","departure_time":"19:39:00","lat":49.177275,"lon":16.813585,"is_passed":false},{"stop_id":"U16204Z1","name":"Holubice, Curdík","arrival_time":"19:41:00","departure_time":"19:41:00","lat":49.17443,"lon":16.822741,"is_passed":false},{"stop_id":"U16228Z2","name":"Holubice, žel.st.","arrival_time":"19:42:00","departure_time":"19:44:00","lat":49.179141,"lon":16.822052,"is_passed":false}],"7778":[{"stop_id":"U16228Z2","name":"Holubice, žel.st.","arrival_time":"19:44:00","departure_time":"19:44:00","lat":49.179141,"lon":16.822052,"is_passed":false},{"stop_id":"U16204Z2","name":"Holubice, Curdík","arrival_time":"19:45:00","departure_time":"19:45:00","lat":49.174368,"lon":16.822201,"is_passed":false},{"stop_id":"U16207Z2","name":"Holubice, obecní úřad","arrival_time":"19:47:00","departure_time":"19:47:00","lat":49.17728,"lon":16.813577,"is_passed":false},{"stop_id":"U16208Z2","name":"Holubice, u mostu","arrival_time":"19:48:00","departure_time":"19:48:00","lat":49.17931,"lon":16.806387,"is_passed":false},{"stop_id":"U16227Z1","name":"Holubice, GLP Park","arrival_time":"19:52:00","departure_time":"19:52:00","lat":49.188149,"lon":16.810898,"is_passed":false},{"stop_id":"U17212Z1","name":"Pozořice, náměstí","arrival_time":"19:58:00","departure_time":"19:58:00","lat":49.208924,"lon":16.790865,"is_passed":false}],"7779":[{"stop_id":"U17335Z6","name":"Rousínov, autobusová stanice","arrival_time":"4:30:00","departure_time":"4:30:00","lat":49.202819,"lon":16.885074,"is_passed":false},{"stop_id":"U17331Z1","name":"Rousínov, Čechyně, rozcestí","arrival_time":"4:32:00","departure_time":"4:32:00","lat":49.207062,"lon":16.891572,"is_passed":false},{"stop_id":"U17311Z3","name":"Komořany, EDP","arrival_time":"4:35:00","departure_time":"4:35:00","lat":49.220008,"lon":16.905058,"is_passed":false},{"stop_id":"U17344Z1","name":"Tučapy, rozcestí","arrival_time":"4:37:00","departure_time":"4:37:00","lat":49.227308,"lon":16.915917,"is_passed":false},{"stop_id":"U17343Z1","name":"Tučapy, obecní úřad","arrival_time":"4:39:00","departure_time":"4:39:00","lat":49.232287,"lon":16.917902,"is_passed":false},{"stop_id":"U17317Z1","name":"Nemojany","arrival_time":"4:42:00","departure_time":"4:42:00","lat":49.246498,"lon":16.915268,"is_passed":false},{"stop_id":"U17316Z1","name":"Luleč, rozc. k žel. st.","arrival_time":"4:44:00","departure_time":"4:44:00","lat":49.250822,"lon":16.921027,"is_passed":false},{"stop_id":"U17315Z1","name":"Luleč, obecní úřad","arrival_time":"4:46:00","departure_time":"4:46:00","lat":49.253993,"lon":16.929762,"is_passed":false},{"stop_id":"U17314Z1","name":"Luleč, kamenolom","arrival_time":"4:48:00","departure_time":"4:48:00","lat":49.261913,"lon":16.937098,"is_passed":false},{"stop_id":"U17305Z1","name":"Drnovice, Na vrchu","arrival_time":"4:50:00","departure_time":"4:50:00","lat":49.270722,"lon":16.950341,"is_passed":false},{"stop_id":"U17304Z2","name":"Drnovice","arrival_time":"4:52:00","departure_time":"4:52:00","lat":49.276472,"lon":16.952117,"is_passed":false},{"stop_id":"U17434Z2","name":"Vyškov, nemocnice","arrival_time":"4:55:00","departure_time":"4:55:00","lat":49.276242,"lon":16.98279,"is_passed":false},{"stop_id":"U17423Z21","name":"Vyškov, Autobusové nádraží","arrival_time":"4:57:00","departure_time":"5:00:00","lat":49.275819,"lon":16.992078,"is_passed":false}]}