{"778":[{"stop_id":"U30009Z2","name":"Křižanov","arrival_time":"16:00:00","departure_time":"16:00:00","lat":49.384694,"lon":16.080389,"is_passed":false},{"stop_id":"U30302Z2","name":"Ořechov","arrival_time":"16:04:00","departure_time":"16:04:00","lat":49.350447,"lon":16.136416,"is_passed":false},{"stop_id":"U30305Z2","name":"Osová Bítýška","arrival_time":"16:08:00","departure_time":"16:08:00","lat":49.329893,"lon":16.168305,"is_passed":false},{"stop_id":"U23501Z2","name":"Vlkov-Osová","arrival_time":"16:10:00","departure_time":"16:11:00","lat":49.326883,"lon":16.202114,"is_passed":false},{"stop_id":"U13454Z11","name":"Níhov, železniční stanice","arrival_time":"16:15:00","departure_time":"16:16:00","lat":49.33637,"lon":16.270573,"is_passed":false},{"stop_id":"U13425Z11","name":"Řikonín, železniční stanice","arrival_time":"16:19:00","departure_time":"16:20:00","lat":49.365833,"lon":16.305833,"is_passed":false},{"stop_id":"U13411Z11","name":"Dolní Loučky, železniční stanice","arrival_time":"16:22:00","departure_time":"16:22:00","lat":49.356389,"lon":16.346945,"is_passed":false},{"stop_id":"U13334Z21","name":"Tišnov, železniční stanice","arrival_time":"16:28:00","departure_time":"16:29:00","lat":49.3475,"lon":16.41725,"is_passed":false},{"stop_id":"U13306Z11","name":"Hradčany, železniční stanice","arrival_time":"16:31:00","departure_time":"16:32:00","lat":49.333878,"lon":16.437893,"is_passed":false},{"stop_id":"U13206Z11","name":"Čebín, železniční stanice","arrival_time":"16:34:00","departure_time":"16:35:00","lat":49.319722,"lon":16.465278,"is_passed":false},{"stop_id":"U13143Z11","name":"Kuřim, železniční stanice","arrival_time":"16:40:00","departure_time":"16:41:00","lat":49.301,"lon":16.534523,"is_passed":false},{"stop_id":"U13109Z11","name":"Česká, železniční stanice","arrival_time":"16:43:00","departure_time":"16:44:00","lat":49.284546,"lon":16.566731,"is_passed":false},{"stop_id":"U1557Z11","name":"Řečkovice, nádraží","arrival_time":"16:48:00","departure_time":"16:48:00","lat":49.250794,"lon":16.590446,"is_passed":false},{"stop_id":"U1286Z11","name":"Královo Pole, nádraží","arrival_time":"16:51:00","departure_time":"16:52:00","lat":49.231051,"lon":16.596651,"is_passed":false},{"stop_id":"U1331Z11","name":"Lesná, nádraží","arrival_time":"16:54:00","departure_time":"16:55:00","lat":49.220432,"lon":16.627505,"is_passed":false},{"stop_id":"U1809Z11","name":"Židenice, nádraží","arrival_time":"17:01:00","departure_time":"17:01:00","lat":49.204282,"lon":16.636042,"is_passed":false},{"stop_id":"U1146Z98","name":"Hlavní nádraží","arrival_time":"17:06:00","departure_time":"17:09:00","lat":49.19035,"lon":16.612342,"is_passed":false},{"stop_id":"U11002Z11","name":"Brno-Horní Heršpice","arrival_time":"17:13:00","departure_time":"17:13:00","lat":49.167404,"lon":16.60686,"is_passed":false},{"stop_id":"U15140Z11","name":"Modřice, železniční stanice","arrival_time":"17:17:00","departure_time":"17:18:00","lat":49.133256,"lon":16.606209,"is_passed":false},{"stop_id":"U15181Z11","name":"Rajhrad, železniční stanice","arrival_time":"17:21:00","departure_time":"17:22:00","lat":49.084966,"lon":16.60532,"is_passed":false},{"stop_id":"U15222Z11","name":"Hrušovany u Brna, žel. st.","arrival_time":"17:26:00","departure_time":"17:30:00","lat":49.034228,"lon":16.591501,"is_passed":false},{"stop_id":"U15306Z11","name":"Žabčice, žel. st.","arrival_time":"17:33:00","departure_time":"17:33:00","lat":49.010857,"lon":16.594833,"is_passed":false},{"stop_id":"U15307Z11","name":"Vranovice, žel.st.","arrival_time":"17:37:00","departure_time":"17:38:00","lat":48.964528,"lon":16.604187,"is_passed":false},{"stop_id":"U25401Z11","name":"Pouzdřany","arrival_time":"17:40:00","departure_time":"17:41:00","lat":48.942025,"lon":16.630527,"is_passed":false},{"stop_id":"U25402Z11","name":"Popice","arrival_time":"17:44:00","departure_time":"17:44:00","lat":48.924332,"lon":16.668084,"is_passed":false},{"stop_id":"U15425Z11","name":"Šakvice, železniční stanice","arrival_time":"17:47:00","departure_time":"17:48:00","lat":48.912883,"lon":16.70557,"is_passed":false},{"stop_id":"U15403Z11","name":"Hustopeče, autobusové nádraží","arrival_time":"17:55:00","departure_time":"18:04:00","lat":48.93752,"lon":16.735901,"is_passed":false}],"7780":[{"stop_id":"U16449Z2","name":"Žarošice","arrival_time":"22:32:00","departure_time":"22:32:00","lat":49.040472,"lon":16.966415,"is_passed":false},{"stop_id":"U16448Z2","name":"Žarošice, škola","arrival_time":"22:33:00","departure_time":"22:33:00","lat":49.039435,"lon":16.9616,"is_passed":false},{"stop_id":"U16444Z4","name":"Žarošice, Silničná, rozcestí Uhřice","arrival_time":"22:36:00","departure_time":"22:36:00","lat":49.052104,"lon":16.952246,"is_passed":false},{"stop_id":"U16442Z1","name":"Uhřice, horní zastávka","arrival_time":"22:39:00","departure_time":"22:39:00","lat":49.051031,"lon":16.945709,"is_passed":false},{"stop_id":"U16441Z1","name":"Uhřice, dolní zastávka","arrival_time":"22:40:00","departure_time":"22:42:00","lat":49.047972,"lon":16.949093,"is_passed":false}],"7781":[{"stop_id":"U16449Z1","name":"Žarošice","arrival_time":"23:27:00","departure_time":"23:27:00","lat":49.040617,"lon":16.967482,"is_passed":false},{"stop_id":"U16525Z1","name":"Archlebov","arrival_time":"23:32:00","departure_time":"23:32:00","lat":49.043113,"lon":17.00413,"is_passed":false},{"stop_id":"U16542Z2","name":"Ždánice, šroubárna","arrival_time":"23:36:00","departure_time":"23:36:00","lat":49.057332,"lon":17.025485,"is_passed":false},{"stop_id":"U16544Z1","name":"Ždánice","arrival_time":"23:38:00","departure_time":"23:38:00","lat":49.064517,"lon":17.029768,"is_passed":false}],"7782":[{"stop_id":"U16437Z2","name":"Násedlovice, mlýn","arrival_time":"4:48:00","departure_time":"4:48:00","lat":49.007317,"lon":16.966767,"is_passed":false},{"stop_id":"U16438Z2","name":"Násedlovice, u hřiště","arrival_time":"4:50:00","departure_time":"4:50:00","lat":49.00918,"lon":16.958217,"is_passed":false},{"stop_id":"U16439Z2","name":"Násedlovice","arrival_time":"4:51:00","departure_time":"4:51:00","lat":49.012059,"lon":16.958993,"is_passed":false},{"stop_id":"U16440Z4","name":"Uhřice, Janův Dvůr","arrival_time":"4:54:00","departure_time":"4:54:00","lat":49.022987,"lon":16.962236,"is_passed":false},{"stop_id":"U16448Z1","name":"Žarošice, škola","arrival_time":"4:58:00","departure_time":"4:58:00","lat":49.039337,"lon":16.96142,"is_passed":false},{"stop_id":"U16449Z1","name":"Žarošice","arrival_time":"4:59:00","departure_time":"5:11:00","lat":49.040617,"lon":16.967482,"is_passed":false},{"stop_id":"U16525Z1","name":"Archlebov","arrival_time":"5:16:00","departure_time":"5:16:00","lat":49.043113,"lon":17.00413,"is_passed":false},{"stop_id":"U16542Z2","name":"Ždánice, šroubárna","arrival_time":"5:20:00","departure_time":"5:20:00","lat":49.057332,"lon":17.025485,"is_passed":false},{"stop_id":"U16544Z1","name":"Ždánice","arrival_time":"5:22:00","departure_time":"5:50:00","lat":49.064517,"lon":17.029768,"is_passed":false}],"7783":[{"stop_id":"U16544Z1","name":"Ždánice","arrival_time":"5:50:00","departure_time":"5:50:00","lat":49.064517,"lon":17.029768,"is_passed":false},{"stop_id":"U16542Z1","name":"Ždánice, šroubárna","arrival_time":"5:53:00","departure_time":"5:53:00","lat":49.057508,"lon":17.025452,"is_passed":false},{"stop_id":"U16525Z2","name":"Archlebov","arrival_time":"5:57:00","departure_time":"5:57:00","lat":49.043193,"lon":17.003877,"is_passed":false},{"stop_id":"U16449Z2","name":"Žarošice","arrival_time":"6:02:00","departure_time":"6:02:00","lat":49.040472,"lon":16.966415,"is_passed":false},{"stop_id":"U16448Z2","name":"Žarošice, škola","arrival_time":"6:03:00","departure_time":"6:03:00","lat":49.039435,"lon":16.9616,"is_passed":false},{"stop_id":"U16440Z3","name":"Uhřice, Janův Dvůr","arrival_time":"6:07:00","departure_time":"6:07:00","lat":49.022987,"lon":16.962236,"is_passed":false},{"stop_id":"U16436Z1","name":"Násedlovice, kostel","arrival_time":"6:09:00","departure_time":"6:09:00","lat":49.014265,"lon":16.961614,"is_passed":false},{"stop_id":"U16439Z1","name":"Násedlovice","arrival_time":"6:10:00","departure_time":"6:10:00","lat":49.011075,"lon":16.95703,"is_passed":false},{"stop_id":"U16438Z1","name":"Násedlovice, u hřiště","arrival_time":"6:11:00","departure_time":"6:11:00","lat":49.009217,"lon":16.95822,"is_passed":false},{"stop_id":"U16437Z1","name":"Násedlovice, mlýn","arrival_time":"6:13:00","departure_time":"6:46:00","lat":49.007262,"lon":16.966958,"is_passed":false}],"7784":[{"stop_id":"U16437Z2","name":"Násedlovice, mlýn","arrival_time":"6:46:00","departure_time":"6:46:00","lat":49.007317,"lon":16.966767,"is_passed":false},{"stop_id":"U16438Z2","name":"Násedlovice, u hřiště","arrival_time":"6:48:00","departure_time":"6:48:00","lat":49.00918,"lon":16.958217,"is_passed":false},{"stop_id":"U16439Z2","name":"Násedlovice","arrival_time":"6:49:00","departure_time":"6:49:00","lat":49.012059,"lon":16.958993,"is_passed":false},{"stop_id":"U16440Z4","name":"Uhřice, Janův Dvůr","arrival_time":"6:52:00","departure_time":"6:52:00","lat":49.022987,"lon":16.962236,"is_passed":false},{"stop_id":"U16448Z1","name":"Žarošice, škola","arrival_time":"6:56:00","departure_time":"6:56:00","lat":49.039337,"lon":16.96142,"is_passed":false},{"stop_id":"U16449Z1","name":"Žarošice","arrival_time":"6:57:00","departure_time":"6:57:00","lat":49.040617,"lon":16.967482,"is_passed":false},{"stop_id":"U16525Z1","name":"Archlebov","arrival_time":"7:02:00","departure_time":"7:02:00","lat":49.043113,"lon":17.00413,"is_passed":false},{"stop_id":"U16527Z3","name":"Dražůvky","arrival_time":"7:06:00","departure_time":"7:06:00","lat":49.031967,"lon":17.020073,"is_passed":false},{"stop_id":"U16526Z1","name":"Dražůvky, rozcestí","arrival_time":"7:07:00","departure_time":"7:07:00","lat":49.039815,"lon":17.022695,"is_passed":false},{"stop_id":"U16542Z2","name":"Ždánice, šroubárna","arrival_time":"7:11:00","departure_time":"7:11:00","lat":49.057332,"lon":17.025485,"is_passed":false},{"stop_id":"U16544Z1","name":"Ždánice","arrival_time":"7:13:00","departure_time":"7:20:00","lat":49.064517,"lon":17.029768,"is_passed":false}],"7785":[{"stop_id":"U16544Z1","name":"Ždánice","arrival_time":"7:20:00","departure_time":"7:20:00","lat":49.064517,"lon":17.029768,"is_passed":false},{"stop_id":"U16542Z1","name":"Ždánice, šroubárna","arrival_time":"7:23:00","departure_time":"7:23:00","lat":49.057508,"lon":17.025452,"is_passed":false},{"stop_id":"U16525Z2","name":"Archlebov","arrival_time":"7:27:00","departure_time":"7:27:00","lat":49.043193,"lon":17.003877,"is_passed":false},{"stop_id":"U16449Z2","name":"Žarošice","arrival_time":"7:32:00","departure_time":"7:32:00","lat":49.040472,"lon":16.966415,"is_passed":false},{"stop_id":"U16448Z2","name":"Žarošice, škola","arrival_time":"7:33:00","departure_time":"7:33:00","lat":49.039435,"lon":16.9616,"is_passed":false},{"stop_id":"U16440Z3","name":"Uhřice, Janův Dvůr","arrival_time":"7:37:00","departure_time":"7:37:00","lat":49.022987,"lon":16.962236,"is_passed":false},{"stop_id":"U16436Z1","name":"Násedlovice, kostel","arrival_time":"7:39:00","departure_time":"7:39:00","lat":49.014265,"lon":16.961614,"is_passed":false},{"stop_id":"U16439Z1","name":"Násedlovice","arrival_time":"7:40:00","departure_time":"7:40:00","lat":49.011075,"lon":16.95703,"is_passed":false},{"stop_id":"U16438Z1","name":"Násedlovice, u hřiště","arrival_time":"7:41:00","departure_time":"7:41:00","lat":49.009217,"lon":16.95822,"is_passed":false},{"stop_id":"U16437Z1","name":"Násedlovice, mlýn","arrival_time":"7:43:00","departure_time":"9:16:00","lat":49.007262,"lon":16.966958,"is_passed":false}],"7786":[{"stop_id":"U16437Z2","name":"Násedlovice, mlýn","arrival_time":"9:16:00","departure_time":"9:16:00","lat":49.007317,"lon":16.966767,"is_passed":false},{"stop_id":"U16438Z2","name":"Násedlovice, u hřiště","arrival_time":"9:18:00","departure_time":"9:18:00","lat":49.00918,"lon":16.958217,"is_passed":false},{"stop_id":"U16439Z2","name":"Násedlovice","arrival_time":"9:19:00","departure_time":"9:19:00","lat":49.012059,"lon":16.958993,"is_passed":false},{"stop_id":"U16440Z4","name":"Uhřice, Janův Dvůr","arrival_time":"9:22:00","departure_time":"9:22:00","lat":49.022987,"lon":16.962236,"is_passed":false},{"stop_id":"U16448Z1","name":"Žarošice, škola","arrival_time":"9:26:00","departure_time":"9:26:00","lat":49.039337,"lon":16.96142,"is_passed":false},{"stop_id":"U16449Z1","name":"Žarošice","arrival_time":"9:27:00","departure_time":"9:27:00","lat":49.040617,"lon":16.967482,"is_passed":false},{"stop_id":"U16525Z1","name":"Archlebov","arrival_time":"9:32:00","departure_time":"9:32:00","lat":49.043113,"lon":17.00413,"is_passed":false},{"stop_id":"U16542Z2","name":"Ždánice, šroubárna","arrival_time":"9:36:00","departure_time":"9:36:00","lat":49.057332,"lon":17.025485,"is_passed":false},{"stop_id":"U16544Z1","name":"Ždánice","arrival_time":"9:38:00","departure_time":"13:20:00","lat":49.064517,"lon":17.029768,"is_passed":false}],"7787":[{"stop_id":"U16544Z1","name":"Ždánice","arrival_time":"13:20:00","departure_time":"13:20:00","lat":49.064517,"lon":17.029768,"is_passed":false},{"stop_id":"U16542Z1","name":"Ždánice, šroubárna","arrival_time":"13:23:00","departure_time":"13:23:00","lat":49.057508,"lon":17.025452,"is_passed":false},{"stop_id":"U16525Z2","name":"Archlebov","arrival_time":"13:27:00","departure_time":"13:27:00","lat":49.043193,"lon":17.003877,"is_passed":false},{"stop_id":"U16449Z2","name":"Žarošice","arrival_time":"13:32:00","departure_time":"13:32:00","lat":49.040472,"lon":16.966415,"is_passed":false},{"stop_id":"U16465Z1","name":"Žarošice, za školou","arrival_time":"13:33:00","departure_time":"13:33:00","lat":49.03792,"lon":16.961528,"is_passed":false},{"stop_id":"U16440Z3","name":"Uhřice, Janův Dvůr","arrival_time":"13:37:00","departure_time":"13:37:00","lat":49.022987,"lon":16.962236,"is_passed":false},{"stop_id":"U16436Z1","name":"Násedlovice, kostel","arrival_time":"13:39:00","departure_time":"13:39:00","lat":49.014265,"lon":16.961614,"is_passed":false},{"stop_id":"U16439Z1","name":"Násedlovice","arrival_time":"13:40:00","departure_time":"13:40:00","lat":49.011075,"lon":16.95703,"is_passed":false},{"stop_id":"U16438Z1","name":"Násedlovice, u hřiště","arrival_time":"13:41:00","departure_time":"13:41:00","lat":49.009217,"lon":16.95822,"is_passed":false},{"stop_id":"U16437Z1","name":"Násedlovice, mlýn","arrival_time":"13:43:00","departure_time":"14:16:00","lat":49.007262,"lon":16.966958,"is_passed":false}],"7788":[{"stop_id":"U16437Z2","name":"Násedlovice, mlýn","arrival_time":"14:16:00","departure_time":"14:16:00","lat":49.007317,"lon":16.966767,"is_passed":false},{"stop_id":"U16438Z2","name":"Násedlovice, u hřiště","arrival_time":"14:18:00","departure_time":"14:18:00","lat":49.00918,"lon":16.958217,"is_passed":false},{"stop_id":"U16439Z2","name":"Násedlovice","arrival_time":"14:19:00","departure_time":"14:19:00","lat":49.012059,"lon":16.958993,"is_passed":false},{"stop_id":"U16440Z4","name":"Uhřice, Janův Dvůr","arrival_time":"14:22:00","departure_time":"14:22:00","lat":49.022987,"lon":16.962236,"is_passed":false},{"stop_id":"U16448Z1","name":"Žarošice, škola","arrival_time":"14:26:00","departure_time":"14:26:00","lat":49.039337,"lon":16.96142,"is_passed":false},{"stop_id":"U16449Z1","name":"Žarošice","arrival_time":"14:27:00","departure_time":"14:27:00","lat":49.040617,"lon":16.967482,"is_passed":false},{"stop_id":"U16525Z1","name":"Archlebov","arrival_time":"14:32:00","departure_time":"14:32:00","lat":49.043113,"lon":17.00413,"is_passed":false},{"stop_id":"U16542Z2","name":"Ždánice, šroubárna","arrival_time":"14:36:00","departure_time":"14:36:00","lat":49.057332,"lon":17.025485,"is_passed":false},{"stop_id":"U16544Z1","name":"Ždánice","arrival_time":"14:38:00","departure_time":"15:20:00","lat":49.064517,"lon":17.029768,"is_passed":false}],"7789":[{"stop_id":"U16544Z1","name":"Ždánice","arrival_time":"15:20:00","departure_time":"15:20:00","lat":49.064517,"lon":17.029768,"is_passed":false},{"stop_id":"U16542Z1","name":"Ždánice, šroubárna","arrival_time":"15:23:00","departure_time":"15:23:00","lat":49.057508,"lon":17.025452,"is_passed":false},{"stop_id":"U16525Z2","name":"Archlebov","arrival_time":"15:27:00","departure_time":"15:27:00","lat":49.043193,"lon":17.003877,"is_passed":false},{"stop_id":"U16449Z2","name":"Žarošice","arrival_time":"15:32:00","departure_time":"15:32:00","lat":49.040472,"lon":16.966415,"is_passed":false},{"stop_id":"U16448Z2","name":"Žarošice, škola","arrival_time":"15:33:00","departure_time":"15:33:00","lat":49.039435,"lon":16.9616,"is_passed":false},{"stop_id":"U16440Z3","name":"Uhřice, Janův Dvůr","arrival_time":"15:37:00","departure_time":"15:37:00","lat":49.022987,"lon":16.962236,"is_passed":false},{"stop_id":"U16436Z1","name":"Násedlovice, kostel","arrival_time":"15:39:00","departure_time":"15:39:00","lat":49.014265,"lon":16.961614,"is_passed":false},{"stop_id":"U16439Z1","name":"Násedlovice","arrival_time":"15:40:00","departure_time":"15:40:00","lat":49.011075,"lon":16.95703,"is_passed":false},{"stop_id":"U16438Z1","name":"Násedlovice, u hřiště","arrival_time":"15:41:00","departure_time":"15:41:00","lat":49.009217,"lon":16.95822,"is_passed":false},{"stop_id":"U16437Z1","name":"Násedlovice, mlýn","arrival_time":"15:43:00","departure_time":"15:43:00","lat":49.007262,"lon":16.966958,"is_passed":false},{"stop_id":"U16456Z1","name":"Karlín, farma","arrival_time":"15:48:00","departure_time":"15:48:00","lat":48.983167,"lon":16.974167,"is_passed":false},{"stop_id":"U16455Z1","name":"Karlín","arrival_time":"15:52:00","departure_time":"15:52:00","lat":48.975568,"lon":16.977232,"is_passed":false},{"stop_id":"U16545Z4","name":"Čejč, náměstí","arrival_time":"16:01:00","departure_time":"16:58:00","lat":48.94568,"lon":16.967358,"is_passed":false}]}