{"778":[{"stop_id":"U30009Z2","name":"Křižanov","arrival_time":"16:00:00","departure_time":"16:00:00","lat":49.384694,"lon":16.080389,"is_passed":false},{"stop_id":"U30302Z2","name":"Ořechov","arrival_time":"16:04:00","departure_time":"16:04:00","lat":49.350447,"lon":16.136416,"is_passed":false},{"stop_id":"U30305Z2","name":"Osová Bítýška","arrival_time":"16:08:00","departure_time":"16:08:00","lat":49.329893,"lon":16.168305,"is_passed":false},{"stop_id":"U23501Z2","name":"Vlkov-Osová","arrival_time":"16:10:00","departure_time":"16:11:00","lat":49.326883,"lon":16.202114,"is_passed":false},{"stop_id":"U13454Z11","name":"Níhov, železniční stanice","arrival_time":"16:15:00","departure_time":"16:16:00","lat":49.33637,"lon":16.270573,"is_passed":false},{"stop_id":"U13425Z11","name":"Řikonín, železniční stanice","arrival_time":"16:19:00","departure_time":"16:20:00","lat":49.365833,"lon":16.305833,"is_passed":false},{"stop_id":"U13411Z11","name":"Dolní Loučky, železniční stanice","arrival_time":"16:22:00","departure_time":"16:22:00","lat":49.356389,"lon":16.346945,"is_passed":false},{"stop_id":"U13334Z21","name":"Tišnov, železniční stanice","arrival_time":"16:28:00","departure_time":"16:29:00","lat":49.3475,"lon":16.41725,"is_passed":false},{"stop_id":"U13306Z11","name":"Hradčany, železniční stanice","arrival_time":"16:31:00","departure_time":"16:32:00","lat":49.333878,"lon":16.437893,"is_passed":false},{"stop_id":"U13206Z11","name":"Čebín, železniční stanice","arrival_time":"16:34:00","departure_time":"16:35:00","lat":49.319722,"lon":16.465278,"is_passed":false},{"stop_id":"U13143Z11","name":"Kuřim, železniční stanice","arrival_time":"16:40:00","departure_time":"16:41:00","lat":49.301,"lon":16.534523,"is_passed":false},{"stop_id":"U13109Z11","name":"Česká, železniční stanice","arrival_time":"16:43:00","departure_time":"16:44:00","lat":49.284546,"lon":16.566731,"is_passed":false},{"stop_id":"U1557Z11","name":"Řečkovice, nádraží","arrival_time":"16:48:00","departure_time":"16:48:00","lat":49.250794,"lon":16.590446,"is_passed":false},{"stop_id":"U1286Z11","name":"Královo Pole, nádraží","arrival_time":"16:51:00","departure_time":"16:52:00","lat":49.231051,"lon":16.596651,"is_passed":false},{"stop_id":"U1331Z11","name":"Lesná, nádraží","arrival_time":"16:54:00","departure_time":"16:55:00","lat":49.220432,"lon":16.627505,"is_passed":false},{"stop_id":"U1809Z11","name":"Židenice, nádraží","arrival_time":"17:01:00","departure_time":"17:01:00","lat":49.204282,"lon":16.636042,"is_passed":false},{"stop_id":"U1146Z98","name":"Hlavní nádraží","arrival_time":"17:06:00","departure_time":"17:09:00","lat":49.19035,"lon":16.612342,"is_passed":false},{"stop_id":"U11002Z11","name":"Brno-Horní Heršpice","arrival_time":"17:13:00","departure_time":"17:13:00","lat":49.167404,"lon":16.60686,"is_passed":false},{"stop_id":"U15140Z11","name":"Modřice, železniční stanice","arrival_time":"17:17:00","departure_time":"17:18:00","lat":49.133256,"lon":16.606209,"is_passed":false},{"stop_id":"U15181Z11","name":"Rajhrad, železniční stanice","arrival_time":"17:21:00","departure_time":"17:22:00","lat":49.084966,"lon":16.60532,"is_passed":false},{"stop_id":"U15222Z11","name":"Hrušovany u Brna, žel. st.","arrival_time":"17:26:00","departure_time":"17:30:00","lat":49.034228,"lon":16.591501,"is_passed":false},{"stop_id":"U15306Z11","name":"Žabčice, žel. st.","arrival_time":"17:33:00","departure_time":"17:33:00","lat":49.010857,"lon":16.594833,"is_passed":false},{"stop_id":"U15307Z11","name":"Vranovice, žel.st.","arrival_time":"17:37:00","departure_time":"17:38:00","lat":48.964528,"lon":16.604187,"is_passed":false},{"stop_id":"U25401Z11","name":"Pouzdřany","arrival_time":"17:40:00","departure_time":"17:41:00","lat":48.942025,"lon":16.630527,"is_passed":false},{"stop_id":"U25402Z11","name":"Popice","arrival_time":"17:44:00","departure_time":"17:44:00","lat":48.924332,"lon":16.668084,"is_passed":false},{"stop_id":"U15425Z11","name":"Šakvice, železniční stanice","arrival_time":"17:47:00","departure_time":"17:48:00","lat":48.912883,"lon":16.70557,"is_passed":false},{"stop_id":"U15403Z11","name":"Hustopeče, autobusové nádraží","arrival_time":"17:55:00","departure_time":"18:04:00","lat":48.93752,"lon":16.735901,"is_passed":false}],"7780":[{"stop_id":"U16544Z1","name":"Ždánice","arrival_time":"17:50:00","departure_time":"17:50:00","lat":49.064517,"lon":17.029768,"is_passed":false},{"stop_id":"U16542Z1","name":"Ždánice, šroubárna","arrival_time":"17:53:00","departure_time":"17:53:00","lat":49.057508,"lon":17.025452,"is_passed":false},{"stop_id":"U16525Z2","name":"Archlebov","arrival_time":"17:57:00","departure_time":"17:57:00","lat":49.043193,"lon":17.003877,"is_passed":false},{"stop_id":"U16449Z2","name":"Žarošice","arrival_time":"18:02:00","departure_time":"18:02:00","lat":49.040472,"lon":16.966415,"is_passed":false},{"stop_id":"U16448Z2","name":"Žarošice, škola","arrival_time":"18:03:00","departure_time":"18:03:00","lat":49.039435,"lon":16.9616,"is_passed":false},{"stop_id":"U16440Z3","name":"Uhřice, Janův Dvůr","arrival_time":"18:07:00","departure_time":"18:07:00","lat":49.022987,"lon":16.962236,"is_passed":false},{"stop_id":"U16436Z1","name":"Násedlovice, kostel","arrival_time":"18:09:00","departure_time":"18:09:00","lat":49.014265,"lon":16.961614,"is_passed":false},{"stop_id":"U16439Z1","name":"Násedlovice","arrival_time":"18:10:00","departure_time":"18:10:00","lat":49.011075,"lon":16.95703,"is_passed":false},{"stop_id":"U16438Z1","name":"Násedlovice, u hřiště","arrival_time":"18:11:00","departure_time":"18:11:00","lat":49.009217,"lon":16.95822,"is_passed":false},{"stop_id":"U16437Z1","name":"Násedlovice, mlýn","arrival_time":"18:13:00","departure_time":"18:16:00","lat":49.007262,"lon":16.966958,"is_passed":false}],"7781":[{"stop_id":"U16437Z2","name":"Násedlovice, mlýn","arrival_time":"18:16:00","departure_time":"18:16:00","lat":49.007317,"lon":16.966767,"is_passed":false},{"stop_id":"U16438Z2","name":"Násedlovice, u hřiště","arrival_time":"18:18:00","departure_time":"18:18:00","lat":49.00918,"lon":16.958217,"is_passed":false},{"stop_id":"U16439Z2","name":"Násedlovice","arrival_time":"18:19:00","departure_time":"18:19:00","lat":49.012059,"lon":16.958993,"is_passed":false},{"stop_id":"U16440Z4","name":"Uhřice, Janův Dvůr","arrival_time":"18:22:00","departure_time":"18:22:00","lat":49.022987,"lon":16.962236,"is_passed":false},{"stop_id":"U16448Z1","name":"Žarošice, škola","arrival_time":"18:26:00","departure_time":"18:26:00","lat":49.039337,"lon":16.96142,"is_passed":false},{"stop_id":"U16449Z1","name":"Žarošice","arrival_time":"18:27:00","departure_time":"18:27:00","lat":49.040617,"lon":16.967482,"is_passed":false},{"stop_id":"U16525Z1","name":"Archlebov","arrival_time":"18:32:00","departure_time":"18:32:00","lat":49.043113,"lon":17.00413,"is_passed":false},{"stop_id":"U16542Z2","name":"Ždánice, šroubárna","arrival_time":"18:36:00","departure_time":"18:36:00","lat":49.057332,"lon":17.025485,"is_passed":false},{"stop_id":"U16544Z1","name":"Ždánice","arrival_time":"18:38:00","departure_time":"19:20:00","lat":49.064517,"lon":17.029768,"is_passed":false}],"7782":[{"stop_id":"U16544Z1","name":"Ždánice","arrival_time":"19:20:00","departure_time":"19:20:00","lat":49.064517,"lon":17.029768,"is_passed":false},{"stop_id":"U16542Z1","name":"Ždánice, šroubárna","arrival_time":"19:23:00","departure_time":"19:23:00","lat":49.057508,"lon":17.025452,"is_passed":false},{"stop_id":"U16525Z2","name":"Archlebov","arrival_time":"19:27:00","departure_time":"19:27:00","lat":49.043193,"lon":17.003877,"is_passed":false},{"stop_id":"U16449Z2","name":"Žarošice","arrival_time":"19:32:00","departure_time":"19:32:00","lat":49.040472,"lon":16.966415,"is_passed":false},{"stop_id":"U16448Z2","name":"Žarošice, škola","arrival_time":"19:33:00","departure_time":"19:33:00","lat":49.039435,"lon":16.9616,"is_passed":false},{"stop_id":"U16440Z3","name":"Uhřice, Janův Dvůr","arrival_time":"19:37:00","departure_time":"19:37:00","lat":49.022987,"lon":16.962236,"is_passed":false},{"stop_id":"U16436Z1","name":"Násedlovice, kostel","arrival_time":"19:39:00","departure_time":"19:39:00","lat":49.014265,"lon":16.961614,"is_passed":false},{"stop_id":"U16439Z1","name":"Násedlovice","arrival_time":"19:40:00","departure_time":"19:40:00","lat":49.011075,"lon":16.95703,"is_passed":false},{"stop_id":"U16438Z1","name":"Násedlovice, u hřiště","arrival_time":"19:41:00","departure_time":"19:41:00","lat":49.009217,"lon":16.95822,"is_passed":false},{"stop_id":"U16437Z1","name":"Násedlovice, mlýn","arrival_time":"19:43:00","departure_time":"20:46:00","lat":49.007262,"lon":16.966958,"is_passed":false}],"7783":[{"stop_id":"U16437Z2","name":"Násedlovice, mlýn","arrival_time":"20:46:00","departure_time":"20:46:00","lat":49.007317,"lon":16.966767,"is_passed":false},{"stop_id":"U16438Z2","name":"Násedlovice, u hřiště","arrival_time":"20:48:00","departure_time":"20:48:00","lat":49.00918,"lon":16.958217,"is_passed":false},{"stop_id":"U16439Z2","name":"Násedlovice","arrival_time":"20:49:00","departure_time":"20:49:00","lat":49.012059,"lon":16.958993,"is_passed":false},{"stop_id":"U16440Z4","name":"Uhřice, Janův Dvůr","arrival_time":"20:52:00","departure_time":"20:52:00","lat":49.022987,"lon":16.962236,"is_passed":false},{"stop_id":"U16448Z1","name":"Žarošice, škola","arrival_time":"20:56:00","departure_time":"20:56:00","lat":49.039337,"lon":16.96142,"is_passed":false},{"stop_id":"U16449Z1","name":"Žarošice","arrival_time":"20:57:00","departure_time":"20:57:00","lat":49.040617,"lon":16.967482,"is_passed":false},{"stop_id":"U16525Z1","name":"Archlebov","arrival_time":"21:02:00","departure_time":"21:02:00","lat":49.043113,"lon":17.00413,"is_passed":false},{"stop_id":"U16542Z2","name":"Ždánice, šroubárna","arrival_time":"21:06:00","departure_time":"21:06:00","lat":49.057332,"lon":17.025485,"is_passed":false},{"stop_id":"U16544Z1","name":"Ždánice","arrival_time":"21:08:00","departure_time":"21:08:00","lat":49.064517,"lon":17.029768,"is_passed":false}],"7784":[{"stop_id":"U16544Z2","name":"Ždánice","arrival_time":"21:11:00","departure_time":"21:11:00","lat":49.064517,"lon":17.029768,"is_passed":false},{"stop_id":"U16539Z2","name":"Ždánice, hvězdárna","arrival_time":"21:13:00","departure_time":"21:13:00","lat":49.065682,"lon":17.03744,"is_passed":false},{"stop_id":"U16535Z2","name":"Lovčice, dolní zastávka","arrival_time":"21:15:00","departure_time":"21:15:00","lat":49.063933,"lon":17.054483,"is_passed":false},{"stop_id":"U16536Z2","name":"Lovčice, prostřední zastávka","arrival_time":"21:17:00","departure_time":"21:17:00","lat":49.067328,"lon":17.062387,"is_passed":false},{"stop_id":"U16537Z2","name":"Lovčice, horní zastávka","arrival_time":"21:19:00","departure_time":"21:19:00","lat":49.068408,"lon":17.070628,"is_passed":false},{"stop_id":"U16616Z2","name":"Nechvalín, dolní zastávka","arrival_time":"21:23:00","departure_time":"21:23:00","lat":49.054045,"lon":17.077948,"is_passed":false},{"stop_id":"U16617Z2","name":"Nechvalín, horní zastávka","arrival_time":"21:25:00","departure_time":"21:25:00","lat":49.049093,"lon":17.083683,"is_passed":false},{"stop_id":"U16618Z2","name":"Ostrovánky","arrival_time":"21:27:00","departure_time":"21:27:00","lat":49.042584,"lon":17.080349,"is_passed":false},{"stop_id":"U16654Z2","name":"Bukovany, Bukovanský mlýn","arrival_time":"21:29:00","departure_time":"21:29:00","lat":49.040895,"lon":17.09218,"is_passed":false},{"stop_id":"U16601Z2","name":"Bukovany","arrival_time":"21:30:00","departure_time":"21:30:00","lat":49.04115,"lon":17.1016,"is_passed":false},{"stop_id":"U16613Z2","name":"Kyjov, pod nemocnicí","arrival_time":"21:36:00","departure_time":"21:36:00","lat":49.007606,"lon":17.114125,"is_passed":false},{"stop_id":"U16608Z16","name":"Kyjov, aut. st.","arrival_time":"21:38:00","departure_time":"22:37:00","lat":49.006873,"lon":17.123912,"is_passed":false}],"7785":[{"stop_id":"U16608Z13","name":"Kyjov, aut. st.","arrival_time":"22:37:00","departure_time":"22:37:00","lat":49.006388,"lon":17.124457,"is_passed":false},{"stop_id":"U16613Z1","name":"Kyjov, pod nemocnicí","arrival_time":"22:39:00","departure_time":"22:39:00","lat":49.007868,"lon":17.114425,"is_passed":false},{"stop_id":"U16601Z1","name":"Bukovany","arrival_time":"22:45:00","departure_time":"22:45:00","lat":49.041098,"lon":17.101572,"is_passed":false},{"stop_id":"U16654Z1","name":"Bukovany, Bukovanský mlýn","arrival_time":"22:46:00","departure_time":"22:46:00","lat":49.040894,"lon":17.091741,"is_passed":false},{"stop_id":"U16618Z1","name":"Ostrovánky","arrival_time":"22:48:00","departure_time":"22:48:00","lat":49.043018,"lon":17.080097,"is_passed":false},{"stop_id":"U16617Z1","name":"Nechvalín, horní zastávka","arrival_time":"22:50:00","departure_time":"22:50:00","lat":49.049132,"lon":17.083767,"is_passed":false},{"stop_id":"U16616Z1","name":"Nechvalín, dolní zastávka","arrival_time":"22:52:00","departure_time":"22:52:00","lat":49.053988,"lon":17.07836,"is_passed":false},{"stop_id":"U16537Z1","name":"Lovčice, horní zastávka","arrival_time":"22:56:00","departure_time":"22:56:00","lat":49.067905,"lon":17.070668,"is_passed":false},{"stop_id":"U16536Z1","name":"Lovčice, prostřední zastávka","arrival_time":"22:58:00","departure_time":"22:58:00","lat":49.067252,"lon":17.062592,"is_passed":false},{"stop_id":"U16535Z1","name":"Lovčice, dolní zastávka","arrival_time":"23:00:00","departure_time":"23:00:00","lat":49.063933,"lon":17.05391,"is_passed":false},{"stop_id":"U16539Z1","name":"Ždánice, hvězdárna","arrival_time":"23:02:00","departure_time":"23:02:00","lat":49.065508,"lon":17.037925,"is_passed":false},{"stop_id":"U16544Z3","name":"Ždánice","arrival_time":"23:04:00","departure_time":"23:04:00","lat":49.064517,"lon":17.029768,"is_passed":false}],"7786":[{"stop_id":"U16544Z1","name":"Ždánice","arrival_time":"23:20:00","departure_time":"23:20:00","lat":49.064517,"lon":17.029768,"is_passed":false},{"stop_id":"U16542Z1","name":"Ždánice, šroubárna","arrival_time":"23:23:00","departure_time":"23:23:00","lat":49.057508,"lon":17.025452,"is_passed":false},{"stop_id":"U16525Z2","name":"Archlebov","arrival_time":"23:27:00","departure_time":"23:27:00","lat":49.043193,"lon":17.003877,"is_passed":false},{"stop_id":"U16449Z2","name":"Žarošice","arrival_time":"23:32:00","departure_time":"23:32:00","lat":49.040472,"lon":16.966415,"is_passed":false},{"stop_id":"U16448Z2","name":"Žarošice, škola","arrival_time":"23:33:00","departure_time":"23:33:00","lat":49.039435,"lon":16.9616,"is_passed":false},{"stop_id":"U16440Z3","name":"Uhřice, Janův Dvůr","arrival_time":"23:37:00","departure_time":"23:37:00","lat":49.022987,"lon":16.962236,"is_passed":false},{"stop_id":"U16436Z1","name":"Násedlovice, kostel","arrival_time":"23:39:00","departure_time":"23:39:00","lat":49.014265,"lon":16.961614,"is_passed":false},{"stop_id":"U16439Z1","name":"Násedlovice","arrival_time":"23:40:00","departure_time":"23:40:00","lat":49.011075,"lon":16.95703,"is_passed":false},{"stop_id":"U16438Z1","name":"Násedlovice, u hřiště","arrival_time":"23:41:00","departure_time":"23:41:00","lat":49.009217,"lon":16.95822,"is_passed":false},{"stop_id":"U16437Z1","name":"Násedlovice, mlýn","arrival_time":"23:43:00","departure_time":"23:43:00","lat":49.007262,"lon":16.966958,"is_passed":false}],"7787":[{"stop_id":"U16545Z3","name":"Čejč, náměstí","arrival_time":"4:58:00","departure_time":"4:58:00","lat":48.946403,"lon":16.965978,"is_passed":false},{"stop_id":"U16455Z2","name":"Karlín","arrival_time":"5:07:00","departure_time":"5:07:00","lat":48.975618,"lon":16.977372,"is_passed":false},{"stop_id":"U16456Z2","name":"Karlín, farma","arrival_time":"5:11:00","departure_time":"5:11:00","lat":48.983167,"lon":16.974167,"is_passed":false},{"stop_id":"U16437Z2","name":"Násedlovice, mlýn","arrival_time":"5:16:00","departure_time":"5:16:00","lat":49.007317,"lon":16.966767,"is_passed":false},{"stop_id":"U16438Z2","name":"Násedlovice, u hřiště","arrival_time":"5:18:00","departure_time":"5:18:00","lat":49.00918,"lon":16.958217,"is_passed":false},{"stop_id":"U16439Z2","name":"Násedlovice","arrival_time":"5:19:00","departure_time":"5:19:00","lat":49.012059,"lon":16.958993,"is_passed":false},{"stop_id":"U16440Z4","name":"Uhřice, Janův Dvůr","arrival_time":"5:22:00","departure_time":"5:22:00","lat":49.022987,"lon":16.962236,"is_passed":false},{"stop_id":"U16448Z1","name":"Žarošice, škola","arrival_time":"5:26:00","departure_time":"5:26:00","lat":49.039337,"lon":16.96142,"is_passed":false},{"stop_id":"U16449Z1","name":"Žarošice","arrival_time":"5:27:00","departure_time":"5:27:00","lat":49.040617,"lon":16.967482,"is_passed":false},{"stop_id":"U16525Z1","name":"Archlebov","arrival_time":"5:32:00","departure_time":"5:32:00","lat":49.043113,"lon":17.00413,"is_passed":false},{"stop_id":"U16527Z3","name":"Dražůvky","arrival_time":"5:36:00","departure_time":"5:36:00","lat":49.031967,"lon":17.020073,"is_passed":false},{"stop_id":"U16526Z1","name":"Dražůvky, rozcestí","arrival_time":"5:37:00","departure_time":"5:37:00","lat":49.039815,"lon":17.022695,"is_passed":false},{"stop_id":"U16542Z2","name":"Ždánice, šroubárna","arrival_time":"5:41:00","departure_time":"5:41:00","lat":49.057332,"lon":17.025485,"is_passed":false},{"stop_id":"U16544Z1","name":"Ždánice","arrival_time":"5:43:00","departure_time":"6:17:00","lat":49.064517,"lon":17.029768,"is_passed":false}],"7788":[{"stop_id":"U16544Z1","name":"Ždánice","arrival_time":"6:17:00","departure_time":"6:17:00","lat":49.064517,"lon":17.029768,"is_passed":false},{"stop_id":"U16542Z1","name":"Ždánice, šroubárna","arrival_time":"6:20:00","departure_time":"6:20:00","lat":49.057508,"lon":17.025452,"is_passed":false},{"stop_id":"U16526Z2","name":"Dražůvky, rozcestí","arrival_time":"6:24:00","departure_time":"6:24:00","lat":49.039952,"lon":17.022837,"is_passed":false},{"stop_id":"U16525Z2","name":"Archlebov","arrival_time":"6:27:00","departure_time":"6:27:00","lat":49.043193,"lon":17.003877,"is_passed":false},{"stop_id":"U16449Z2","name":"Žarošice","arrival_time":"6:32:00","departure_time":"6:32:00","lat":49.040472,"lon":16.966415,"is_passed":false},{"stop_id":"U16448Z2","name":"Žarošice, škola","arrival_time":"6:33:00","departure_time":"6:33:00","lat":49.039435,"lon":16.9616,"is_passed":false},{"stop_id":"U16440Z3","name":"Uhřice, Janův Dvůr","arrival_time":"6:37:00","departure_time":"6:37:00","lat":49.022987,"lon":16.962236,"is_passed":false},{"stop_id":"U16436Z1","name":"Násedlovice, kostel","arrival_time":"6:39:00","departure_time":"6:39:00","lat":49.014265,"lon":16.961614,"is_passed":false},{"stop_id":"U16439Z1","name":"Násedlovice","arrival_time":"6:40:00","departure_time":"6:40:00","lat":49.011075,"lon":16.95703,"is_passed":false},{"stop_id":"U16438Z1","name":"Násedlovice, u hřiště","arrival_time":"6:41:00","departure_time":"6:41:00","lat":49.009217,"lon":16.95822,"is_passed":false},{"stop_id":"U16437Z1","name":"Násedlovice, mlýn","arrival_time":"6:44:00","departure_time":"6:44:00","lat":49.007262,"lon":16.966958,"is_passed":false},{"stop_id":"U16456Z1","name":"Karlín, farma","arrival_time":"6:48:00","departure_time":"6:48:00","lat":48.983167,"lon":16.974167,"is_passed":false},{"stop_id":"U16455Z1","name":"Karlín","arrival_time":"6:52:00","departure_time":"6:52:00","lat":48.975568,"lon":16.977232,"is_passed":false},{"stop_id":"U16545Z4","name":"Čejč, náměstí","arrival_time":"7:01:00","departure_time":"7:01:00","lat":48.94568,"lon":16.967358,"is_passed":false}],"7789":[{"stop_id":"U16545Z1","name":"Čejč, náměstí","arrival_time":"7:01:00","departure_time":"7:01:00","lat":48.945868,"lon":16.966935,"is_passed":false},{"stop_id":"U16554Z1","name":"Hovorany, rozcestí","arrival_time":"7:03:00","departure_time":"7:03:00","lat":48.948342,"lon":16.979912,"is_passed":false},{"stop_id":"U16551Z1","name":"Hovorany, čerpací stanice","arrival_time":"7:04:00","departure_time":"7:04:00","lat":48.941702,"lon":16.986192,"is_passed":false},{"stop_id":"U19104Z1","name":"Mutěnice, škola","arrival_time":"7:08:00","departure_time":"7:08:00","lat":48.90752,"lon":17.019163,"is_passed":false},{"stop_id":"U19103Z1","name":"Mutěnice, křižovatka","arrival_time":"7:10:00","departure_time":"7:10:00","lat":48.904497,"lon":17.028817,"is_passed":false},{"stop_id":"U19015Z1","name":"Hodonín, Zbrod","arrival_time":"7:14:00","departure_time":"7:14:00","lat":48.887819,"lon":17.066033,"is_passed":false},{"stop_id":"U19012Z1","name":"Hodonín, STS","arrival_time":"7:19:00","departure_time":"7:19:00","lat":48.870733,"lon":17.116435,"is_passed":false},{"stop_id":"U19002Z1","name":"Hodonín, Brněnská","arrival_time":"7:21:00","departure_time":"7:21:00","lat":48.862476,"lon":17.118758,"is_passed":false},{"stop_id":"U19001Z50","name":"Hodonín, autobusové nádraží","arrival_time":"7:24:00","departure_time":"7:24:00","lat":48.853643,"lon":17.121537,"is_passed":false}]}