[{"stop_id":"U16544Z1","name":"Ždánice","arrival_time":"13:20:00","departure_time":"13:20:00","lat":49.064517,"lon":17.029768,"is_passed":false},{"stop_id":"U16542Z1","name":"Ždánice, šroubárna","arrival_time":"13:23:00","departure_time":"13:23:00","lat":49.057508,"lon":17.025452,"is_passed":false},{"stop_id":"U16525Z2","name":"Archlebov","arrival_time":"13:27:00","departure_time":"13:27:00","lat":49.043193,"lon":17.003877,"is_passed":false},{"stop_id":"U16449Z2","name":"Žarošice","arrival_time":"13:32:00","departure_time":"13:32:00","lat":49.040472,"lon":16.966415,"is_passed":false},{"stop_id":"U16465Z1","name":"Žarošice, za školou","arrival_time":"13:33:00","departure_time":"13:33:00","lat":49.03792,"lon":16.961528,"is_passed":false},{"stop_id":"U16440Z3","name":"Uhřice, Janův Dvůr","arrival_time":"13:37:00","departure_time":"13:37:00","lat":49.022987,"lon":16.962236,"is_passed":false},{"stop_id":"U16436Z1","name":"Násedlovice, kostel","arrival_time":"13:39:00","departure_time":"13:39:00","lat":49.014265,"lon":16.961614,"is_passed":false},{"stop_id":"U16439Z1","name":"Násedlovice","arrival_time":"13:40:00","departure_time":"13:40:00","lat":49.011075,"lon":16.95703,"is_passed":false},{"stop_id":"U16438Z1","name":"Násedlovice, u hřiště","arrival_time":"13:41:00","departure_time":"13:41:00","lat":49.009217,"lon":16.95822,"is_passed":false},{"stop_id":"U16437Z1","name":"Násedlovice, mlýn","arrival_time":"13:43:00","departure_time":"14:16:00","lat":49.007262,"lon":16.966958,"is_passed":false}]