{"779":[{"stop_id":"U15403Z10","name":"Hustopeče, autobusové nádraží","arrival_time":"18:04:00","departure_time":"18:04:00","lat":48.93752,"lon":16.735901,"is_passed":false},{"stop_id":"U15425Z10","name":"Šakvice, železniční stanice","arrival_time":"18:10:00","departure_time":"18:11:00","lat":48.912883,"lon":16.70557,"is_passed":false},{"stop_id":"U25402Z10","name":"Popice","arrival_time":"18:13:00","departure_time":"18:14:00","lat":48.924332,"lon":16.668084,"is_passed":false},{"stop_id":"U25401Z10","name":"Pouzdřany","arrival_time":"18:17:00","departure_time":"18:17:00","lat":48.942025,"lon":16.630527,"is_passed":false},{"stop_id":"U15307Z10","name":"Vranovice, žel.st.","arrival_time":"18:20:00","departure_time":"18:21:00","lat":48.964528,"lon":16.604187,"is_passed":false},{"stop_id":"U15306Z10","name":"Žabčice, žel. st.","arrival_time":"18:24:00","departure_time":"18:25:00","lat":49.010865,"lon":16.594993,"is_passed":false},{"stop_id":"U15222Z10","name":"Hrušovany u Brna, žel. st.","arrival_time":"18:28:00","departure_time":"18:32:00","lat":49.034228,"lon":16.591501,"is_passed":false},{"stop_id":"U15181Z10","name":"Rajhrad, železniční stanice","arrival_time":"18:36:00","departure_time":"18:37:00","lat":49.084966,"lon":16.60532,"is_passed":false},{"stop_id":"U15140Z10","name":"Modřice, železniční stanice","arrival_time":"18:40:00","departure_time":"18:41:00","lat":49.133256,"lon":16.606209,"is_passed":false},{"stop_id":"U1146Z99","name":"Hlavní nádraží","arrival_time":"18:48:00","departure_time":"18:53:00","lat":49.19035,"lon":16.612342,"is_passed":false},{"stop_id":"U1809Z10","name":"Židenice, nádraží","arrival_time":"18:56:00","departure_time":"18:57:00","lat":49.204282,"lon":16.636042,"is_passed":false},{"stop_id":"U1331Z10","name":"Lesná, nádraží","arrival_time":"19:02:00","departure_time":"19:03:00","lat":49.220432,"lon":16.627505,"is_passed":false},{"stop_id":"U1286Z10","name":"Královo Pole, nádraží","arrival_time":"19:06:00","departure_time":"19:07:00","lat":49.231051,"lon":16.596651,"is_passed":false},{"stop_id":"U1557Z10","name":"Řečkovice, nádraží","arrival_time":"19:09:00","departure_time":"19:10:00","lat":49.250794,"lon":16.590446,"is_passed":false},{"stop_id":"U13109Z10","name":"Česká, železniční stanice","arrival_time":"19:13:00","departure_time":"19:14:00","lat":49.284546,"lon":16.566731,"is_passed":false},{"stop_id":"U13143Z10","name":"Kuřim, železniční stanice","arrival_time":"19:17:00","departure_time":"19:18:00","lat":49.301,"lon":16.534523,"is_passed":false},{"stop_id":"U13206Z10","name":"Čebín, železniční stanice","arrival_time":"19:23:00","departure_time":"19:23:00","lat":49.319722,"lon":16.465278,"is_passed":false},{"stop_id":"U13306Z10","name":"Hradčany, železniční stanice","arrival_time":"19:26:00","departure_time":"19:26:00","lat":49.334153,"lon":16.437807,"is_passed":false},{"stop_id":"U13334Z20","name":"Tišnov, železniční stanice","arrival_time":"19:29:00","departure_time":"20:29:00","lat":49.3475,"lon":16.41725,"is_passed":false}],"7790":[{"stop_id":"U16544Z1","name":"Ždánice","arrival_time":"16:10:00","departure_time":"16:10:00","lat":49.064517,"lon":17.029768,"is_passed":false},{"stop_id":"U16542Z1","name":"Ždánice, šroubárna","arrival_time":"16:13:00","departure_time":"16:13:00","lat":49.057508,"lon":17.025452,"is_passed":false},{"stop_id":"U16525Z2","name":"Archlebov","arrival_time":"16:17:00","departure_time":"16:27:00","lat":49.043193,"lon":17.003877,"is_passed":false},{"stop_id":"U16449Z2","name":"Žarošice","arrival_time":"16:32:00","departure_time":"16:32:00","lat":49.040472,"lon":16.966415,"is_passed":false},{"stop_id":"U16448Z2","name":"Žarošice, škola","arrival_time":"16:33:00","departure_time":"16:33:00","lat":49.039435,"lon":16.9616,"is_passed":false},{"stop_id":"U16440Z3","name":"Uhřice, Janův Dvůr","arrival_time":"16:37:00","departure_time":"16:37:00","lat":49.022987,"lon":16.962236,"is_passed":false},{"stop_id":"U16436Z1","name":"Násedlovice, kostel","arrival_time":"16:39:00","departure_time":"16:39:00","lat":49.014265,"lon":16.961614,"is_passed":false},{"stop_id":"U16439Z1","name":"Násedlovice","arrival_time":"16:40:00","departure_time":"16:40:00","lat":49.011075,"lon":16.95703,"is_passed":false},{"stop_id":"U16438Z1","name":"Násedlovice, u hřiště","arrival_time":"16:41:00","departure_time":"16:41:00","lat":49.009217,"lon":16.95822,"is_passed":false},{"stop_id":"U16437Z1","name":"Násedlovice, mlýn","arrival_time":"16:43:00","departure_time":"16:46:00","lat":49.007262,"lon":16.966958,"is_passed":false}],"7791":[{"stop_id":"U16437Z2","name":"Násedlovice, mlýn","arrival_time":"16:46:00","departure_time":"16:46:00","lat":49.007317,"lon":16.966767,"is_passed":false},{"stop_id":"U16438Z2","name":"Násedlovice, u hřiště","arrival_time":"16:48:00","departure_time":"16:48:00","lat":49.00918,"lon":16.958217,"is_passed":false},{"stop_id":"U16439Z2","name":"Násedlovice","arrival_time":"16:49:00","departure_time":"16:49:00","lat":49.012059,"lon":16.958993,"is_passed":false},{"stop_id":"U16440Z4","name":"Uhřice, Janův Dvůr","arrival_time":"16:52:00","departure_time":"16:52:00","lat":49.022987,"lon":16.962236,"is_passed":false},{"stop_id":"U16448Z1","name":"Žarošice, škola","arrival_time":"16:56:00","departure_time":"16:56:00","lat":49.039337,"lon":16.96142,"is_passed":false},{"stop_id":"U16449Z1","name":"Žarošice","arrival_time":"16:57:00","departure_time":"16:57:00","lat":49.040617,"lon":16.967482,"is_passed":false},{"stop_id":"U16525Z1","name":"Archlebov","arrival_time":"17:02:00","departure_time":"17:02:00","lat":49.043113,"lon":17.00413,"is_passed":false},{"stop_id":"U16542Z2","name":"Ždánice, šroubárna","arrival_time":"17:06:00","departure_time":"17:06:00","lat":49.057332,"lon":17.025485,"is_passed":false},{"stop_id":"U16544Z1","name":"Ždánice","arrival_time":"17:08:00","departure_time":"17:20:00","lat":49.064517,"lon":17.029768,"is_passed":false}],"7792":[{"stop_id":"U16544Z1","name":"Ždánice","arrival_time":"17:20:00","departure_time":"17:20:00","lat":49.064517,"lon":17.029768,"is_passed":false},{"stop_id":"U16542Z1","name":"Ždánice, šroubárna","arrival_time":"17:23:00","departure_time":"17:23:00","lat":49.057508,"lon":17.025452,"is_passed":false},{"stop_id":"U16525Z2","name":"Archlebov","arrival_time":"17:27:00","departure_time":"17:27:00","lat":49.043193,"lon":17.003877,"is_passed":false},{"stop_id":"U16449Z2","name":"Žarošice","arrival_time":"17:32:00","departure_time":"17:32:00","lat":49.040472,"lon":16.966415,"is_passed":false},{"stop_id":"U16448Z2","name":"Žarošice, škola","arrival_time":"17:33:00","departure_time":"17:33:00","lat":49.039435,"lon":16.9616,"is_passed":false},{"stop_id":"U16440Z3","name":"Uhřice, Janův Dvůr","arrival_time":"17:37:00","departure_time":"17:37:00","lat":49.022987,"lon":16.962236,"is_passed":false},{"stop_id":"U16436Z1","name":"Násedlovice, kostel","arrival_time":"17:39:00","departure_time":"17:39:00","lat":49.014265,"lon":16.961614,"is_passed":false},{"stop_id":"U16439Z1","name":"Násedlovice","arrival_time":"17:40:00","departure_time":"17:40:00","lat":49.011075,"lon":16.95703,"is_passed":false},{"stop_id":"U16438Z1","name":"Násedlovice, u hřiště","arrival_time":"17:41:00","departure_time":"17:41:00","lat":49.009217,"lon":16.95822,"is_passed":false},{"stop_id":"U16437Z1","name":"Násedlovice, mlýn","arrival_time":"17:43:00","departure_time":"17:43:00","lat":49.007262,"lon":16.966958,"is_passed":false},{"stop_id":"U16456Z1","name":"Karlín, farma","arrival_time":"17:48:00","departure_time":"17:48:00","lat":48.983167,"lon":16.974167,"is_passed":false},{"stop_id":"U16455Z1","name":"Karlín","arrival_time":"17:52:00","departure_time":"17:52:00","lat":48.975568,"lon":16.977232,"is_passed":false},{"stop_id":"U16545Z4","name":"Čejč, náměstí","arrival_time":"18:01:00","departure_time":"18:58:00","lat":48.94568,"lon":16.967358,"is_passed":false}],"7793":[{"stop_id":"U16545Z3","name":"Čejč, náměstí","arrival_time":"18:58:00","departure_time":"18:58:00","lat":48.946403,"lon":16.965978,"is_passed":false},{"stop_id":"U16455Z2","name":"Karlín","arrival_time":"19:07:00","departure_time":"19:07:00","lat":48.975618,"lon":16.977372,"is_passed":false},{"stop_id":"U16456Z2","name":"Karlín, farma","arrival_time":"19:11:00","departure_time":"19:11:00","lat":48.983167,"lon":16.974167,"is_passed":false},{"stop_id":"U16437Z2","name":"Násedlovice, mlýn","arrival_time":"19:16:00","departure_time":"19:16:00","lat":49.007317,"lon":16.966767,"is_passed":false},{"stop_id":"U16438Z2","name":"Násedlovice, u hřiště","arrival_time":"19:18:00","departure_time":"19:18:00","lat":49.00918,"lon":16.958217,"is_passed":false},{"stop_id":"U16439Z2","name":"Násedlovice","arrival_time":"19:19:00","departure_time":"19:19:00","lat":49.012059,"lon":16.958993,"is_passed":false},{"stop_id":"U16440Z4","name":"Uhřice, Janův Dvůr","arrival_time":"19:22:00","departure_time":"19:22:00","lat":49.022987,"lon":16.962236,"is_passed":false},{"stop_id":"U16448Z1","name":"Žarošice, škola","arrival_time":"19:26:00","departure_time":"19:26:00","lat":49.039337,"lon":16.96142,"is_passed":false},{"stop_id":"U16449Z1","name":"Žarošice","arrival_time":"19:27:00","departure_time":"19:27:00","lat":49.040617,"lon":16.967482,"is_passed":false},{"stop_id":"U16525Z1","name":"Archlebov","arrival_time":"19:32:00","departure_time":"19:32:00","lat":49.043113,"lon":17.00413,"is_passed":false},{"stop_id":"U16542Z2","name":"Ždánice, šroubárna","arrival_time":"19:36:00","departure_time":"19:36:00","lat":49.057332,"lon":17.025485,"is_passed":false},{"stop_id":"U16544Z1","name":"Ždánice","arrival_time":"19:38:00","departure_time":"20:20:00","lat":49.064517,"lon":17.029768,"is_passed":false}],"7794":[{"stop_id":"U16544Z1","name":"Ždánice","arrival_time":"20:20:00","departure_time":"20:20:00","lat":49.064517,"lon":17.029768,"is_passed":false},{"stop_id":"U16542Z1","name":"Ždánice, šroubárna","arrival_time":"20:23:00","departure_time":"20:23:00","lat":49.057508,"lon":17.025452,"is_passed":false},{"stop_id":"U16525Z2","name":"Archlebov","arrival_time":"20:27:00","departure_time":"20:57:00","lat":49.043193,"lon":17.003877,"is_passed":false}],"7795":[{"stop_id":"U16525Z2","name":"Archlebov","arrival_time":"20:57:00","departure_time":"20:57:00","lat":49.043193,"lon":17.003877,"is_passed":false},{"stop_id":"U16449Z2","name":"Žarošice","arrival_time":"21:02:00","departure_time":"21:02:00","lat":49.040472,"lon":16.966415,"is_passed":false},{"stop_id":"U16448Z2","name":"Žarošice, škola","arrival_time":"21:03:00","departure_time":"21:03:00","lat":49.039435,"lon":16.9616,"is_passed":false},{"stop_id":"U16440Z3","name":"Uhřice, Janův Dvůr","arrival_time":"21:07:00","departure_time":"21:07:00","lat":49.022987,"lon":16.962236,"is_passed":false},{"stop_id":"U16436Z1","name":"Násedlovice, kostel","arrival_time":"21:09:00","departure_time":"21:09:00","lat":49.014265,"lon":16.961614,"is_passed":false},{"stop_id":"U16439Z1","name":"Násedlovice","arrival_time":"21:10:00","departure_time":"21:10:00","lat":49.011075,"lon":16.95703,"is_passed":false},{"stop_id":"U16438Z1","name":"Násedlovice, u hřiště","arrival_time":"21:11:00","departure_time":"21:11:00","lat":49.009217,"lon":16.95822,"is_passed":false},{"stop_id":"U16437Z1","name":"Násedlovice, mlýn","arrival_time":"21:13:00","departure_time":"21:16:00","lat":49.007262,"lon":16.966958,"is_passed":false}],"7796":[{"stop_id":"U16437Z2","name":"Násedlovice, mlýn","arrival_time":"21:16:00","departure_time":"21:16:00","lat":49.007317,"lon":16.966767,"is_passed":false},{"stop_id":"U16438Z2","name":"Násedlovice, u hřiště","arrival_time":"21:18:00","departure_time":"21:18:00","lat":49.00918,"lon":16.958217,"is_passed":false},{"stop_id":"U16439Z2","name":"Násedlovice","arrival_time":"21:19:00","departure_time":"21:19:00","lat":49.012059,"lon":16.958993,"is_passed":false},{"stop_id":"U16440Z4","name":"Uhřice, Janův Dvůr","arrival_time":"21:22:00","departure_time":"21:22:00","lat":49.022987,"lon":16.962236,"is_passed":false},{"stop_id":"U16448Z1","name":"Žarošice, škola","arrival_time":"21:26:00","departure_time":"21:26:00","lat":49.039337,"lon":16.96142,"is_passed":false},{"stop_id":"U16449Z1","name":"Žarošice","arrival_time":"21:27:00","departure_time":"21:27:00","lat":49.040617,"lon":16.967482,"is_passed":false},{"stop_id":"U16525Z1","name":"Archlebov","arrival_time":"21:32:00","departure_time":"21:32:00","lat":49.043113,"lon":17.00413,"is_passed":false},{"stop_id":"U16527Z3","name":"Dražůvky","arrival_time":"21:36:00","departure_time":"21:36:00","lat":49.031967,"lon":17.020073,"is_passed":false},{"stop_id":"U16526Z1","name":"Dražůvky, rozcestí","arrival_time":"21:37:00","departure_time":"21:37:00","lat":49.039815,"lon":17.022695,"is_passed":false},{"stop_id":"U16542Z2","name":"Ždánice, šroubárna","arrival_time":"21:41:00","departure_time":"21:41:00","lat":49.057332,"lon":17.025485,"is_passed":false},{"stop_id":"U16544Z1","name":"Ždánice","arrival_time":"21:43:00","departure_time":"22:15:00","lat":49.064517,"lon":17.029768,"is_passed":false}],"7797":[{"stop_id":"U16544Z1","name":"Ždánice","arrival_time":"22:15:00","departure_time":"22:15:00","lat":49.064517,"lon":17.029768,"is_passed":false},{"stop_id":"U16542Z1","name":"Ždánice, šroubárna","arrival_time":"22:18:00","departure_time":"22:18:00","lat":49.057508,"lon":17.025452,"is_passed":false},{"stop_id":"U16526Z2","name":"Dražůvky, rozcestí","arrival_time":"22:22:00","departure_time":"22:22:00","lat":49.039952,"lon":17.022837,"is_passed":false},{"stop_id":"U16527Z3","name":"Dražůvky","arrival_time":"22:23:00","departure_time":"22:23:00","lat":49.031967,"lon":17.020073,"is_passed":false},{"stop_id":"U16525Z2","name":"Archlebov","arrival_time":"22:27:00","departure_time":"22:27:00","lat":49.043193,"lon":17.003877,"is_passed":false},{"stop_id":"U16449Z2","name":"Žarošice","arrival_time":"22:32:00","departure_time":"22:32:00","lat":49.040472,"lon":16.966415,"is_passed":false}],"7798":[{"stop_id":"U16449Z2","name":"Žarošice","arrival_time":"22:32:00","departure_time":"22:32:00","lat":49.040472,"lon":16.966415,"is_passed":false},{"stop_id":"U16448Z2","name":"Žarošice, škola","arrival_time":"22:33:00","departure_time":"22:33:00","lat":49.039435,"lon":16.9616,"is_passed":false},{"stop_id":"U16444Z4","name":"Žarošice, Silničná, rozcestí Uhřice","arrival_time":"22:36:00","departure_time":"22:36:00","lat":49.052104,"lon":16.952246,"is_passed":false},{"stop_id":"U16442Z1","name":"Uhřice, horní zastávka","arrival_time":"22:39:00","departure_time":"22:39:00","lat":49.051031,"lon":16.945709,"is_passed":false},{"stop_id":"U16441Z1","name":"Uhřice, dolní zastávka","arrival_time":"22:40:00","departure_time":"22:42:00","lat":49.047972,"lon":16.949093,"is_passed":false}],"7799":[{"stop_id":"U16449Z1","name":"Žarošice","arrival_time":"23:27:00","departure_time":"23:27:00","lat":49.040617,"lon":16.967482,"is_passed":false},{"stop_id":"U16525Z1","name":"Archlebov","arrival_time":"23:32:00","departure_time":"23:32:00","lat":49.043113,"lon":17.00413,"is_passed":false},{"stop_id":"U16542Z2","name":"Ždánice, šroubárna","arrival_time":"23:36:00","departure_time":"23:36:00","lat":49.057332,"lon":17.025485,"is_passed":false},{"stop_id":"U16544Z1","name":"Ždánice","arrival_time":"23:38:00","departure_time":"23:38:00","lat":49.064517,"lon":17.029768,"is_passed":false}]}