[{"stop_id":"U16608Z14","name":"Kyjov, aut. st.","arrival_time":"4:51:00","departure_time":"4:51:00","lat":49.006415,"lon":17.124242,"is_passed":false},{"stop_id":"U16612Z2","name":"Kyjov, nemocnice","arrival_time":"4:53:00","departure_time":"4:53:00","lat":49.007061,"lon":17.111463,"is_passed":false},{"stop_id":"U16619Z2","name":"Sobůlky, škola","arrival_time":"4:58:00","departure_time":"4:58:00","lat":49.017682,"lon":17.080587,"is_passed":false},{"stop_id":"U16620Z2","name":"Sobůlky","arrival_time":"4:59:00","departure_time":"4:59:00","lat":49.02127,"lon":17.078505,"is_passed":false},{"stop_id":"U16655Z1","name":"Sobůlky, hřbitov","arrival_time":"5:00:00","departure_time":"5:00:00","lat":49.02425,"lon":17.071784,"is_passed":false},{"stop_id":"U16531Z2","name":"Věteřov","arrival_time":"5:04:00","departure_time":"5:04:00","lat":49.028368,"lon":17.056237,"is_passed":false},{"stop_id":"U16526Z2","name":"Dražůvky, rozcestí","arrival_time":"5:09:00","departure_time":"5:09:00","lat":49.039952,"lon":17.022837,"is_passed":false},{"stop_id":"U16525Z2","name":"Archlebov","arrival_time":"5:12:00","departure_time":"5:12:00","lat":49.043193,"lon":17.003877,"is_passed":false},{"stop_id":"U16449Z2","name":"Žarošice","arrival_time":"5:17:00","departure_time":"5:17:00","lat":49.040472,"lon":16.966415,"is_passed":false},{"stop_id":"U16448Z2","name":"Žarošice, škola","arrival_time":"5:18:00","departure_time":"5:18:00","lat":49.039435,"lon":16.9616,"is_passed":false},{"stop_id":"U16441Z2","name":"Uhřice, dolní zastávka","arrival_time":"5:23:00","departure_time":"5:29:00","lat":49.04766,"lon":16.949305,"is_passed":false}]