[{"stop_id":"U16608Z4","name":"Kyjov, aut. st.","arrival_time":"7:19:00","departure_time":"7:19:00","lat":49.006715,"lon":17.124547,"is_passed":false},{"stop_id":"U16609Z1","name":"Kyjov, Brandlova sídliště","arrival_time":"7:21:00","departure_time":"7:21:00","lat":49.012038,"lon":17.136722,"is_passed":false},{"stop_id":"U16836Z1","name":"Kostelec, točna","arrival_time":"7:26:00","departure_time":"7:26:00","lat":49.026817,"lon":17.152758,"is_passed":false},{"stop_id":"U16838Z1","name":"Moravany","arrival_time":"7:31:00","departure_time":"7:31:00","lat":49.03939,"lon":17.16802,"is_passed":false},{"stop_id":"U16840Z1","name":"Moravany, Moštěnská","arrival_time":"7:33:00","departure_time":"7:33:00","lat":49.037068,"lon":17.17237,"is_passed":false},{"stop_id":"U16828Z1","name":"Hýsly, Moštěnice, dvůr","arrival_time":"7:35:00","departure_time":"7:35:00","lat":49.02998,"lon":17.180055,"is_passed":false},{"stop_id":"U16827Z1","name":"Hýsly","arrival_time":"7:37:00","departure_time":"7:37:00","lat":49.023667,"lon":17.183032,"is_passed":false},{"stop_id":"U16841Z1","name":"Žádovice","arrival_time":"7:40:00","departure_time":"7:40:00","lat":49.015975,"lon":17.195902,"is_passed":false},{"stop_id":"U16830Z1","name":"Ježov, u Šupalového","arrival_time":"7:43:00","departure_time":"7:43:00","lat":49.02444,"lon":17.20635,"is_passed":false},{"stop_id":"U16831Z1","name":"Ježov, zdravotní středisko","arrival_time":"7:44:00","departure_time":"7:44:00","lat":49.026497,"lon":17.21014,"is_passed":false},{"stop_id":"U16829Z1","name":"Ježov, škola","arrival_time":"7:45:00","departure_time":"7:45:00","lat":49.024393,"lon":17.213237,"is_passed":false},{"stop_id":"U16844Z2","name":"Žeravice, obecní úřad","arrival_time":"7:48:00","departure_time":"7:48:00","lat":49.023193,"lon":17.236705,"is_passed":false}]