{"794":[{"stop_id":"U30009Z2","name":"Křižanov","arrival_time":"13:00:00","departure_time":"13:00:00","lat":49.384694,"lon":16.080389,"is_passed":false},{"stop_id":"U30302Z2","name":"Ořechov","arrival_time":"13:04:00","departure_time":"13:04:00","lat":49.350447,"lon":16.136416,"is_passed":false},{"stop_id":"U30305Z2","name":"Osová Bítýška","arrival_time":"13:08:00","departure_time":"13:08:00","lat":49.329893,"lon":16.168305,"is_passed":false},{"stop_id":"U23501Z2","name":"Vlkov-Osová","arrival_time":"13:10:00","departure_time":"13:11:00","lat":49.326883,"lon":16.202114,"is_passed":false},{"stop_id":"U13454Z11","name":"Níhov, železniční stanice","arrival_time":"13:15:00","departure_time":"13:16:00","lat":49.33637,"lon":16.270573,"is_passed":false},{"stop_id":"U13425Z11","name":"Řikonín, železniční stanice","arrival_time":"13:19:00","departure_time":"13:20:00","lat":49.365833,"lon":16.305833,"is_passed":false},{"stop_id":"U13411Z11","name":"Dolní Loučky, železniční stanice","arrival_time":"13:22:00","departure_time":"13:22:00","lat":49.356389,"lon":16.346945,"is_passed":false},{"stop_id":"U13334Z21","name":"Tišnov, železniční stanice","arrival_time":"13:28:00","departure_time":"13:29:00","lat":49.3475,"lon":16.41725,"is_passed":false},{"stop_id":"U13306Z11","name":"Hradčany, železniční stanice","arrival_time":"13:31:00","departure_time":"13:32:00","lat":49.333878,"lon":16.437893,"is_passed":false},{"stop_id":"U13206Z11","name":"Čebín, železniční stanice","arrival_time":"13:34:00","departure_time":"13:35:00","lat":49.319722,"lon":16.465278,"is_passed":false},{"stop_id":"U13143Z11","name":"Kuřim, železniční stanice","arrival_time":"13:40:00","departure_time":"13:41:00","lat":49.301,"lon":16.534523,"is_passed":false},{"stop_id":"U13109Z11","name":"Česká, železniční stanice","arrival_time":"13:43:00","departure_time":"13:44:00","lat":49.284546,"lon":16.566731,"is_passed":false},{"stop_id":"U1557Z11","name":"Řečkovice, nádraží","arrival_time":"13:48:00","departure_time":"13:48:00","lat":49.250794,"lon":16.590446,"is_passed":false},{"stop_id":"U1286Z11","name":"Královo Pole, nádraží","arrival_time":"13:51:00","departure_time":"13:52:00","lat":49.231051,"lon":16.596651,"is_passed":false},{"stop_id":"U1331Z11","name":"Lesná, nádraží","arrival_time":"13:54:00","departure_time":"13:55:00","lat":49.220432,"lon":16.627505,"is_passed":false},{"stop_id":"U1809Z11","name":"Židenice, nádraží","arrival_time":"14:01:00","departure_time":"14:01:00","lat":49.204282,"lon":16.636042,"is_passed":false},{"stop_id":"U1146Z98","name":"Hlavní nádraží","arrival_time":"14:06:00","departure_time":"14:09:00","lat":49.19035,"lon":16.612342,"is_passed":false},{"stop_id":"U11002Z11","name":"Brno-Horní Heršpice","arrival_time":"14:13:00","departure_time":"14:13:00","lat":49.167404,"lon":16.60686,"is_passed":false},{"stop_id":"U15140Z11","name":"Modřice, železniční stanice","arrival_time":"14:17:00","departure_time":"14:18:00","lat":49.133256,"lon":16.606209,"is_passed":false},{"stop_id":"U15181Z11","name":"Rajhrad, železniční stanice","arrival_time":"14:21:00","departure_time":"14:22:00","lat":49.084966,"lon":16.60532,"is_passed":false},{"stop_id":"U15222Z11","name":"Hrušovany u Brna, žel. st.","arrival_time":"14:26:00","departure_time":"14:30:00","lat":49.034228,"lon":16.591501,"is_passed":false},{"stop_id":"U15306Z11","name":"Žabčice, žel. st.","arrival_time":"14:33:00","departure_time":"14:33:00","lat":49.010857,"lon":16.594833,"is_passed":false},{"stop_id":"U15307Z11","name":"Vranovice, žel.st.","arrival_time":"14:37:00","departure_time":"14:38:00","lat":48.964528,"lon":16.604187,"is_passed":false},{"stop_id":"U25401Z11","name":"Pouzdřany","arrival_time":"14:40:00","departure_time":"14:41:00","lat":48.942025,"lon":16.630527,"is_passed":false},{"stop_id":"U25402Z11","name":"Popice","arrival_time":"14:44:00","departure_time":"14:44:00","lat":48.924332,"lon":16.668084,"is_passed":false},{"stop_id":"U15425Z11","name":"Šakvice, železniční stanice","arrival_time":"14:47:00","departure_time":"14:48:00","lat":48.912883,"lon":16.70557,"is_passed":false},{"stop_id":"U15403Z11","name":"Hustopeče, autobusové nádraží","arrival_time":"14:55:00","departure_time":"15:04:00","lat":48.93752,"lon":16.735901,"is_passed":false}],"7940":[{"stop_id":"U16608Z10","name":"Kyjov, aut. st.","arrival_time":"5:36:00","departure_time":"5:36:00","lat":49.006523,"lon":17.124417,"is_passed":false},{"stop_id":"U16639Z1","name":"Kyjov, nemocnice, křižovatka","arrival_time":"5:38:00","departure_time":"5:38:00","lat":49.00725,"lon":17.113458,"is_passed":false},{"stop_id":"U16811Z1","name":"Svatobořice-Mistřín, textilka","arrival_time":"5:42:00","departure_time":"5:42:00","lat":48.991854,"lon":17.101184,"is_passed":false},{"stop_id":"U16809Z1","name":"Svatobořice-Mistřín, restaurace","arrival_time":"5:44:00","departure_time":"5:44:00","lat":48.98316,"lon":17.09427,"is_passed":false},{"stop_id":"U16812Z1","name":"Svatobořice-Mistřín, železniční stanice","arrival_time":"5:47:00","departure_time":"5:47:00","lat":48.975367,"lon":17.096775,"is_passed":false},{"stop_id":"U16806Z1","name":"Svatobořice-Mistřín, kulturní dům","arrival_time":"5:49:00","departure_time":"5:49:00","lat":48.977759,"lon":17.08999,"is_passed":false},{"stop_id":"U16810Z1","name":"Svatobořice-Mistřín, škola","arrival_time":"5:50:00","departure_time":"5:50:00","lat":48.973884,"lon":17.08519,"is_passed":false},{"stop_id":"U16807Z1","name":"Svatobořice-Mistřín, Mistřín","arrival_time":"5:52:00","departure_time":"5:52:00","lat":48.97174,"lon":17.080342,"is_passed":false},{"stop_id":"U16815Z1","name":"Šardice, Padělky","arrival_time":"5:54:00","departure_time":"5:54:00","lat":48.963713,"lon":17.049882,"is_passed":false},{"stop_id":"U16816Z1","name":"Šardice, ZD","arrival_time":"5:55:00","departure_time":"5:55:00","lat":48.962157,"lon":17.04396,"is_passed":false},{"stop_id":"U16814Z1","name":"Šardice, u kapličky","arrival_time":"5:56:00","departure_time":"5:56:00","lat":48.961947,"lon":17.03349,"is_passed":false},{"stop_id":"U16813Z1","name":"Šardice","arrival_time":"5:57:00","departure_time":"5:57:00","lat":48.963971,"lon":17.028606,"is_passed":false},{"stop_id":"U16552Z1","name":"Hovorany, důl","arrival_time":"6:00:00","departure_time":"6:00:00","lat":48.956725,"lon":17.010222,"is_passed":false},{"stop_id":"U16553Z1","name":"Hovorany, kostel","arrival_time":"6:02:00","departure_time":"6:02:00","lat":48.954818,"lon":16.998017,"is_passed":false},{"stop_id":"U16555Z1","name":"Hovorany, škola","arrival_time":"6:04:00","departure_time":"6:04:00","lat":48.953233,"lon":16.983643,"is_passed":false},{"stop_id":"U16556Z1","name":"Hovorany, zdravotní středisko","arrival_time":"6:05:00","departure_time":"6:05:00","lat":48.949956,"lon":16.981331,"is_passed":false},{"stop_id":"U16545Z3","name":"Čejč, náměstí","arrival_time":"6:07:00","departure_time":"6:10:00","lat":48.946403,"lon":16.965978,"is_passed":false},{"stop_id":"U16462Z2","name":"Terezín","arrival_time":"6:14:00","departure_time":"6:14:00","lat":48.956778,"lon":16.940897,"is_passed":false},{"stop_id":"U16454Z1","name":"Brumovice, železniční stanice","arrival_time":"6:17:00","departure_time":"6:17:00","lat":48.947167,"lon":16.905878,"is_passed":false},{"stop_id":"U15538Z1","name":"Kobylí","arrival_time":"6:21:00","departure_time":"6:39:00","lat":48.931883,"lon":16.884127,"is_passed":false}],"7941":[{"stop_id":"U15538Z2","name":"Kobylí","arrival_time":"6:39:00","departure_time":"6:39:00","lat":48.932237,"lon":16.884008,"is_passed":false},{"stop_id":"U16454Z2","name":"Brumovice, železniční stanice","arrival_time":"6:43:00","departure_time":"6:43:00","lat":48.947167,"lon":16.905878,"is_passed":false},{"stop_id":"U16462Z1","name":"Terezín","arrival_time":"6:46:00","departure_time":"6:46:00","lat":48.956737,"lon":16.940727,"is_passed":false},{"stop_id":"U16545Z4","name":"Čejč, náměstí","arrival_time":"6:49:00","departure_time":"6:51:00","lat":48.94568,"lon":16.967358,"is_passed":false},{"stop_id":"U16556Z2","name":"Hovorany, zdravotní středisko","arrival_time":"6:53:00","departure_time":"6:53:00","lat":48.949749,"lon":16.981078,"is_passed":false},{"stop_id":"U16555Z2","name":"Hovorany, škola","arrival_time":"6:55:00","departure_time":"6:55:00","lat":48.953908,"lon":16.984808,"is_passed":false},{"stop_id":"U16553Z2","name":"Hovorany, kostel","arrival_time":"6:57:00","departure_time":"6:57:00","lat":48.954573,"lon":16.99834,"is_passed":false},{"stop_id":"U16552Z2","name":"Hovorany, důl","arrival_time":"6:59:00","departure_time":"6:59:00","lat":48.956683,"lon":17.010608,"is_passed":false},{"stop_id":"U16813Z2","name":"Šardice","arrival_time":"7:02:00","departure_time":"7:02:00","lat":48.964017,"lon":17.028398,"is_passed":false},{"stop_id":"U16814Z2","name":"Šardice, u kapličky","arrival_time":"7:03:00","departure_time":"7:03:00","lat":48.961887,"lon":17.033457,"is_passed":false},{"stop_id":"U16816Z2","name":"Šardice, ZD","arrival_time":"7:04:00","departure_time":"7:04:00","lat":48.962023,"lon":17.043865,"is_passed":false},{"stop_id":"U16815Z2","name":"Šardice, Padělky","arrival_time":"7:05:00","departure_time":"7:05:00","lat":48.964032,"lon":17.051408,"is_passed":false},{"stop_id":"U16807Z2","name":"Svatobořice-Mistřín, Mistřín","arrival_time":"7:07:00","departure_time":"7:07:00","lat":48.971735,"lon":17.080763,"is_passed":false},{"stop_id":"U16810Z2","name":"Svatobořice-Mistřín, škola","arrival_time":"7:08:00","departure_time":"7:08:00","lat":48.974187,"lon":17.086079,"is_passed":false},{"stop_id":"U16806Z2","name":"Svatobořice-Mistřín, kulturní dům","arrival_time":"7:10:00","departure_time":"7:10:00","lat":48.977932,"lon":17.090462,"is_passed":false},{"stop_id":"U16809Z2","name":"Svatobořice-Mistřín, restaurace","arrival_time":"7:12:00","departure_time":"7:12:00","lat":48.983528,"lon":17.094782,"is_passed":false},{"stop_id":"U16811Z2","name":"Svatobořice-Mistřín, textilka","arrival_time":"7:14:00","departure_time":"7:14:00","lat":48.991569,"lon":17.101103,"is_passed":false},{"stop_id":"U16639Z2","name":"Kyjov, nemocnice, křižovatka","arrival_time":"7:17:00","departure_time":"7:17:00","lat":49.007137,"lon":17.113345,"is_passed":false},{"stop_id":"U16608Z16","name":"Kyjov, aut. st.","arrival_time":"7:20:00","departure_time":"7:20:00","lat":49.006873,"lon":17.123912,"is_passed":false}],"7942":[{"stop_id":"U16608Z17","name":"Kyjov, aut. st.","arrival_time":"7:20:00","departure_time":"7:20:00","lat":49.006463,"lon":17.124008,"is_passed":false},{"stop_id":"U16613Z1","name":"Kyjov, pod nemocnicí","arrival_time":"7:22:00","departure_time":"7:22:00","lat":49.007868,"lon":17.114425,"is_passed":false},{"stop_id":"U16650Z1","name":"Kyjov, železniční stanice","arrival_time":"7:25:00","departure_time":"7:28:00","lat":49.015685,"lon":17.122964,"is_passed":false}],"7943":[{"stop_id":"U16608Z10","name":"Kyjov, aut. st.","arrival_time":"7:39:00","departure_time":"7:39:00","lat":49.006523,"lon":17.124417,"is_passed":false},{"stop_id":"U16639Z1","name":"Kyjov, nemocnice, křižovatka","arrival_time":"7:41:00","departure_time":"7:41:00","lat":49.00725,"lon":17.113458,"is_passed":false},{"stop_id":"U16811Z1","name":"Svatobořice-Mistřín, textilka","arrival_time":"7:45:00","departure_time":"7:45:00","lat":48.991854,"lon":17.101184,"is_passed":false},{"stop_id":"U16809Z1","name":"Svatobořice-Mistřín, restaurace","arrival_time":"7:47:00","departure_time":"7:47:00","lat":48.98316,"lon":17.09427,"is_passed":false},{"stop_id":"U16806Z1","name":"Svatobořice-Mistřín, kulturní dům","arrival_time":"7:49:00","departure_time":"7:49:00","lat":48.977759,"lon":17.08999,"is_passed":false},{"stop_id":"U16810Z1","name":"Svatobořice-Mistřín, škola","arrival_time":"7:50:00","departure_time":"7:50:00","lat":48.973884,"lon":17.08519,"is_passed":false},{"stop_id":"U16807Z1","name":"Svatobořice-Mistřín, Mistřín","arrival_time":"7:52:00","departure_time":"7:52:00","lat":48.97174,"lon":17.080342,"is_passed":false},{"stop_id":"U16815Z1","name":"Šardice, Padělky","arrival_time":"7:54:00","departure_time":"7:54:00","lat":48.963713,"lon":17.049882,"is_passed":false},{"stop_id":"U16816Z1","name":"Šardice, ZD","arrival_time":"7:55:00","departure_time":"7:55:00","lat":48.962157,"lon":17.04396,"is_passed":false},{"stop_id":"U16814Z1","name":"Šardice, u kapličky","arrival_time":"7:56:00","departure_time":"7:56:00","lat":48.961947,"lon":17.03349,"is_passed":false},{"stop_id":"U16813Z1","name":"Šardice","arrival_time":"7:57:00","departure_time":"7:57:00","lat":48.963971,"lon":17.028606,"is_passed":false},{"stop_id":"U16552Z1","name":"Hovorany, důl","arrival_time":"8:00:00","departure_time":"8:00:00","lat":48.956725,"lon":17.010222,"is_passed":false},{"stop_id":"U16553Z1","name":"Hovorany, kostel","arrival_time":"8:02:00","departure_time":"8:02:00","lat":48.954818,"lon":16.998017,"is_passed":false},{"stop_id":"U16555Z1","name":"Hovorany, škola","arrival_time":"8:04:00","departure_time":"8:04:00","lat":48.953233,"lon":16.983643,"is_passed":false},{"stop_id":"U16556Z1","name":"Hovorany, zdravotní středisko","arrival_time":"8:05:00","departure_time":"8:05:00","lat":48.949956,"lon":16.981331,"is_passed":false},{"stop_id":"U16545Z3","name":"Čejč, náměstí","arrival_time":"8:07:00","departure_time":"8:10:00","lat":48.946403,"lon":16.965978,"is_passed":false},{"stop_id":"U16462Z2","name":"Terezín","arrival_time":"8:14:00","departure_time":"8:14:00","lat":48.956778,"lon":16.940897,"is_passed":false},{"stop_id":"U16454Z1","name":"Brumovice, železniční stanice","arrival_time":"8:17:00","departure_time":"8:17:00","lat":48.947167,"lon":16.905878,"is_passed":false},{"stop_id":"U15538Z1","name":"Kobylí","arrival_time":"8:21:00","departure_time":"9:39:00","lat":48.931883,"lon":16.884127,"is_passed":false}],"7944":[{"stop_id":"U15538Z2","name":"Kobylí","arrival_time":"9:39:00","departure_time":"9:39:00","lat":48.932237,"lon":16.884008,"is_passed":false},{"stop_id":"U16454Z2","name":"Brumovice, železniční stanice","arrival_time":"9:43:00","departure_time":"9:43:00","lat":48.947167,"lon":16.905878,"is_passed":false},{"stop_id":"U16462Z1","name":"Terezín","arrival_time":"9:46:00","departure_time":"9:46:00","lat":48.956737,"lon":16.940727,"is_passed":false},{"stop_id":"U16545Z4","name":"Čejč, náměstí","arrival_time":"9:50:00","departure_time":"9:51:00","lat":48.94568,"lon":16.967358,"is_passed":false},{"stop_id":"U16556Z2","name":"Hovorany, zdravotní středisko","arrival_time":"9:53:00","departure_time":"9:53:00","lat":48.949749,"lon":16.981078,"is_passed":false},{"stop_id":"U16555Z2","name":"Hovorany, škola","arrival_time":"9:55:00","departure_time":"9:55:00","lat":48.953908,"lon":16.984808,"is_passed":false},{"stop_id":"U16553Z2","name":"Hovorany, kostel","arrival_time":"9:57:00","departure_time":"9:57:00","lat":48.954573,"lon":16.99834,"is_passed":false},{"stop_id":"U16552Z2","name":"Hovorany, důl","arrival_time":"9:59:00","departure_time":"9:59:00","lat":48.956683,"lon":17.010608,"is_passed":false},{"stop_id":"U16813Z2","name":"Šardice","arrival_time":"10:02:00","departure_time":"10:02:00","lat":48.964017,"lon":17.028398,"is_passed":false},{"stop_id":"U16814Z2","name":"Šardice, u kapličky","arrival_time":"10:03:00","departure_time":"10:03:00","lat":48.961887,"lon":17.033457,"is_passed":false},{"stop_id":"U16816Z2","name":"Šardice, ZD","arrival_time":"10:04:00","departure_time":"10:04:00","lat":48.962023,"lon":17.043865,"is_passed":false},{"stop_id":"U16815Z2","name":"Šardice, Padělky","arrival_time":"10:05:00","departure_time":"10:05:00","lat":48.964032,"lon":17.051408,"is_passed":false},{"stop_id":"U16807Z2","name":"Svatobořice-Mistřín, Mistřín","arrival_time":"10:07:00","departure_time":"10:07:00","lat":48.971735,"lon":17.080763,"is_passed":false},{"stop_id":"U16810Z2","name":"Svatobořice-Mistřín, škola","arrival_time":"10:08:00","departure_time":"10:08:00","lat":48.974187,"lon":17.086079,"is_passed":false},{"stop_id":"U16806Z2","name":"Svatobořice-Mistřín, kulturní dům","arrival_time":"10:10:00","departure_time":"10:10:00","lat":48.977932,"lon":17.090462,"is_passed":false},{"stop_id":"U16809Z2","name":"Svatobořice-Mistřín, restaurace","arrival_time":"10:12:00","departure_time":"10:12:00","lat":48.983528,"lon":17.094782,"is_passed":false},{"stop_id":"U16811Z2","name":"Svatobořice-Mistřín, textilka","arrival_time":"10:14:00","departure_time":"10:14:00","lat":48.991569,"lon":17.101103,"is_passed":false},{"stop_id":"U16639Z2","name":"Kyjov, nemocnice, křižovatka","arrival_time":"10:17:00","departure_time":"10:17:00","lat":49.007137,"lon":17.113345,"is_passed":false},{"stop_id":"U16608Z16","name":"Kyjov, aut. st.","arrival_time":"10:20:00","departure_time":"11:39:00","lat":49.006873,"lon":17.123912,"is_passed":false}],"7945":[{"stop_id":"U16608Z10","name":"Kyjov, aut. st.","arrival_time":"11:39:00","departure_time":"11:39:00","lat":49.006523,"lon":17.124417,"is_passed":false},{"stop_id":"U16639Z1","name":"Kyjov, nemocnice, křižovatka","arrival_time":"11:41:00","departure_time":"11:41:00","lat":49.00725,"lon":17.113458,"is_passed":false},{"stop_id":"U16811Z1","name":"Svatobořice-Mistřín, textilka","arrival_time":"11:45:00","departure_time":"11:45:00","lat":48.991854,"lon":17.101184,"is_passed":false},{"stop_id":"U16809Z1","name":"Svatobořice-Mistřín, restaurace","arrival_time":"11:47:00","departure_time":"11:47:00","lat":48.98316,"lon":17.09427,"is_passed":false},{"stop_id":"U16806Z1","name":"Svatobořice-Mistřín, kulturní dům","arrival_time":"11:49:00","departure_time":"11:49:00","lat":48.977759,"lon":17.08999,"is_passed":false},{"stop_id":"U16810Z1","name":"Svatobořice-Mistřín, škola","arrival_time":"11:50:00","departure_time":"11:50:00","lat":48.973884,"lon":17.08519,"is_passed":false},{"stop_id":"U16807Z1","name":"Svatobořice-Mistřín, Mistřín","arrival_time":"11:52:00","departure_time":"11:52:00","lat":48.97174,"lon":17.080342,"is_passed":false},{"stop_id":"U16815Z1","name":"Šardice, Padělky","arrival_time":"11:54:00","departure_time":"11:54:00","lat":48.963713,"lon":17.049882,"is_passed":false},{"stop_id":"U16816Z1","name":"Šardice, ZD","arrival_time":"11:55:00","departure_time":"11:55:00","lat":48.962157,"lon":17.04396,"is_passed":false},{"stop_id":"U16814Z1","name":"Šardice, u kapličky","arrival_time":"11:56:00","departure_time":"11:56:00","lat":48.961947,"lon":17.03349,"is_passed":false},{"stop_id":"U16813Z1","name":"Šardice","arrival_time":"11:57:00","departure_time":"11:57:00","lat":48.963971,"lon":17.028606,"is_passed":false},{"stop_id":"U16552Z1","name":"Hovorany, důl","arrival_time":"12:00:00","departure_time":"12:00:00","lat":48.956725,"lon":17.010222,"is_passed":false},{"stop_id":"U16553Z1","name":"Hovorany, kostel","arrival_time":"12:02:00","departure_time":"12:02:00","lat":48.954818,"lon":16.998017,"is_passed":false},{"stop_id":"U16555Z1","name":"Hovorany, škola","arrival_time":"12:04:00","departure_time":"12:04:00","lat":48.953233,"lon":16.983643,"is_passed":false},{"stop_id":"U16556Z1","name":"Hovorany, zdravotní středisko","arrival_time":"12:05:00","departure_time":"12:05:00","lat":48.949956,"lon":16.981331,"is_passed":false},{"stop_id":"U16545Z3","name":"Čejč, náměstí","arrival_time":"12:07:00","departure_time":"12:10:00","lat":48.946403,"lon":16.965978,"is_passed":false},{"stop_id":"U16462Z2","name":"Terezín","arrival_time":"12:14:00","departure_time":"12:14:00","lat":48.956778,"lon":16.940897,"is_passed":false},{"stop_id":"U16454Z1","name":"Brumovice, železniční stanice","arrival_time":"12:17:00","departure_time":"12:17:00","lat":48.947167,"lon":16.905878,"is_passed":false},{"stop_id":"U15538Z1","name":"Kobylí","arrival_time":"12:21:00","departure_time":"12:39:00","lat":48.931883,"lon":16.884127,"is_passed":false}],"7946":[{"stop_id":"U15538Z2","name":"Kobylí","arrival_time":"12:39:00","departure_time":"12:39:00","lat":48.932237,"lon":16.884008,"is_passed":false},{"stop_id":"U16454Z2","name":"Brumovice, železniční stanice","arrival_time":"12:43:00","departure_time":"12:43:00","lat":48.947167,"lon":16.905878,"is_passed":false},{"stop_id":"U16462Z1","name":"Terezín","arrival_time":"12:46:00","departure_time":"12:46:00","lat":48.956737,"lon":16.940727,"is_passed":false},{"stop_id":"U16545Z4","name":"Čejč, náměstí","arrival_time":"12:50:00","departure_time":"12:51:00","lat":48.94568,"lon":16.967358,"is_passed":false},{"stop_id":"U16556Z2","name":"Hovorany, zdravotní středisko","arrival_time":"12:53:00","departure_time":"12:53:00","lat":48.949749,"lon":16.981078,"is_passed":false},{"stop_id":"U16555Z2","name":"Hovorany, škola","arrival_time":"12:55:00","departure_time":"12:55:00","lat":48.953908,"lon":16.984808,"is_passed":false},{"stop_id":"U16553Z2","name":"Hovorany, kostel","arrival_time":"12:57:00","departure_time":"12:57:00","lat":48.954573,"lon":16.99834,"is_passed":false},{"stop_id":"U16552Z2","name":"Hovorany, důl","arrival_time":"12:59:00","departure_time":"12:59:00","lat":48.956683,"lon":17.010608,"is_passed":false},{"stop_id":"U16813Z2","name":"Šardice","arrival_time":"13:02:00","departure_time":"13:02:00","lat":48.964017,"lon":17.028398,"is_passed":false},{"stop_id":"U16814Z2","name":"Šardice, u kapličky","arrival_time":"13:03:00","departure_time":"13:03:00","lat":48.961887,"lon":17.033457,"is_passed":false},{"stop_id":"U16816Z2","name":"Šardice, ZD","arrival_time":"13:04:00","departure_time":"13:04:00","lat":48.962023,"lon":17.043865,"is_passed":false},{"stop_id":"U16815Z2","name":"Šardice, Padělky","arrival_time":"13:05:00","departure_time":"13:05:00","lat":48.964032,"lon":17.051408,"is_passed":false},{"stop_id":"U16807Z2","name":"Svatobořice-Mistřín, Mistřín","arrival_time":"13:07:00","departure_time":"13:07:00","lat":48.971735,"lon":17.080763,"is_passed":false},{"stop_id":"U16810Z2","name":"Svatobořice-Mistřín, škola","arrival_time":"13:08:00","departure_time":"13:08:00","lat":48.974187,"lon":17.086079,"is_passed":false},{"stop_id":"U16806Z2","name":"Svatobořice-Mistřín, kulturní dům","arrival_time":"13:10:00","departure_time":"13:10:00","lat":48.977932,"lon":17.090462,"is_passed":false},{"stop_id":"U16809Z2","name":"Svatobořice-Mistřín, restaurace","arrival_time":"13:12:00","departure_time":"13:12:00","lat":48.983528,"lon":17.094782,"is_passed":false},{"stop_id":"U16811Z2","name":"Svatobořice-Mistřín, textilka","arrival_time":"13:14:00","departure_time":"13:14:00","lat":48.991569,"lon":17.101103,"is_passed":false},{"stop_id":"U16639Z2","name":"Kyjov, nemocnice, křižovatka","arrival_time":"13:17:00","departure_time":"13:17:00","lat":49.007137,"lon":17.113345,"is_passed":false},{"stop_id":"U16608Z16","name":"Kyjov, aut. st.","arrival_time":"13:20:00","departure_time":"14:09:00","lat":49.006873,"lon":17.123912,"is_passed":false}],"7947":[{"stop_id":"U16608Z10","name":"Kyjov, aut. st.","arrival_time":"14:09:00","departure_time":"14:09:00","lat":49.006523,"lon":17.124417,"is_passed":false},{"stop_id":"U16639Z1","name":"Kyjov, nemocnice, křižovatka","arrival_time":"14:11:00","departure_time":"14:11:00","lat":49.00725,"lon":17.113458,"is_passed":false},{"stop_id":"U16811Z1","name":"Svatobořice-Mistřín, textilka","arrival_time":"14:15:00","departure_time":"14:15:00","lat":48.991854,"lon":17.101184,"is_passed":false},{"stop_id":"U16809Z1","name":"Svatobořice-Mistřín, restaurace","arrival_time":"14:17:00","departure_time":"14:17:00","lat":48.98316,"lon":17.09427,"is_passed":false},{"stop_id":"U16806Z1","name":"Svatobořice-Mistřín, kulturní dům","arrival_time":"14:19:00","departure_time":"14:19:00","lat":48.977759,"lon":17.08999,"is_passed":false},{"stop_id":"U16810Z1","name":"Svatobořice-Mistřín, škola","arrival_time":"14:20:00","departure_time":"14:20:00","lat":48.973884,"lon":17.08519,"is_passed":false},{"stop_id":"U16807Z1","name":"Svatobořice-Mistřín, Mistřín","arrival_time":"14:22:00","departure_time":"14:22:00","lat":48.97174,"lon":17.080342,"is_passed":false},{"stop_id":"U16815Z1","name":"Šardice, Padělky","arrival_time":"14:24:00","departure_time":"14:24:00","lat":48.963713,"lon":17.049882,"is_passed":false},{"stop_id":"U16816Z1","name":"Šardice, ZD","arrival_time":"14:25:00","departure_time":"14:25:00","lat":48.962157,"lon":17.04396,"is_passed":false},{"stop_id":"U16814Z1","name":"Šardice, u kapličky","arrival_time":"14:26:00","departure_time":"14:26:00","lat":48.961947,"lon":17.03349,"is_passed":false},{"stop_id":"U16813Z1","name":"Šardice","arrival_time":"14:27:00","departure_time":"14:27:00","lat":48.963971,"lon":17.028606,"is_passed":false},{"stop_id":"U16552Z1","name":"Hovorany, důl","arrival_time":"14:30:00","departure_time":"14:30:00","lat":48.956725,"lon":17.010222,"is_passed":false},{"stop_id":"U16553Z1","name":"Hovorany, kostel","arrival_time":"14:32:00","departure_time":"14:32:00","lat":48.954818,"lon":16.998017,"is_passed":false},{"stop_id":"U16555Z1","name":"Hovorany, škola","arrival_time":"14:34:00","departure_time":"14:34:00","lat":48.953233,"lon":16.983643,"is_passed":false},{"stop_id":"U16556Z1","name":"Hovorany, zdravotní středisko","arrival_time":"14:35:00","departure_time":"14:35:00","lat":48.949956,"lon":16.981331,"is_passed":false},{"stop_id":"U16545Z3","name":"Čejč, náměstí","arrival_time":"14:37:00","departure_time":"15:21:00","lat":48.946403,"lon":16.965978,"is_passed":false}],"7948":[{"stop_id":"U16545Z4","name":"Čejč, náměstí","arrival_time":"15:21:00","departure_time":"15:21:00","lat":48.94568,"lon":16.967358,"is_passed":false},{"stop_id":"U16556Z2","name":"Hovorany, zdravotní středisko","arrival_time":"15:23:00","departure_time":"15:23:00","lat":48.949749,"lon":16.981078,"is_passed":false},{"stop_id":"U16555Z2","name":"Hovorany, škola","arrival_time":"15:25:00","departure_time":"15:25:00","lat":48.953908,"lon":16.984808,"is_passed":false},{"stop_id":"U16553Z2","name":"Hovorany, kostel","arrival_time":"15:27:00","departure_time":"15:27:00","lat":48.954573,"lon":16.99834,"is_passed":false},{"stop_id":"U16552Z2","name":"Hovorany, důl","arrival_time":"15:29:00","departure_time":"15:29:00","lat":48.956683,"lon":17.010608,"is_passed":false},{"stop_id":"U16813Z2","name":"Šardice","arrival_time":"15:32:00","departure_time":"15:32:00","lat":48.964017,"lon":17.028398,"is_passed":false},{"stop_id":"U16814Z2","name":"Šardice, u kapličky","arrival_time":"15:33:00","departure_time":"15:33:00","lat":48.961887,"lon":17.033457,"is_passed":false},{"stop_id":"U16816Z2","name":"Šardice, ZD","arrival_time":"15:34:00","departure_time":"15:34:00","lat":48.962023,"lon":17.043865,"is_passed":false},{"stop_id":"U16815Z2","name":"Šardice, Padělky","arrival_time":"15:35:00","departure_time":"15:35:00","lat":48.964032,"lon":17.051408,"is_passed":false},{"stop_id":"U16807Z2","name":"Svatobořice-Mistřín, Mistřín","arrival_time":"15:37:00","departure_time":"15:37:00","lat":48.971735,"lon":17.080763,"is_passed":false},{"stop_id":"U16810Z2","name":"Svatobořice-Mistřín, škola","arrival_time":"15:38:00","departure_time":"15:38:00","lat":48.974187,"lon":17.086079,"is_passed":false},{"stop_id":"U16806Z2","name":"Svatobořice-Mistřín, kulturní dům","arrival_time":"15:40:00","departure_time":"15:40:00","lat":48.977932,"lon":17.090462,"is_passed":false},{"stop_id":"U16809Z2","name":"Svatobořice-Mistřín, restaurace","arrival_time":"15:42:00","departure_time":"15:42:00","lat":48.983528,"lon":17.094782,"is_passed":false},{"stop_id":"U16811Z2","name":"Svatobořice-Mistřín, textilka","arrival_time":"15:44:00","departure_time":"15:44:00","lat":48.991569,"lon":17.101103,"is_passed":false},{"stop_id":"U16639Z2","name":"Kyjov, nemocnice, křižovatka","arrival_time":"15:47:00","departure_time":"15:47:00","lat":49.007137,"lon":17.113345,"is_passed":false},{"stop_id":"U16608Z16","name":"Kyjov, aut. st.","arrival_time":"15:50:00","departure_time":"16:39:00","lat":49.006873,"lon":17.123912,"is_passed":false}],"7949":[{"stop_id":"U16608Z10","name":"Kyjov, aut. st.","arrival_time":"16:39:00","departure_time":"16:39:00","lat":49.006523,"lon":17.124417,"is_passed":false},{"stop_id":"U16639Z1","name":"Kyjov, nemocnice, křižovatka","arrival_time":"16:41:00","departure_time":"16:41:00","lat":49.00725,"lon":17.113458,"is_passed":false},{"stop_id":"U16811Z1","name":"Svatobořice-Mistřín, textilka","arrival_time":"16:45:00","departure_time":"16:45:00","lat":48.991854,"lon":17.101184,"is_passed":false},{"stop_id":"U16809Z1","name":"Svatobořice-Mistřín, restaurace","arrival_time":"16:47:00","departure_time":"16:47:00","lat":48.98316,"lon":17.09427,"is_passed":false},{"stop_id":"U16806Z1","name":"Svatobořice-Mistřín, kulturní dům","arrival_time":"16:49:00","departure_time":"16:49:00","lat":48.977759,"lon":17.08999,"is_passed":false},{"stop_id":"U16810Z1","name":"Svatobořice-Mistřín, škola","arrival_time":"16:50:00","departure_time":"16:50:00","lat":48.973884,"lon":17.08519,"is_passed":false},{"stop_id":"U16807Z1","name":"Svatobořice-Mistřín, Mistřín","arrival_time":"16:52:00","departure_time":"16:52:00","lat":48.97174,"lon":17.080342,"is_passed":false},{"stop_id":"U16815Z1","name":"Šardice, Padělky","arrival_time":"16:54:00","departure_time":"16:54:00","lat":48.963713,"lon":17.049882,"is_passed":false},{"stop_id":"U16816Z1","name":"Šardice, ZD","arrival_time":"16:55:00","departure_time":"16:55:00","lat":48.962157,"lon":17.04396,"is_passed":false},{"stop_id":"U16814Z1","name":"Šardice, u kapličky","arrival_time":"16:56:00","departure_time":"16:56:00","lat":48.961947,"lon":17.03349,"is_passed":false},{"stop_id":"U16813Z1","name":"Šardice","arrival_time":"16:57:00","departure_time":"16:57:00","lat":48.963971,"lon":17.028606,"is_passed":false},{"stop_id":"U16552Z1","name":"Hovorany, důl","arrival_time":"17:00:00","departure_time":"17:00:00","lat":48.956725,"lon":17.010222,"is_passed":false},{"stop_id":"U16553Z1","name":"Hovorany, kostel","arrival_time":"17:02:00","departure_time":"17:02:00","lat":48.954818,"lon":16.998017,"is_passed":false},{"stop_id":"U16555Z1","name":"Hovorany, škola","arrival_time":"17:04:00","departure_time":"17:04:00","lat":48.953233,"lon":16.983643,"is_passed":false},{"stop_id":"U16556Z1","name":"Hovorany, zdravotní středisko","arrival_time":"17:05:00","departure_time":"17:05:00","lat":48.949956,"lon":16.981331,"is_passed":false},{"stop_id":"U16545Z3","name":"Čejč, náměstí","arrival_time":"17:07:00","departure_time":"17:51:00","lat":48.946403,"lon":16.965978,"is_passed":false}]}