{"795":[{"stop_id":"U15241Z21","name":"Židlochovice, železniční stanice","arrival_time":"11:56:00","departure_time":"11:56:00","lat":49.033113,"lon":16.617218,"is_passed":false},{"stop_id":"U15222Z10","name":"Hrušovany u Brna, žel. st.","arrival_time":"11:59:00","departure_time":"12:01:00","lat":49.034228,"lon":16.591501,"is_passed":false},{"stop_id":"U25201Z10","name":"Vojkovice nad Svratkou, žel. st.","arrival_time":"12:04:00","departure_time":"12:04:00","lat":49.056208,"lon":16.597445,"is_passed":false},{"stop_id":"U15181Z10","name":"Rajhrad, železniční stanice","arrival_time":"12:07:00","departure_time":"12:08:00","lat":49.084966,"lon":16.60532,"is_passed":false},{"stop_id":"U15135Z10","name":"Popovice, u tratě","arrival_time":"12:10:00","departure_time":"12:10:00","lat":49.103463,"lon":16.605647,"is_passed":false},{"stop_id":"U15140Z10","name":"Modřice, železniční stanice","arrival_time":"12:13:00","departure_time":"12:14:00","lat":49.133256,"lon":16.606209,"is_passed":false},{"stop_id":"U1146Z99","name":"Hlavní nádraží","arrival_time":"12:21:00","departure_time":"12:23:00","lat":49.19035,"lon":16.612342,"is_passed":false},{"stop_id":"U1809Z10","name":"Židenice, nádraží","arrival_time":"12:26:00","departure_time":"12:27:00","lat":49.204282,"lon":16.636042,"is_passed":false},{"stop_id":"U1331Z10","name":"Lesná, nádraží","arrival_time":"12:32:00","departure_time":"12:33:00","lat":49.220432,"lon":16.627505,"is_passed":false},{"stop_id":"U1286Z10","name":"Královo Pole, nádraží","arrival_time":"12:36:00","departure_time":"12:37:00","lat":49.231051,"lon":16.596651,"is_passed":false},{"stop_id":"U1557Z10","name":"Řečkovice, nádraží","arrival_time":"12:39:00","departure_time":"12:40:00","lat":49.250794,"lon":16.590446,"is_passed":false},{"stop_id":"U13109Z10","name":"Česká, železniční stanice","arrival_time":"12:43:00","departure_time":"12:44:00","lat":49.284546,"lon":16.566731,"is_passed":false},{"stop_id":"U13143Z10","name":"Kuřim, železniční stanice","arrival_time":"12:47:00","departure_time":"12:48:00","lat":49.301,"lon":16.534523,"is_passed":false},{"stop_id":"U13206Z10","name":"Čebín, železniční stanice","arrival_time":"12:53:00","departure_time":"12:53:00","lat":49.319722,"lon":16.465278,"is_passed":false},{"stop_id":"U13306Z10","name":"Hradčany, železniční stanice","arrival_time":"12:56:00","departure_time":"12:56:00","lat":49.334153,"lon":16.437807,"is_passed":false},{"stop_id":"U13334Z20","name":"Tišnov, železniční stanice","arrival_time":"12:59:00","departure_time":"12:59:00","lat":49.3475,"lon":16.41725,"is_passed":false}],"7950":[{"stop_id":"U17604Z2","name":"Pačlavice","arrival_time":"18:04:00","departure_time":"18:04:00","lat":49.259808,"lon":17.168328,"is_passed":false},{"stop_id":"U17510Z3","name":"Dětkovice","arrival_time":"18:07:00","departure_time":"18:07:00","lat":49.272403,"lon":17.144437,"is_passed":false},{"stop_id":"U17520Z2","name":"Švábenice","arrival_time":"18:10:00","departure_time":"18:10:00","lat":49.27873,"lon":17.122723,"is_passed":false},{"stop_id":"U17534Z2","name":"Ivanovice na Hané, Fischer","arrival_time":"18:14:00","departure_time":"18:14:00","lat":49.29508,"lon":17.095866,"is_passed":false},{"stop_id":"U17515Z2","name":"Ivanovice na Hané, u Škrku","arrival_time":"18:16:00","departure_time":"18:16:00","lat":49.301173,"lon":17.093988,"is_passed":false},{"stop_id":"U17516Z2","name":"Ivanovice na Hané, Žižkova","arrival_time":"18:18:00","departure_time":"18:18:00","lat":49.306818,"lon":17.095633,"is_passed":false},{"stop_id":"U17514Z4","name":"Ivanovice na Hané, aut. st.","arrival_time":"18:19:00","departure_time":"18:21:00","lat":49.304593,"lon":17.088863,"is_passed":false}],"7951":[{"stop_id":"U17514Z4","name":"Ivanovice na Hané, aut. st.","arrival_time":"18:21:00","departure_time":"18:21:00","lat":49.304593,"lon":17.088863,"is_passed":false},{"stop_id":"U17516Z1","name":"Ivanovice na Hané, Žižkova","arrival_time":"18:22:00","departure_time":"18:22:00","lat":49.306818,"lon":17.095633,"is_passed":false},{"stop_id":"U17515Z1","name":"Ivanovice na Hané, u Škrku","arrival_time":"18:24:00","departure_time":"18:24:00","lat":49.301192,"lon":17.09391,"is_passed":false},{"stop_id":"U17534Z1","name":"Ivanovice na Hané, Fischer","arrival_time":"18:26:00","departure_time":"18:26:00","lat":49.294996,"lon":17.095678,"is_passed":false},{"stop_id":"U17520Z1","name":"Švábenice","arrival_time":"18:30:00","departure_time":"18:30:00","lat":49.278648,"lon":17.122928,"is_passed":false},{"stop_id":"U17510Z1","name":"Dětkovice","arrival_time":"18:33:00","departure_time":"18:33:00","lat":49.272352,"lon":17.144485,"is_passed":false},{"stop_id":"U17604Z1","name":"Pačlavice","arrival_time":"18:36:00","departure_time":"18:36:00","lat":49.259808,"lon":17.168328,"is_passed":false}],"7952":[{"stop_id":"U17503Z2","name":"Orlovice","arrival_time":"5:10:00","departure_time":"5:10:00","lat":49.240533,"lon":17.094317,"is_passed":false},{"stop_id":"U17501Z2","name":"Moravské Málkovice, u koupaliště","arrival_time":"5:12:00","departure_time":"5:12:00","lat":49.252517,"lon":17.092942,"is_passed":false},{"stop_id":"U17502Z2","name":"Moravské Málkovice","arrival_time":"5:14:00","departure_time":"5:14:00","lat":49.257815,"lon":17.090555,"is_passed":false},{"stop_id":"U17518Z2","name":"Medlovice","arrival_time":"5:17:00","departure_time":"5:17:00","lat":49.273143,"lon":17.093413,"is_passed":false},{"stop_id":"U17517Z1","name":"Medlovice, rozcestí","arrival_time":"5:19:00","departure_time":"5:20:00","lat":49.277998,"lon":17.093088,"is_passed":false},{"stop_id":"U17534Z2","name":"Ivanovice na Hané, Fischer","arrival_time":"5:24:00","departure_time":"5:24:00","lat":49.29508,"lon":17.095866,"is_passed":false},{"stop_id":"U17515Z2","name":"Ivanovice na Hané, u Škrku","arrival_time":"5:26:00","departure_time":"5:26:00","lat":49.301173,"lon":17.093988,"is_passed":false},{"stop_id":"U17516Z2","name":"Ivanovice na Hané, Žižkova","arrival_time":"5:28:00","departure_time":"5:28:00","lat":49.306818,"lon":17.095633,"is_passed":false},{"stop_id":"U17514Z1","name":"Ivanovice na Hané, aut. st.","arrival_time":"5:29:00","departure_time":"5:36:00","lat":49.304557,"lon":17.08873,"is_passed":false}],"7953":[{"stop_id":"U17514Z3","name":"Ivanovice na Hané, aut. st.","arrival_time":"5:36:00","departure_time":"5:36:00","lat":49.304557,"lon":17.08873,"is_passed":false},{"stop_id":"U17516Z1","name":"Ivanovice na Hané, Žižkova","arrival_time":"5:37:00","departure_time":"5:37:00","lat":49.306818,"lon":17.095633,"is_passed":false},{"stop_id":"U17515Z1","name":"Ivanovice na Hané, u Škrku","arrival_time":"5:39:00","departure_time":"5:39:00","lat":49.301192,"lon":17.09391,"is_passed":false},{"stop_id":"U17534Z1","name":"Ivanovice na Hané, Fischer","arrival_time":"5:41:00","departure_time":"5:41:00","lat":49.294996,"lon":17.095678,"is_passed":false},{"stop_id":"U17517Z2","name":"Medlovice, rozcestí","arrival_time":"5:45:00","departure_time":"5:46:00","lat":49.278005,"lon":17.092345,"is_passed":false},{"stop_id":"U17518Z1","name":"Medlovice","arrival_time":"5:48:00","departure_time":"5:48:00","lat":49.273143,"lon":17.093413,"is_passed":false},{"stop_id":"U17502Z1","name":"Moravské Málkovice","arrival_time":"5:51:00","departure_time":"5:51:00","lat":49.2577,"lon":17.090655,"is_passed":false},{"stop_id":"U17501Z1","name":"Moravské Málkovice, u koupaliště","arrival_time":"5:53:00","departure_time":"5:53:00","lat":49.252467,"lon":17.092912,"is_passed":false},{"stop_id":"U17503Z1","name":"Orlovice","arrival_time":"5:55:00","departure_time":"6:10:00","lat":49.240533,"lon":17.094317,"is_passed":false}],"7954":[{"stop_id":"U17503Z2","name":"Orlovice","arrival_time":"6:10:00","departure_time":"6:10:00","lat":49.240533,"lon":17.094317,"is_passed":false},{"stop_id":"U17501Z2","name":"Moravské Málkovice, u koupaliště","arrival_time":"6:12:00","departure_time":"6:12:00","lat":49.252517,"lon":17.092942,"is_passed":false},{"stop_id":"U17502Z2","name":"Moravské Málkovice","arrival_time":"6:14:00","departure_time":"6:14:00","lat":49.257815,"lon":17.090555,"is_passed":false},{"stop_id":"U17518Z2","name":"Medlovice","arrival_time":"6:17:00","departure_time":"6:17:00","lat":49.273143,"lon":17.093413,"is_passed":false},{"stop_id":"U17517Z1","name":"Medlovice, rozcestí","arrival_time":"6:19:00","departure_time":"6:20:00","lat":49.277998,"lon":17.093088,"is_passed":false},{"stop_id":"U17534Z2","name":"Ivanovice na Hané, Fischer","arrival_time":"6:24:00","departure_time":"6:24:00","lat":49.29508,"lon":17.095866,"is_passed":false},{"stop_id":"U17515Z2","name":"Ivanovice na Hané, u Škrku","arrival_time":"6:26:00","departure_time":"6:26:00","lat":49.301173,"lon":17.093988,"is_passed":false},{"stop_id":"U17516Z2","name":"Ivanovice na Hané, Žižkova","arrival_time":"6:28:00","departure_time":"6:28:00","lat":49.306818,"lon":17.095633,"is_passed":false},{"stop_id":"U17514Z1","name":"Ivanovice na Hané, aut. st.","arrival_time":"6:29:00","departure_time":"6:29:00","lat":49.304557,"lon":17.08873,"is_passed":false}],"7955":[{"stop_id":"U17514Z4","name":"Ivanovice na Hané, aut. st.","arrival_time":"6:41:00","departure_time":"6:41:00","lat":49.304593,"lon":17.088863,"is_passed":false},{"stop_id":"U17516Z1","name":"Ivanovice na Hané, Žižkova","arrival_time":"6:42:00","departure_time":"6:42:00","lat":49.306818,"lon":17.095633,"is_passed":false},{"stop_id":"U17515Z1","name":"Ivanovice na Hané, u Škrku","arrival_time":"6:44:00","departure_time":"6:44:00","lat":49.301192,"lon":17.09391,"is_passed":false},{"stop_id":"U17534Z1","name":"Ivanovice na Hané, Fischer","arrival_time":"6:46:00","departure_time":"6:46:00","lat":49.294996,"lon":17.095678,"is_passed":false},{"stop_id":"U17520Z1","name":"Švábenice","arrival_time":"6:50:00","departure_time":"6:50:00","lat":49.278648,"lon":17.122928,"is_passed":false},{"stop_id":"U17510Z1","name":"Dětkovice","arrival_time":"6:53:00","departure_time":"6:53:00","lat":49.272352,"lon":17.144485,"is_passed":false},{"stop_id":"U17604Z1","name":"Pačlavice","arrival_time":"6:56:00","departure_time":"7:04:00","lat":49.259808,"lon":17.168328,"is_passed":false}],"7956":[{"stop_id":"U17604Z2","name":"Pačlavice","arrival_time":"7:04:00","departure_time":"7:04:00","lat":49.259808,"lon":17.168328,"is_passed":false},{"stop_id":"U17510Z3","name":"Dětkovice","arrival_time":"7:07:00","departure_time":"7:07:00","lat":49.272403,"lon":17.144437,"is_passed":false},{"stop_id":"U17520Z2","name":"Švábenice","arrival_time":"7:10:00","departure_time":"7:10:00","lat":49.27873,"lon":17.122723,"is_passed":false},{"stop_id":"U17534Z2","name":"Ivanovice na Hané, Fischer","arrival_time":"7:14:00","departure_time":"7:14:00","lat":49.29508,"lon":17.095866,"is_passed":false},{"stop_id":"U17515Z2","name":"Ivanovice na Hané, u Škrku","arrival_time":"7:16:00","departure_time":"7:16:00","lat":49.301173,"lon":17.093988,"is_passed":false},{"stop_id":"U17516Z2","name":"Ivanovice na Hané, Žižkova","arrival_time":"7:18:00","departure_time":"7:18:00","lat":49.306818,"lon":17.095633,"is_passed":false}],"7957":[{"stop_id":"U17516Z2","name":"Ivanovice na Hané, Žižkova","arrival_time":"7:18:00","departure_time":"7:18:00","lat":49.306818,"lon":17.095633,"is_passed":false},{"stop_id":"U17514Z1","name":"Ivanovice na Hané, aut. st.","arrival_time":"7:19:00","departure_time":"8:31:00","lat":49.304557,"lon":17.08873,"is_passed":false}],"7958":[{"stop_id":"U17514Z3","name":"Ivanovice na Hané, aut. st.","arrival_time":"8:31:00","departure_time":"8:31:00","lat":49.304557,"lon":17.08873,"is_passed":false},{"stop_id":"U17516Z1","name":"Ivanovice na Hané, Žižkova","arrival_time":"8:32:00","departure_time":"8:32:00","lat":49.306818,"lon":17.095633,"is_passed":false},{"stop_id":"U17515Z1","name":"Ivanovice na Hané, u Škrku","arrival_time":"8:34:00","departure_time":"8:34:00","lat":49.301192,"lon":17.09391,"is_passed":false},{"stop_id":"U17534Z1","name":"Ivanovice na Hané, Fischer","arrival_time":"8:36:00","departure_time":"8:36:00","lat":49.294996,"lon":17.095678,"is_passed":false},{"stop_id":"U17517Z2","name":"Medlovice, rozcestí","arrival_time":"8:40:00","departure_time":"8:46:00","lat":49.278005,"lon":17.092345,"is_passed":false},{"stop_id":"U17518Z1","name":"Medlovice","arrival_time":"8:48:00","departure_time":"8:48:00","lat":49.273143,"lon":17.093413,"is_passed":false},{"stop_id":"U17502Z1","name":"Moravské Málkovice","arrival_time":"8:51:00","departure_time":"8:51:00","lat":49.2577,"lon":17.090655,"is_passed":false},{"stop_id":"U17501Z1","name":"Moravské Málkovice, u koupaliště","arrival_time":"8:53:00","departure_time":"8:53:00","lat":49.252467,"lon":17.092912,"is_passed":false},{"stop_id":"U17503Z1","name":"Orlovice","arrival_time":"8:55:00","departure_time":"9:35:00","lat":49.240533,"lon":17.094317,"is_passed":false}],"7959":[{"stop_id":"U17503Z2","name":"Orlovice","arrival_time":"9:35:00","departure_time":"9:35:00","lat":49.240533,"lon":17.094317,"is_passed":false},{"stop_id":"U17501Z2","name":"Moravské Málkovice, u koupaliště","arrival_time":"9:37:00","departure_time":"9:37:00","lat":49.252517,"lon":17.092942,"is_passed":false},{"stop_id":"U17502Z2","name":"Moravské Málkovice","arrival_time":"9:39:00","departure_time":"9:39:00","lat":49.257815,"lon":17.090555,"is_passed":false},{"stop_id":"U17518Z2","name":"Medlovice","arrival_time":"9:42:00","departure_time":"9:42:00","lat":49.273143,"lon":17.093413,"is_passed":false},{"stop_id":"U17517Z1","name":"Medlovice, rozcestí","arrival_time":"9:44:00","departure_time":"9:45:00","lat":49.277998,"lon":17.093088,"is_passed":false},{"stop_id":"U17534Z2","name":"Ivanovice na Hané, Fischer","arrival_time":"9:49:00","departure_time":"9:49:00","lat":49.29508,"lon":17.095866,"is_passed":false},{"stop_id":"U17515Z2","name":"Ivanovice na Hané, u Škrku","arrival_time":"9:51:00","departure_time":"9:51:00","lat":49.301173,"lon":17.093988,"is_passed":false},{"stop_id":"U17516Z2","name":"Ivanovice na Hané, Žižkova","arrival_time":"9:53:00","departure_time":"9:53:00","lat":49.306818,"lon":17.095633,"is_passed":false},{"stop_id":"U17514Z1","name":"Ivanovice na Hané, aut. st.","arrival_time":"9:54:00","departure_time":"10:31:00","lat":49.304557,"lon":17.08873,"is_passed":false}]}