{"811":[{"stop_id":"U30009Z2","name":"Křižanov","arrival_time":"4:25:00","departure_time":"4:25:00","lat":49.384694,"lon":16.080389,"is_passed":false},{"stop_id":"U30302Z2","name":"Ořechov","arrival_time":"4:29:00","departure_time":"4:29:00","lat":49.350447,"lon":16.136416,"is_passed":false},{"stop_id":"U30305Z2","name":"Osová Bítýška","arrival_time":"4:33:00","departure_time":"4:33:00","lat":49.329893,"lon":16.168305,"is_passed":false},{"stop_id":"U23501Z2","name":"Vlkov-Osová","arrival_time":"4:35:00","departure_time":"4:36:00","lat":49.326883,"lon":16.202114,"is_passed":false},{"stop_id":"U13454Z11","name":"Níhov, železniční stanice","arrival_time":"4:40:00","departure_time":"4:41:00","lat":49.33637,"lon":16.270573,"is_passed":false},{"stop_id":"U13425Z11","name":"Řikonín, železniční stanice","arrival_time":"4:44:00","departure_time":"4:45:00","lat":49.365833,"lon":16.305833,"is_passed":false},{"stop_id":"U13411Z11","name":"Dolní Loučky, železniční stanice","arrival_time":"4:47:00","departure_time":"4:47:00","lat":49.356389,"lon":16.346945,"is_passed":false},{"stop_id":"U13334Z21","name":"Tišnov, železniční stanice","arrival_time":"4:54:00","departure_time":"4:59:00","lat":49.3475,"lon":16.41725,"is_passed":false},{"stop_id":"U13306Z11","name":"Hradčany, železniční stanice","arrival_time":"5:01:00","departure_time":"5:02:00","lat":49.333878,"lon":16.437893,"is_passed":false},{"stop_id":"U13206Z11","name":"Čebín, železniční stanice","arrival_time":"5:04:00","departure_time":"5:05:00","lat":49.319722,"lon":16.465278,"is_passed":false},{"stop_id":"U13143Z11","name":"Kuřim, železniční stanice","arrival_time":"5:10:00","departure_time":"5:11:00","lat":49.301,"lon":16.534523,"is_passed":false},{"stop_id":"U13109Z11","name":"Česká, železniční stanice","arrival_time":"5:13:00","departure_time":"5:14:00","lat":49.284546,"lon":16.566731,"is_passed":false},{"stop_id":"U1557Z11","name":"Řečkovice, nádraží","arrival_time":"5:18:00","departure_time":"5:18:00","lat":49.250794,"lon":16.590446,"is_passed":false},{"stop_id":"U1286Z11","name":"Královo Pole, nádraží","arrival_time":"5:21:00","departure_time":"5:22:00","lat":49.231051,"lon":16.596651,"is_passed":false},{"stop_id":"U1331Z11","name":"Lesná, nádraží","arrival_time":"5:24:00","departure_time":"5:25:00","lat":49.220432,"lon":16.627505,"is_passed":false},{"stop_id":"U1809Z11","name":"Židenice, nádraží","arrival_time":"5:31:00","departure_time":"5:31:00","lat":49.204282,"lon":16.636042,"is_passed":false},{"stop_id":"U1146Z98","name":"Hlavní nádraží","arrival_time":"5:36:00","departure_time":"5:40:00","lat":49.19035,"lon":16.612342,"is_passed":false},{"stop_id":"U15140Z11","name":"Modřice, železniční stanice","arrival_time":"5:47:00","departure_time":"5:48:00","lat":49.133256,"lon":16.606209,"is_passed":false},{"stop_id":"U15181Z11","name":"Rajhrad, železniční stanice","arrival_time":"5:51:00","departure_time":"5:52:00","lat":49.084966,"lon":16.60532,"is_passed":false},{"stop_id":"U15222Z11","name":"Hrušovany u Brna, žel. st.","arrival_time":"5:56:00","departure_time":"5:57:00","lat":49.034228,"lon":16.591501,"is_passed":false},{"stop_id":"U15306Z11","name":"Žabčice, žel. st.","arrival_time":"5:59:00","departure_time":"6:00:00","lat":49.010857,"lon":16.594833,"is_passed":false},{"stop_id":"U15307Z11","name":"Vranovice, žel.st.","arrival_time":"6:04:00","departure_time":"6:05:00","lat":48.964528,"lon":16.604187,"is_passed":false},{"stop_id":"U15425Z11","name":"Šakvice, železniční stanice","arrival_time":"6:10:00","departure_time":"6:11:00","lat":48.912883,"lon":16.70557,"is_passed":false},{"stop_id":"U15403Z11","name":"Hustopeče, autobusové nádraží","arrival_time":"6:18:00","departure_time":"6:37:00","lat":48.93752,"lon":16.735901,"is_passed":false}],"8110":[{"stop_id":"U19205Z2","name":"Strážnice, aut. st.","arrival_time":"5:25:00","departure_time":"5:25:00","lat":48.898393,"lon":17.315802,"is_passed":false},{"stop_id":"U19207Z2","name":"Strážnice, náměstí 17. listopadu","arrival_time":"5:26:00","departure_time":"5:26:00","lat":48.902415,"lon":17.318367,"is_passed":false},{"stop_id":"U19204Z2","name":"Strážnice, ATC","arrival_time":"5:27:00","departure_time":"5:27:00","lat":48.909397,"lon":17.310663,"is_passed":false},{"stop_id":"U16905Z2","name":"Bzenec, Přívoz, železniční stanice","arrival_time":"5:31:00","departure_time":"5:31:00","lat":48.936445,"lon":17.28984,"is_passed":false},{"stop_id":"U16917Z2","name":"Bzenec, Přívoz","arrival_time":"5:32:00","departure_time":"5:32:00","lat":48.936142,"lon":17.294133,"is_passed":false},{"stop_id":"U16900Z2","name":"Bzenec, Doubrava","arrival_time":"5:36:00","departure_time":"5:36:00","lat":48.961533,"lon":17.287165,"is_passed":false},{"stop_id":"U16907Z2","name":"Bzenec, ZŠ","arrival_time":"5:39:00","departure_time":"5:39:00","lat":48.970537,"lon":17.279883,"is_passed":false},{"stop_id":"U16901Z2","name":"Bzenec, náměstí","arrival_time":"5:41:00","departure_time":"5:41:00","lat":48.973247,"lon":17.265269,"is_passed":false},{"stop_id":"U16903Z2","name":"Bzenec, Nový Svět","arrival_time":"5:43:00","departure_time":"5:43:00","lat":48.972955,"lon":17.251683,"is_passed":false},{"stop_id":"U16822Z2","name":"Vracov, obecní úřad","arrival_time":"5:46:00","departure_time":"5:46:00","lat":48.979768,"lon":17.21934,"is_passed":false},{"stop_id":"U16823Z2","name":"Vracov, Slokov","arrival_time":"5:48:00","departure_time":"5:48:00","lat":48.98178,"lon":17.208207,"is_passed":false},{"stop_id":"U16820Z2","name":"Vlkoš, Tesko","arrival_time":"5:52:00","departure_time":"5:52:00","lat":48.987175,"lon":17.172433,"is_passed":false},{"stop_id":"U16817Z2","name":"Vlkoš","arrival_time":"5:54:00","departure_time":"5:54:00","lat":48.990744,"lon":17.162083,"is_passed":false},{"stop_id":"U16608Z16","name":"Kyjov, aut. st.","arrival_time":"6:00:00","departure_time":"6:20:00","lat":49.006873,"lon":17.123912,"is_passed":false}],"8111":[{"stop_id":"U16608Z12","name":"Kyjov, aut. st.","arrival_time":"6:20:00","departure_time":"6:20:00","lat":49.006598,"lon":17.124015,"is_passed":false},{"stop_id":"U16817Z1","name":"Vlkoš","arrival_time":"6:26:00","departure_time":"6:26:00","lat":48.990855,"lon":17.16172,"is_passed":false},{"stop_id":"U16820Z1","name":"Vlkoš, Tesko","arrival_time":"6:28:00","departure_time":"6:28:00","lat":48.987033,"lon":17.172742,"is_passed":false},{"stop_id":"U16823Z1","name":"Vracov, Slokov","arrival_time":"6:32:00","departure_time":"6:32:00","lat":48.981753,"lon":17.20729,"is_passed":false},{"stop_id":"U16822Z1","name":"Vracov, obecní úřad","arrival_time":"6:34:00","departure_time":"6:34:00","lat":48.97962,"lon":17.219452,"is_passed":false},{"stop_id":"U16903Z1","name":"Bzenec, Nový Svět","arrival_time":"6:37:00","departure_time":"6:37:00","lat":48.97298,"lon":17.251258,"is_passed":false},{"stop_id":"U16901Z1","name":"Bzenec, náměstí","arrival_time":"6:39:00","departure_time":"6:40:00","lat":48.97278,"lon":17.267467,"is_passed":false},{"stop_id":"U16907Z1","name":"Bzenec, ZŠ","arrival_time":"6:42:00","departure_time":"6:42:00","lat":48.970447,"lon":17.279397,"is_passed":false},{"stop_id":"U16900Z1","name":"Bzenec, Doubrava","arrival_time":"6:45:00","departure_time":"6:45:00","lat":48.961827,"lon":17.286975,"is_passed":false},{"stop_id":"U16905Z1","name":"Bzenec, Přívoz, železniční stanice","arrival_time":"6:50:00","departure_time":"6:50:00","lat":48.936445,"lon":17.28984,"is_passed":false},{"stop_id":"U16917Z1","name":"Bzenec, Přívoz","arrival_time":"6:51:00","departure_time":"6:51:00","lat":48.935987,"lon":17.294041,"is_passed":false},{"stop_id":"U19204Z1","name":"Strážnice, ATC","arrival_time":"6:54:00","departure_time":"6:54:00","lat":48.909397,"lon":17.310663,"is_passed":false},{"stop_id":"U19207Z1","name":"Strážnice, náměstí 17. listopadu","arrival_time":"6:56:00","departure_time":"6:56:00","lat":48.90244,"lon":17.318012,"is_passed":false},{"stop_id":"U19205Z51","name":"Strážnice, aut. st.","arrival_time":"6:58:00","departure_time":"7:00:00","lat":48.898322,"lon":17.315938,"is_passed":false}],"8112":[{"stop_id":"U19205Z2","name":"Strážnice, aut. st.","arrival_time":"7:00:00","departure_time":"7:00:00","lat":48.898393,"lon":17.315802,"is_passed":false},{"stop_id":"U19207Z2","name":"Strážnice, náměstí 17. listopadu","arrival_time":"7:02:00","departure_time":"7:02:00","lat":48.902415,"lon":17.318367,"is_passed":false},{"stop_id":"U19204Z2","name":"Strážnice, ATC","arrival_time":"7:04:00","departure_time":"7:04:00","lat":48.909397,"lon":17.310663,"is_passed":false},{"stop_id":"U16905Z2","name":"Bzenec, Přívoz, železniční stanice","arrival_time":"7:08:00","departure_time":"7:08:00","lat":48.936445,"lon":17.28984,"is_passed":false},{"stop_id":"U16917Z2","name":"Bzenec, Přívoz","arrival_time":"7:09:00","departure_time":"7:09:00","lat":48.936142,"lon":17.294133,"is_passed":false},{"stop_id":"U16900Z2","name":"Bzenec, Doubrava","arrival_time":"7:13:00","departure_time":"7:13:00","lat":48.961533,"lon":17.287165,"is_passed":false},{"stop_id":"U16907Z2","name":"Bzenec, ZŠ","arrival_time":"7:16:00","departure_time":"7:16:00","lat":48.970537,"lon":17.279883,"is_passed":false},{"stop_id":"U16901Z2","name":"Bzenec, náměstí","arrival_time":"7:18:00","departure_time":"7:21:00","lat":48.973247,"lon":17.265269,"is_passed":false},{"stop_id":"U16903Z2","name":"Bzenec, Nový Svět","arrival_time":"7:23:00","departure_time":"7:23:00","lat":48.972955,"lon":17.251683,"is_passed":false},{"stop_id":"U16822Z2","name":"Vracov, obecní úřad","arrival_time":"7:26:00","departure_time":"7:26:00","lat":48.979768,"lon":17.21934,"is_passed":false},{"stop_id":"U16823Z2","name":"Vracov, Slokov","arrival_time":"7:28:00","departure_time":"7:28:00","lat":48.98178,"lon":17.208207,"is_passed":false},{"stop_id":"U16820Z2","name":"Vlkoš, Tesko","arrival_time":"7:32:00","departure_time":"7:32:00","lat":48.987175,"lon":17.172433,"is_passed":false},{"stop_id":"U16817Z2","name":"Vlkoš","arrival_time":"7:34:00","departure_time":"7:34:00","lat":48.990744,"lon":17.162083,"is_passed":false},{"stop_id":"U16608Z16","name":"Kyjov, aut. st.","arrival_time":"7:40:00","departure_time":"9:40:00","lat":49.006873,"lon":17.123912,"is_passed":false}],"8113":[{"stop_id":"U16608Z12","name":"Kyjov, aut. st.","arrival_time":"9:40:00","departure_time":"9:40:00","lat":49.006598,"lon":17.124015,"is_passed":false},{"stop_id":"U16817Z1","name":"Vlkoš","arrival_time":"9:46:00","departure_time":"9:46:00","lat":48.990855,"lon":17.16172,"is_passed":false},{"stop_id":"U16820Z1","name":"Vlkoš, Tesko","arrival_time":"9:48:00","departure_time":"9:48:00","lat":48.987033,"lon":17.172742,"is_passed":false},{"stop_id":"U16823Z1","name":"Vracov, Slokov","arrival_time":"9:52:00","departure_time":"9:52:00","lat":48.981753,"lon":17.20729,"is_passed":false},{"stop_id":"U16822Z1","name":"Vracov, obecní úřad","arrival_time":"9:54:00","departure_time":"9:54:00","lat":48.97962,"lon":17.219452,"is_passed":false},{"stop_id":"U16903Z1","name":"Bzenec, Nový Svět","arrival_time":"9:57:00","departure_time":"9:57:00","lat":48.97298,"lon":17.251258,"is_passed":false},{"stop_id":"U16901Z1","name":"Bzenec, náměstí","arrival_time":"9:59:00","departure_time":"10:02:00","lat":48.97278,"lon":17.267467,"is_passed":false},{"stop_id":"U16907Z1","name":"Bzenec, ZŠ","arrival_time":"10:04:00","departure_time":"10:04:00","lat":48.970447,"lon":17.279397,"is_passed":false},{"stop_id":"U16900Z1","name":"Bzenec, Doubrava","arrival_time":"10:07:00","departure_time":"10:07:00","lat":48.961827,"lon":17.286975,"is_passed":false},{"stop_id":"U16917Z1","name":"Bzenec, Přívoz","arrival_time":"10:11:00","departure_time":"10:11:00","lat":48.935987,"lon":17.294041,"is_passed":false},{"stop_id":"U19204Z1","name":"Strážnice, ATC","arrival_time":"10:14:00","departure_time":"10:14:00","lat":48.909397,"lon":17.310663,"is_passed":false},{"stop_id":"U19207Z1","name":"Strážnice, náměstí 17. listopadu","arrival_time":"10:16:00","departure_time":"10:16:00","lat":48.90244,"lon":17.318012,"is_passed":false},{"stop_id":"U19205Z51","name":"Strážnice, aut. st.","arrival_time":"10:18:00","departure_time":"10:46:00","lat":48.898322,"lon":17.315938,"is_passed":false}],"8114":[{"stop_id":"U19205Z2","name":"Strážnice, aut. st.","arrival_time":"10:46:00","departure_time":"10:46:00","lat":48.898393,"lon":17.315802,"is_passed":false},{"stop_id":"U19207Z2","name":"Strážnice, náměstí 17. listopadu","arrival_time":"10:47:00","departure_time":"10:47:00","lat":48.902415,"lon":17.318367,"is_passed":false},{"stop_id":"U19204Z2","name":"Strážnice, ATC","arrival_time":"10:49:00","departure_time":"10:49:00","lat":48.909397,"lon":17.310663,"is_passed":false},{"stop_id":"U16917Z2","name":"Bzenec, Přívoz","arrival_time":"10:52:00","departure_time":"10:52:00","lat":48.936142,"lon":17.294133,"is_passed":false},{"stop_id":"U16900Z2","name":"Bzenec, Doubrava","arrival_time":"10:56:00","departure_time":"10:56:00","lat":48.961533,"lon":17.287165,"is_passed":false},{"stop_id":"U16907Z2","name":"Bzenec, ZŠ","arrival_time":"10:59:00","departure_time":"10:59:00","lat":48.970537,"lon":17.279883,"is_passed":false},{"stop_id":"U16901Z2","name":"Bzenec, náměstí","arrival_time":"11:01:00","departure_time":"11:01:00","lat":48.973247,"lon":17.265269,"is_passed":false},{"stop_id":"U16903Z2","name":"Bzenec, Nový Svět","arrival_time":"11:03:00","departure_time":"11:03:00","lat":48.972955,"lon":17.251683,"is_passed":false},{"stop_id":"U16822Z2","name":"Vracov, obecní úřad","arrival_time":"11:06:00","departure_time":"11:06:00","lat":48.979768,"lon":17.21934,"is_passed":false},{"stop_id":"U16823Z2","name":"Vracov, Slokov","arrival_time":"11:08:00","departure_time":"11:08:00","lat":48.98178,"lon":17.208207,"is_passed":false},{"stop_id":"U16820Z2","name":"Vlkoš, Tesko","arrival_time":"11:12:00","departure_time":"11:12:00","lat":48.987175,"lon":17.172433,"is_passed":false},{"stop_id":"U16817Z2","name":"Vlkoš","arrival_time":"11:14:00","departure_time":"11:14:00","lat":48.990744,"lon":17.162083,"is_passed":false},{"stop_id":"U16608Z16","name":"Kyjov, aut. st.","arrival_time":"11:20:00","departure_time":"11:20:00","lat":49.006873,"lon":17.123912,"is_passed":false}],"8115":[{"stop_id":"U16608Z5","name":"Kyjov, aut. st.","arrival_time":"11:53:00","departure_time":"11:53:00","lat":49.006748,"lon":17.124315,"is_passed":false},{"stop_id":"U16817Z1","name":"Vlkoš","arrival_time":"11:59:00","departure_time":"11:59:00","lat":48.990855,"lon":17.16172,"is_passed":false},{"stop_id":"U16818Z1","name":"Vlkoš, Lidový dům","arrival_time":"12:00:00","departure_time":"12:00:00","lat":48.992003,"lon":17.166842,"is_passed":false},{"stop_id":"U16832Z1","name":"Kelčany, obecní úřad","arrival_time":"12:03:00","departure_time":"12:03:00","lat":49.005392,"lon":17.173913,"is_passed":false},{"stop_id":"U16833Z1","name":"Kelčany, u sklepů","arrival_time":"12:05:00","departure_time":"12:05:00","lat":49.012553,"lon":17.176447,"is_passed":false},{"stop_id":"U16834Z1","name":"Kelčany, ZSP","arrival_time":"12:06:00","departure_time":"12:06:00","lat":49.012325,"lon":17.184113,"is_passed":false},{"stop_id":"U16841Z1","name":"Žádovice","arrival_time":"12:09:00","departure_time":"12:09:00","lat":49.015975,"lon":17.195902,"is_passed":false},{"stop_id":"U16830Z1","name":"Ježov, u Šupalového","arrival_time":"12:12:00","departure_time":"12:12:00","lat":49.02444,"lon":17.20635,"is_passed":false},{"stop_id":"U16831Z1","name":"Ježov, zdravotní středisko","arrival_time":"12:13:00","departure_time":"12:13:00","lat":49.026497,"lon":17.21014,"is_passed":false},{"stop_id":"U16829Z1","name":"Ježov, škola","arrival_time":"12:14:00","departure_time":"12:14:00","lat":49.024393,"lon":17.213237,"is_passed":false},{"stop_id":"U16844Z2","name":"Žeravice, obecní úřad","arrival_time":"12:16:00","departure_time":"13:01:00","lat":49.023193,"lon":17.236705,"is_passed":false}],"8116":[{"stop_id":"U16844Z2","name":"Žeravice, obecní úřad","arrival_time":"13:01:00","departure_time":"13:01:00","lat":49.023193,"lon":17.236705,"is_passed":false},{"stop_id":"U16829Z2","name":"Ježov, škola","arrival_time":"13:04:00","departure_time":"13:04:00","lat":49.024393,"lon":17.213237,"is_passed":false},{"stop_id":"U16831Z2","name":"Ježov, zdravotní středisko","arrival_time":"13:05:00","departure_time":"13:05:00","lat":49.026387,"lon":17.20933,"is_passed":false},{"stop_id":"U16830Z2","name":"Ježov, u Šupalového","arrival_time":"13:06:00","departure_time":"13:06:00","lat":49.024517,"lon":17.206255,"is_passed":false},{"stop_id":"U16841Z2","name":"Žádovice","arrival_time":"13:09:00","departure_time":"13:09:00","lat":49.015823,"lon":17.195413,"is_passed":false},{"stop_id":"U16834Z2","name":"Kelčany, ZSP","arrival_time":"13:12:00","departure_time":"13:12:00","lat":49.012325,"lon":17.184113,"is_passed":false},{"stop_id":"U16833Z2","name":"Kelčany, u sklepů","arrival_time":"13:13:00","departure_time":"13:13:00","lat":49.01266,"lon":17.176467,"is_passed":false},{"stop_id":"U16832Z2","name":"Kelčany, obecní úřad","arrival_time":"13:15:00","departure_time":"13:15:00","lat":49.005392,"lon":17.173913,"is_passed":false},{"stop_id":"U16818Z2","name":"Vlkoš, Lidový dům","arrival_time":"13:18:00","departure_time":"13:18:00","lat":48.991884,"lon":17.166364,"is_passed":false},{"stop_id":"U16817Z2","name":"Vlkoš","arrival_time":"13:19:00","departure_time":"13:19:00","lat":48.990744,"lon":17.162083,"is_passed":false},{"stop_id":"U16608Z16","name":"Kyjov, aut. st.","arrival_time":"13:25:00","departure_time":"13:25:00","lat":49.006873,"lon":17.123912,"is_passed":false}],"8117":[{"stop_id":"U16608Z12","name":"Kyjov, aut. st.","arrival_time":"13:30:00","departure_time":"13:30:00","lat":49.006598,"lon":17.124015,"is_passed":false},{"stop_id":"U16817Z1","name":"Vlkoš","arrival_time":"13:36:00","departure_time":"13:36:00","lat":48.990855,"lon":17.16172,"is_passed":false},{"stop_id":"U16820Z1","name":"Vlkoš, Tesko","arrival_time":"13:38:00","departure_time":"13:38:00","lat":48.987033,"lon":17.172742,"is_passed":false},{"stop_id":"U16823Z1","name":"Vracov, Slokov","arrival_time":"13:42:00","departure_time":"13:42:00","lat":48.981753,"lon":17.20729,"is_passed":false},{"stop_id":"U16822Z1","name":"Vracov, obecní úřad","arrival_time":"13:44:00","departure_time":"13:44:00","lat":48.97962,"lon":17.219452,"is_passed":false},{"stop_id":"U16903Z1","name":"Bzenec, Nový Svět","arrival_time":"13:47:00","departure_time":"13:47:00","lat":48.97298,"lon":17.251258,"is_passed":false},{"stop_id":"U16901Z1","name":"Bzenec, náměstí","arrival_time":"13:49:00","departure_time":"14:00:00","lat":48.97278,"lon":17.267467,"is_passed":false},{"stop_id":"U16907Z1","name":"Bzenec, ZŠ","arrival_time":"14:02:00","departure_time":"14:02:00","lat":48.970447,"lon":17.279397,"is_passed":false},{"stop_id":"U16900Z1","name":"Bzenec, Doubrava","arrival_time":"14:05:00","departure_time":"14:05:00","lat":48.961827,"lon":17.286975,"is_passed":false},{"stop_id":"U16905Z1","name":"Bzenec, Přívoz, železniční stanice","arrival_time":"14:10:00","departure_time":"14:10:00","lat":48.936445,"lon":17.28984,"is_passed":false},{"stop_id":"U16917Z1","name":"Bzenec, Přívoz","arrival_time":"14:11:00","departure_time":"14:11:00","lat":48.935987,"lon":17.294041,"is_passed":false},{"stop_id":"U19204Z1","name":"Strážnice, ATC","arrival_time":"14:14:00","departure_time":"14:14:00","lat":48.909397,"lon":17.310663,"is_passed":false},{"stop_id":"U19207Z1","name":"Strážnice, náměstí 17. listopadu","arrival_time":"14:16:00","departure_time":"14:16:00","lat":48.90244,"lon":17.318012,"is_passed":false},{"stop_id":"U19205Z51","name":"Strážnice, aut. st.","arrival_time":"14:18:00","departure_time":"14:45:00","lat":48.898322,"lon":17.315938,"is_passed":false}],"8118":[{"stop_id":"U19205Z2","name":"Strážnice, aut. st.","arrival_time":"14:45:00","departure_time":"14:45:00","lat":48.898393,"lon":17.315802,"is_passed":false},{"stop_id":"U19207Z2","name":"Strážnice, náměstí 17. listopadu","arrival_time":"14:47:00","departure_time":"14:47:00","lat":48.902415,"lon":17.318367,"is_passed":false},{"stop_id":"U19204Z2","name":"Strážnice, ATC","arrival_time":"14:49:00","departure_time":"14:49:00","lat":48.909397,"lon":17.310663,"is_passed":false},{"stop_id":"U16917Z2","name":"Bzenec, Přívoz","arrival_time":"14:52:00","departure_time":"14:52:00","lat":48.936142,"lon":17.294133,"is_passed":false},{"stop_id":"U16900Z2","name":"Bzenec, Doubrava","arrival_time":"14:56:00","departure_time":"14:56:00","lat":48.961533,"lon":17.287165,"is_passed":false},{"stop_id":"U16907Z2","name":"Bzenec, ZŠ","arrival_time":"14:59:00","departure_time":"14:59:00","lat":48.970537,"lon":17.279883,"is_passed":false},{"stop_id":"U16901Z2","name":"Bzenec, náměstí","arrival_time":"15:01:00","departure_time":"15:01:00","lat":48.973247,"lon":17.265269,"is_passed":false},{"stop_id":"U16903Z2","name":"Bzenec, Nový Svět","arrival_time":"15:03:00","departure_time":"15:03:00","lat":48.972955,"lon":17.251683,"is_passed":false},{"stop_id":"U16822Z2","name":"Vracov, obecní úřad","arrival_time":"15:06:00","departure_time":"15:06:00","lat":48.979768,"lon":17.21934,"is_passed":false},{"stop_id":"U16823Z2","name":"Vracov, Slokov","arrival_time":"15:08:00","departure_time":"15:08:00","lat":48.98178,"lon":17.208207,"is_passed":false},{"stop_id":"U16820Z2","name":"Vlkoš, Tesko","arrival_time":"15:12:00","departure_time":"15:12:00","lat":48.987175,"lon":17.172433,"is_passed":false},{"stop_id":"U16817Z2","name":"Vlkoš","arrival_time":"15:14:00","departure_time":"15:14:00","lat":48.990744,"lon":17.162083,"is_passed":false},{"stop_id":"U16608Z16","name":"Kyjov, aut. st.","arrival_time":"15:20:00","departure_time":"15:40:00","lat":49.006873,"lon":17.123912,"is_passed":false}],"8119":[{"stop_id":"U16608Z12","name":"Kyjov, aut. st.","arrival_time":"15:40:00","departure_time":"15:40:00","lat":49.006598,"lon":17.124015,"is_passed":false},{"stop_id":"U16817Z1","name":"Vlkoš","arrival_time":"15:46:00","departure_time":"15:46:00","lat":48.990855,"lon":17.16172,"is_passed":false},{"stop_id":"U16820Z1","name":"Vlkoš, Tesko","arrival_time":"15:48:00","departure_time":"15:48:00","lat":48.987033,"lon":17.172742,"is_passed":false},{"stop_id":"U16823Z1","name":"Vracov, Slokov","arrival_time":"15:52:00","departure_time":"15:52:00","lat":48.981753,"lon":17.20729,"is_passed":false},{"stop_id":"U16822Z1","name":"Vracov, obecní úřad","arrival_time":"15:54:00","departure_time":"15:54:00","lat":48.97962,"lon":17.219452,"is_passed":false},{"stop_id":"U16903Z1","name":"Bzenec, Nový Svět","arrival_time":"15:57:00","departure_time":"15:57:00","lat":48.97298,"lon":17.251258,"is_passed":false},{"stop_id":"U16901Z1","name":"Bzenec, náměstí","arrival_time":"15:59:00","departure_time":"16:00:00","lat":48.97278,"lon":17.267467,"is_passed":false},{"stop_id":"U16907Z1","name":"Bzenec, ZŠ","arrival_time":"16:02:00","departure_time":"16:02:00","lat":48.970447,"lon":17.279397,"is_passed":false},{"stop_id":"U16900Z1","name":"Bzenec, Doubrava","arrival_time":"16:05:00","departure_time":"16:05:00","lat":48.961827,"lon":17.286975,"is_passed":false},{"stop_id":"U16905Z1","name":"Bzenec, Přívoz, železniční stanice","arrival_time":"16:10:00","departure_time":"16:10:00","lat":48.936445,"lon":17.28984,"is_passed":false},{"stop_id":"U16917Z1","name":"Bzenec, Přívoz","arrival_time":"16:11:00","departure_time":"16:11:00","lat":48.935987,"lon":17.294041,"is_passed":false},{"stop_id":"U19204Z1","name":"Strážnice, ATC","arrival_time":"16:14:00","departure_time":"16:14:00","lat":48.909397,"lon":17.310663,"is_passed":false},{"stop_id":"U19207Z1","name":"Strážnice, náměstí 17. listopadu","arrival_time":"16:16:00","departure_time":"16:16:00","lat":48.90244,"lon":17.318012,"is_passed":false},{"stop_id":"U19205Z51","name":"Strážnice, aut. st.","arrival_time":"16:18:00","departure_time":"16:45:00","lat":48.898322,"lon":17.315938,"is_passed":false}]}