[{"stop_id":"U16608Z5","name":"Kyjov, aut. st.","arrival_time":"6:23:00","departure_time":"6:23:00","lat":49.006748,"lon":17.124315,"is_passed":false},{"stop_id":"U16609Z1","name":"Kyjov, Brandlova sídliště","arrival_time":"6:25:00","departure_time":"6:25:00","lat":49.012038,"lon":17.136722,"is_passed":false},{"stop_id":"U16833Z1","name":"Kelčany, u sklepů","arrival_time":"6:28:00","departure_time":"6:28:00","lat":49.012553,"lon":17.176447,"is_passed":false},{"stop_id":"U16834Z1","name":"Kelčany, ZSP","arrival_time":"6:29:00","departure_time":"6:29:00","lat":49.012325,"lon":17.184113,"is_passed":false},{"stop_id":"U16841Z1","name":"Žádovice","arrival_time":"6:32:00","departure_time":"6:32:00","lat":49.015975,"lon":17.195902,"is_passed":false},{"stop_id":"U16830Z1","name":"Ježov, u Šupalového","arrival_time":"6:36:00","departure_time":"6:36:00","lat":49.02444,"lon":17.20635,"is_passed":false},{"stop_id":"U16849Z1","name":"Skalka","arrival_time":"6:38:00","departure_time":"6:38:00","lat":49.035245,"lon":17.208693,"is_passed":false},{"stop_id":"U16850Z1","name":"Skalka, ZD","arrival_time":"6:39:00","departure_time":"6:39:00","lat":49.038252,"lon":17.207423,"is_passed":false},{"stop_id":"U16845Z1","name":"Labuty","arrival_time":"6:41:00","departure_time":"6:41:00","lat":49.046592,"lon":17.212272,"is_passed":false},{"stop_id":"U16851Z1","name":"Vřesovice","arrival_time":"6:43:00","departure_time":"6:43:00","lat":49.058695,"lon":17.215023,"is_passed":false},{"stop_id":"U16852Z1","name":"Vřesovice, Paseky","arrival_time":"6:44:00","departure_time":"6:44:00","lat":49.059433,"lon":17.21966,"is_passed":false},{"stop_id":"U16848Z1","name":"Osvětimany, ZD","arrival_time":"6:47:00","departure_time":"6:47:00","lat":49.056377,"lon":17.243733,"is_passed":false},{"stop_id":"U16846Z2","name":"Osvětimany","arrival_time":"6:49:00","departure_time":"7:03:00","lat":49.05585,"lon":17.24943,"is_passed":false}]