[{"stop_id":"U16844Z2","name":"Žeravice, obecní úřad","arrival_time":"5:36:00","departure_time":"5:36:00","lat":49.023193,"lon":17.236705,"is_passed":false},{"stop_id":"U16831Z2","name":"Ježov, zdravotní středisko","arrival_time":"5:40:00","departure_time":"5:40:00","lat":49.026387,"lon":17.20933,"is_passed":false},{"stop_id":"U16830Z2","name":"Ježov, u Šupalového","arrival_time":"5:41:00","departure_time":"5:41:00","lat":49.024517,"lon":17.206255,"is_passed":false},{"stop_id":"U16841Z2","name":"Žádovice","arrival_time":"5:44:00","departure_time":"5:44:00","lat":49.015823,"lon":17.195413,"is_passed":false},{"stop_id":"U16834Z2","name":"Kelčany, ZSP","arrival_time":"5:47:00","departure_time":"5:47:00","lat":49.012325,"lon":17.184113,"is_passed":false},{"stop_id":"U16833Z2","name":"Kelčany, u sklepů","arrival_time":"5:48:00","departure_time":"5:48:00","lat":49.01266,"lon":17.176467,"is_passed":false},{"stop_id":"U16832Z2","name":"Kelčany, obecní úřad","arrival_time":"5:50:00","departure_time":"5:50:00","lat":49.005392,"lon":17.173913,"is_passed":false},{"stop_id":"U16818Z2","name":"Vlkoš, Lidový dům","arrival_time":"5:53:00","departure_time":"5:53:00","lat":48.991884,"lon":17.166364,"is_passed":false},{"stop_id":"U16817Z2","name":"Vlkoš","arrival_time":"5:54:00","departure_time":"5:54:00","lat":48.990744,"lon":17.162083,"is_passed":false},{"stop_id":"U16608Z17","name":"Kyjov, aut. st.","arrival_time":"6:00:00","departure_time":"6:05:00","lat":49.006463,"lon":17.124008,"is_passed":false},{"stop_id":"U16613Z1","name":"Kyjov, pod nemocnicí","arrival_time":"6:07:00","departure_time":"6:07:00","lat":49.007868,"lon":17.114425,"is_passed":false},{"stop_id":"U16650Z1","name":"Kyjov, železniční stanice","arrival_time":"6:10:00","departure_time":"6:22:00","lat":49.015685,"lon":17.122964,"is_passed":false}]