[{"stop_id":"U16846Z2","name":"Osvětimany","arrival_time":"12:49:00","departure_time":"12:49:00","lat":49.05585,"lon":17.24943,"is_passed":false},{"stop_id":"U16848Z2","name":"Osvětimany, ZD","arrival_time":"12:51:00","departure_time":"12:51:00","lat":49.056377,"lon":17.243733,"is_passed":false},{"stop_id":"U16852Z2","name":"Vřesovice, Paseky","arrival_time":"12:54:00","departure_time":"12:54:00","lat":49.05953,"lon":17.219705,"is_passed":false},{"stop_id":"U16851Z2","name":"Vřesovice","arrival_time":"12:55:00","departure_time":"12:55:00","lat":49.058897,"lon":17.215132,"is_passed":false},{"stop_id":"U16845Z2","name":"Labuty","arrival_time":"12:57:00","departure_time":"12:57:00","lat":49.046583,"lon":17.212358,"is_passed":false},{"stop_id":"U16850Z2","name":"Skalka, ZD","arrival_time":"12:59:00","departure_time":"12:59:00","lat":49.03822,"lon":17.207225,"is_passed":false},{"stop_id":"U16849Z2","name":"Skalka","arrival_time":"13:00:00","departure_time":"13:00:00","lat":49.03522,"lon":17.208543,"is_passed":false},{"stop_id":"U16830Z2","name":"Ježov, u Šupalového","arrival_time":"13:02:00","departure_time":"13:02:00","lat":49.024517,"lon":17.206255,"is_passed":false},{"stop_id":"U16841Z2","name":"Žádovice","arrival_time":"13:06:00","departure_time":"13:06:00","lat":49.015823,"lon":17.195413,"is_passed":false},{"stop_id":"U16834Z2","name":"Kelčany, ZSP","arrival_time":"13:09:00","departure_time":"13:09:00","lat":49.012325,"lon":17.184113,"is_passed":false},{"stop_id":"U16833Z2","name":"Kelčany, u sklepů","arrival_time":"13:10:00","departure_time":"13:10:00","lat":49.01266,"lon":17.176467,"is_passed":false},{"stop_id":"U16609Z2","name":"Kyjov, Brandlova sídliště","arrival_time":"13:13:00","departure_time":"13:13:00","lat":49.011808,"lon":17.136515,"is_passed":false},{"stop_id":"U16608Z17","name":"Kyjov, aut. st.","arrival_time":"13:15:00","departure_time":"13:20:00","lat":49.006463,"lon":17.124008,"is_passed":false},{"stop_id":"U16613Z1","name":"Kyjov, pod nemocnicí","arrival_time":"13:22:00","departure_time":"13:22:00","lat":49.007868,"lon":17.114425,"is_passed":false},{"stop_id":"U16650Z1","name":"Kyjov, železniční stanice","arrival_time":"13:25:00","departure_time":"13:42:00","lat":49.015685,"lon":17.122964,"is_passed":false}]