[{"stop_id":"U15222Z11","name":"Hrušovany u Brna, žel. st.","arrival_time":"13:03:00","departure_time":"13:03:00","lat":49.034228,"lon":16.591501,"is_passed":false},{"stop_id":"U15306Z11","name":"Žabčice, žel. st.","arrival_time":"13:05:00","departure_time":"13:05:00","lat":49.010857,"lon":16.594833,"is_passed":false},{"stop_id":"U15307Z11","name":"Vranovice, žel.st.","arrival_time":"13:09:00","departure_time":"13:10:00","lat":48.964528,"lon":16.604187,"is_passed":false},{"stop_id":"U15425Z11","name":"Šakvice, železniční stanice","arrival_time":"13:15:00","departure_time":"13:16:00","lat":48.912883,"lon":16.70557,"is_passed":false},{"stop_id":"U15403Z11","name":"Hustopeče, autobusové nádraží","arrival_time":"13:22:00","departure_time":"13:22:00","lat":48.93752,"lon":16.735901,"is_passed":false}]