[{"stop_id":"U1146Z8","name":"Hlavní nádraží","arrival_time":"0:00:00","departure_time":"0:00:00","lat":49.191893,"lon":16.613334,"is_passed":false},{"stop_id":"U1677Z1","name":"Tržní","arrival_time":"0:03:00","departure_time":"0:03:00","lat":49.189973,"lon":16.632193,"is_passed":false},{"stop_id":"U1068Z3","name":"Černovičky","arrival_time":"0:07:00","departure_time":"0:07:00","lat":49.183143,"lon":16.669108,"is_passed":false},{"stop_id":"U1577Z5","name":"Slatina, sídliště","arrival_time":"0:09:00","departure_time":"0:09:00","lat":49.182195,"lon":16.690725,"is_passed":false},{"stop_id":"U16130Z1","name":"Šlapanice, Bedřichovice, rozc.","arrival_time":"0:12:00","departure_time":"0:12:00","lat":49.182882,"lon":16.723572,"is_passed":false},{"stop_id":"U16105Z1","name":"Jiříkovice, motorest Rohlenka","arrival_time":"0:15:00","departure_time":"0:15:00","lat":49.183436,"lon":16.761042,"is_passed":false},{"stop_id":"U16142Z1","name":"Tvarožná, zemědělské družstvo","arrival_time":"0:16:00","departure_time":"0:16:00","lat":49.185906,"lon":16.765089,"is_passed":false},{"stop_id":"U16153Z1","name":"Tvarožná","arrival_time":"0:17:00","departure_time":"0:17:00","lat":49.190736,"lon":16.770347,"is_passed":false},{"stop_id":"U16140Z1","name":"Tvarožná, sokolovna","arrival_time":"0:19:00","departure_time":"0:19:00","lat":49.193053,"lon":16.776292,"is_passed":false},{"stop_id":"U17215Z1","name":"Sivice","arrival_time":"0:22:00","departure_time":"0:22:00","lat":49.201394,"lon":16.783639,"is_passed":false},{"stop_id":"U17212Z1","name":"Pozořice, náměstí","arrival_time":"0:25:00","departure_time":"0:25:00","lat":49.208924,"lon":16.790865,"is_passed":false}]