[{"stop_id":"U15241Z21","name":"Židlochovice, železniční stanice","arrival_time":"7:11:00","departure_time":"7:11:00","lat":49.033113,"lon":16.617218,"is_passed":false},{"stop_id":"U15222Z10","name":"Hrušovany u Brna, žel. st.","arrival_time":"7:14:00","departure_time":"7:15:00","lat":49.034228,"lon":16.591501,"is_passed":false},{"stop_id":"U25201Z10","name":"Vojkovice nad Svratkou, žel. st.","arrival_time":"7:17:00","departure_time":"7:18:00","lat":49.056208,"lon":16.597445,"is_passed":false},{"stop_id":"U15181Z10","name":"Rajhrad, železniční stanice","arrival_time":"7:20:00","departure_time":"7:21:00","lat":49.084966,"lon":16.60532,"is_passed":false},{"stop_id":"U15135Z10","name":"Popovice, u tratě","arrival_time":"7:23:00","departure_time":"7:23:00","lat":49.103463,"lon":16.605647,"is_passed":false},{"stop_id":"U15140Z10","name":"Modřice, železniční stanice","arrival_time":"7:26:00","departure_time":"7:27:00","lat":49.133256,"lon":16.606209,"is_passed":false},{"stop_id":"U1146Z99","name":"Hlavní nádraží","arrival_time":"7:34:00","departure_time":"7:36:00","lat":49.19035,"lon":16.612342,"is_passed":false},{"stop_id":"U1809Z10","name":"Židenice, nádraží","arrival_time":"7:39:00","departure_time":"7:42:00","lat":49.204282,"lon":16.636042,"is_passed":false},{"stop_id":"U1331Z10","name":"Lesná, nádraží","arrival_time":"7:47:00","departure_time":"7:48:00","lat":49.220432,"lon":16.627505,"is_passed":false},{"stop_id":"U1286Z10","name":"Královo Pole, nádraží","arrival_time":"7:51:00","departure_time":"7:52:00","lat":49.231051,"lon":16.596651,"is_passed":false},{"stop_id":"U1557Z10","name":"Řečkovice, nádraží","arrival_time":"7:54:00","departure_time":"7:55:00","lat":49.250794,"lon":16.590446,"is_passed":false},{"stop_id":"U13109Z10","name":"Česká, železniční stanice","arrival_time":"7:58:00","departure_time":"7:59:00","lat":49.284546,"lon":16.566731,"is_passed":false},{"stop_id":"U13143Z10","name":"Kuřim, železniční stanice","arrival_time":"8:02:00","departure_time":"8:03:00","lat":49.301,"lon":16.534523,"is_passed":false},{"stop_id":"U13206Z10","name":"Čebín, železniční stanice","arrival_time":"8:08:00","departure_time":"8:08:00","lat":49.319722,"lon":16.465278,"is_passed":false},{"stop_id":"U13306Z10","name":"Hradčany, železniční stanice","arrival_time":"8:11:00","departure_time":"8:11:00","lat":49.334153,"lon":16.437807,"is_passed":false},{"stop_id":"U13334Z20","name":"Tišnov, železniční stanice","arrival_time":"8:14:00","departure_time":"8:59:00","lat":49.3475,"lon":16.41725,"is_passed":false}]