{"852":[{"stop_id":"U15241Z21","name":"Židlochovice, železniční stanice","arrival_time":"10:54:00","departure_time":"10:54:00","lat":49.033113,"lon":16.617218,"is_passed":false},{"stop_id":"U15222Z10","name":"Hrušovany u Brna, žel. st.","arrival_time":"10:57:00","departure_time":"10:59:00","lat":49.034228,"lon":16.591501,"is_passed":false},{"stop_id":"U25201Z10","name":"Vojkovice nad Svratkou, žel. st.","arrival_time":"11:01:00","departure_time":"11:02:00","lat":49.056208,"lon":16.597445,"is_passed":false},{"stop_id":"U15181Z10","name":"Rajhrad, železniční stanice","arrival_time":"11:04:00","departure_time":"11:05:00","lat":49.084966,"lon":16.60532,"is_passed":false},{"stop_id":"U15135Z10","name":"Popovice, u tratě","arrival_time":"11:07:00","departure_time":"11:07:00","lat":49.103463,"lon":16.605647,"is_passed":false},{"stop_id":"U15140Z10","name":"Modřice, železniční stanice","arrival_time":"11:10:00","departure_time":"11:11:00","lat":49.133256,"lon":16.606209,"is_passed":false},{"stop_id":"U1146Z99","name":"Hlavní nádraží","arrival_time":"11:18:00","departure_time":"11:23:00","lat":49.19035,"lon":16.612342,"is_passed":false},{"stop_id":"U1809Z10","name":"Židenice, nádraží","arrival_time":"11:26:00","departure_time":"11:27:00","lat":49.204282,"lon":16.636042,"is_passed":false},{"stop_id":"U1331Z10","name":"Lesná, nádraží","arrival_time":"11:32:00","departure_time":"11:33:00","lat":49.220432,"lon":16.627505,"is_passed":false},{"stop_id":"U1286Z10","name":"Královo Pole, nádraží","arrival_time":"11:36:00","departure_time":"11:37:00","lat":49.231051,"lon":16.596651,"is_passed":false},{"stop_id":"U1557Z10","name":"Řečkovice, nádraží","arrival_time":"11:39:00","departure_time":"11:40:00","lat":49.250794,"lon":16.590446,"is_passed":false},{"stop_id":"U13109Z10","name":"Česká, železniční stanice","arrival_time":"11:43:00","departure_time":"11:44:00","lat":49.284546,"lon":16.566731,"is_passed":false},{"stop_id":"U13143Z10","name":"Kuřim, železniční stanice","arrival_time":"11:47:00","departure_time":"11:48:00","lat":49.301,"lon":16.534523,"is_passed":false},{"stop_id":"U13206Z10","name":"Čebín, železniční stanice","arrival_time":"11:53:00","departure_time":"11:53:00","lat":49.319722,"lon":16.465278,"is_passed":false},{"stop_id":"U13306Z10","name":"Hradčany, železniční stanice","arrival_time":"11:56:00","departure_time":"11:56:00","lat":49.334153,"lon":16.437807,"is_passed":false},{"stop_id":"U13334Z20","name":"Tišnov, železniční stanice","arrival_time":"11:59:00","departure_time":"11:59:00","lat":49.3475,"lon":16.41725,"is_passed":false}],"8520":[{"stop_id":"U17212Z2","name":"Pozořice, náměstí","arrival_time":"16:28:00","departure_time":"16:28:00","lat":49.209871,"lon":16.790286,"is_passed":false},{"stop_id":"U16227Z1","name":"Holubice, GLP Park","arrival_time":"16:34:00","departure_time":"16:34:00","lat":49.188149,"lon":16.810898,"is_passed":false},{"stop_id":"U16208Z1","name":"Holubice, u mostu","arrival_time":"16:38:00","departure_time":"16:38:00","lat":49.179375,"lon":16.806448,"is_passed":false},{"stop_id":"U16207Z1","name":"Holubice, obecní úřad","arrival_time":"16:39:00","departure_time":"16:39:00","lat":49.177275,"lon":16.813585,"is_passed":false},{"stop_id":"U16204Z1","name":"Holubice, Curdík","arrival_time":"16:41:00","departure_time":"16:41:00","lat":49.17443,"lon":16.822741,"is_passed":false},{"stop_id":"U16228Z2","name":"Holubice, žel.st.","arrival_time":"16:42:00","departure_time":"16:44:00","lat":49.179141,"lon":16.822052,"is_passed":false}],"8521":[{"stop_id":"U16228Z2","name":"Holubice, žel.st.","arrival_time":"16:44:00","departure_time":"16:44:00","lat":49.179141,"lon":16.822052,"is_passed":false},{"stop_id":"U16204Z2","name":"Holubice, Curdík","arrival_time":"16:45:00","departure_time":"16:45:00","lat":49.174368,"lon":16.822201,"is_passed":false},{"stop_id":"U16207Z2","name":"Holubice, obecní úřad","arrival_time":"16:47:00","departure_time":"16:47:00","lat":49.17728,"lon":16.813577,"is_passed":false},{"stop_id":"U16208Z2","name":"Holubice, u mostu","arrival_time":"16:48:00","departure_time":"16:48:00","lat":49.17931,"lon":16.806387,"is_passed":false},{"stop_id":"U16227Z1","name":"Holubice, GLP Park","arrival_time":"16:52:00","departure_time":"16:52:00","lat":49.188149,"lon":16.810898,"is_passed":false},{"stop_id":"U17212Z1","name":"Pozořice, náměstí","arrival_time":"16:58:00","departure_time":"17:28:00","lat":49.208924,"lon":16.790865,"is_passed":false}],"8522":[{"stop_id":"U17212Z2","name":"Pozořice, náměstí","arrival_time":"17:28:00","departure_time":"17:28:00","lat":49.209871,"lon":16.790286,"is_passed":false},{"stop_id":"U16227Z1","name":"Holubice, GLP Park","arrival_time":"17:34:00","departure_time":"17:34:00","lat":49.188149,"lon":16.810898,"is_passed":false},{"stop_id":"U16208Z1","name":"Holubice, u mostu","arrival_time":"17:38:00","departure_time":"17:38:00","lat":49.179375,"lon":16.806448,"is_passed":false},{"stop_id":"U16207Z1","name":"Holubice, obecní úřad","arrival_time":"17:39:00","departure_time":"17:39:00","lat":49.177275,"lon":16.813585,"is_passed":false},{"stop_id":"U16204Z1","name":"Holubice, Curdík","arrival_time":"17:41:00","departure_time":"17:41:00","lat":49.17443,"lon":16.822741,"is_passed":false},{"stop_id":"U16228Z2","name":"Holubice, žel.st.","arrival_time":"17:42:00","departure_time":"17:44:00","lat":49.179141,"lon":16.822052,"is_passed":false}],"8523":[{"stop_id":"U16228Z2","name":"Holubice, žel.st.","arrival_time":"17:44:00","departure_time":"17:44:00","lat":49.179141,"lon":16.822052,"is_passed":false},{"stop_id":"U16204Z2","name":"Holubice, Curdík","arrival_time":"17:45:00","departure_time":"17:45:00","lat":49.174368,"lon":16.822201,"is_passed":false},{"stop_id":"U16207Z2","name":"Holubice, obecní úřad","arrival_time":"17:47:00","departure_time":"17:47:00","lat":49.17728,"lon":16.813577,"is_passed":false},{"stop_id":"U16208Z2","name":"Holubice, u mostu","arrival_time":"17:48:00","departure_time":"17:48:00","lat":49.17931,"lon":16.806387,"is_passed":false},{"stop_id":"U16227Z1","name":"Holubice, GLP Park","arrival_time":"17:52:00","departure_time":"17:52:00","lat":49.188149,"lon":16.810898,"is_passed":false},{"stop_id":"U17212Z1","name":"Pozořice, náměstí","arrival_time":"17:58:00","departure_time":"18:28:00","lat":49.208924,"lon":16.790865,"is_passed":false}],"8524":[{"stop_id":"U17212Z2","name":"Pozořice, náměstí","arrival_time":"18:28:00","departure_time":"18:28:00","lat":49.209871,"lon":16.790286,"is_passed":false},{"stop_id":"U16227Z1","name":"Holubice, GLP Park","arrival_time":"18:34:00","departure_time":"18:34:00","lat":49.188149,"lon":16.810898,"is_passed":false},{"stop_id":"U16208Z1","name":"Holubice, u mostu","arrival_time":"18:38:00","departure_time":"18:38:00","lat":49.179375,"lon":16.806448,"is_passed":false},{"stop_id":"U16207Z1","name":"Holubice, obecní úřad","arrival_time":"18:39:00","departure_time":"18:39:00","lat":49.177275,"lon":16.813585,"is_passed":false},{"stop_id":"U16204Z1","name":"Holubice, Curdík","arrival_time":"18:41:00","departure_time":"18:41:00","lat":49.17443,"lon":16.822741,"is_passed":false},{"stop_id":"U16228Z2","name":"Holubice, žel.st.","arrival_time":"18:42:00","departure_time":"18:44:00","lat":49.179141,"lon":16.822052,"is_passed":false}],"8525":[{"stop_id":"U16228Z2","name":"Holubice, žel.st.","arrival_time":"18:44:00","departure_time":"18:44:00","lat":49.179141,"lon":16.822052,"is_passed":false},{"stop_id":"U16204Z2","name":"Holubice, Curdík","arrival_time":"18:45:00","departure_time":"18:45:00","lat":49.174368,"lon":16.822201,"is_passed":false},{"stop_id":"U16207Z2","name":"Holubice, obecní úřad","arrival_time":"18:47:00","departure_time":"18:47:00","lat":49.17728,"lon":16.813577,"is_passed":false},{"stop_id":"U16208Z2","name":"Holubice, u mostu","arrival_time":"18:48:00","departure_time":"18:48:00","lat":49.17931,"lon":16.806387,"is_passed":false},{"stop_id":"U16227Z1","name":"Holubice, GLP Park","arrival_time":"18:52:00","departure_time":"18:52:00","lat":49.188149,"lon":16.810898,"is_passed":false},{"stop_id":"U17212Z1","name":"Pozořice, náměstí","arrival_time":"18:58:00","departure_time":"19:28:00","lat":49.208924,"lon":16.790865,"is_passed":false}],"8526":[{"stop_id":"U17212Z2","name":"Pozořice, náměstí","arrival_time":"19:28:00","departure_time":"19:28:00","lat":49.209871,"lon":16.790286,"is_passed":false},{"stop_id":"U16227Z1","name":"Holubice, GLP Park","arrival_time":"19:34:00","departure_time":"19:34:00","lat":49.188149,"lon":16.810898,"is_passed":false},{"stop_id":"U16208Z1","name":"Holubice, u mostu","arrival_time":"19:38:00","departure_time":"19:38:00","lat":49.179375,"lon":16.806448,"is_passed":false},{"stop_id":"U16207Z1","name":"Holubice, obecní úřad","arrival_time":"19:39:00","departure_time":"19:39:00","lat":49.177275,"lon":16.813585,"is_passed":false},{"stop_id":"U16204Z1","name":"Holubice, Curdík","arrival_time":"19:41:00","departure_time":"19:41:00","lat":49.17443,"lon":16.822741,"is_passed":false},{"stop_id":"U16228Z2","name":"Holubice, žel.st.","arrival_time":"19:42:00","departure_time":"19:44:00","lat":49.179141,"lon":16.822052,"is_passed":false}],"8527":[{"stop_id":"U16228Z2","name":"Holubice, žel.st.","arrival_time":"19:44:00","departure_time":"19:44:00","lat":49.179141,"lon":16.822052,"is_passed":false},{"stop_id":"U16204Z2","name":"Holubice, Curdík","arrival_time":"19:45:00","departure_time":"19:45:00","lat":49.174368,"lon":16.822201,"is_passed":false},{"stop_id":"U16207Z2","name":"Holubice, obecní úřad","arrival_time":"19:47:00","departure_time":"19:47:00","lat":49.17728,"lon":16.813577,"is_passed":false},{"stop_id":"U16208Z2","name":"Holubice, u mostu","arrival_time":"19:48:00","departure_time":"19:48:00","lat":49.17931,"lon":16.806387,"is_passed":false},{"stop_id":"U16227Z1","name":"Holubice, GLP Park","arrival_time":"19:52:00","departure_time":"19:52:00","lat":49.188149,"lon":16.810898,"is_passed":false},{"stop_id":"U17212Z1","name":"Pozořice, náměstí","arrival_time":"19:58:00","departure_time":"19:58:00","lat":49.208924,"lon":16.790865,"is_passed":false}],"8528":[{"stop_id":"U17335Z5","name":"Rousínov, autobusová stanice","arrival_time":"5:25:00","departure_time":"5:25:00","lat":49.202992,"lon":16.884865,"is_passed":false},{"stop_id":"U17341Z1","name":"Rousínov, zdravotní středisko","arrival_time":"5:27:00","departure_time":"5:27:00","lat":49.203685,"lon":16.878213,"is_passed":false},{"stop_id":"U17329Z1","name":"Rousínov, betonárka","arrival_time":"5:29:00","departure_time":"5:29:00","lat":49.207363,"lon":16.871207,"is_passed":false},{"stop_id":"U17333Z1","name":"Rousínov, Královopolské Vážany","arrival_time":"5:31:00","departure_time":"5:31:00","lat":49.214167,"lon":16.869172,"is_passed":false},{"stop_id":"U17307Z1","name":"Habrovany","arrival_time":"5:35:00","departure_time":"5:35:00","lat":49.231838,"lon":16.877673,"is_passed":false},{"stop_id":"U17319Z1","name":"Olšany, lom","arrival_time":"5:37:00","departure_time":"5:37:00","lat":49.240303,"lon":16.866715,"is_passed":false},{"stop_id":"U17318Z1","name":"Olšany","arrival_time":"5:39:00","departure_time":"5:42:00","lat":49.248937,"lon":16.863638,"is_passed":false}],"8529":[{"stop_id":"U17318Z1","name":"Olšany","arrival_time":"5:42:00","departure_time":"5:42:00","lat":49.248937,"lon":16.863638,"is_passed":false},{"stop_id":"U17319Z2","name":"Olšany, lom","arrival_time":"5:44:00","departure_time":"5:44:00","lat":49.240513,"lon":16.866533,"is_passed":false},{"stop_id":"U17307Z2","name":"Habrovany","arrival_time":"5:46:00","departure_time":"5:46:00","lat":49.230958,"lon":16.87732,"is_passed":false},{"stop_id":"U17339Z2","name":"Rousínov, škola","arrival_time":"5:50:00","departure_time":"5:50:00","lat":49.207515,"lon":16.883075,"is_passed":false},{"stop_id":"U17335Z11","name":"Rousínov, autobusová stanice","arrival_time":"5:52:00","departure_time":"5:52:00","lat":49.202992,"lon":16.884865,"is_passed":false}]}