{"858":[{"stop_id":"U30009Z2","name":"Křižanov","arrival_time":"16:00:00","departure_time":"16:00:00","lat":49.384694,"lon":16.080389,"is_passed":false},{"stop_id":"U30302Z2","name":"Ořechov","arrival_time":"16:04:00","departure_time":"16:04:00","lat":49.350447,"lon":16.136416,"is_passed":false},{"stop_id":"U30305Z2","name":"Osová Bítýška","arrival_time":"16:08:00","departure_time":"16:08:00","lat":49.329893,"lon":16.168305,"is_passed":false},{"stop_id":"U23501Z2","name":"Vlkov-Osová","arrival_time":"16:10:00","departure_time":"16:11:00","lat":49.326883,"lon":16.202114,"is_passed":false},{"stop_id":"U13454Z11","name":"Níhov, železniční stanice","arrival_time":"16:15:00","departure_time":"16:16:00","lat":49.33637,"lon":16.270573,"is_passed":false},{"stop_id":"U13425Z11","name":"Řikonín, železniční stanice","arrival_time":"16:19:00","departure_time":"16:20:00","lat":49.365833,"lon":16.305833,"is_passed":false},{"stop_id":"U13411Z11","name":"Dolní Loučky, železniční stanice","arrival_time":"16:22:00","departure_time":"16:22:00","lat":49.356389,"lon":16.346945,"is_passed":false},{"stop_id":"U13334Z21","name":"Tišnov, železniční stanice","arrival_time":"16:28:00","departure_time":"16:29:00","lat":49.3475,"lon":16.41725,"is_passed":false},{"stop_id":"U13306Z11","name":"Hradčany, železniční stanice","arrival_time":"16:31:00","departure_time":"16:32:00","lat":49.333878,"lon":16.437893,"is_passed":false},{"stop_id":"U13206Z11","name":"Čebín, železniční stanice","arrival_time":"16:34:00","departure_time":"16:35:00","lat":49.319722,"lon":16.465278,"is_passed":false},{"stop_id":"U13143Z11","name":"Kuřim, železniční stanice","arrival_time":"16:40:00","departure_time":"16:41:00","lat":49.301,"lon":16.534523,"is_passed":false},{"stop_id":"U13109Z11","name":"Česká, železniční stanice","arrival_time":"16:43:00","departure_time":"16:44:00","lat":49.284546,"lon":16.566731,"is_passed":false},{"stop_id":"U1557Z11","name":"Řečkovice, nádraží","arrival_time":"16:48:00","departure_time":"16:48:00","lat":49.250794,"lon":16.590446,"is_passed":false},{"stop_id":"U1286Z11","name":"Královo Pole, nádraží","arrival_time":"16:51:00","departure_time":"16:52:00","lat":49.231051,"lon":16.596651,"is_passed":false},{"stop_id":"U1331Z11","name":"Lesná, nádraží","arrival_time":"16:54:00","departure_time":"16:55:00","lat":49.220432,"lon":16.627505,"is_passed":false},{"stop_id":"U1809Z11","name":"Židenice, nádraží","arrival_time":"17:01:00","departure_time":"17:01:00","lat":49.204282,"lon":16.636042,"is_passed":false},{"stop_id":"U1146Z98","name":"Hlavní nádraží","arrival_time":"17:06:00","departure_time":"17:09:00","lat":49.19035,"lon":16.612342,"is_passed":false},{"stop_id":"U11002Z11","name":"Brno-Horní Heršpice","arrival_time":"17:13:00","departure_time":"17:13:00","lat":49.167404,"lon":16.60686,"is_passed":false},{"stop_id":"U15140Z11","name":"Modřice, železniční stanice","arrival_time":"17:17:00","departure_time":"17:18:00","lat":49.133256,"lon":16.606209,"is_passed":false},{"stop_id":"U15181Z11","name":"Rajhrad, železniční stanice","arrival_time":"17:21:00","departure_time":"17:22:00","lat":49.084966,"lon":16.60532,"is_passed":false},{"stop_id":"U15222Z11","name":"Hrušovany u Brna, žel. st.","arrival_time":"17:26:00","departure_time":"17:30:00","lat":49.034228,"lon":16.591501,"is_passed":false},{"stop_id":"U15306Z11","name":"Žabčice, žel. st.","arrival_time":"17:33:00","departure_time":"17:33:00","lat":49.010857,"lon":16.594833,"is_passed":false},{"stop_id":"U15307Z11","name":"Vranovice, žel.st.","arrival_time":"17:37:00","departure_time":"17:38:00","lat":48.964528,"lon":16.604187,"is_passed":false},{"stop_id":"U25401Z11","name":"Pouzdřany","arrival_time":"17:40:00","departure_time":"17:41:00","lat":48.942025,"lon":16.630527,"is_passed":false},{"stop_id":"U25402Z11","name":"Popice","arrival_time":"17:44:00","departure_time":"17:44:00","lat":48.924332,"lon":16.668084,"is_passed":false},{"stop_id":"U15425Z11","name":"Šakvice, železniční stanice","arrival_time":"17:47:00","departure_time":"17:48:00","lat":48.912883,"lon":16.70557,"is_passed":false},{"stop_id":"U15403Z11","name":"Hustopeče, autobusové nádraží","arrival_time":"17:55:00","departure_time":"18:04:00","lat":48.93752,"lon":16.735901,"is_passed":false}],"8580":[{"stop_id":"U18010Z81","name":"Znojmo, nám.Komenského","arrival_time":"8:13:00","departure_time":"8:13:00","lat":48.856406,"lon":16.053424,"is_passed":false},{"stop_id":"U18009Z82","name":"Znojmo, autobusové nádraží","arrival_time":"8:17:00","departure_time":"8:17:00","lat":48.853011,"lon":16.058078,"is_passed":false},{"stop_id":"U18008Z81","name":"Znojmo, Vídeňská, Na Rejdišti","arrival_time":"8:19:00","departure_time":"8:19:00","lat":48.849859,"lon":16.054839,"is_passed":false},{"stop_id":"U18021Z81","name":"Znojmo, Vídeňská, Pražákova","arrival_time":"8:20:00","departure_time":"8:20:00","lat":48.847311,"lon":16.056876,"is_passed":false},{"stop_id":"U18022Z81","name":"Znojmo, Vídeňská, u školy","arrival_time":"8:21:00","departure_time":"8:21:00","lat":48.843183,"lon":16.060932,"is_passed":false},{"stop_id":"U18023Z81","name":"Znojmo, Dukelská, sídliště","arrival_time":"8:22:00","departure_time":"8:22:00","lat":48.840702,"lon":16.06361,"is_passed":false},{"stop_id":"U18024Z81","name":"Znojmo, Melkusova, plavecký bazén","arrival_time":"8:23:00","departure_time":"8:23:00","lat":48.83936,"lon":16.062173,"is_passed":false},{"stop_id":"U18081Z81","name":"Znojmo, Plovárna Louka","arrival_time":"8:23:00","departure_time":"8:23:00","lat":48.838798,"lon":16.058865,"is_passed":false},{"stop_id":"U18103Z81","name":"Nový Šaldorf-Sedlešovice, Sedlešovice","arrival_time":"8:24:00","departure_time":"8:24:00","lat":48.83576,"lon":16.055632,"is_passed":false},{"stop_id":"U18102Z81","name":"Nový Šaldorf-Sedlešovice, u bytovky","arrival_time":"8:25:00","departure_time":"8:25:00","lat":48.832133,"lon":16.059027,"is_passed":false},{"stop_id":"U18184Z81","name":"Nový Šaldorf-Sedlešovice, Modré sklepy","arrival_time":"8:27:00","departure_time":"8:27:00","lat":48.826472,"lon":16.053773,"is_passed":false},{"stop_id":"U18070Z81","name":"Znojmo, Konice, rozcestí","arrival_time":"8:28:00","departure_time":"8:28:00","lat":48.820286,"lon":16.040253,"is_passed":false},{"stop_id":"U18026Z82","name":"Znojmo, Popice, u kostela","arrival_time":"8:31:00","departure_time":"8:32:00","lat":48.82107,"lon":16.016257,"is_passed":false}],"8581":[{"stop_id":"U18026Z82","name":"Znojmo, Popice, u kostela","arrival_time":"8:32:00","departure_time":"8:32:00","lat":48.82107,"lon":16.016257,"is_passed":false},{"stop_id":"U18079Z82","name":"Znojmo, Popice, u hospody","arrival_time":"8:33:00","departure_time":"8:33:00","lat":48.824299,"lon":16.01615,"is_passed":false},{"stop_id":"U18027Z82","name":"Znojmo, Konice, hostinec","arrival_time":"8:35:00","departure_time":"8:35:00","lat":48.83267,"lon":16.021778,"is_passed":false},{"stop_id":"U18028Z82","name":"Znojmo, Konice, pod kopcem","arrival_time":"8:36:00","departure_time":"8:36:00","lat":48.829402,"lon":16.02747,"is_passed":false},{"stop_id":"U18184Z81","name":"Nový Šaldorf-Sedlešovice, Modré sklepy","arrival_time":"8:40:00","departure_time":"8:40:00","lat":48.826472,"lon":16.053773,"is_passed":false},{"stop_id":"U18102Z82","name":"Nový Šaldorf-Sedlešovice, u bytovky","arrival_time":"8:43:00","departure_time":"8:43:00","lat":48.831657,"lon":16.059457,"is_passed":false},{"stop_id":"U18103Z82","name":"Nový Šaldorf-Sedlešovice, Sedlešovice","arrival_time":"8:44:00","departure_time":"8:44:00","lat":48.835727,"lon":16.055733,"is_passed":false},{"stop_id":"U18024Z82","name":"Znojmo, Melkusova, plavecký bazén","arrival_time":"8:46:00","departure_time":"8:46:00","lat":48.839045,"lon":16.061,"is_passed":false},{"stop_id":"U18023Z82","name":"Znojmo, Dukelská, sídliště","arrival_time":"8:48:00","departure_time":"8:48:00","lat":48.840554,"lon":16.063982,"is_passed":false},{"stop_id":"U18022Z82","name":"Znojmo, Vídeňská, u školy","arrival_time":"8:49:00","departure_time":"8:49:00","lat":48.843794,"lon":16.060496,"is_passed":false},{"stop_id":"U18021Z82","name":"Znojmo, Vídeňská, Pražákova","arrival_time":"8:51:00","departure_time":"8:51:00","lat":48.846603,"lon":16.057662,"is_passed":false},{"stop_id":"U18008Z82","name":"Znojmo, Vídeňská, Na Rejdišti","arrival_time":"8:52:00","departure_time":"8:52:00","lat":48.849969,"lon":16.054989,"is_passed":false},{"stop_id":"U18009Z84","name":"Znojmo, autobusové nádraží","arrival_time":"8:55:00","departure_time":"10:17:00","lat":48.852906,"lon":16.058272,"is_passed":false}],"8582":[{"stop_id":"U18009Z82","name":"Znojmo, autobusové nádraží","arrival_time":"10:17:00","departure_time":"10:17:00","lat":48.853011,"lon":16.058078,"is_passed":false},{"stop_id":"U18008Z81","name":"Znojmo, Vídeňská, Na Rejdišti","arrival_time":"10:19:00","departure_time":"10:19:00","lat":48.849859,"lon":16.054839,"is_passed":false},{"stop_id":"U18021Z81","name":"Znojmo, Vídeňská, Pražákova","arrival_time":"10:20:00","departure_time":"10:20:00","lat":48.847311,"lon":16.056876,"is_passed":false},{"stop_id":"U18022Z81","name":"Znojmo, Vídeňská, u školy","arrival_time":"10:21:00","departure_time":"10:21:00","lat":48.843183,"lon":16.060932,"is_passed":false},{"stop_id":"U18023Z81","name":"Znojmo, Dukelská, sídliště","arrival_time":"10:22:00","departure_time":"10:22:00","lat":48.840702,"lon":16.06361,"is_passed":false},{"stop_id":"U18024Z81","name":"Znojmo, Melkusova, plavecký bazén","arrival_time":"10:23:00","departure_time":"10:23:00","lat":48.83936,"lon":16.062173,"is_passed":false},{"stop_id":"U18081Z81","name":"Znojmo, Plovárna Louka","arrival_time":"10:23:00","departure_time":"10:23:00","lat":48.838798,"lon":16.058865,"is_passed":false},{"stop_id":"U18103Z81","name":"Nový Šaldorf-Sedlešovice, Sedlešovice","arrival_time":"10:24:00","departure_time":"10:24:00","lat":48.83576,"lon":16.055632,"is_passed":false},{"stop_id":"U18102Z81","name":"Nový Šaldorf-Sedlešovice, u bytovky","arrival_time":"10:25:00","departure_time":"10:25:00","lat":48.832133,"lon":16.059027,"is_passed":false},{"stop_id":"U18184Z81","name":"Nový Šaldorf-Sedlešovice, Modré sklepy","arrival_time":"10:27:00","departure_time":"10:27:00","lat":48.826472,"lon":16.053773,"is_passed":false},{"stop_id":"U18070Z81","name":"Znojmo, Konice, rozcestí","arrival_time":"10:28:00","departure_time":"10:28:00","lat":48.820286,"lon":16.040253,"is_passed":false},{"stop_id":"U18026Z82","name":"Znojmo, Popice, u kostela","arrival_time":"10:31:00","departure_time":"10:32:00","lat":48.82107,"lon":16.016257,"is_passed":false}],"8583":[{"stop_id":"U18026Z82","name":"Znojmo, Popice, u kostela","arrival_time":"10:32:00","departure_time":"10:32:00","lat":48.82107,"lon":16.016257,"is_passed":false},{"stop_id":"U18079Z82","name":"Znojmo, Popice, u hospody","arrival_time":"10:33:00","departure_time":"10:33:00","lat":48.824299,"lon":16.01615,"is_passed":false},{"stop_id":"U18027Z82","name":"Znojmo, Konice, hostinec","arrival_time":"10:35:00","departure_time":"10:35:00","lat":48.83267,"lon":16.021778,"is_passed":false},{"stop_id":"U18028Z82","name":"Znojmo, Konice, pod kopcem","arrival_time":"10:36:00","departure_time":"10:36:00","lat":48.829402,"lon":16.02747,"is_passed":false},{"stop_id":"U18184Z81","name":"Nový Šaldorf-Sedlešovice, Modré sklepy","arrival_time":"10:40:00","departure_time":"10:40:00","lat":48.826472,"lon":16.053773,"is_passed":false},{"stop_id":"U18102Z82","name":"Nový Šaldorf-Sedlešovice, u bytovky","arrival_time":"10:43:00","departure_time":"10:43:00","lat":48.831657,"lon":16.059457,"is_passed":false},{"stop_id":"U18103Z82","name":"Nový Šaldorf-Sedlešovice, Sedlešovice","arrival_time":"10:44:00","departure_time":"10:44:00","lat":48.835727,"lon":16.055733,"is_passed":false},{"stop_id":"U18024Z82","name":"Znojmo, Melkusova, plavecký bazén","arrival_time":"10:46:00","departure_time":"10:46:00","lat":48.839045,"lon":16.061,"is_passed":false},{"stop_id":"U18023Z82","name":"Znojmo, Dukelská, sídliště","arrival_time":"10:48:00","departure_time":"10:48:00","lat":48.840554,"lon":16.063982,"is_passed":false},{"stop_id":"U18022Z82","name":"Znojmo, Vídeňská, u školy","arrival_time":"10:49:00","departure_time":"10:49:00","lat":48.843794,"lon":16.060496,"is_passed":false},{"stop_id":"U18021Z82","name":"Znojmo, Vídeňská, Pražákova","arrival_time":"10:51:00","departure_time":"10:51:00","lat":48.846603,"lon":16.057662,"is_passed":false},{"stop_id":"U18008Z82","name":"Znojmo, Vídeňská, Na Rejdišti","arrival_time":"10:52:00","departure_time":"10:52:00","lat":48.849969,"lon":16.054989,"is_passed":false},{"stop_id":"U18009Z84","name":"Znojmo, autobusové nádraží","arrival_time":"10:55:00","departure_time":"13:05:00","lat":48.852906,"lon":16.058272,"is_passed":false}],"8584":[{"stop_id":"U18010Z81","name":"Znojmo, nám.Komenského","arrival_time":"13:13:00","departure_time":"13:13:00","lat":48.856406,"lon":16.053424,"is_passed":false},{"stop_id":"U18009Z82","name":"Znojmo, autobusové nádraží","arrival_time":"13:17:00","departure_time":"13:17:00","lat":48.853011,"lon":16.058078,"is_passed":false},{"stop_id":"U18008Z81","name":"Znojmo, Vídeňská, Na Rejdišti","arrival_time":"13:19:00","departure_time":"13:19:00","lat":48.849859,"lon":16.054839,"is_passed":false},{"stop_id":"U18021Z81","name":"Znojmo, Vídeňská, Pražákova","arrival_time":"13:20:00","departure_time":"13:20:00","lat":48.847311,"lon":16.056876,"is_passed":false},{"stop_id":"U18022Z81","name":"Znojmo, Vídeňská, u školy","arrival_time":"13:21:00","departure_time":"13:21:00","lat":48.843183,"lon":16.060932,"is_passed":false},{"stop_id":"U18023Z81","name":"Znojmo, Dukelská, sídliště","arrival_time":"13:22:00","departure_time":"13:22:00","lat":48.840702,"lon":16.06361,"is_passed":false},{"stop_id":"U18024Z81","name":"Znojmo, Melkusova, plavecký bazén","arrival_time":"13:23:00","departure_time":"13:23:00","lat":48.83936,"lon":16.062173,"is_passed":false},{"stop_id":"U18081Z81","name":"Znojmo, Plovárna Louka","arrival_time":"13:23:00","departure_time":"13:23:00","lat":48.838798,"lon":16.058865,"is_passed":false},{"stop_id":"U18103Z81","name":"Nový Šaldorf-Sedlešovice, Sedlešovice","arrival_time":"13:24:00","departure_time":"13:24:00","lat":48.83576,"lon":16.055632,"is_passed":false},{"stop_id":"U18102Z81","name":"Nový Šaldorf-Sedlešovice, u bytovky","arrival_time":"13:25:00","departure_time":"13:25:00","lat":48.832133,"lon":16.059027,"is_passed":false},{"stop_id":"U18184Z81","name":"Nový Šaldorf-Sedlešovice, Modré sklepy","arrival_time":"13:27:00","departure_time":"13:27:00","lat":48.826472,"lon":16.053773,"is_passed":false},{"stop_id":"U18028Z81","name":"Znojmo, Konice, pod kopcem","arrival_time":"13:30:00","departure_time":"13:30:00","lat":48.829402,"lon":16.02747,"is_passed":false},{"stop_id":"U18027Z81","name":"Znojmo, Konice, hostinec","arrival_time":"13:31:00","departure_time":"13:31:00","lat":48.832768,"lon":16.021028,"is_passed":false},{"stop_id":"U18079Z81","name":"Znojmo, Popice, u hospody","arrival_time":"13:33:00","departure_time":"13:33:00","lat":48.82514,"lon":16.016247,"is_passed":false},{"stop_id":"U18026Z81","name":"Znojmo, Popice, u kostela","arrival_time":"13:35:00","departure_time":"13:35:00","lat":48.821195,"lon":16.015807,"is_passed":false}],"8585":[{"stop_id":"U18026Z81","name":"Znojmo, Popice, u kostela","arrival_time":"13:35:00","departure_time":"13:35:00","lat":48.821195,"lon":16.015807,"is_passed":false},{"stop_id":"U18070Z82","name":"Znojmo, Konice, rozcestí","arrival_time":"13:37:00","departure_time":"13:37:00","lat":48.820489,"lon":16.040631,"is_passed":false},{"stop_id":"U18184Z81","name":"Nový Šaldorf-Sedlešovice, Modré sklepy","arrival_time":"13:39:00","departure_time":"13:39:00","lat":48.826472,"lon":16.053773,"is_passed":false},{"stop_id":"U18102Z82","name":"Nový Šaldorf-Sedlešovice, u bytovky","arrival_time":"13:42:00","departure_time":"13:42:00","lat":48.831657,"lon":16.059457,"is_passed":false},{"stop_id":"U18103Z82","name":"Nový Šaldorf-Sedlešovice, Sedlešovice","arrival_time":"13:43:00","departure_time":"13:43:00","lat":48.835727,"lon":16.055733,"is_passed":false},{"stop_id":"U18024Z82","name":"Znojmo, Melkusova, plavecký bazén","arrival_time":"13:45:00","departure_time":"13:45:00","lat":48.839045,"lon":16.061,"is_passed":false},{"stop_id":"U18023Z82","name":"Znojmo, Dukelská, sídliště","arrival_time":"13:47:00","departure_time":"13:47:00","lat":48.840554,"lon":16.063982,"is_passed":false},{"stop_id":"U18022Z82","name":"Znojmo, Vídeňská, u školy","arrival_time":"13:48:00","departure_time":"13:48:00","lat":48.843794,"lon":16.060496,"is_passed":false},{"stop_id":"U18021Z82","name":"Znojmo, Vídeňská, Pražákova","arrival_time":"13:50:00","departure_time":"13:50:00","lat":48.846603,"lon":16.057662,"is_passed":false},{"stop_id":"U18008Z82","name":"Znojmo, Vídeňská, Na Rejdišti","arrival_time":"13:51:00","departure_time":"13:51:00","lat":48.849969,"lon":16.054989,"is_passed":false},{"stop_id":"U18009Z84","name":"Znojmo, autobusové nádraží","arrival_time":"13:54:00","departure_time":"13:54:00","lat":48.852906,"lon":16.058272,"is_passed":false},{"stop_id":"U18010Z81","name":"Znojmo, nám.Komenského","arrival_time":"13:57:00","departure_time":"14:13:00","lat":48.856406,"lon":16.053424,"is_passed":false}],"8586":[{"stop_id":"U18010Z81","name":"Znojmo, nám.Komenského","arrival_time":"14:13:00","departure_time":"14:13:00","lat":48.856406,"lon":16.053424,"is_passed":false},{"stop_id":"U18009Z82","name":"Znojmo, autobusové nádraží","arrival_time":"14:17:00","departure_time":"14:17:00","lat":48.853011,"lon":16.058078,"is_passed":false},{"stop_id":"U18008Z81","name":"Znojmo, Vídeňská, Na Rejdišti","arrival_time":"14:19:00","departure_time":"14:19:00","lat":48.849859,"lon":16.054839,"is_passed":false},{"stop_id":"U18021Z81","name":"Znojmo, Vídeňská, Pražákova","arrival_time":"14:20:00","departure_time":"14:20:00","lat":48.847311,"lon":16.056876,"is_passed":false},{"stop_id":"U18022Z81","name":"Znojmo, Vídeňská, u školy","arrival_time":"14:21:00","departure_time":"14:21:00","lat":48.843183,"lon":16.060932,"is_passed":false},{"stop_id":"U18023Z81","name":"Znojmo, Dukelská, sídliště","arrival_time":"14:22:00","departure_time":"14:22:00","lat":48.840702,"lon":16.06361,"is_passed":false},{"stop_id":"U18024Z81","name":"Znojmo, Melkusova, plavecký bazén","arrival_time":"14:23:00","departure_time":"14:23:00","lat":48.83936,"lon":16.062173,"is_passed":false},{"stop_id":"U18081Z81","name":"Znojmo, Plovárna Louka","arrival_time":"14:23:00","departure_time":"14:23:00","lat":48.838798,"lon":16.058865,"is_passed":false},{"stop_id":"U18103Z81","name":"Nový Šaldorf-Sedlešovice, Sedlešovice","arrival_time":"14:24:00","departure_time":"14:24:00","lat":48.83576,"lon":16.055632,"is_passed":false},{"stop_id":"U18102Z81","name":"Nový Šaldorf-Sedlešovice, u bytovky","arrival_time":"14:25:00","departure_time":"14:25:00","lat":48.832133,"lon":16.059027,"is_passed":false},{"stop_id":"U18184Z81","name":"Nový Šaldorf-Sedlešovice, Modré sklepy","arrival_time":"14:27:00","departure_time":"14:27:00","lat":48.826472,"lon":16.053773,"is_passed":false},{"stop_id":"U18028Z81","name":"Znojmo, Konice, pod kopcem","arrival_time":"14:30:00","departure_time":"14:30:00","lat":48.829402,"lon":16.02747,"is_passed":false},{"stop_id":"U18027Z81","name":"Znojmo, Konice, hostinec","arrival_time":"14:31:00","departure_time":"14:31:00","lat":48.832768,"lon":16.021028,"is_passed":false},{"stop_id":"U18079Z81","name":"Znojmo, Popice, u hospody","arrival_time":"14:33:00","departure_time":"14:33:00","lat":48.82514,"lon":16.016247,"is_passed":false},{"stop_id":"U18026Z81","name":"Znojmo, Popice, u kostela","arrival_time":"14:35:00","departure_time":"14:35:00","lat":48.821195,"lon":16.015807,"is_passed":false}],"8587":[{"stop_id":"U18026Z81","name":"Znojmo, Popice, u kostela","arrival_time":"14:35:00","departure_time":"14:35:00","lat":48.821195,"lon":16.015807,"is_passed":false},{"stop_id":"U18070Z82","name":"Znojmo, Konice, rozcestí","arrival_time":"14:37:00","departure_time":"14:37:00","lat":48.820489,"lon":16.040631,"is_passed":false},{"stop_id":"U18184Z81","name":"Nový Šaldorf-Sedlešovice, Modré sklepy","arrival_time":"14:39:00","departure_time":"14:39:00","lat":48.826472,"lon":16.053773,"is_passed":false},{"stop_id":"U18102Z82","name":"Nový Šaldorf-Sedlešovice, u bytovky","arrival_time":"14:42:00","departure_time":"14:42:00","lat":48.831657,"lon":16.059457,"is_passed":false},{"stop_id":"U18103Z82","name":"Nový Šaldorf-Sedlešovice, Sedlešovice","arrival_time":"14:43:00","departure_time":"14:43:00","lat":48.835727,"lon":16.055733,"is_passed":false},{"stop_id":"U18024Z82","name":"Znojmo, Melkusova, plavecký bazén","arrival_time":"14:45:00","departure_time":"14:45:00","lat":48.839045,"lon":16.061,"is_passed":false},{"stop_id":"U18023Z82","name":"Znojmo, Dukelská, sídliště","arrival_time":"14:47:00","departure_time":"14:47:00","lat":48.840554,"lon":16.063982,"is_passed":false},{"stop_id":"U18022Z82","name":"Znojmo, Vídeňská, u školy","arrival_time":"14:48:00","departure_time":"14:48:00","lat":48.843794,"lon":16.060496,"is_passed":false},{"stop_id":"U18021Z82","name":"Znojmo, Vídeňská, Pražákova","arrival_time":"14:50:00","departure_time":"14:50:00","lat":48.846603,"lon":16.057662,"is_passed":false},{"stop_id":"U18008Z82","name":"Znojmo, Vídeňská, Na Rejdišti","arrival_time":"14:51:00","departure_time":"14:51:00","lat":48.849969,"lon":16.054989,"is_passed":false},{"stop_id":"U18009Z84","name":"Znojmo, autobusové nádraží","arrival_time":"14:54:00","departure_time":"15:17:00","lat":48.852906,"lon":16.058272,"is_passed":false}],"8588":[{"stop_id":"U18009Z82","name":"Znojmo, autobusové nádraží","arrival_time":"15:17:00","departure_time":"15:17:00","lat":48.853011,"lon":16.058078,"is_passed":false},{"stop_id":"U18008Z81","name":"Znojmo, Vídeňská, Na Rejdišti","arrival_time":"15:19:00","departure_time":"15:19:00","lat":48.849859,"lon":16.054839,"is_passed":false},{"stop_id":"U18021Z81","name":"Znojmo, Vídeňská, Pražákova","arrival_time":"15:20:00","departure_time":"15:20:00","lat":48.847311,"lon":16.056876,"is_passed":false},{"stop_id":"U18022Z81","name":"Znojmo, Vídeňská, u školy","arrival_time":"15:21:00","departure_time":"15:21:00","lat":48.843183,"lon":16.060932,"is_passed":false},{"stop_id":"U18023Z81","name":"Znojmo, Dukelská, sídliště","arrival_time":"15:22:00","departure_time":"15:22:00","lat":48.840702,"lon":16.06361,"is_passed":false},{"stop_id":"U18024Z81","name":"Znojmo, Melkusova, plavecký bazén","arrival_time":"15:23:00","departure_time":"15:23:00","lat":48.83936,"lon":16.062173,"is_passed":false},{"stop_id":"U18081Z81","name":"Znojmo, Plovárna Louka","arrival_time":"15:23:00","departure_time":"15:23:00","lat":48.838798,"lon":16.058865,"is_passed":false},{"stop_id":"U18103Z81","name":"Nový Šaldorf-Sedlešovice, Sedlešovice","arrival_time":"15:24:00","departure_time":"15:24:00","lat":48.83576,"lon":16.055632,"is_passed":false},{"stop_id":"U18102Z81","name":"Nový Šaldorf-Sedlešovice, u bytovky","arrival_time":"15:25:00","departure_time":"15:25:00","lat":48.832133,"lon":16.059027,"is_passed":false},{"stop_id":"U18184Z81","name":"Nový Šaldorf-Sedlešovice, Modré sklepy","arrival_time":"15:27:00","departure_time":"15:27:00","lat":48.826472,"lon":16.053773,"is_passed":false},{"stop_id":"U18028Z81","name":"Znojmo, Konice, pod kopcem","arrival_time":"15:30:00","departure_time":"15:30:00","lat":48.829402,"lon":16.02747,"is_passed":false},{"stop_id":"U18027Z81","name":"Znojmo, Konice, hostinec","arrival_time":"15:31:00","departure_time":"15:31:00","lat":48.832768,"lon":16.021028,"is_passed":false},{"stop_id":"U18079Z81","name":"Znojmo, Popice, u hospody","arrival_time":"15:33:00","departure_time":"15:33:00","lat":48.82514,"lon":16.016247,"is_passed":false},{"stop_id":"U18026Z81","name":"Znojmo, Popice, u kostela","arrival_time":"15:35:00","departure_time":"15:35:00","lat":48.821195,"lon":16.015807,"is_passed":false}],"8589":[{"stop_id":"U18026Z81","name":"Znojmo, Popice, u kostela","arrival_time":"15:35:00","departure_time":"15:35:00","lat":48.821195,"lon":16.015807,"is_passed":false},{"stop_id":"U18070Z82","name":"Znojmo, Konice, rozcestí","arrival_time":"15:37:00","departure_time":"15:37:00","lat":48.820489,"lon":16.040631,"is_passed":false},{"stop_id":"U18184Z81","name":"Nový Šaldorf-Sedlešovice, Modré sklepy","arrival_time":"15:39:00","departure_time":"15:39:00","lat":48.826472,"lon":16.053773,"is_passed":false},{"stop_id":"U18102Z82","name":"Nový Šaldorf-Sedlešovice, u bytovky","arrival_time":"15:42:00","departure_time":"15:42:00","lat":48.831657,"lon":16.059457,"is_passed":false},{"stop_id":"U18103Z82","name":"Nový Šaldorf-Sedlešovice, Sedlešovice","arrival_time":"15:43:00","departure_time":"15:43:00","lat":48.835727,"lon":16.055733,"is_passed":false},{"stop_id":"U18024Z82","name":"Znojmo, Melkusova, plavecký bazén","arrival_time":"15:45:00","departure_time":"15:45:00","lat":48.839045,"lon":16.061,"is_passed":false},{"stop_id":"U18023Z82","name":"Znojmo, Dukelská, sídliště","arrival_time":"15:47:00","departure_time":"15:47:00","lat":48.840554,"lon":16.063982,"is_passed":false},{"stop_id":"U18022Z82","name":"Znojmo, Vídeňská, u školy","arrival_time":"15:48:00","departure_time":"15:48:00","lat":48.843794,"lon":16.060496,"is_passed":false},{"stop_id":"U18021Z82","name":"Znojmo, Vídeňská, Pražákova","arrival_time":"15:50:00","departure_time":"15:50:00","lat":48.846603,"lon":16.057662,"is_passed":false},{"stop_id":"U18008Z82","name":"Znojmo, Vídeňská, Na Rejdišti","arrival_time":"15:51:00","departure_time":"15:51:00","lat":48.849969,"lon":16.054989,"is_passed":false},{"stop_id":"U18009Z84","name":"Znojmo, autobusové nádraží","arrival_time":"15:54:00","departure_time":"16:17:00","lat":48.852906,"lon":16.058272,"is_passed":false}]}