{"858":[{"stop_id":"U13334Z21","name":"Tišnov, železniční stanice","arrival_time":"17:13:00","departure_time":"17:13:00","lat":49.3475,"lon":16.41725,"is_passed":false},{"stop_id":"U13306Z11","name":"Hradčany, železniční stanice","arrival_time":"17:15:00","departure_time":"17:16:00","lat":49.333878,"lon":16.437893,"is_passed":false},{"stop_id":"U13206Z11","name":"Čebín, železniční stanice","arrival_time":"17:18:00","departure_time":"17:19:00","lat":49.319722,"lon":16.465278,"is_passed":false},{"stop_id":"U13143Z11","name":"Kuřim, železniční stanice","arrival_time":"17:24:00","departure_time":"17:25:00","lat":49.301,"lon":16.534523,"is_passed":false},{"stop_id":"U13109Z11","name":"Česká, železniční stanice","arrival_time":"17:27:00","departure_time":"17:28:00","lat":49.284546,"lon":16.566731,"is_passed":false},{"stop_id":"U1557Z11","name":"Řečkovice, nádraží","arrival_time":"17:32:00","departure_time":"17:32:00","lat":49.250794,"lon":16.590446,"is_passed":false},{"stop_id":"U1286Z11","name":"Královo Pole, nádraží","arrival_time":"17:35:00","departure_time":"17:36:00","lat":49.231051,"lon":16.596651,"is_passed":false},{"stop_id":"U1331Z11","name":"Lesná, nádraží","arrival_time":"17:38:00","departure_time":"17:39:00","lat":49.220432,"lon":16.627505,"is_passed":false},{"stop_id":"U1809Z11","name":"Židenice, nádraží","arrival_time":"17:45:00","departure_time":"17:45:00","lat":49.204282,"lon":16.636042,"is_passed":false},{"stop_id":"U1146Z98","name":"Hlavní nádraží","arrival_time":"17:50:00","departure_time":"17:53:00","lat":49.19035,"lon":16.612342,"is_passed":false},{"stop_id":"U15140Z11","name":"Modřice, železniční stanice","arrival_time":"17:59:00","departure_time":"18:00:00","lat":49.133256,"lon":16.606209,"is_passed":false},{"stop_id":"U15135Z11","name":"Popovice, u tratě","arrival_time":"18:03:00","departure_time":"18:03:00","lat":49.103463,"lon":16.605647,"is_passed":false},{"stop_id":"U15181Z11","name":"Rajhrad, železniční stanice","arrival_time":"18:05:00","departure_time":"18:06:00","lat":49.084966,"lon":16.60532,"is_passed":false},{"stop_id":"U25201Z11","name":"Vojkovice nad Svratkou, žel. st.","arrival_time":"18:09:00","departure_time":"18:09:00","lat":49.056208,"lon":16.597445,"is_passed":false},{"stop_id":"U15222Z11","name":"Hrušovany u Brna, žel. st.","arrival_time":"18:12:00","departure_time":"18:14:00","lat":49.034228,"lon":16.591501,"is_passed":false},{"stop_id":"U15241Z22","name":"Židlochovice, železniční stanice","arrival_time":"18:18:00","departure_time":"18:36:00","lat":49.033178,"lon":16.617165,"is_passed":false}],"8580":[{"stop_id":"U17340Z1","name":"Rousínov, Vítovice","arrival_time":"14:17:00","departure_time":"14:17:00","lat":49.218105,"lon":16.848654,"is_passed":false},{"stop_id":"U17333Z2","name":"Rousínov, Královopolské Vážany","arrival_time":"14:21:00","departure_time":"14:21:00","lat":49.214078,"lon":16.869153,"is_passed":false},{"stop_id":"U17329Z2","name":"Rousínov, betonárka","arrival_time":"14:23:00","departure_time":"14:23:00","lat":49.207305,"lon":16.871175,"is_passed":false},{"stop_id":"U17341Z2","name":"Rousínov, zdravotní středisko","arrival_time":"14:25:00","departure_time":"14:25:00","lat":49.20362,"lon":16.87814,"is_passed":false},{"stop_id":"U17335Z11","name":"Rousínov, autobusová stanice","arrival_time":"14:27:00","departure_time":"14:27:00","lat":49.202992,"lon":16.884865,"is_passed":false}],"8581":[{"stop_id":"U17335Z14","name":"Rousínov, autobusová stanice","arrival_time":"14:35:00","departure_time":"14:35:00","lat":49.202992,"lon":16.884865,"is_passed":false},{"stop_id":"U17361Z1","name":"Rousínov, EDP","arrival_time":"14:39:00","departure_time":"14:45:00","lat":49.197842,"lon":16.877389,"is_passed":false}],"8582":[{"stop_id":"U17361Z2","name":"Rousínov, EDP","arrival_time":"14:45:00","departure_time":"14:45:00","lat":49.197772,"lon":16.877368,"is_passed":false},{"stop_id":"U17335Z6","name":"Rousínov, autobusová stanice","arrival_time":"14:49:00","departure_time":"14:49:00","lat":49.202819,"lon":16.885074,"is_passed":false}],"8583":[{"stop_id":"U17335Z5","name":"Rousínov, autobusová stanice","arrival_time":"15:05:00","departure_time":"15:05:00","lat":49.202992,"lon":16.884865,"is_passed":false},{"stop_id":"U17341Z1","name":"Rousínov, zdravotní středisko","arrival_time":"15:07:00","departure_time":"15:07:00","lat":49.203685,"lon":16.878213,"is_passed":false},{"stop_id":"U17329Z1","name":"Rousínov, betonárka","arrival_time":"15:09:00","departure_time":"15:09:00","lat":49.207363,"lon":16.871207,"is_passed":false},{"stop_id":"U17333Z1","name":"Rousínov, Královopolské Vážany","arrival_time":"15:11:00","departure_time":"15:11:00","lat":49.214167,"lon":16.869172,"is_passed":false},{"stop_id":"U17340Z1","name":"Rousínov, Vítovice","arrival_time":"15:15:00","departure_time":"15:17:00","lat":49.218105,"lon":16.848654,"is_passed":false}],"8584":[{"stop_id":"U17340Z1","name":"Rousínov, Vítovice","arrival_time":"15:17:00","departure_time":"15:17:00","lat":49.218105,"lon":16.848654,"is_passed":false},{"stop_id":"U17333Z2","name":"Rousínov, Královopolské Vážany","arrival_time":"15:21:00","departure_time":"15:21:00","lat":49.214078,"lon":16.869153,"is_passed":false},{"stop_id":"U17329Z2","name":"Rousínov, betonárka","arrival_time":"15:23:00","departure_time":"15:23:00","lat":49.207305,"lon":16.871175,"is_passed":false},{"stop_id":"U17341Z2","name":"Rousínov, zdravotní středisko","arrival_time":"15:25:00","departure_time":"15:25:00","lat":49.20362,"lon":16.87814,"is_passed":false},{"stop_id":"U17335Z11","name":"Rousínov, autobusová stanice","arrival_time":"15:27:00","departure_time":"15:27:00","lat":49.202992,"lon":16.884865,"is_passed":false}],"8585":[{"stop_id":"U17335Z13","name":"Rousínov, autobusová stanice","arrival_time":"15:45:00","departure_time":"15:45:00","lat":49.202992,"lon":16.884865,"is_passed":false},{"stop_id":"U17336Z1","name":"Rousínov, Rousínovec","arrival_time":"15:47:00","departure_time":"15:47:00","lat":49.197257,"lon":16.884543,"is_passed":false},{"stop_id":"U17334Z1","name":"Rousínov, Kroužek","arrival_time":"15:50:00","departure_time":"15:50:00","lat":49.19414,"lon":16.895983,"is_passed":false}],"8586":[{"stop_id":"U17334Z1","name":"Rousínov, Kroužek","arrival_time":"15:50:00","departure_time":"15:50:00","lat":49.19414,"lon":16.895983,"is_passed":false},{"stop_id":"U17336Z2","name":"Rousínov, Rousínovec","arrival_time":"15:53:00","departure_time":"15:53:00","lat":49.197155,"lon":16.884472,"is_passed":false},{"stop_id":"U17335Z12","name":"Rousínov, autobusová stanice","arrival_time":"15:55:00","departure_time":"15:55:00","lat":49.202992,"lon":16.884865,"is_passed":false}],"8587":[{"stop_id":"U17335Z5","name":"Rousínov, autobusová stanice","arrival_time":"16:05:00","departure_time":"16:05:00","lat":49.202992,"lon":16.884865,"is_passed":false},{"stop_id":"U17341Z1","name":"Rousínov, zdravotní středisko","arrival_time":"16:07:00","departure_time":"16:07:00","lat":49.203685,"lon":16.878213,"is_passed":false},{"stop_id":"U17329Z1","name":"Rousínov, betonárka","arrival_time":"16:09:00","departure_time":"16:09:00","lat":49.207363,"lon":16.871207,"is_passed":false},{"stop_id":"U17333Z1","name":"Rousínov, Královopolské Vážany","arrival_time":"16:11:00","departure_time":"16:11:00","lat":49.214167,"lon":16.869172,"is_passed":false},{"stop_id":"U17340Z1","name":"Rousínov, Vítovice","arrival_time":"16:15:00","departure_time":"16:17:00","lat":49.218105,"lon":16.848654,"is_passed":false}],"8588":[{"stop_id":"U17340Z1","name":"Rousínov, Vítovice","arrival_time":"16:17:00","departure_time":"16:17:00","lat":49.218105,"lon":16.848654,"is_passed":false},{"stop_id":"U17333Z2","name":"Rousínov, Královopolské Vážany","arrival_time":"16:21:00","departure_time":"16:21:00","lat":49.214078,"lon":16.869153,"is_passed":false},{"stop_id":"U17329Z2","name":"Rousínov, betonárka","arrival_time":"16:23:00","departure_time":"16:23:00","lat":49.207305,"lon":16.871175,"is_passed":false},{"stop_id":"U17341Z2","name":"Rousínov, zdravotní středisko","arrival_time":"16:25:00","departure_time":"16:25:00","lat":49.20362,"lon":16.87814,"is_passed":false},{"stop_id":"U17335Z11","name":"Rousínov, autobusová stanice","arrival_time":"16:27:00","departure_time":"16:35:00","lat":49.202992,"lon":16.884865,"is_passed":false}],"8589":[{"stop_id":"U17335Z5","name":"Rousínov, autobusová stanice","arrival_time":"16:35:00","departure_time":"16:35:00","lat":49.202992,"lon":16.884865,"is_passed":false},{"stop_id":"U17341Z1","name":"Rousínov, zdravotní středisko","arrival_time":"16:37:00","departure_time":"16:37:00","lat":49.203685,"lon":16.878213,"is_passed":false},{"stop_id":"U17329Z1","name":"Rousínov, betonárka","arrival_time":"16:39:00","departure_time":"16:39:00","lat":49.207363,"lon":16.871207,"is_passed":false},{"stop_id":"U17333Z1","name":"Rousínov, Královopolské Vážany","arrival_time":"16:41:00","departure_time":"16:41:00","lat":49.214167,"lon":16.869172,"is_passed":false},{"stop_id":"U17340Z1","name":"Rousínov, Vítovice","arrival_time":"16:45:00","departure_time":"16:45:00","lat":49.218105,"lon":16.848654,"is_passed":false},{"stop_id":"U17307Z1","name":"Habrovany","arrival_time":"16:51:00","departure_time":"16:51:00","lat":49.231838,"lon":16.877673,"is_passed":false},{"stop_id":"U17319Z1","name":"Olšany, lom","arrival_time":"16:53:00","departure_time":"16:53:00","lat":49.240303,"lon":16.866715,"is_passed":false},{"stop_id":"U17318Z1","name":"Olšany","arrival_time":"16:55:00","departure_time":"17:07:00","lat":49.248937,"lon":16.863638,"is_passed":false}]}