{"872":[{"stop_id":"U30009Z2","name":"Křižanov","arrival_time":"7:00:00","departure_time":"7:00:00","lat":49.384694,"lon":16.080389,"is_passed":false},{"stop_id":"U30302Z2","name":"Ořechov","arrival_time":"7:04:00","departure_time":"7:04:00","lat":49.350447,"lon":16.136416,"is_passed":false},{"stop_id":"U30305Z2","name":"Osová Bítýška","arrival_time":"7:08:00","departure_time":"7:08:00","lat":49.329893,"lon":16.168305,"is_passed":false},{"stop_id":"U23501Z2","name":"Vlkov-Osová","arrival_time":"7:10:00","departure_time":"7:11:00","lat":49.326883,"lon":16.202114,"is_passed":false},{"stop_id":"U13454Z11","name":"Níhov, železniční stanice","arrival_time":"7:15:00","departure_time":"7:16:00","lat":49.33637,"lon":16.270573,"is_passed":false},{"stop_id":"U13425Z11","name":"Řikonín, železniční stanice","arrival_time":"7:19:00","departure_time":"7:20:00","lat":49.365833,"lon":16.305833,"is_passed":false},{"stop_id":"U13411Z11","name":"Dolní Loučky, železniční stanice","arrival_time":"7:22:00","departure_time":"7:22:00","lat":49.356389,"lon":16.346945,"is_passed":false},{"stop_id":"U13334Z21","name":"Tišnov, železniční stanice","arrival_time":"7:28:00","departure_time":"7:29:00","lat":49.3475,"lon":16.41725,"is_passed":false},{"stop_id":"U13306Z11","name":"Hradčany, železniční stanice","arrival_time":"7:31:00","departure_time":"7:32:00","lat":49.333878,"lon":16.437893,"is_passed":false},{"stop_id":"U13206Z11","name":"Čebín, železniční stanice","arrival_time":"7:34:00","departure_time":"7:35:00","lat":49.319722,"lon":16.465278,"is_passed":false},{"stop_id":"U13143Z11","name":"Kuřim, železniční stanice","arrival_time":"7:40:00","departure_time":"7:41:00","lat":49.301,"lon":16.534523,"is_passed":false},{"stop_id":"U13109Z11","name":"Česká, železniční stanice","arrival_time":"7:43:00","departure_time":"7:44:00","lat":49.284546,"lon":16.566731,"is_passed":false},{"stop_id":"U1557Z11","name":"Řečkovice, nádraží","arrival_time":"7:48:00","departure_time":"7:48:00","lat":49.250794,"lon":16.590446,"is_passed":false},{"stop_id":"U1286Z11","name":"Královo Pole, nádraží","arrival_time":"7:51:00","departure_time":"7:52:00","lat":49.231051,"lon":16.596651,"is_passed":false},{"stop_id":"U1331Z11","name":"Lesná, nádraží","arrival_time":"7:54:00","departure_time":"7:55:00","lat":49.220432,"lon":16.627505,"is_passed":false},{"stop_id":"U1809Z11","name":"Židenice, nádraží","arrival_time":"8:01:00","departure_time":"8:01:00","lat":49.204282,"lon":16.636042,"is_passed":false},{"stop_id":"U1146Z98","name":"Hlavní nádraží","arrival_time":"8:06:00","departure_time":"8:09:00","lat":49.19035,"lon":16.612342,"is_passed":false},{"stop_id":"U11002Z11","name":"Brno-Horní Heršpice","arrival_time":"8:13:00","departure_time":"8:14:00","lat":49.167404,"lon":16.60686,"is_passed":false},{"stop_id":"U15140Z11","name":"Modřice, železniční stanice","arrival_time":"8:17:00","departure_time":"8:18:00","lat":49.133256,"lon":16.606209,"is_passed":false},{"stop_id":"U15181Z11","name":"Rajhrad, železniční stanice","arrival_time":"8:21:00","departure_time":"8:22:00","lat":49.084966,"lon":16.60532,"is_passed":false},{"stop_id":"U15222Z11","name":"Hrušovany u Brna, žel. st.","arrival_time":"8:26:00","departure_time":"8:30:00","lat":49.034228,"lon":16.591501,"is_passed":false},{"stop_id":"U15306Z11","name":"Žabčice, žel. st.","arrival_time":"8:33:00","departure_time":"8:33:00","lat":49.010857,"lon":16.594833,"is_passed":false},{"stop_id":"U15307Z11","name":"Vranovice, žel.st.","arrival_time":"8:37:00","departure_time":"8:38:00","lat":48.964528,"lon":16.604187,"is_passed":false},{"stop_id":"U25401Z11","name":"Pouzdřany","arrival_time":"8:40:00","departure_time":"8:41:00","lat":48.942025,"lon":16.630527,"is_passed":false},{"stop_id":"U25402Z11","name":"Popice","arrival_time":"8:44:00","departure_time":"8:44:00","lat":48.924332,"lon":16.668084,"is_passed":false},{"stop_id":"U15425Z11","name":"Šakvice, železniční stanice","arrival_time":"8:47:00","departure_time":"8:48:00","lat":48.912883,"lon":16.70557,"is_passed":false},{"stop_id":"U15403Z11","name":"Hustopeče, autobusové nádraží","arrival_time":"8:55:00","departure_time":"9:04:00","lat":48.93752,"lon":16.735901,"is_passed":false}],"8720":[{"stop_id":"U18009Z7","name":"Znojmo, autobusové nádraží","arrival_time":"16:01:00","departure_time":"16:01:00","lat":48.85175,"lon":16.056878,"is_passed":false},{"stop_id":"U18011Z1","name":"Znojmo, nám.Svobody, lázně","arrival_time":"16:05:00","departure_time":"16:05:00","lat":48.860815,"lon":16.049749,"is_passed":false},{"stop_id":"U18015Z1","name":"Znojmo, Přímětická, Resslova","arrival_time":"16:08:00","departure_time":"16:08:00","lat":48.867857,"lon":16.041419,"is_passed":false},{"stop_id":"U18014Z1","name":"Znojmo, Přímětická, rozc.k Měst.lesíku","arrival_time":"16:09:00","departure_time":"16:09:00","lat":48.872021,"lon":16.040636,"is_passed":false},{"stop_id":"U18044Z1","name":"Znojmo, Přímětice, Sklářská","arrival_time":"16:11:00","departure_time":"16:11:00","lat":48.878517,"lon":16.037769,"is_passed":false},{"stop_id":"U18045Z3","name":"Znojmo, Přímětice, Křížový sklep","arrival_time":"16:13:00","departure_time":"16:13:00","lat":48.883995,"lon":16.03535,"is_passed":false},{"stop_id":"U18181Z1","name":"Hluboké Mašůvky, rozcestí Plenkovice","arrival_time":"16:19:00","departure_time":"16:19:00","lat":48.919267,"lon":16.025448,"is_passed":false},{"stop_id":"U18144Z1","name":"Hluboké Mašůvky, hostinec","arrival_time":"16:20:00","departure_time":"16:20:00","lat":48.92324,"lon":16.02542,"is_passed":false},{"stop_id":"U18142Z1","name":"Hluboké Mašůvky, dolní zastávka","arrival_time":"16:22:00","departure_time":"16:22:00","lat":48.927317,"lon":16.026523,"is_passed":false},{"stop_id":"U18143Z1","name":"Hluboké Mašůvky, hájenka","arrival_time":"16:25:00","departure_time":"16:25:00","lat":48.937038,"lon":16.00754,"is_passed":false},{"stop_id":"U18242Z1","name":"Bojanovice, odbočka k pile","arrival_time":"16:27:00","departure_time":"16:27:00","lat":48.952237,"lon":15.992976,"is_passed":false},{"stop_id":"U18240Z1","name":"Bojanovice, hospodářství ZD","arrival_time":"16:28:00","departure_time":"16:28:00","lat":48.96442,"lon":15.992052,"is_passed":false},{"stop_id":"U18241Z1","name":"Bojanovice, obecní úřad","arrival_time":"16:29:00","departure_time":"16:29:00","lat":48.969103,"lon":15.989075,"is_passed":false},{"stop_id":"U18246Z1","name":"Jevišovice, policie","arrival_time":"16:31:00","departure_time":"16:31:00","lat":48.983433,"lon":15.986802,"is_passed":false},{"stop_id":"U18245Z1","name":"Jevišovice, náměstí","arrival_time":"16:32:00","departure_time":"16:32:00","lat":48.987958,"lon":15.992685,"is_passed":false},{"stop_id":"U18329Z1","name":"Střelice, požární zbrojnice","arrival_time":"16:34:00","departure_time":"16:34:00","lat":48.9942,"lon":15.983165,"is_passed":false},{"stop_id":"U18327Z1","name":"Střelice, hájenka","arrival_time":"16:37:00","departure_time":"16:37:00","lat":49.004965,"lon":15.974225,"is_passed":false},{"stop_id":"U18317Z1","name":"Rozkoš, u kapličky","arrival_time":"16:41:00","departure_time":"16:41:00","lat":49.02841,"lon":15.976755,"is_passed":false},{"stop_id":"U18318Z1","name":"Rozkoš, Zátiší","arrival_time":"16:44:00","departure_time":"16:44:00","lat":49.028386,"lon":15.995168,"is_passed":false},{"stop_id":"U18321Z1","name":"Slatina, obecní úřad","arrival_time":"16:47:00","departure_time":"16:47:00","lat":49.019965,"lon":16.017477,"is_passed":false}],"8721":[{"stop_id":"U18502Z2","name":"Moravské Budějovice, autobusové nádraží","arrival_time":"4:19:00","departure_time":"4:19:00","lat":49.056355,"lon":15.808013,"is_passed":false},{"stop_id":"U18504Z2","name":"Moravské Budějovice, Tyršova","arrival_time":"4:22:00","departure_time":"4:22:00","lat":49.04912,"lon":15.815073,"is_passed":false},{"stop_id":"U18330Z2","name":"Blanné","arrival_time":"4:31:00","departure_time":"4:31:00","lat":48.992495,"lon":15.882532,"is_passed":false},{"stop_id":"U18332Z2","name":"Blanné, rozcestí","arrival_time":"4:32:00","departure_time":"4:32:00","lat":48.989262,"lon":15.878247,"is_passed":false},{"stop_id":"U18337Z2","name":"Grešlové Mýto, motorest","arrival_time":"4:34:00","departure_time":"4:34:00","lat":48.981502,"lon":15.885122,"is_passed":false},{"stop_id":"U18341Z2","name":"Pavlice, na kopci","arrival_time":"4:36:00","departure_time":"4:36:00","lat":48.972677,"lon":15.895917,"is_passed":false},{"stop_id":"U18262Z2","name":"Vranovská Ves, u hřiště","arrival_time":"4:39:00","departure_time":"4:39:00","lat":48.954831,"lon":15.916418,"is_passed":false},{"stop_id":"U18263Z2","name":"Vranovská Ves, u lesa","arrival_time":"4:41:00","departure_time":"4:41:00","lat":48.948955,"lon":15.920377,"is_passed":false},{"stop_id":"U18261Z2","name":"Vranovská Ves, Hostěrádky","arrival_time":"4:42:00","departure_time":"4:42:00","lat":48.941252,"lon":15.9262,"is_passed":false},{"stop_id":"U18156Z2","name":"Olbramkostel, restaurace","arrival_time":"4:45:00","departure_time":"4:45:00","lat":48.922627,"lon":15.950368,"is_passed":false},{"stop_id":"U18158Z2","name":"Olbramkostel, železniční stanice","arrival_time":"4:48:00","departure_time":"4:48:00","lat":48.903452,"lon":15.948985,"is_passed":false},{"stop_id":"U18162Z2","name":"Žerůtky","arrival_time":"4:50:00","departure_time":"4:50:00","lat":48.905933,"lon":15.963395,"is_passed":false},{"stop_id":"U18071Z2","name":"Znojmo, Mramotice, rozcestí","arrival_time":"4:54:00","departure_time":"4:54:00","lat":48.897172,"lon":15.993508,"is_passed":false},{"stop_id":"U18049Z1","name":"Znojmo, Kasárna","arrival_time":"4:55:00","departure_time":"4:55:00","lat":48.890978,"lon":16.000194,"is_passed":false},{"stop_id":"U18075Z2","name":"Znojmo, Pražská, sídliště","arrival_time":"4:59:00","departure_time":"4:59:00","lat":48.868261,"lon":16.032958,"is_passed":false},{"stop_id":"U18012Z1","name":"Znojmo, Pražská, Kolonka","arrival_time":"5:00:00","departure_time":"5:00:00","lat":48.862898,"lon":16.042294,"is_passed":false},{"stop_id":"U18011Z2","name":"Znojmo, nám.Svobody, lázně","arrival_time":"5:02:00","departure_time":"5:02:00","lat":48.860435,"lon":16.049027,"is_passed":false},{"stop_id":"U18009Z51","name":"Znojmo, autobusové nádraží","arrival_time":"5:07:00","departure_time":"5:27:00","lat":48.851908,"lon":16.056983,"is_passed":false}],"8722":[{"stop_id":"U18009Z8","name":"Znojmo, autobusové nádraží","arrival_time":"5:27:00","departure_time":"5:27:00","lat":48.851686,"lon":16.05677,"is_passed":false},{"stop_id":"U18011Z4","name":"Znojmo, nám.Svobody, lázně","arrival_time":"5:32:00","departure_time":"5:32:00","lat":48.860867,"lon":16.049582,"is_passed":false},{"stop_id":"U18012Z2","name":"Znojmo, Pražská, Kolonka","arrival_time":"5:33:00","departure_time":"5:33:00","lat":48.863104,"lon":16.042081,"is_passed":false},{"stop_id":"U18075Z1","name":"Znojmo, Pražská, sídliště","arrival_time":"5:35:00","departure_time":"5:35:00","lat":48.866939,"lon":16.035432,"is_passed":false},{"stop_id":"U18049Z2","name":"Znojmo, Kasárna","arrival_time":"5:39:00","departure_time":"5:39:00","lat":48.892641,"lon":15.999284,"is_passed":false},{"stop_id":"U18071Z1","name":"Znojmo, Mramotice, rozcestí","arrival_time":"5:41:00","departure_time":"5:41:00","lat":48.897417,"lon":15.993281,"is_passed":false},{"stop_id":"U18162Z1","name":"Žerůtky","arrival_time":"5:45:00","departure_time":"5:45:00","lat":48.905857,"lon":15.962058,"is_passed":false},{"stop_id":"U18158Z1","name":"Olbramkostel, železniční stanice","arrival_time":"5:47:00","departure_time":"5:47:00","lat":48.903537,"lon":15.949112,"is_passed":false},{"stop_id":"U18156Z1","name":"Olbramkostel, restaurace","arrival_time":"5:50:00","departure_time":"5:50:00","lat":48.922627,"lon":15.950368,"is_passed":false},{"stop_id":"U18261Z1","name":"Vranovská Ves, Hostěrádky","arrival_time":"5:53:00","departure_time":"5:53:00","lat":48.941252,"lon":15.9262,"is_passed":false},{"stop_id":"U18263Z1","name":"Vranovská Ves, u lesa","arrival_time":"5:54:00","departure_time":"5:54:00","lat":48.94909,"lon":15.920488,"is_passed":false},{"stop_id":"U18341Z1","name":"Pavlice, na kopci","arrival_time":"5:58:00","departure_time":"5:58:00","lat":48.972683,"lon":15.896083,"is_passed":false},{"stop_id":"U18337Z1","name":"Grešlové Mýto, motorest","arrival_time":"6:00:00","departure_time":"6:00:00","lat":48.981657,"lon":15.885145,"is_passed":false},{"stop_id":"U18330Z1","name":"Blanné","arrival_time":"6:03:00","departure_time":"6:03:00","lat":48.992495,"lon":15.882532,"is_passed":false},{"stop_id":"U18332Z1","name":"Blanné, rozcestí","arrival_time":"6:04:00","departure_time":"6:04:00","lat":48.99016,"lon":15.877553,"is_passed":false},{"stop_id":"U18505Z1","name":"Moravské Budějovice, Urbánkova","arrival_time":"6:12:00","departure_time":"6:12:00","lat":49.048587,"lon":15.812111,"is_passed":false},{"stop_id":"U18502Z51","name":"Moravské Budějovice, autobusové nádraží","arrival_time":"6:15:00","departure_time":"6:49:00","lat":49.056355,"lon":15.808013,"is_passed":false}],"8723":[{"stop_id":"U18502Z2","name":"Moravské Budějovice, autobusové nádraží","arrival_time":"6:49:00","departure_time":"6:49:00","lat":49.056355,"lon":15.808013,"is_passed":false},{"stop_id":"U18504Z2","name":"Moravské Budějovice, Tyršova","arrival_time":"6:52:00","departure_time":"6:52:00","lat":49.04912,"lon":15.815073,"is_passed":false},{"stop_id":"U18330Z2","name":"Blanné","arrival_time":"7:01:00","departure_time":"7:01:00","lat":48.992495,"lon":15.882532,"is_passed":false},{"stop_id":"U18332Z2","name":"Blanné, rozcestí","arrival_time":"7:02:00","departure_time":"7:02:00","lat":48.989262,"lon":15.878247,"is_passed":false},{"stop_id":"U18337Z2","name":"Grešlové Mýto, motorest","arrival_time":"7:04:00","departure_time":"7:04:00","lat":48.981502,"lon":15.885122,"is_passed":false},{"stop_id":"U18341Z2","name":"Pavlice, na kopci","arrival_time":"7:06:00","departure_time":"7:06:00","lat":48.972677,"lon":15.895917,"is_passed":false},{"stop_id":"U18262Z2","name":"Vranovská Ves, u hřiště","arrival_time":"7:09:00","departure_time":"7:09:00","lat":48.954831,"lon":15.916418,"is_passed":false},{"stop_id":"U18263Z2","name":"Vranovská Ves, u lesa","arrival_time":"7:11:00","departure_time":"7:11:00","lat":48.948955,"lon":15.920377,"is_passed":false},{"stop_id":"U18261Z2","name":"Vranovská Ves, Hostěrádky","arrival_time":"7:12:00","departure_time":"7:12:00","lat":48.941252,"lon":15.9262,"is_passed":false},{"stop_id":"U18156Z2","name":"Olbramkostel, restaurace","arrival_time":"7:15:00","departure_time":"7:15:00","lat":48.922627,"lon":15.950368,"is_passed":false},{"stop_id":"U18158Z2","name":"Olbramkostel, železniční stanice","arrival_time":"7:18:00","departure_time":"7:18:00","lat":48.903452,"lon":15.948985,"is_passed":false},{"stop_id":"U18162Z2","name":"Žerůtky","arrival_time":"7:20:00","departure_time":"7:20:00","lat":48.905933,"lon":15.963395,"is_passed":false},{"stop_id":"U18071Z2","name":"Znojmo, Mramotice, rozcestí","arrival_time":"7:24:00","departure_time":"7:24:00","lat":48.897172,"lon":15.993508,"is_passed":false},{"stop_id":"U18049Z1","name":"Znojmo, Kasárna","arrival_time":"7:25:00","departure_time":"7:25:00","lat":48.890978,"lon":16.000194,"is_passed":false},{"stop_id":"U18075Z2","name":"Znojmo, Pražská, sídliště","arrival_time":"7:29:00","departure_time":"7:29:00","lat":48.868261,"lon":16.032958,"is_passed":false},{"stop_id":"U18012Z1","name":"Znojmo, Pražská, Kolonka","arrival_time":"7:30:00","departure_time":"7:30:00","lat":48.862898,"lon":16.042294,"is_passed":false},{"stop_id":"U18011Z2","name":"Znojmo, nám.Svobody, lázně","arrival_time":"7:32:00","departure_time":"7:32:00","lat":48.860435,"lon":16.049027,"is_passed":false},{"stop_id":"U18009Z51","name":"Znojmo, autobusové nádraží","arrival_time":"7:37:00","departure_time":"11:10:00","lat":48.851908,"lon":16.056983,"is_passed":false}],"8724":[{"stop_id":"U18009Z8","name":"Znojmo, autobusové nádraží","arrival_time":"11:10:00","departure_time":"11:10:00","lat":48.851686,"lon":16.05677,"is_passed":false},{"stop_id":"U18011Z4","name":"Znojmo, nám.Svobody, lázně","arrival_time":"11:15:00","departure_time":"11:15:00","lat":48.860867,"lon":16.049582,"is_passed":false},{"stop_id":"U18012Z2","name":"Znojmo, Pražská, Kolonka","arrival_time":"11:16:00","departure_time":"11:16:00","lat":48.863104,"lon":16.042081,"is_passed":false},{"stop_id":"U18075Z1","name":"Znojmo, Pražská, sídliště","arrival_time":"11:18:00","departure_time":"11:18:00","lat":48.866939,"lon":16.035432,"is_passed":false},{"stop_id":"U18049Z2","name":"Znojmo, Kasárna","arrival_time":"11:22:00","departure_time":"11:22:00","lat":48.892641,"lon":15.999284,"is_passed":false},{"stop_id":"U18071Z1","name":"Znojmo, Mramotice, rozcestí","arrival_time":"11:24:00","departure_time":"11:24:00","lat":48.897417,"lon":15.993281,"is_passed":false},{"stop_id":"U18162Z1","name":"Žerůtky","arrival_time":"11:28:00","departure_time":"11:28:00","lat":48.905857,"lon":15.962058,"is_passed":false},{"stop_id":"U18158Z1","name":"Olbramkostel, železniční stanice","arrival_time":"11:30:00","departure_time":"11:30:00","lat":48.903537,"lon":15.949112,"is_passed":false},{"stop_id":"U18156Z1","name":"Olbramkostel, restaurace","arrival_time":"11:33:00","departure_time":"11:33:00","lat":48.922627,"lon":15.950368,"is_passed":false},{"stop_id":"U18261Z1","name":"Vranovská Ves, Hostěrádky","arrival_time":"11:36:00","departure_time":"11:36:00","lat":48.941252,"lon":15.9262,"is_passed":false},{"stop_id":"U18263Z1","name":"Vranovská Ves, u lesa","arrival_time":"11:37:00","departure_time":"11:37:00","lat":48.94909,"lon":15.920488,"is_passed":false},{"stop_id":"U18341Z1","name":"Pavlice, na kopci","arrival_time":"11:41:00","departure_time":"11:41:00","lat":48.972683,"lon":15.896083,"is_passed":false},{"stop_id":"U18337Z1","name":"Grešlové Mýto, motorest","arrival_time":"11:43:00","departure_time":"11:43:00","lat":48.981657,"lon":15.885145,"is_passed":false},{"stop_id":"U18330Z1","name":"Blanné","arrival_time":"11:46:00","departure_time":"11:46:00","lat":48.992495,"lon":15.882532,"is_passed":false},{"stop_id":"U18332Z1","name":"Blanné, rozcestí","arrival_time":"11:47:00","departure_time":"11:47:00","lat":48.99016,"lon":15.877553,"is_passed":false},{"stop_id":"U18505Z1","name":"Moravské Budějovice, Urbánkova","arrival_time":"11:55:00","departure_time":"11:55:00","lat":49.048587,"lon":15.812111,"is_passed":false},{"stop_id":"U18502Z51","name":"Moravské Budějovice, autobusové nádraží","arrival_time":"11:58:00","departure_time":"12:04:00","lat":49.056355,"lon":15.808013,"is_passed":false}],"8725":[{"stop_id":"U18502Z2","name":"Moravské Budějovice, autobusové nádraží","arrival_time":"12:04:00","departure_time":"12:04:00","lat":49.056355,"lon":15.808013,"is_passed":false},{"stop_id":"U18504Z2","name":"Moravské Budějovice, Tyršova","arrival_time":"12:07:00","departure_time":"12:07:00","lat":49.04912,"lon":15.815073,"is_passed":false},{"stop_id":"U18330Z2","name":"Blanné","arrival_time":"12:16:00","departure_time":"12:16:00","lat":48.992495,"lon":15.882532,"is_passed":false},{"stop_id":"U18332Z2","name":"Blanné, rozcestí","arrival_time":"12:17:00","departure_time":"12:17:00","lat":48.989262,"lon":15.878247,"is_passed":false},{"stop_id":"U18337Z2","name":"Grešlové Mýto, motorest","arrival_time":"12:19:00","departure_time":"12:19:00","lat":48.981502,"lon":15.885122,"is_passed":false},{"stop_id":"U18341Z2","name":"Pavlice, na kopci","arrival_time":"12:21:00","departure_time":"12:21:00","lat":48.972677,"lon":15.895917,"is_passed":false},{"stop_id":"U18262Z2","name":"Vranovská Ves, u hřiště","arrival_time":"12:24:00","departure_time":"12:24:00","lat":48.954831,"lon":15.916418,"is_passed":false},{"stop_id":"U18263Z2","name":"Vranovská Ves, u lesa","arrival_time":"12:26:00","departure_time":"12:26:00","lat":48.948955,"lon":15.920377,"is_passed":false},{"stop_id":"U18261Z2","name":"Vranovská Ves, Hostěrádky","arrival_time":"12:27:00","departure_time":"12:27:00","lat":48.941252,"lon":15.9262,"is_passed":false},{"stop_id":"U18156Z2","name":"Olbramkostel, restaurace","arrival_time":"12:30:00","departure_time":"12:30:00","lat":48.922627,"lon":15.950368,"is_passed":false},{"stop_id":"U18158Z2","name":"Olbramkostel, železniční stanice","arrival_time":"12:33:00","departure_time":"12:33:00","lat":48.903452,"lon":15.948985,"is_passed":false},{"stop_id":"U18162Z2","name":"Žerůtky","arrival_time":"12:35:00","departure_time":"12:35:00","lat":48.905933,"lon":15.963395,"is_passed":false},{"stop_id":"U18071Z2","name":"Znojmo, Mramotice, rozcestí","arrival_time":"12:39:00","departure_time":"12:39:00","lat":48.897172,"lon":15.993508,"is_passed":false},{"stop_id":"U18049Z1","name":"Znojmo, Kasárna","arrival_time":"12:40:00","departure_time":"12:40:00","lat":48.890978,"lon":16.000194,"is_passed":false},{"stop_id":"U18075Z2","name":"Znojmo, Pražská, sídliště","arrival_time":"12:44:00","departure_time":"12:44:00","lat":48.868261,"lon":16.032958,"is_passed":false},{"stop_id":"U18012Z1","name":"Znojmo, Pražská, Kolonka","arrival_time":"12:45:00","departure_time":"12:45:00","lat":48.862898,"lon":16.042294,"is_passed":false},{"stop_id":"U18011Z2","name":"Znojmo, nám.Svobody, lázně","arrival_time":"12:47:00","departure_time":"12:47:00","lat":48.860435,"lon":16.049027,"is_passed":false},{"stop_id":"U18009Z51","name":"Znojmo, autobusové nádraží","arrival_time":"12:52:00","departure_time":"13:10:00","lat":48.851908,"lon":16.056983,"is_passed":false}],"8726":[{"stop_id":"U18009Z8","name":"Znojmo, autobusové nádraží","arrival_time":"13:10:00","departure_time":"13:10:00","lat":48.851686,"lon":16.05677,"is_passed":false},{"stop_id":"U18011Z4","name":"Znojmo, nám.Svobody, lázně","arrival_time":"13:15:00","departure_time":"13:15:00","lat":48.860867,"lon":16.049582,"is_passed":false},{"stop_id":"U18012Z2","name":"Znojmo, Pražská, Kolonka","arrival_time":"13:16:00","departure_time":"13:16:00","lat":48.863104,"lon":16.042081,"is_passed":false},{"stop_id":"U18075Z1","name":"Znojmo, Pražská, sídliště","arrival_time":"13:18:00","departure_time":"13:18:00","lat":48.866939,"lon":16.035432,"is_passed":false},{"stop_id":"U18049Z2","name":"Znojmo, Kasárna","arrival_time":"13:22:00","departure_time":"13:22:00","lat":48.892641,"lon":15.999284,"is_passed":false},{"stop_id":"U18071Z1","name":"Znojmo, Mramotice, rozcestí","arrival_time":"13:24:00","departure_time":"13:24:00","lat":48.897417,"lon":15.993281,"is_passed":false},{"stop_id":"U18162Z1","name":"Žerůtky","arrival_time":"13:28:00","departure_time":"13:28:00","lat":48.905857,"lon":15.962058,"is_passed":false},{"stop_id":"U18158Z1","name":"Olbramkostel, železniční stanice","arrival_time":"13:30:00","departure_time":"13:30:00","lat":48.903537,"lon":15.949112,"is_passed":false},{"stop_id":"U18156Z1","name":"Olbramkostel, restaurace","arrival_time":"13:33:00","departure_time":"13:33:00","lat":48.922627,"lon":15.950368,"is_passed":false},{"stop_id":"U18261Z1","name":"Vranovská Ves, Hostěrádky","arrival_time":"13:36:00","departure_time":"13:36:00","lat":48.941252,"lon":15.9262,"is_passed":false},{"stop_id":"U18263Z1","name":"Vranovská Ves, u lesa","arrival_time":"13:37:00","departure_time":"13:37:00","lat":48.94909,"lon":15.920488,"is_passed":false},{"stop_id":"U18341Z1","name":"Pavlice, na kopci","arrival_time":"13:41:00","departure_time":"13:41:00","lat":48.972683,"lon":15.896083,"is_passed":false},{"stop_id":"U18337Z1","name":"Grešlové Mýto, motorest","arrival_time":"13:43:00","departure_time":"13:43:00","lat":48.981657,"lon":15.885145,"is_passed":false},{"stop_id":"U18330Z1","name":"Blanné","arrival_time":"13:46:00","departure_time":"13:46:00","lat":48.992495,"lon":15.882532,"is_passed":false},{"stop_id":"U18332Z1","name":"Blanné, rozcestí","arrival_time":"13:47:00","departure_time":"13:47:00","lat":48.99016,"lon":15.877553,"is_passed":false},{"stop_id":"U18505Z1","name":"Moravské Budějovice, Urbánkova","arrival_time":"13:55:00","departure_time":"13:55:00","lat":49.048587,"lon":15.812111,"is_passed":false},{"stop_id":"U18502Z51","name":"Moravské Budějovice, autobusové nádraží","arrival_time":"13:58:00","departure_time":"14:04:00","lat":49.056355,"lon":15.808013,"is_passed":false}],"8727":[{"stop_id":"U18502Z2","name":"Moravské Budějovice, autobusové nádraží","arrival_time":"14:04:00","departure_time":"14:04:00","lat":49.056355,"lon":15.808013,"is_passed":false},{"stop_id":"U18504Z2","name":"Moravské Budějovice, Tyršova","arrival_time":"14:07:00","departure_time":"14:07:00","lat":49.04912,"lon":15.815073,"is_passed":false},{"stop_id":"U18330Z2","name":"Blanné","arrival_time":"14:16:00","departure_time":"14:16:00","lat":48.992495,"lon":15.882532,"is_passed":false},{"stop_id":"U18332Z2","name":"Blanné, rozcestí","arrival_time":"14:17:00","departure_time":"14:17:00","lat":48.989262,"lon":15.878247,"is_passed":false},{"stop_id":"U18337Z2","name":"Grešlové Mýto, motorest","arrival_time":"14:19:00","departure_time":"14:19:00","lat":48.981502,"lon":15.885122,"is_passed":false},{"stop_id":"U18341Z2","name":"Pavlice, na kopci","arrival_time":"14:21:00","departure_time":"14:21:00","lat":48.972677,"lon":15.895917,"is_passed":false},{"stop_id":"U18262Z2","name":"Vranovská Ves, u hřiště","arrival_time":"14:24:00","departure_time":"14:24:00","lat":48.954831,"lon":15.916418,"is_passed":false},{"stop_id":"U18263Z2","name":"Vranovská Ves, u lesa","arrival_time":"14:26:00","departure_time":"14:26:00","lat":48.948955,"lon":15.920377,"is_passed":false},{"stop_id":"U18261Z2","name":"Vranovská Ves, Hostěrádky","arrival_time":"14:27:00","departure_time":"14:27:00","lat":48.941252,"lon":15.9262,"is_passed":false},{"stop_id":"U18156Z2","name":"Olbramkostel, restaurace","arrival_time":"14:30:00","departure_time":"14:30:00","lat":48.922627,"lon":15.950368,"is_passed":false},{"stop_id":"U18158Z2","name":"Olbramkostel, železniční stanice","arrival_time":"14:33:00","departure_time":"14:33:00","lat":48.903452,"lon":15.948985,"is_passed":false},{"stop_id":"U18162Z2","name":"Žerůtky","arrival_time":"14:35:00","departure_time":"14:35:00","lat":48.905933,"lon":15.963395,"is_passed":false},{"stop_id":"U18071Z2","name":"Znojmo, Mramotice, rozcestí","arrival_time":"14:39:00","departure_time":"14:39:00","lat":48.897172,"lon":15.993508,"is_passed":false},{"stop_id":"U18049Z1","name":"Znojmo, Kasárna","arrival_time":"14:40:00","departure_time":"14:40:00","lat":48.890978,"lon":16.000194,"is_passed":false},{"stop_id":"U18075Z2","name":"Znojmo, Pražská, sídliště","arrival_time":"14:44:00","departure_time":"14:44:00","lat":48.868261,"lon":16.032958,"is_passed":false},{"stop_id":"U18012Z1","name":"Znojmo, Pražská, Kolonka","arrival_time":"14:45:00","departure_time":"14:45:00","lat":48.862898,"lon":16.042294,"is_passed":false},{"stop_id":"U18011Z2","name":"Znojmo, nám.Svobody, lázně","arrival_time":"14:47:00","departure_time":"14:47:00","lat":48.860435,"lon":16.049027,"is_passed":false},{"stop_id":"U18009Z51","name":"Znojmo, autobusové nádraží","arrival_time":"14:52:00","departure_time":"15:10:00","lat":48.851908,"lon":16.056983,"is_passed":false}],"8728":[{"stop_id":"U18009Z8","name":"Znojmo, autobusové nádraží","arrival_time":"15:10:00","departure_time":"15:10:00","lat":48.851686,"lon":16.05677,"is_passed":false},{"stop_id":"U18011Z4","name":"Znojmo, nám.Svobody, lázně","arrival_time":"15:15:00","departure_time":"15:15:00","lat":48.860867,"lon":16.049582,"is_passed":false},{"stop_id":"U18012Z2","name":"Znojmo, Pražská, Kolonka","arrival_time":"15:16:00","departure_time":"15:16:00","lat":48.863104,"lon":16.042081,"is_passed":false},{"stop_id":"U18075Z1","name":"Znojmo, Pražská, sídliště","arrival_time":"15:18:00","departure_time":"15:18:00","lat":48.866939,"lon":16.035432,"is_passed":false},{"stop_id":"U18049Z2","name":"Znojmo, Kasárna","arrival_time":"15:22:00","departure_time":"15:22:00","lat":48.892641,"lon":15.999284,"is_passed":false},{"stop_id":"U18071Z1","name":"Znojmo, Mramotice, rozcestí","arrival_time":"15:24:00","departure_time":"15:24:00","lat":48.897417,"lon":15.993281,"is_passed":false},{"stop_id":"U18162Z1","name":"Žerůtky","arrival_time":"15:28:00","departure_time":"15:28:00","lat":48.905857,"lon":15.962058,"is_passed":false},{"stop_id":"U18158Z1","name":"Olbramkostel, železniční stanice","arrival_time":"15:30:00","departure_time":"15:30:00","lat":48.903537,"lon":15.949112,"is_passed":false},{"stop_id":"U18156Z1","name":"Olbramkostel, restaurace","arrival_time":"15:33:00","departure_time":"15:33:00","lat":48.922627,"lon":15.950368,"is_passed":false},{"stop_id":"U18261Z1","name":"Vranovská Ves, Hostěrádky","arrival_time":"15:36:00","departure_time":"15:36:00","lat":48.941252,"lon":15.9262,"is_passed":false},{"stop_id":"U18263Z1","name":"Vranovská Ves, u lesa","arrival_time":"15:37:00","departure_time":"15:37:00","lat":48.94909,"lon":15.920488,"is_passed":false},{"stop_id":"U18341Z1","name":"Pavlice, na kopci","arrival_time":"15:41:00","departure_time":"15:41:00","lat":48.972683,"lon":15.896083,"is_passed":false},{"stop_id":"U18337Z1","name":"Grešlové Mýto, motorest","arrival_time":"15:43:00","departure_time":"15:43:00","lat":48.981657,"lon":15.885145,"is_passed":false},{"stop_id":"U18330Z1","name":"Blanné","arrival_time":"15:46:00","departure_time":"15:46:00","lat":48.992495,"lon":15.882532,"is_passed":false},{"stop_id":"U18332Z1","name":"Blanné, rozcestí","arrival_time":"15:47:00","departure_time":"15:47:00","lat":48.99016,"lon":15.877553,"is_passed":false},{"stop_id":"U18505Z1","name":"Moravské Budějovice, Urbánkova","arrival_time":"15:55:00","departure_time":"15:55:00","lat":49.048587,"lon":15.812111,"is_passed":false},{"stop_id":"U18502Z51","name":"Moravské Budějovice, autobusové nádraží","arrival_time":"15:58:00","departure_time":"16:04:00","lat":49.056355,"lon":15.808013,"is_passed":false}],"8729":[{"stop_id":"U18502Z2","name":"Moravské Budějovice, autobusové nádraží","arrival_time":"16:04:00","departure_time":"16:04:00","lat":49.056355,"lon":15.808013,"is_passed":false},{"stop_id":"U18504Z2","name":"Moravské Budějovice, Tyršova","arrival_time":"16:07:00","departure_time":"16:07:00","lat":49.04912,"lon":15.815073,"is_passed":false},{"stop_id":"U18330Z2","name":"Blanné","arrival_time":"16:16:00","departure_time":"16:16:00","lat":48.992495,"lon":15.882532,"is_passed":false},{"stop_id":"U18332Z2","name":"Blanné, rozcestí","arrival_time":"16:17:00","departure_time":"16:17:00","lat":48.989262,"lon":15.878247,"is_passed":false},{"stop_id":"U18337Z2","name":"Grešlové Mýto, motorest","arrival_time":"16:19:00","departure_time":"16:19:00","lat":48.981502,"lon":15.885122,"is_passed":false},{"stop_id":"U18341Z2","name":"Pavlice, na kopci","arrival_time":"16:21:00","departure_time":"16:21:00","lat":48.972677,"lon":15.895917,"is_passed":false},{"stop_id":"U18262Z2","name":"Vranovská Ves, u hřiště","arrival_time":"16:24:00","departure_time":"16:24:00","lat":48.954831,"lon":15.916418,"is_passed":false},{"stop_id":"U18263Z2","name":"Vranovská Ves, u lesa","arrival_time":"16:26:00","departure_time":"16:26:00","lat":48.948955,"lon":15.920377,"is_passed":false},{"stop_id":"U18261Z2","name":"Vranovská Ves, Hostěrádky","arrival_time":"16:27:00","departure_time":"16:27:00","lat":48.941252,"lon":15.9262,"is_passed":false},{"stop_id":"U18156Z2","name":"Olbramkostel, restaurace","arrival_time":"16:30:00","departure_time":"16:30:00","lat":48.922627,"lon":15.950368,"is_passed":false},{"stop_id":"U18158Z2","name":"Olbramkostel, železniční stanice","arrival_time":"16:33:00","departure_time":"16:33:00","lat":48.903452,"lon":15.948985,"is_passed":false},{"stop_id":"U18162Z2","name":"Žerůtky","arrival_time":"16:35:00","departure_time":"16:35:00","lat":48.905933,"lon":15.963395,"is_passed":false},{"stop_id":"U18071Z2","name":"Znojmo, Mramotice, rozcestí","arrival_time":"16:39:00","departure_time":"16:39:00","lat":48.897172,"lon":15.993508,"is_passed":false},{"stop_id":"U18049Z1","name":"Znojmo, Kasárna","arrival_time":"16:40:00","departure_time":"16:40:00","lat":48.890978,"lon":16.000194,"is_passed":false},{"stop_id":"U18075Z2","name":"Znojmo, Pražská, sídliště","arrival_time":"16:44:00","departure_time":"16:44:00","lat":48.868261,"lon":16.032958,"is_passed":false},{"stop_id":"U18012Z1","name":"Znojmo, Pražská, Kolonka","arrival_time":"16:45:00","departure_time":"16:45:00","lat":48.862898,"lon":16.042294,"is_passed":false},{"stop_id":"U18011Z2","name":"Znojmo, nám.Svobody, lázně","arrival_time":"16:47:00","departure_time":"16:47:00","lat":48.860435,"lon":16.049027,"is_passed":false},{"stop_id":"U18009Z51","name":"Znojmo, autobusové nádraží","arrival_time":"16:52:00","departure_time":"17:10:00","lat":48.851908,"lon":16.056983,"is_passed":false}]}