{"877":[{"stop_id":"U13334Z21","name":"Tišnov, železniční stanice","arrival_time":"14:44:00","departure_time":"14:44:00","lat":49.3475,"lon":16.41725,"is_passed":false},{"stop_id":"U13306Z11","name":"Hradčany, železniční stanice","arrival_time":"14:46:00","departure_time":"14:47:00","lat":49.333878,"lon":16.437893,"is_passed":false},{"stop_id":"U13206Z11","name":"Čebín, železniční stanice","arrival_time":"14:49:00","departure_time":"14:50:00","lat":49.319722,"lon":16.465278,"is_passed":false},{"stop_id":"U13143Z11","name":"Kuřim, železniční stanice","arrival_time":"14:55:00","departure_time":"14:56:00","lat":49.301,"lon":16.534523,"is_passed":false},{"stop_id":"U13109Z11","name":"Česká, železniční stanice","arrival_time":"14:58:00","departure_time":"14:59:00","lat":49.284546,"lon":16.566731,"is_passed":false},{"stop_id":"U1557Z11","name":"Řečkovice, nádraží","arrival_time":"15:03:00","departure_time":"15:03:00","lat":49.250794,"lon":16.590446,"is_passed":false},{"stop_id":"U1286Z11","name":"Královo Pole, nádraží","arrival_time":"15:06:00","departure_time":"15:07:00","lat":49.231051,"lon":16.596651,"is_passed":false},{"stop_id":"U1331Z11","name":"Lesná, nádraží","arrival_time":"15:09:00","departure_time":"15:10:00","lat":49.220432,"lon":16.627505,"is_passed":false},{"stop_id":"U1809Z11","name":"Židenice, nádraží","arrival_time":"15:16:00","departure_time":"15:16:00","lat":49.204282,"lon":16.636042,"is_passed":false},{"stop_id":"U1146Z98","name":"Hlavní nádraží","arrival_time":"15:25:00","departure_time":"15:27:00","lat":49.19035,"lon":16.612342,"is_passed":false},{"stop_id":"U15140Z11","name":"Modřice, železniční stanice","arrival_time":"15:32:00","departure_time":"15:33:00","lat":49.133256,"lon":16.606209,"is_passed":false},{"stop_id":"U15135Z11","name":"Popovice, u tratě","arrival_time":"15:36:00","departure_time":"15:36:00","lat":49.103463,"lon":16.605647,"is_passed":false},{"stop_id":"U15181Z11","name":"Rajhrad, železniční stanice","arrival_time":"15:38:00","departure_time":"15:39:00","lat":49.084966,"lon":16.60532,"is_passed":false},{"stop_id":"U25201Z11","name":"Vojkovice nad Svratkou, žel. st.","arrival_time":"15:42:00","departure_time":"15:42:00","lat":49.056208,"lon":16.597445,"is_passed":false},{"stop_id":"U15222Z11","name":"Hrušovany u Brna, žel. st.","arrival_time":"15:45:00","departure_time":"15:46:00","lat":49.034228,"lon":16.591501,"is_passed":false},{"stop_id":"U15241Z22","name":"Židlochovice, železniční stanice","arrival_time":"15:50:00","departure_time":"16:11:00","lat":49.033178,"lon":16.617165,"is_passed":false}],"8770":[{"stop_id":"U17423Z8","name":"Vyškov, Autobusové nádraží","arrival_time":"10:05:00","departure_time":"10:05:00","lat":49.275688,"lon":16.991951,"is_passed":false},{"stop_id":"U17434Z1","name":"Vyškov, nemocnice","arrival_time":"10:07:00","departure_time":"10:07:00","lat":49.276367,"lon":16.981935,"is_passed":false},{"stop_id":"U17428Z2","name":"Vyškov, Drnovská Bioveta","arrival_time":"10:11:00","departure_time":"10:11:00","lat":49.25374,"lon":16.95539,"is_passed":false},{"stop_id":"U17359Z1","name":"Rostěnice-Zvonovice, Rostěnice","arrival_time":"10:16:00","departure_time":"10:16:00","lat":49.240023,"lon":16.96194,"is_passed":false},{"stop_id":"U17358Z1","name":"Rostěnice-Zvonovice, Rostěnice, náves","arrival_time":"10:17:00","departure_time":"10:17:00","lat":49.237807,"lon":16.965842,"is_passed":false},{"stop_id":"U17356Z1","name":"Rostěnice-Zvonovice, Zvonovice","arrival_time":"10:19:00","departure_time":"10:19:00","lat":49.234247,"lon":16.961065,"is_passed":false},{"stop_id":"U16427Z1","name":"Lysovice, kulturní dům","arrival_time":"10:23:00","departure_time":"10:23:00","lat":49.218927,"lon":16.973825,"is_passed":false},{"stop_id":"U16428Z1","name":"Lysovice, obecní úřad","arrival_time":"10:25:00","departure_time":"10:35:00","lat":49.21765,"lon":16.970492,"is_passed":false}],"8771":[{"stop_id":"U16428Z2","name":"Lysovice, obecní úřad","arrival_time":"10:35:00","departure_time":"10:35:00","lat":49.21765,"lon":16.970492,"is_passed":false},{"stop_id":"U16427Z2","name":"Lysovice, kulturní dům","arrival_time":"10:37:00","departure_time":"10:37:00","lat":49.218922,"lon":16.973957,"is_passed":false},{"stop_id":"U17356Z2","name":"Rostěnice-Zvonovice, Zvonovice","arrival_time":"10:41:00","departure_time":"10:41:00","lat":49.2341,"lon":16.96113,"is_passed":false},{"stop_id":"U17358Z2","name":"Rostěnice-Zvonovice, Rostěnice, náves","arrival_time":"10:43:00","departure_time":"10:43:00","lat":49.237807,"lon":16.965842,"is_passed":false},{"stop_id":"U17359Z2","name":"Rostěnice-Zvonovice, Rostěnice","arrival_time":"10:44:00","departure_time":"10:44:00","lat":49.240657,"lon":16.960835,"is_passed":false},{"stop_id":"U17328Z1","name":"Luleč, rozcestí","arrival_time":"10:47:00","departure_time":"10:47:00","lat":49.248113,"lon":16.944733,"is_passed":false},{"stop_id":"U17428Z1","name":"Vyškov, Drnovská Bioveta","arrival_time":"10:49:00","departure_time":"10:49:00","lat":49.254302,"lon":16.95682,"is_passed":false},{"stop_id":"U17434Z2","name":"Vyškov, nemocnice","arrival_time":"10:53:00","departure_time":"10:53:00","lat":49.276242,"lon":16.98279,"is_passed":false},{"stop_id":"U17423Z21","name":"Vyškov, Autobusové nádraží","arrival_time":"10:55:00","departure_time":"12:05:00","lat":49.275819,"lon":16.992078,"is_passed":false}],"8772":[{"stop_id":"U17423Z8","name":"Vyškov, Autobusové nádraží","arrival_time":"12:05:00","departure_time":"12:05:00","lat":49.275688,"lon":16.991951,"is_passed":false},{"stop_id":"U17434Z1","name":"Vyškov, nemocnice","arrival_time":"12:07:00","departure_time":"12:07:00","lat":49.276367,"lon":16.981935,"is_passed":false},{"stop_id":"U17428Z2","name":"Vyškov, Drnovská Bioveta","arrival_time":"12:11:00","departure_time":"12:11:00","lat":49.25374,"lon":16.95539,"is_passed":false},{"stop_id":"U17359Z1","name":"Rostěnice-Zvonovice, Rostěnice","arrival_time":"12:16:00","departure_time":"12:16:00","lat":49.240023,"lon":16.96194,"is_passed":false},{"stop_id":"U17358Z1","name":"Rostěnice-Zvonovice, Rostěnice, náves","arrival_time":"12:17:00","departure_time":"12:17:00","lat":49.237807,"lon":16.965842,"is_passed":false},{"stop_id":"U17356Z1","name":"Rostěnice-Zvonovice, Zvonovice","arrival_time":"12:19:00","departure_time":"12:19:00","lat":49.234247,"lon":16.961065,"is_passed":false},{"stop_id":"U16427Z1","name":"Lysovice, kulturní dům","arrival_time":"12:23:00","departure_time":"12:23:00","lat":49.218927,"lon":16.973825,"is_passed":false},{"stop_id":"U16428Z1","name":"Lysovice, obecní úřad","arrival_time":"12:25:00","departure_time":"13:05:00","lat":49.21765,"lon":16.970492,"is_passed":false}],"8773":[{"stop_id":"U16428Z2","name":"Lysovice, obecní úřad","arrival_time":"13:05:00","departure_time":"13:05:00","lat":49.21765,"lon":16.970492,"is_passed":false},{"stop_id":"U16427Z2","name":"Lysovice, kulturní dům","arrival_time":"13:07:00","departure_time":"13:07:00","lat":49.218922,"lon":16.973957,"is_passed":false},{"stop_id":"U17356Z2","name":"Rostěnice-Zvonovice, Zvonovice","arrival_time":"13:11:00","departure_time":"13:11:00","lat":49.2341,"lon":16.96113,"is_passed":false},{"stop_id":"U17358Z2","name":"Rostěnice-Zvonovice, Rostěnice, náves","arrival_time":"13:13:00","departure_time":"13:13:00","lat":49.237807,"lon":16.965842,"is_passed":false},{"stop_id":"U17359Z2","name":"Rostěnice-Zvonovice, Rostěnice","arrival_time":"13:14:00","departure_time":"13:14:00","lat":49.240657,"lon":16.960835,"is_passed":false},{"stop_id":"U17328Z1","name":"Luleč, rozcestí","arrival_time":"13:17:00","departure_time":"13:17:00","lat":49.248113,"lon":16.944733,"is_passed":false},{"stop_id":"U17428Z1","name":"Vyškov, Drnovská Bioveta","arrival_time":"13:19:00","departure_time":"13:19:00","lat":49.254302,"lon":16.95682,"is_passed":false},{"stop_id":"U17434Z2","name":"Vyškov, nemocnice","arrival_time":"13:23:00","departure_time":"13:23:00","lat":49.276242,"lon":16.98279,"is_passed":false},{"stop_id":"U17423Z21","name":"Vyškov, Autobusové nádraží","arrival_time":"13:25:00","departure_time":"14:05:00","lat":49.275819,"lon":16.992078,"is_passed":false}],"8774":[{"stop_id":"U17423Z8","name":"Vyškov, Autobusové nádraží","arrival_time":"14:05:00","departure_time":"14:05:00","lat":49.275688,"lon":16.991951,"is_passed":false},{"stop_id":"U17434Z1","name":"Vyškov, nemocnice","arrival_time":"14:07:00","departure_time":"14:07:00","lat":49.276367,"lon":16.981935,"is_passed":false},{"stop_id":"U17428Z2","name":"Vyškov, Drnovská Bioveta","arrival_time":"14:11:00","departure_time":"14:11:00","lat":49.25374,"lon":16.95539,"is_passed":false},{"stop_id":"U17359Z1","name":"Rostěnice-Zvonovice, Rostěnice","arrival_time":"14:16:00","departure_time":"14:16:00","lat":49.240023,"lon":16.96194,"is_passed":false},{"stop_id":"U17358Z1","name":"Rostěnice-Zvonovice, Rostěnice, náves","arrival_time":"14:17:00","departure_time":"14:17:00","lat":49.237807,"lon":16.965842,"is_passed":false},{"stop_id":"U17356Z1","name":"Rostěnice-Zvonovice, Zvonovice","arrival_time":"14:19:00","departure_time":"14:19:00","lat":49.234247,"lon":16.961065,"is_passed":false},{"stop_id":"U16427Z1","name":"Lysovice, kulturní dům","arrival_time":"14:23:00","departure_time":"14:23:00","lat":49.218927,"lon":16.973825,"is_passed":false},{"stop_id":"U16428Z1","name":"Lysovice, obecní úřad","arrival_time":"14:25:00","departure_time":"14:35:00","lat":49.21765,"lon":16.970492,"is_passed":false}],"8775":[{"stop_id":"U16428Z2","name":"Lysovice, obecní úřad","arrival_time":"14:35:00","departure_time":"14:35:00","lat":49.21765,"lon":16.970492,"is_passed":false},{"stop_id":"U16427Z2","name":"Lysovice, kulturní dům","arrival_time":"14:37:00","departure_time":"14:37:00","lat":49.218922,"lon":16.973957,"is_passed":false},{"stop_id":"U17356Z2","name":"Rostěnice-Zvonovice, Zvonovice","arrival_time":"14:41:00","departure_time":"14:41:00","lat":49.2341,"lon":16.96113,"is_passed":false},{"stop_id":"U17358Z2","name":"Rostěnice-Zvonovice, Rostěnice, náves","arrival_time":"14:43:00","departure_time":"14:43:00","lat":49.237807,"lon":16.965842,"is_passed":false},{"stop_id":"U17359Z2","name":"Rostěnice-Zvonovice, Rostěnice","arrival_time":"14:44:00","departure_time":"14:44:00","lat":49.240657,"lon":16.960835,"is_passed":false},{"stop_id":"U17328Z1","name":"Luleč, rozcestí","arrival_time":"14:47:00","departure_time":"14:47:00","lat":49.248113,"lon":16.944733,"is_passed":false},{"stop_id":"U17428Z1","name":"Vyškov, Drnovská Bioveta","arrival_time":"14:49:00","departure_time":"14:49:00","lat":49.254302,"lon":16.95682,"is_passed":false},{"stop_id":"U17434Z2","name":"Vyškov, nemocnice","arrival_time":"14:53:00","departure_time":"14:53:00","lat":49.276242,"lon":16.98279,"is_passed":false},{"stop_id":"U17423Z21","name":"Vyškov, Autobusové nádraží","arrival_time":"14:55:00","departure_time":"14:55:00","lat":49.275819,"lon":16.992078,"is_passed":false}],"8776":[{"stop_id":"U17423Z13","name":"Vyškov, Autobusové nádraží","arrival_time":"15:21:00","departure_time":"15:21:00","lat":49.275873,"lon":16.99145,"is_passed":false},{"stop_id":"U17446Z1","name":"Vyškov, železniční stanice","arrival_time":"15:22:00","departure_time":"15:22:00","lat":49.278115,"lon":16.992202,"is_passed":false},{"stop_id":"U17457Z1","name":"Vyškov, Dukelská, u čistírny","arrival_time":"15:26:00","departure_time":"15:26:00","lat":49.280611,"lon":17.000061,"is_passed":false},{"stop_id":"U17419Z1","name":"Vyškov, Tržiště","arrival_time":"15:28:00","departure_time":"15:28:00","lat":49.280161,"lon":17.007042,"is_passed":false},{"stop_id":"U17454Z1","name":"Vyškov, Marchanice","arrival_time":"15:30:00","departure_time":"15:30:00","lat":49.28278,"lon":17.024281,"is_passed":false},{"stop_id":"U17451Z1","name":"Křižanovice u Vyškova, rozcestí","arrival_time":"15:31:00","departure_time":"15:31:00","lat":49.28372,"lon":17.036743,"is_passed":false},{"stop_id":"U17527Z1","name":"Hoštice-Heroltice, Heroltice, rozcestí","arrival_time":"15:34:00","departure_time":"15:34:00","lat":49.28503,"lon":17.057322,"is_passed":false},{"stop_id":"U17512Z1","name":"Rybníček, statek","arrival_time":"15:36:00","departure_time":"15:36:00","lat":49.277858,"lon":17.065532,"is_passed":false},{"stop_id":"U17519Z1","name":"Rybníček","arrival_time":"15:37:00","departure_time":"15:37:00","lat":49.275875,"lon":17.072653,"is_passed":false},{"stop_id":"U17517Z1","name":"Medlovice, rozcestí","arrival_time":"15:40:00","departure_time":"15:40:00","lat":49.277998,"lon":17.093088,"is_passed":false},{"stop_id":"U17520Z1","name":"Švábenice","arrival_time":"15:45:00","departure_time":"15:45:00","lat":49.278648,"lon":17.122928,"is_passed":false},{"stop_id":"U17510Z1","name":"Dětkovice","arrival_time":"15:48:00","departure_time":"15:48:00","lat":49.272352,"lon":17.144485,"is_passed":false},{"stop_id":"U17604Z1","name":"Pačlavice","arrival_time":"15:51:00","departure_time":"15:51:00","lat":49.259808,"lon":17.168328,"is_passed":false},{"stop_id":"U17605Z1","name":"Pačlavice, Pornice","arrival_time":"15:54:00","departure_time":"15:54:00","lat":49.249755,"lon":17.182217,"is_passed":false},{"stop_id":"U17606Z1","name":"Morkovice-Slížany, Morkovice, náměstí","arrival_time":"15:57:00","departure_time":"16:28:00","lat":49.246847,"lon":17.205695,"is_passed":false}],"8777":[{"stop_id":"U17606Z2","name":"Morkovice-Slížany, Morkovice, náměstí","arrival_time":"16:28:00","departure_time":"16:28:00","lat":49.246847,"lon":17.205695,"is_passed":false},{"stop_id":"U17605Z2","name":"Pačlavice, Pornice","arrival_time":"16:31:00","departure_time":"16:31:00","lat":49.24978,"lon":17.182426,"is_passed":false},{"stop_id":"U17604Z2","name":"Pačlavice","arrival_time":"16:34:00","departure_time":"16:34:00","lat":49.259808,"lon":17.168328,"is_passed":false},{"stop_id":"U17510Z3","name":"Dětkovice","arrival_time":"16:37:00","departure_time":"16:37:00","lat":49.272403,"lon":17.144437,"is_passed":false},{"stop_id":"U17520Z2","name":"Švábenice","arrival_time":"16:40:00","departure_time":"16:40:00","lat":49.27873,"lon":17.122723,"is_passed":false},{"stop_id":"U17517Z2","name":"Medlovice, rozcestí","arrival_time":"16:45:00","departure_time":"16:45:00","lat":49.278005,"lon":17.092345,"is_passed":false},{"stop_id":"U17519Z2","name":"Rybníček","arrival_time":"16:49:00","departure_time":"16:49:00","lat":49.275875,"lon":17.072653,"is_passed":false},{"stop_id":"U17512Z2","name":"Rybníček, statek","arrival_time":"16:50:00","departure_time":"16:50:00","lat":49.277858,"lon":17.065532,"is_passed":false},{"stop_id":"U17527Z2","name":"Hoštice-Heroltice, Heroltice, rozcestí","arrival_time":"16:52:00","departure_time":"16:52:00","lat":49.285142,"lon":17.057323,"is_passed":false},{"stop_id":"U17451Z2","name":"Křižanovice u Vyškova, rozcestí","arrival_time":"16:54:00","departure_time":"16:54:00","lat":49.283803,"lon":17.036758,"is_passed":false},{"stop_id":"U17454Z2","name":"Vyškov, Marchanice","arrival_time":"16:55:00","departure_time":"16:55:00","lat":49.282633,"lon":17.022841,"is_passed":false},{"stop_id":"U17419Z2","name":"Vyškov, Tržiště","arrival_time":"16:57:00","departure_time":"16:57:00","lat":49.279944,"lon":17.007624,"is_passed":false},{"stop_id":"U17421Z2","name":"Vyškov, U podchodu","arrival_time":"17:00:00","departure_time":"17:00:00","lat":49.278441,"lon":16.997064,"is_passed":false},{"stop_id":"U17446Z2","name":"Vyškov, železniční stanice","arrival_time":"17:03:00","departure_time":"17:03:00","lat":49.278112,"lon":16.992207,"is_passed":false},{"stop_id":"U17423Z13","name":"Vyškov, Autobusové nádraží","arrival_time":"17:04:00","departure_time":"17:04:00","lat":49.275873,"lon":16.99145,"is_passed":false}],"8778":[{"stop_id":"U17423Z8","name":"Vyškov, Autobusové nádraží","arrival_time":"18:35:00","departure_time":"18:35:00","lat":49.275688,"lon":16.991951,"is_passed":false},{"stop_id":"U17434Z1","name":"Vyškov, nemocnice","arrival_time":"18:37:00","departure_time":"18:37:00","lat":49.276367,"lon":16.981935,"is_passed":false},{"stop_id":"U17428Z2","name":"Vyškov, Drnovská Bioveta","arrival_time":"18:41:00","departure_time":"18:41:00","lat":49.25374,"lon":16.95539,"is_passed":false},{"stop_id":"U17359Z1","name":"Rostěnice-Zvonovice, Rostěnice","arrival_time":"18:46:00","departure_time":"18:46:00","lat":49.240023,"lon":16.96194,"is_passed":false},{"stop_id":"U17358Z1","name":"Rostěnice-Zvonovice, Rostěnice, náves","arrival_time":"18:47:00","departure_time":"18:47:00","lat":49.237807,"lon":16.965842,"is_passed":false},{"stop_id":"U17356Z1","name":"Rostěnice-Zvonovice, Zvonovice","arrival_time":"18:49:00","departure_time":"18:49:00","lat":49.234247,"lon":16.961065,"is_passed":false},{"stop_id":"U16427Z1","name":"Lysovice, kulturní dům","arrival_time":"18:53:00","departure_time":"18:53:00","lat":49.218927,"lon":16.973825,"is_passed":false},{"stop_id":"U16428Z1","name":"Lysovice, obecní úřad","arrival_time":"18:55:00","departure_time":"19:35:00","lat":49.21765,"lon":16.970492,"is_passed":false}],"8779":[{"stop_id":"U16428Z2","name":"Lysovice, obecní úřad","arrival_time":"19:35:00","departure_time":"19:35:00","lat":49.21765,"lon":16.970492,"is_passed":false},{"stop_id":"U16427Z2","name":"Lysovice, kulturní dům","arrival_time":"19:37:00","departure_time":"19:37:00","lat":49.218922,"lon":16.973957,"is_passed":false},{"stop_id":"U17356Z2","name":"Rostěnice-Zvonovice, Zvonovice","arrival_time":"19:41:00","departure_time":"19:41:00","lat":49.2341,"lon":16.96113,"is_passed":false},{"stop_id":"U17358Z2","name":"Rostěnice-Zvonovice, Rostěnice, náves","arrival_time":"19:43:00","departure_time":"19:43:00","lat":49.237807,"lon":16.965842,"is_passed":false},{"stop_id":"U17359Z2","name":"Rostěnice-Zvonovice, Rostěnice","arrival_time":"19:44:00","departure_time":"19:44:00","lat":49.240657,"lon":16.960835,"is_passed":false},{"stop_id":"U17328Z1","name":"Luleč, rozcestí","arrival_time":"19:47:00","departure_time":"19:47:00","lat":49.248113,"lon":16.944733,"is_passed":false},{"stop_id":"U17428Z1","name":"Vyškov, Drnovská Bioveta","arrival_time":"19:49:00","departure_time":"19:49:00","lat":49.254302,"lon":16.95682,"is_passed":false},{"stop_id":"U17434Z2","name":"Vyškov, nemocnice","arrival_time":"19:53:00","departure_time":"19:53:00","lat":49.276242,"lon":16.98279,"is_passed":false},{"stop_id":"U17423Z21","name":"Vyškov, Autobusové nádraží","arrival_time":"19:55:00","departure_time":"19:55:00","lat":49.275819,"lon":16.992078,"is_passed":false}]}