[{"stop_id":"U17603Z2","name":"Podivice","arrival_time":"15:57:00","departure_time":"15:57:00","lat":49.366493,"lon":17.011902,"is_passed":false},{"stop_id":"U17602Z2","name":"Podivice, Terezička","arrival_time":"15:58:00","departure_time":"15:58:00","lat":49.359022,"lon":17.017645,"is_passed":false},{"stop_id":"U17525Z2","name":"Zelená Hora","arrival_time":"16:06:00","departure_time":"16:06:00","lat":49.329217,"lon":17.013623,"is_passed":false},{"stop_id":"U17533Z2","name":"Pustiměř, kamenolom","arrival_time":"16:08:00","departure_time":"16:08:00","lat":49.320556,"lon":17.012417,"is_passed":false},{"stop_id":"U17531Z1","name":"Pustiměř, náves","arrival_time":"16:12:00","departure_time":"16:12:00","lat":49.322992,"lon":17.027558,"is_passed":false},{"stop_id":"U17523Z1","name":"Radslavice, Radslavičky","arrival_time":"16:15:00","departure_time":"16:15:00","lat":49.327155,"lon":16.99496,"is_passed":false},{"stop_id":"U17524Z2","name":"Radslavice","arrival_time":"16:17:00","departure_time":"16:17:00","lat":49.323782,"lon":17.001822,"is_passed":false},{"stop_id":"U17456Z2","name":"Vyškov, sídliště Víta Nejedlého statek","arrival_time":"16:23:00","departure_time":"16:23:00","lat":49.303283,"lon":16.989897,"is_passed":false},{"stop_id":"U17445Z2","name":"Vyškov, Dědice, kasárna","arrival_time":"16:25:00","departure_time":"16:25:00","lat":49.301047,"lon":16.981428,"is_passed":false}]