[{"stop_id":"U16417Z1","name":"Bohdalice-Pavlovice, Bohdalice","arrival_time":"14:58:00","departure_time":"14:58:00","lat":49.213978,"lon":17.030328,"is_passed":false},{"stop_id":"U16418Z1","name":"Bohdalice-Pavlovice, Hradčany","arrival_time":"15:00:00","departure_time":"15:00:00","lat":49.210095,"lon":17.03258,"is_passed":false},{"stop_id":"U16424Z1","name":"Kozlany","arrival_time":"15:02:00","departure_time":"15:02:00","lat":49.2037,"lon":17.035175,"is_passed":false},{"stop_id":"U16517Z1","name":"Hvězdlice, Staré Hvězdlice","arrival_time":"15:06:00","departure_time":"15:06:00","lat":49.202882,"lon":17.073968,"is_passed":false},{"stop_id":"U16516Z1","name":"Hvězdlice, Nové Hvězdlice","arrival_time":"15:08:00","departure_time":"15:08:00","lat":49.193314,"lon":17.083975,"is_passed":false},{"stop_id":"U16521Z1","name":"Chvalkovice","arrival_time":"15:13:00","departure_time":"15:13:00","lat":49.18721,"lon":17.110492,"is_passed":false},{"stop_id":"U16520Z1","name":"Chvalkovice, u hřiště","arrival_time":"15:15:00","departure_time":"15:15:00","lat":49.189783,"lon":17.11772,"is_passed":false},{"stop_id":"U16524Z1","name":"Nemochovice","arrival_time":"15:18:00","departure_time":"15:18:00","lat":49.17912,"lon":17.13714,"is_passed":false},{"stop_id":"U16626Z1","name":"Brankovice, obecní úřad","arrival_time":"15:22:00","departure_time":"15:22:00","lat":49.156312,"lon":17.134952,"is_passed":false},{"stop_id":"U16628Z1","name":"Brankovice, železniční stanice","arrival_time":"15:25:00","departure_time":"15:27:00","lat":49.150708,"lon":17.133665,"is_passed":false}]