[{"stop_id":"U17604Z2","name":"Pačlavice","arrival_time":"9:34:00","departure_time":"9:34:00","lat":49.259808,"lon":17.168328,"is_passed":false},{"stop_id":"U17510Z3","name":"Dětkovice","arrival_time":"9:37:00","departure_time":"9:37:00","lat":49.272403,"lon":17.144437,"is_passed":false},{"stop_id":"U17520Z2","name":"Švábenice","arrival_time":"9:40:00","departure_time":"9:40:00","lat":49.27873,"lon":17.122723,"is_passed":false},{"stop_id":"U17517Z2","name":"Medlovice, rozcestí","arrival_time":"9:45:00","departure_time":"9:45:00","lat":49.278005,"lon":17.092345,"is_passed":false},{"stop_id":"U17519Z2","name":"Rybníček","arrival_time":"9:49:00","departure_time":"9:49:00","lat":49.275875,"lon":17.072653,"is_passed":false},{"stop_id":"U17512Z2","name":"Rybníček, statek","arrival_time":"9:50:00","departure_time":"9:50:00","lat":49.277858,"lon":17.065532,"is_passed":false},{"stop_id":"U17527Z2","name":"Hoštice-Heroltice, Heroltice, rozcestí","arrival_time":"9:52:00","departure_time":"9:52:00","lat":49.285142,"lon":17.057323,"is_passed":false},{"stop_id":"U17451Z2","name":"Křižanovice u Vyškova, rozcestí","arrival_time":"9:54:00","departure_time":"9:54:00","lat":49.283803,"lon":17.036758,"is_passed":false},{"stop_id":"U17454Z2","name":"Vyškov, Marchanice","arrival_time":"9:55:00","departure_time":"9:55:00","lat":49.282633,"lon":17.022841,"is_passed":false},{"stop_id":"U17419Z2","name":"Vyškov, Tržiště","arrival_time":"9:57:00","departure_time":"9:57:00","lat":49.279944,"lon":17.007624,"is_passed":false},{"stop_id":"U17421Z2","name":"Vyškov, U podchodu","arrival_time":"10:00:00","departure_time":"10:00:00","lat":49.278441,"lon":16.997064,"is_passed":false},{"stop_id":"U17446Z2","name":"Vyškov, železniční stanice","arrival_time":"10:03:00","departure_time":"10:03:00","lat":49.278112,"lon":16.992207,"is_passed":false},{"stop_id":"U17423Z13","name":"Vyškov, Autobusové nádraží","arrival_time":"10:04:00","departure_time":"10:19:00","lat":49.275873,"lon":16.99145,"is_passed":false}]