{"886":[{"stop_id":"U13334Z21","name":"Tišnov, železniční stanice","arrival_time":"15:13:00","departure_time":"15:13:00","lat":49.3475,"lon":16.41725,"is_passed":false},{"stop_id":"U13306Z11","name":"Hradčany, železniční stanice","arrival_time":"15:15:00","departure_time":"15:16:00","lat":49.333878,"lon":16.437893,"is_passed":false},{"stop_id":"U13206Z11","name":"Čebín, železniční stanice","arrival_time":"15:18:00","departure_time":"15:19:00","lat":49.319722,"lon":16.465278,"is_passed":false},{"stop_id":"U13143Z11","name":"Kuřim, železniční stanice","arrival_time":"15:24:00","departure_time":"15:27:00","lat":49.301,"lon":16.534523,"is_passed":false},{"stop_id":"U13109Z11","name":"Česká, železniční stanice","arrival_time":"15:29:00","departure_time":"15:30:00","lat":49.284546,"lon":16.566731,"is_passed":false},{"stop_id":"U1557Z11","name":"Řečkovice, nádraží","arrival_time":"15:34:00","departure_time":"15:34:00","lat":49.250794,"lon":16.590446,"is_passed":false},{"stop_id":"U1286Z11","name":"Královo Pole, nádraží","arrival_time":"15:37:00","departure_time":"15:38:00","lat":49.231051,"lon":16.596651,"is_passed":false},{"stop_id":"U1331Z11","name":"Lesná, nádraží","arrival_time":"15:40:00","departure_time":"15:41:00","lat":49.220432,"lon":16.627505,"is_passed":false},{"stop_id":"U1809Z11","name":"Židenice, nádraží","arrival_time":"15:47:00","departure_time":"15:47:00","lat":49.204282,"lon":16.636042,"is_passed":false},{"stop_id":"U1146Z98","name":"Hlavní nádraží","arrival_time":"15:52:00","departure_time":"15:55:00","lat":49.19035,"lon":16.612342,"is_passed":false},{"stop_id":"U15140Z11","name":"Modřice, železniční stanice","arrival_time":"16:02:00","departure_time":"16:03:00","lat":49.133256,"lon":16.606209,"is_passed":false},{"stop_id":"U15135Z11","name":"Popovice, u tratě","arrival_time":"16:06:00","departure_time":"16:06:00","lat":49.103463,"lon":16.605647,"is_passed":false},{"stop_id":"U15181Z11","name":"Rajhrad, železniční stanice","arrival_time":"16:08:00","departure_time":"16:09:00","lat":49.084966,"lon":16.60532,"is_passed":false},{"stop_id":"U25201Z11","name":"Vojkovice nad Svratkou, žel. st.","arrival_time":"16:12:00","departure_time":"16:13:00","lat":49.056208,"lon":16.597445,"is_passed":false},{"stop_id":"U15222Z11","name":"Hrušovany u Brna, žel. st.","arrival_time":"16:19:00","departure_time":"16:20:00","lat":49.034228,"lon":16.591501,"is_passed":false},{"stop_id":"U15241Z22","name":"Židlochovice, železniční stanice","arrival_time":"16:24:00","departure_time":"16:36:00","lat":49.033178,"lon":16.617165,"is_passed":false}],"8860":[{"stop_id":"U17514Z4","name":"Ivanovice na Hané, aut. st.","arrival_time":"13:46:00","departure_time":"13:46:00","lat":49.304593,"lon":17.088863,"is_passed":false},{"stop_id":"U17516Z1","name":"Ivanovice na Hané, Žižkova","arrival_time":"13:47:00","departure_time":"13:47:00","lat":49.306818,"lon":17.095633,"is_passed":false},{"stop_id":"U17515Z1","name":"Ivanovice na Hané, u Škrku","arrival_time":"13:49:00","departure_time":"13:49:00","lat":49.301192,"lon":17.09391,"is_passed":false},{"stop_id":"U17534Z1","name":"Ivanovice na Hané, Fischer","arrival_time":"13:51:00","departure_time":"13:51:00","lat":49.294996,"lon":17.095678,"is_passed":false},{"stop_id":"U17520Z1","name":"Švábenice","arrival_time":"13:55:00","departure_time":"13:55:00","lat":49.278648,"lon":17.122928,"is_passed":false},{"stop_id":"U17510Z1","name":"Dětkovice","arrival_time":"13:57:00","departure_time":"13:57:00","lat":49.272352,"lon":17.144485,"is_passed":false}],"8861":[{"stop_id":"U17510Z3","name":"Dětkovice","arrival_time":"13:57:00","departure_time":"13:57:00","lat":49.272403,"lon":17.144437,"is_passed":false},{"stop_id":"U17520Z2","name":"Švábenice","arrival_time":"14:00:00","departure_time":"14:00:00","lat":49.27873,"lon":17.122723,"is_passed":false},{"stop_id":"U17534Z2","name":"Ivanovice na Hané, Fischer","arrival_time":"14:04:00","departure_time":"14:04:00","lat":49.29508,"lon":17.095866,"is_passed":false},{"stop_id":"U17515Z2","name":"Ivanovice na Hané, u Škrku","arrival_time":"14:06:00","departure_time":"14:06:00","lat":49.301173,"lon":17.093988,"is_passed":false},{"stop_id":"U17516Z2","name":"Ivanovice na Hané, Žižkova","arrival_time":"14:08:00","departure_time":"14:08:00","lat":49.306818,"lon":17.095633,"is_passed":false},{"stop_id":"U17514Z4","name":"Ivanovice na Hané, aut. st.","arrival_time":"14:09:00","departure_time":"14:09:00","lat":49.304593,"lon":17.088863,"is_passed":false}],"8862":[{"stop_id":"U17514Z3","name":"Ivanovice na Hané, aut. st.","arrival_time":"14:21:00","departure_time":"14:21:00","lat":49.304557,"lon":17.08873,"is_passed":false},{"stop_id":"U17516Z1","name":"Ivanovice na Hané, Žižkova","arrival_time":"14:22:00","departure_time":"14:22:00","lat":49.306818,"lon":17.095633,"is_passed":false},{"stop_id":"U17515Z1","name":"Ivanovice na Hané, u Škrku","arrival_time":"14:24:00","departure_time":"14:24:00","lat":49.301192,"lon":17.09391,"is_passed":false},{"stop_id":"U17534Z1","name":"Ivanovice na Hané, Fischer","arrival_time":"14:26:00","departure_time":"14:26:00","lat":49.294996,"lon":17.095678,"is_passed":false},{"stop_id":"U17517Z2","name":"Medlovice, rozcestí","arrival_time":"14:30:00","departure_time":"14:31:00","lat":49.278005,"lon":17.092345,"is_passed":false},{"stop_id":"U17518Z1","name":"Medlovice","arrival_time":"14:33:00","departure_time":"14:33:00","lat":49.273143,"lon":17.093413,"is_passed":false},{"stop_id":"U17502Z1","name":"Moravské Málkovice","arrival_time":"14:36:00","departure_time":"14:36:00","lat":49.2577,"lon":17.090655,"is_passed":false},{"stop_id":"U17501Z1","name":"Moravské Málkovice, u koupaliště","arrival_time":"14:38:00","departure_time":"14:38:00","lat":49.252467,"lon":17.092912,"is_passed":false},{"stop_id":"U17503Z1","name":"Orlovice","arrival_time":"14:40:00","departure_time":"14:50:00","lat":49.240533,"lon":17.094317,"is_passed":false}],"8863":[{"stop_id":"U17503Z2","name":"Orlovice","arrival_time":"14:50:00","departure_time":"14:50:00","lat":49.240533,"lon":17.094317,"is_passed":false},{"stop_id":"U17501Z2","name":"Moravské Málkovice, u koupaliště","arrival_time":"14:52:00","departure_time":"14:52:00","lat":49.252517,"lon":17.092942,"is_passed":false},{"stop_id":"U17502Z2","name":"Moravské Málkovice","arrival_time":"14:54:00","departure_time":"14:54:00","lat":49.257815,"lon":17.090555,"is_passed":false},{"stop_id":"U17518Z2","name":"Medlovice","arrival_time":"14:57:00","departure_time":"14:57:00","lat":49.273143,"lon":17.093413,"is_passed":false},{"stop_id":"U17517Z1","name":"Medlovice, rozcestí","arrival_time":"14:59:00","departure_time":"15:00:00","lat":49.277998,"lon":17.093088,"is_passed":false},{"stop_id":"U17534Z2","name":"Ivanovice na Hané, Fischer","arrival_time":"15:04:00","departure_time":"15:04:00","lat":49.29508,"lon":17.095866,"is_passed":false},{"stop_id":"U17515Z2","name":"Ivanovice na Hané, u Škrku","arrival_time":"15:06:00","departure_time":"15:06:00","lat":49.301173,"lon":17.093988,"is_passed":false},{"stop_id":"U17516Z2","name":"Ivanovice na Hané, Žižkova","arrival_time":"15:08:00","departure_time":"15:08:00","lat":49.306818,"lon":17.095633,"is_passed":false},{"stop_id":"U17514Z1","name":"Ivanovice na Hané, aut. st.","arrival_time":"15:09:00","departure_time":"15:31:00","lat":49.304557,"lon":17.08873,"is_passed":false}],"8864":[{"stop_id":"U17514Z3","name":"Ivanovice na Hané, aut. st.","arrival_time":"15:31:00","departure_time":"15:31:00","lat":49.304557,"lon":17.08873,"is_passed":false},{"stop_id":"U17516Z1","name":"Ivanovice na Hané, Žižkova","arrival_time":"15:32:00","departure_time":"15:32:00","lat":49.306818,"lon":17.095633,"is_passed":false},{"stop_id":"U17515Z1","name":"Ivanovice na Hané, u Škrku","arrival_time":"15:34:00","departure_time":"15:34:00","lat":49.301192,"lon":17.09391,"is_passed":false},{"stop_id":"U17534Z1","name":"Ivanovice na Hané, Fischer","arrival_time":"15:36:00","departure_time":"15:36:00","lat":49.294996,"lon":17.095678,"is_passed":false},{"stop_id":"U17517Z2","name":"Medlovice, rozcestí","arrival_time":"15:40:00","departure_time":"15:46:00","lat":49.278005,"lon":17.092345,"is_passed":false},{"stop_id":"U17518Z1","name":"Medlovice","arrival_time":"15:48:00","departure_time":"15:48:00","lat":49.273143,"lon":17.093413,"is_passed":false},{"stop_id":"U17502Z1","name":"Moravské Málkovice","arrival_time":"15:51:00","departure_time":"15:51:00","lat":49.2577,"lon":17.090655,"is_passed":false},{"stop_id":"U17501Z1","name":"Moravské Málkovice, u koupaliště","arrival_time":"15:53:00","departure_time":"15:53:00","lat":49.252467,"lon":17.092912,"is_passed":false},{"stop_id":"U17503Z1","name":"Orlovice","arrival_time":"15:55:00","departure_time":"17:30:00","lat":49.240533,"lon":17.094317,"is_passed":false}],"8865":[{"stop_id":"U17503Z2","name":"Orlovice","arrival_time":"17:30:00","departure_time":"17:30:00","lat":49.240533,"lon":17.094317,"is_passed":false},{"stop_id":"U17501Z2","name":"Moravské Málkovice, u koupaliště","arrival_time":"17:32:00","departure_time":"17:32:00","lat":49.252517,"lon":17.092942,"is_passed":false},{"stop_id":"U17502Z2","name":"Moravské Málkovice","arrival_time":"17:34:00","departure_time":"17:34:00","lat":49.257815,"lon":17.090555,"is_passed":false},{"stop_id":"U17518Z2","name":"Medlovice","arrival_time":"17:37:00","departure_time":"17:37:00","lat":49.273143,"lon":17.093413,"is_passed":false},{"stop_id":"U17517Z1","name":"Medlovice, rozcestí","arrival_time":"17:39:00","departure_time":"17:40:00","lat":49.277998,"lon":17.093088,"is_passed":false},{"stop_id":"U17534Z2","name":"Ivanovice na Hané, Fischer","arrival_time":"17:44:00","departure_time":"17:44:00","lat":49.29508,"lon":17.095866,"is_passed":false},{"stop_id":"U17515Z2","name":"Ivanovice na Hané, u Škrku","arrival_time":"17:46:00","departure_time":"17:46:00","lat":49.301173,"lon":17.093988,"is_passed":false},{"stop_id":"U17516Z2","name":"Ivanovice na Hané, Žižkova","arrival_time":"17:48:00","departure_time":"17:48:00","lat":49.306818,"lon":17.095633,"is_passed":false},{"stop_id":"U17514Z1","name":"Ivanovice na Hané, aut. st.","arrival_time":"17:49:00","departure_time":"18:31:00","lat":49.304557,"lon":17.08873,"is_passed":false}],"8866":[{"stop_id":"U17514Z3","name":"Ivanovice na Hané, aut. st.","arrival_time":"18:31:00","departure_time":"18:31:00","lat":49.304557,"lon":17.08873,"is_passed":false},{"stop_id":"U17516Z1","name":"Ivanovice na Hané, Žižkova","arrival_time":"18:32:00","departure_time":"18:32:00","lat":49.306818,"lon":17.095633,"is_passed":false},{"stop_id":"U17515Z1","name":"Ivanovice na Hané, u Škrku","arrival_time":"18:34:00","departure_time":"18:34:00","lat":49.301192,"lon":17.09391,"is_passed":false},{"stop_id":"U17534Z1","name":"Ivanovice na Hané, Fischer","arrival_time":"18:36:00","departure_time":"18:36:00","lat":49.294996,"lon":17.095678,"is_passed":false},{"stop_id":"U17517Z2","name":"Medlovice, rozcestí","arrival_time":"18:40:00","departure_time":"18:41:00","lat":49.278005,"lon":17.092345,"is_passed":false},{"stop_id":"U17518Z1","name":"Medlovice","arrival_time":"18:43:00","departure_time":"18:43:00","lat":49.273143,"lon":17.093413,"is_passed":false},{"stop_id":"U17502Z1","name":"Moravské Málkovice","arrival_time":"18:46:00","departure_time":"18:46:00","lat":49.2577,"lon":17.090655,"is_passed":false},{"stop_id":"U17501Z1","name":"Moravské Málkovice, u koupaliště","arrival_time":"18:48:00","departure_time":"18:48:00","lat":49.252467,"lon":17.092912,"is_passed":false},{"stop_id":"U17503Z1","name":"Orlovice","arrival_time":"18:50:00","departure_time":"19:10:00","lat":49.240533,"lon":17.094317,"is_passed":false}],"8867":[{"stop_id":"U17503Z2","name":"Orlovice","arrival_time":"19:10:00","departure_time":"19:10:00","lat":49.240533,"lon":17.094317,"is_passed":false},{"stop_id":"U17501Z2","name":"Moravské Málkovice, u koupaliště","arrival_time":"19:12:00","departure_time":"19:12:00","lat":49.252517,"lon":17.092942,"is_passed":false},{"stop_id":"U17502Z2","name":"Moravské Málkovice","arrival_time":"19:14:00","departure_time":"19:14:00","lat":49.257815,"lon":17.090555,"is_passed":false},{"stop_id":"U17518Z2","name":"Medlovice","arrival_time":"19:17:00","departure_time":"19:17:00","lat":49.273143,"lon":17.093413,"is_passed":false},{"stop_id":"U17517Z1","name":"Medlovice, rozcestí","arrival_time":"19:19:00","departure_time":"19:20:00","lat":49.277998,"lon":17.093088,"is_passed":false},{"stop_id":"U17534Z2","name":"Ivanovice na Hané, Fischer","arrival_time":"19:24:00","departure_time":"19:24:00","lat":49.29508,"lon":17.095866,"is_passed":false},{"stop_id":"U17515Z2","name":"Ivanovice na Hané, u Škrku","arrival_time":"19:26:00","departure_time":"19:26:00","lat":49.301173,"lon":17.093988,"is_passed":false},{"stop_id":"U17516Z2","name":"Ivanovice na Hané, Žižkova","arrival_time":"19:28:00","departure_time":"19:28:00","lat":49.306818,"lon":17.095633,"is_passed":false},{"stop_id":"U17514Z1","name":"Ivanovice na Hané, aut. st.","arrival_time":"19:29:00","departure_time":"20:26:00","lat":49.304557,"lon":17.08873,"is_passed":false}],"8868":[{"stop_id":"U17514Z3","name":"Ivanovice na Hané, aut. st.","arrival_time":"20:26:00","departure_time":"20:26:00","lat":49.304557,"lon":17.08873,"is_passed":false},{"stop_id":"U17516Z1","name":"Ivanovice na Hané, Žižkova","arrival_time":"20:27:00","departure_time":"20:27:00","lat":49.306818,"lon":17.095633,"is_passed":false},{"stop_id":"U17515Z1","name":"Ivanovice na Hané, u Škrku","arrival_time":"20:29:00","departure_time":"20:29:00","lat":49.301192,"lon":17.09391,"is_passed":false},{"stop_id":"U17534Z1","name":"Ivanovice na Hané, Fischer","arrival_time":"20:31:00","departure_time":"20:31:00","lat":49.294996,"lon":17.095678,"is_passed":false},{"stop_id":"U17517Z2","name":"Medlovice, rozcestí","arrival_time":"20:35:00","departure_time":"20:36:00","lat":49.278005,"lon":17.092345,"is_passed":false},{"stop_id":"U17518Z1","name":"Medlovice","arrival_time":"20:38:00","departure_time":"20:38:00","lat":49.273143,"lon":17.093413,"is_passed":false},{"stop_id":"U17502Z1","name":"Moravské Málkovice","arrival_time":"20:41:00","departure_time":"20:41:00","lat":49.2577,"lon":17.090655,"is_passed":false},{"stop_id":"U17501Z1","name":"Moravské Málkovice, u koupaliště","arrival_time":"20:43:00","departure_time":"20:43:00","lat":49.252467,"lon":17.092912,"is_passed":false},{"stop_id":"U17503Z1","name":"Orlovice","arrival_time":"20:45:00","departure_time":"21:00:00","lat":49.240533,"lon":17.094317,"is_passed":false}],"8869":[{"stop_id":"U17503Z2","name":"Orlovice","arrival_time":"21:00:00","departure_time":"21:00:00","lat":49.240533,"lon":17.094317,"is_passed":false},{"stop_id":"U17501Z2","name":"Moravské Málkovice, u koupaliště","arrival_time":"21:02:00","departure_time":"21:02:00","lat":49.252517,"lon":17.092942,"is_passed":false},{"stop_id":"U17502Z2","name":"Moravské Málkovice","arrival_time":"21:04:00","departure_time":"21:04:00","lat":49.257815,"lon":17.090555,"is_passed":false},{"stop_id":"U17518Z2","name":"Medlovice","arrival_time":"21:07:00","departure_time":"21:07:00","lat":49.273143,"lon":17.093413,"is_passed":false},{"stop_id":"U17517Z1","name":"Medlovice, rozcestí","arrival_time":"21:09:00","departure_time":"21:12:00","lat":49.277998,"lon":17.093088,"is_passed":false},{"stop_id":"U17534Z2","name":"Ivanovice na Hané, Fischer","arrival_time":"21:14:00","departure_time":"21:14:00","lat":49.29508,"lon":17.095866,"is_passed":false},{"stop_id":"U17515Z2","name":"Ivanovice na Hané, u Škrku","arrival_time":"21:16:00","departure_time":"21:16:00","lat":49.301173,"lon":17.093988,"is_passed":false},{"stop_id":"U17516Z2","name":"Ivanovice na Hané, Žižkova","arrival_time":"21:18:00","departure_time":"21:18:00","lat":49.306818,"lon":17.095633,"is_passed":false},{"stop_id":"U17514Z1","name":"Ivanovice na Hané, aut. st.","arrival_time":"21:19:00","departure_time":"21:19:00","lat":49.304557,"lon":17.08873,"is_passed":false},{"stop_id":"U17511Z1","name":"Hoštice-Heroltice, Hoštice, kostel","arrival_time":"21:24:00","departure_time":"21:24:00","lat":49.287386,"lon":17.065631,"is_passed":false},{"stop_id":"U17528Z1","name":"Hoštice-Heroltice, Heroltice, náves","arrival_time":"21:25:00","departure_time":"21:25:00","lat":49.28575,"lon":17.058213,"is_passed":false},{"stop_id":"U17451Z2","name":"Křižanovice u Vyškova, rozcestí","arrival_time":"21:28:00","departure_time":"21:28:00","lat":49.283803,"lon":17.036758,"is_passed":false},{"stop_id":"U17454Z2","name":"Vyškov, Marchanice","arrival_time":"21:29:00","departure_time":"21:29:00","lat":49.282633,"lon":17.022841,"is_passed":false},{"stop_id":"U17419Z2","name":"Vyškov, Tržiště","arrival_time":"21:31:00","departure_time":"21:31:00","lat":49.279944,"lon":17.007624,"is_passed":false},{"stop_id":"U17421Z2","name":"Vyškov, U podchodu","arrival_time":"21:34:00","departure_time":"21:34:00","lat":49.278441,"lon":16.997064,"is_passed":false},{"stop_id":"U17446Z2","name":"Vyškov, železniční stanice","arrival_time":"21:37:00","departure_time":"21:37:00","lat":49.278112,"lon":16.992207,"is_passed":false},{"stop_id":"U17423Z13","name":"Vyškov, Autobusové nádraží","arrival_time":"21:38:00","departure_time":"22:42:00","lat":49.275873,"lon":16.99145,"is_passed":false}]}