[{"stop_id":"U17603Z2","name":"Podivice","arrival_time":"18:04:00","departure_time":"18:04:00","lat":49.366493,"lon":17.011902,"is_passed":false},{"stop_id":"U17602Z2","name":"Podivice, Terezička","arrival_time":"18:06:00","departure_time":"18:06:00","lat":49.359022,"lon":17.017645,"is_passed":false},{"stop_id":"U17525Z2","name":"Zelená Hora","arrival_time":"18:14:00","departure_time":"18:14:00","lat":49.329217,"lon":17.013623,"is_passed":false},{"stop_id":"U17533Z2","name":"Pustiměř, kamenolom","arrival_time":"18:16:00","departure_time":"18:16:00","lat":49.320556,"lon":17.012417,"is_passed":false},{"stop_id":"U17523Z1","name":"Radslavice, Radslavičky","arrival_time":"18:20:00","departure_time":"18:20:00","lat":49.327155,"lon":16.99496,"is_passed":false},{"stop_id":"U17524Z2","name":"Radslavice","arrival_time":"18:22:00","departure_time":"18:22:00","lat":49.323782,"lon":17.001822,"is_passed":false},{"stop_id":"U17456Z2","name":"Vyškov, sídliště Víta Nejedlého statek","arrival_time":"18:28:00","departure_time":"18:28:00","lat":49.303283,"lon":16.989897,"is_passed":false},{"stop_id":"U17445Z2","name":"Vyškov, Dědice, kasárna","arrival_time":"18:30:00","departure_time":"18:32:00","lat":49.301047,"lon":16.981428,"is_passed":false}]