[{"stop_id":"U17445Z1","name":"Vyškov, Dědice, kasárna","arrival_time":"18:32:00","departure_time":"18:32:00","lat":49.300943,"lon":16.98151,"is_passed":false},{"stop_id":"U17456Z1","name":"Vyškov, sídliště Víta Nejedlého statek","arrival_time":"18:34:00","departure_time":"18:34:00","lat":49.303283,"lon":16.989897,"is_passed":false},{"stop_id":"U17524Z1","name":"Radslavice","arrival_time":"18:40:00","departure_time":"18:40:00","lat":49.323888,"lon":17.001725,"is_passed":false},{"stop_id":"U17523Z1","name":"Radslavice, Radslavičky","arrival_time":"18:42:00","departure_time":"18:42:00","lat":49.327155,"lon":16.99496,"is_passed":false},{"stop_id":"U17533Z1","name":"Pustiměř, kamenolom","arrival_time":"18:46:00","departure_time":"18:46:00","lat":49.320556,"lon":17.012417,"is_passed":false},{"stop_id":"U17525Z1","name":"Zelená Hora","arrival_time":"18:48:00","departure_time":"18:48:00","lat":49.328982,"lon":17.013778,"is_passed":false},{"stop_id":"U17602Z1","name":"Podivice, Terezička","arrival_time":"18:56:00","departure_time":"18:56:00","lat":49.359022,"lon":17.017645,"is_passed":false},{"stop_id":"U17603Z1","name":"Podivice","arrival_time":"18:58:00","departure_time":"19:29:00","lat":49.366493,"lon":17.011902,"is_passed":false}]