{"897":[{"stop_id":"U25504Z10","name":"Kobylí na Moravě","arrival_time":"10:33:00","departure_time":"10:33:00","lat":48.934022,"lon":16.881272,"is_passed":false},{"stop_id":"U15513Z10","name":"Bořetice, železniční stanice","arrival_time":"10:37:00","departure_time":"10:38:00","lat":48.916314,"lon":16.850139,"is_passed":false},{"stop_id":"U25503Z10","name":"Velké Pavlovice zastávka","arrival_time":"10:43:00","departure_time":"10:44:00","lat":48.901672,"lon":16.8224,"is_passed":false},{"stop_id":"U25502Z10","name":"Velké Pavlovice","arrival_time":"10:46:00","departure_time":"10:47:00","lat":48.88985,"lon":16.823672,"is_passed":false},{"stop_id":"U15537Z12","name":"Zaječí, železniční stanice","arrival_time":"10:53:00","departure_time":"11:06:00","lat":48.889637,"lon":16.781831,"is_passed":false}],"8970":[{"stop_id":"U18219Z4","name":"Prosiměřice, hostinec","arrival_time":"10:09:00","departure_time":"10:09:00","lat":48.902423,"lon":16.192625,"is_passed":false},{"stop_id":"U18222Z3","name":"Stošíkovice na Louce","arrival_time":"10:15:00","departure_time":"10:15:00","lat":48.89529,"lon":16.214773,"is_passed":false},{"stop_id":"U18223Z5","name":"Stošíkovice na Louce, rozcestí","arrival_time":"10:18:00","departure_time":"10:18:00","lat":48.889336,"lon":16.196984,"is_passed":false},{"stop_id":"U18125Z2","name":"Práče, obecní úřad","arrival_time":"10:20:00","departure_time":"10:20:00","lat":48.876979,"lon":16.202572,"is_passed":false},{"stop_id":"U18214Z2","name":"Lechovice, obecní úřad","arrival_time":"10:23:00","departure_time":"10:23:00","lat":48.872568,"lon":16.221965,"is_passed":false},{"stop_id":"U18215Z3","name":"Lechovice, zámek","arrival_time":"10:25:00","departure_time":"11:30:00","lat":48.874591,"lon":16.236258,"is_passed":false}],"8971":[{"stop_id":"U18215Z3","name":"Lechovice, zámek","arrival_time":"11:30:00","departure_time":"11:30:00","lat":48.874591,"lon":16.236258,"is_passed":false},{"stop_id":"U18214Z1","name":"Lechovice, obecní úřad","arrival_time":"11:32:00","departure_time":"11:32:00","lat":48.872558,"lon":16.222179,"is_passed":false},{"stop_id":"U18125Z1","name":"Práče, obecní úřad","arrival_time":"11:36:00","departure_time":"11:36:00","lat":48.877058,"lon":16.202218,"is_passed":false},{"stop_id":"U18222Z1","name":"Stošíkovice na Louce","arrival_time":"11:41:00","departure_time":"11:41:00","lat":48.89529,"lon":16.214773,"is_passed":false},{"stop_id":"U18223Z1","name":"Stošíkovice na Louce, rozcestí","arrival_time":"11:44:00","departure_time":"11:44:00","lat":48.890458,"lon":16.196641,"is_passed":false},{"stop_id":"U18219Z3","name":"Prosiměřice, hostinec","arrival_time":"11:47:00","departure_time":"12:49:00","lat":48.902718,"lon":16.192215,"is_passed":false}],"8972":[{"stop_id":"U18219Z4","name":"Prosiměřice, hostinec","arrival_time":"12:49:00","departure_time":"12:49:00","lat":48.902423,"lon":16.192625,"is_passed":false},{"stop_id":"U18222Z3","name":"Stošíkovice na Louce","arrival_time":"12:55:00","departure_time":"12:55:00","lat":48.89529,"lon":16.214773,"is_passed":false},{"stop_id":"U18223Z5","name":"Stošíkovice na Louce, rozcestí","arrival_time":"12:58:00","departure_time":"12:58:00","lat":48.889336,"lon":16.196984,"is_passed":false},{"stop_id":"U18125Z2","name":"Práče, obecní úřad","arrival_time":"13:00:00","departure_time":"13:00:00","lat":48.876979,"lon":16.202572,"is_passed":false},{"stop_id":"U18214Z2","name":"Lechovice, obecní úřad","arrival_time":"13:03:00","departure_time":"13:03:00","lat":48.872568,"lon":16.221965,"is_passed":false},{"stop_id":"U18215Z3","name":"Lechovice, zámek","arrival_time":"13:05:00","departure_time":"13:10:00","lat":48.874591,"lon":16.236258,"is_passed":false}],"8973":[{"stop_id":"U18215Z3","name":"Lechovice, zámek","arrival_time":"13:10:00","departure_time":"13:10:00","lat":48.874591,"lon":16.236258,"is_passed":false},{"stop_id":"U18214Z1","name":"Lechovice, obecní úřad","arrival_time":"13:12:00","departure_time":"13:12:00","lat":48.872558,"lon":16.222179,"is_passed":false},{"stop_id":"U18125Z1","name":"Práče, obecní úřad","arrival_time":"13:16:00","departure_time":"13:16:00","lat":48.877058,"lon":16.202218,"is_passed":false},{"stop_id":"U18223Z1","name":"Stošíkovice na Louce, rozcestí","arrival_time":"13:18:00","departure_time":"13:18:00","lat":48.890458,"lon":16.196641,"is_passed":false},{"stop_id":"U18219Z3","name":"Prosiměřice, hostinec","arrival_time":"13:21:00","departure_time":"13:27:00","lat":48.902718,"lon":16.192215,"is_passed":false},{"stop_id":"U18221Z3","name":"Prosiměřice, u bufetu","arrival_time":"13:28:00","departure_time":"13:28:00","lat":48.903893,"lon":16.190322,"is_passed":false},{"stop_id":"U18212Z1","name":"Kyjovice","arrival_time":"13:31:00","departure_time":"13:35:00","lat":48.915567,"lon":16.166742,"is_passed":false}],"8974":[{"stop_id":"U18212Z2","name":"Kyjovice","arrival_time":"13:35:00","departure_time":"13:35:00","lat":48.915725,"lon":16.16638,"is_passed":false},{"stop_id":"U18221Z4","name":"Prosiměřice, u bufetu","arrival_time":"13:38:00","departure_time":"13:38:00","lat":48.903398,"lon":16.190627,"is_passed":false},{"stop_id":"U18219Z4","name":"Prosiměřice, hostinec","arrival_time":"13:39:00","departure_time":"13:39:00","lat":48.902423,"lon":16.192625,"is_passed":false},{"stop_id":"U18223Z5","name":"Stošíkovice na Louce, rozcestí","arrival_time":"13:42:00","departure_time":"13:42:00","lat":48.889336,"lon":16.196984,"is_passed":false},{"stop_id":"U18125Z2","name":"Práče, obecní úřad","arrival_time":"13:44:00","departure_time":"13:44:00","lat":48.876979,"lon":16.202572,"is_passed":false},{"stop_id":"U18214Z2","name":"Lechovice, obecní úřad","arrival_time":"13:47:00","departure_time":"13:47:00","lat":48.872568,"lon":16.221965,"is_passed":false},{"stop_id":"U18215Z3","name":"Lechovice, zámek","arrival_time":"13:49:00","departure_time":"14:00:00","lat":48.874591,"lon":16.236258,"is_passed":false}],"8975":[{"stop_id":"U18215Z3","name":"Lechovice, zámek","arrival_time":"14:00:00","departure_time":"14:00:00","lat":48.874591,"lon":16.236258,"is_passed":false},{"stop_id":"U18214Z1","name":"Lechovice, obecní úřad","arrival_time":"14:02:00","departure_time":"14:02:00","lat":48.872558,"lon":16.222179,"is_passed":false},{"stop_id":"U18125Z1","name":"Práče, obecní úřad","arrival_time":"14:06:00","departure_time":"14:06:00","lat":48.877058,"lon":16.202218,"is_passed":false},{"stop_id":"U18223Z1","name":"Stošíkovice na Louce, rozcestí","arrival_time":"14:08:00","departure_time":"14:08:00","lat":48.890458,"lon":16.196641,"is_passed":false},{"stop_id":"U18219Z3","name":"Prosiměřice, hostinec","arrival_time":"14:11:00","departure_time":"14:17:00","lat":48.902718,"lon":16.192215,"is_passed":false},{"stop_id":"U18221Z3","name":"Prosiměřice, u bufetu","arrival_time":"14:18:00","departure_time":"14:18:00","lat":48.903893,"lon":16.190322,"is_passed":false},{"stop_id":"U18212Z1","name":"Kyjovice","arrival_time":"14:21:00","departure_time":"14:21:00","lat":48.915567,"lon":16.166742,"is_passed":false},{"stop_id":"U18238Z1","name":"Žerotice, Kyjovická","arrival_time":"14:23:00","departure_time":"14:23:00","lat":48.925525,"lon":16.165198,"is_passed":false},{"stop_id":"U18239Z1","name":"Žerotice, požární zbrojnice","arrival_time":"14:25:00","departure_time":"14:31:00","lat":48.926905,"lon":16.167782,"is_passed":false}],"8976":[{"stop_id":"U18239Z2","name":"Žerotice, požární zbrojnice","arrival_time":"14:31:00","departure_time":"14:31:00","lat":48.926907,"lon":16.16763,"is_passed":false},{"stop_id":"U18238Z2","name":"Žerotice, Kyjovická","arrival_time":"14:33:00","departure_time":"14:33:00","lat":48.925525,"lon":16.165198,"is_passed":false},{"stop_id":"U18212Z2","name":"Kyjovice","arrival_time":"14:35:00","departure_time":"14:35:00","lat":48.915725,"lon":16.16638,"is_passed":false},{"stop_id":"U18221Z4","name":"Prosiměřice, u bufetu","arrival_time":"14:38:00","departure_time":"14:38:00","lat":48.903398,"lon":16.190627,"is_passed":false},{"stop_id":"U18219Z4","name":"Prosiměřice, hostinec","arrival_time":"14:39:00","departure_time":"14:39:00","lat":48.902423,"lon":16.192625,"is_passed":false},{"stop_id":"U18222Z3","name":"Stošíkovice na Louce","arrival_time":"14:45:00","departure_time":"14:45:00","lat":48.89529,"lon":16.214773,"is_passed":false},{"stop_id":"U18223Z5","name":"Stošíkovice na Louce, rozcestí","arrival_time":"14:48:00","departure_time":"14:48:00","lat":48.889336,"lon":16.196984,"is_passed":false},{"stop_id":"U18125Z2","name":"Práče, obecní úřad","arrival_time":"14:50:00","departure_time":"14:50:00","lat":48.876979,"lon":16.202572,"is_passed":false},{"stop_id":"U18214Z2","name":"Lechovice, obecní úřad","arrival_time":"14:53:00","departure_time":"14:53:00","lat":48.872568,"lon":16.221965,"is_passed":false},{"stop_id":"U18215Z3","name":"Lechovice, zámek","arrival_time":"14:55:00","departure_time":"15:00:00","lat":48.874591,"lon":16.236258,"is_passed":false}],"8977":[{"stop_id":"U18215Z3","name":"Lechovice, zámek","arrival_time":"15:00:00","departure_time":"15:00:00","lat":48.874591,"lon":16.236258,"is_passed":false},{"stop_id":"U18214Z1","name":"Lechovice, obecní úřad","arrival_time":"15:02:00","departure_time":"15:02:00","lat":48.872558,"lon":16.222179,"is_passed":false},{"stop_id":"U18125Z1","name":"Práče, obecní úřad","arrival_time":"15:06:00","departure_time":"15:06:00","lat":48.877058,"lon":16.202218,"is_passed":false},{"stop_id":"U18222Z1","name":"Stošíkovice na Louce","arrival_time":"15:11:00","departure_time":"15:11:00","lat":48.89529,"lon":16.214773,"is_passed":false},{"stop_id":"U18223Z1","name":"Stošíkovice na Louce, rozcestí","arrival_time":"15:14:00","departure_time":"15:14:00","lat":48.890458,"lon":16.196641,"is_passed":false},{"stop_id":"U18219Z3","name":"Prosiměřice, hostinec","arrival_time":"15:17:00","departure_time":"15:17:00","lat":48.902718,"lon":16.192215,"is_passed":false},{"stop_id":"U18221Z3","name":"Prosiměřice, u bufetu","arrival_time":"15:18:00","departure_time":"15:18:00","lat":48.903893,"lon":16.190322,"is_passed":false},{"stop_id":"U18212Z1","name":"Kyjovice","arrival_time":"15:21:00","departure_time":"15:21:00","lat":48.915567,"lon":16.166742,"is_passed":false},{"stop_id":"U18238Z1","name":"Žerotice, Kyjovická","arrival_time":"15:23:00","departure_time":"15:23:00","lat":48.925525,"lon":16.165198,"is_passed":false},{"stop_id":"U18239Z1","name":"Žerotice, požární zbrojnice","arrival_time":"15:25:00","departure_time":"15:31:00","lat":48.926905,"lon":16.167782,"is_passed":false}],"8978":[{"stop_id":"U18239Z2","name":"Žerotice, požární zbrojnice","arrival_time":"15:31:00","departure_time":"15:31:00","lat":48.926907,"lon":16.16763,"is_passed":false},{"stop_id":"U18238Z2","name":"Žerotice, Kyjovická","arrival_time":"15:33:00","departure_time":"15:33:00","lat":48.925525,"lon":16.165198,"is_passed":false},{"stop_id":"U18212Z2","name":"Kyjovice","arrival_time":"15:35:00","departure_time":"15:35:00","lat":48.915725,"lon":16.16638,"is_passed":false},{"stop_id":"U18221Z4","name":"Prosiměřice, u bufetu","arrival_time":"15:38:00","departure_time":"15:38:00","lat":48.903398,"lon":16.190627,"is_passed":false},{"stop_id":"U18219Z4","name":"Prosiměřice, hostinec","arrival_time":"15:39:00","departure_time":"15:39:00","lat":48.902423,"lon":16.192625,"is_passed":false},{"stop_id":"U18222Z3","name":"Stošíkovice na Louce","arrival_time":"15:45:00","departure_time":"15:45:00","lat":48.89529,"lon":16.214773,"is_passed":false},{"stop_id":"U18223Z5","name":"Stošíkovice na Louce, rozcestí","arrival_time":"15:48:00","departure_time":"15:48:00","lat":48.889336,"lon":16.196984,"is_passed":false},{"stop_id":"U18125Z2","name":"Práče, obecní úřad","arrival_time":"15:50:00","departure_time":"15:50:00","lat":48.876979,"lon":16.202572,"is_passed":false},{"stop_id":"U18214Z2","name":"Lechovice, obecní úřad","arrival_time":"15:53:00","departure_time":"15:53:00","lat":48.872568,"lon":16.221965,"is_passed":false},{"stop_id":"U18215Z3","name":"Lechovice, zámek","arrival_time":"15:55:00","departure_time":"17:00:00","lat":48.874591,"lon":16.236258,"is_passed":false}],"8979":[{"stop_id":"U18215Z3","name":"Lechovice, zámek","arrival_time":"17:00:00","departure_time":"17:00:00","lat":48.874591,"lon":16.236258,"is_passed":false},{"stop_id":"U18214Z1","name":"Lechovice, obecní úřad","arrival_time":"17:02:00","departure_time":"17:02:00","lat":48.872558,"lon":16.222179,"is_passed":false},{"stop_id":"U18125Z1","name":"Práče, obecní úřad","arrival_time":"17:06:00","departure_time":"17:06:00","lat":48.877058,"lon":16.202218,"is_passed":false},{"stop_id":"U18223Z1","name":"Stošíkovice na Louce, rozcestí","arrival_time":"17:08:00","departure_time":"17:08:00","lat":48.890458,"lon":16.196641,"is_passed":false},{"stop_id":"U18219Z3","name":"Prosiměřice, hostinec","arrival_time":"17:11:00","departure_time":"17:17:00","lat":48.902718,"lon":16.192215,"is_passed":false},{"stop_id":"U18221Z3","name":"Prosiměřice, u bufetu","arrival_time":"17:18:00","departure_time":"17:18:00","lat":48.903893,"lon":16.190322,"is_passed":false},{"stop_id":"U18212Z1","name":"Kyjovice","arrival_time":"17:21:00","departure_time":"17:21:00","lat":48.915567,"lon":16.166742,"is_passed":false},{"stop_id":"U18238Z1","name":"Žerotice, Kyjovická","arrival_time":"17:23:00","departure_time":"17:23:00","lat":48.925525,"lon":16.165198,"is_passed":false},{"stop_id":"U18239Z1","name":"Žerotice, požární zbrojnice","arrival_time":"17:25:00","departure_time":"17:31:00","lat":48.926905,"lon":16.167782,"is_passed":false}]}