{"907":[{"stop_id":"U15403Z10","name":"Hustopeče, autobusové nádraží","arrival_time":"7:41:00","departure_time":"7:41:00","lat":48.93752,"lon":16.735901,"is_passed":false},{"stop_id":"U15425Z10","name":"Šakvice, železniční stanice","arrival_time":"7:47:00","departure_time":"7:48:00","lat":48.912883,"lon":16.70557,"is_passed":false},{"stop_id":"U15307Z10","name":"Vranovice, žel.st.","arrival_time":"7:54:00","departure_time":"7:58:00","lat":48.964528,"lon":16.604187,"is_passed":false},{"stop_id":"U15306Z10","name":"Žabčice, žel. st.","arrival_time":"8:02:00","departure_time":"8:02:00","lat":49.010865,"lon":16.594993,"is_passed":false},{"stop_id":"U15222Z10","name":"Hrušovany u Brna, žel. st.","arrival_time":"8:04:00","departure_time":"8:05:00","lat":49.034228,"lon":16.591501,"is_passed":false},{"stop_id":"U15181Z10","name":"Rajhrad, železniční stanice","arrival_time":"8:09:00","departure_time":"8:10:00","lat":49.084966,"lon":16.60532,"is_passed":false},{"stop_id":"U15140Z10","name":"Modřice, železniční stanice","arrival_time":"8:13:00","departure_time":"8:14:00","lat":49.133256,"lon":16.606209,"is_passed":false},{"stop_id":"U1146Z99","name":"Hlavní nádraží","arrival_time":"8:21:00","departure_time":"8:23:00","lat":49.19035,"lon":16.612342,"is_passed":false},{"stop_id":"U1809Z10","name":"Židenice, nádraží","arrival_time":"8:26:00","departure_time":"8:27:00","lat":49.204282,"lon":16.636042,"is_passed":false},{"stop_id":"U1331Z10","name":"Lesná, nádraží","arrival_time":"8:32:00","departure_time":"8:33:00","lat":49.220432,"lon":16.627505,"is_passed":false},{"stop_id":"U1286Z10","name":"Královo Pole, nádraží","arrival_time":"8:36:00","departure_time":"8:37:00","lat":49.231051,"lon":16.596651,"is_passed":false},{"stop_id":"U1557Z10","name":"Řečkovice, nádraží","arrival_time":"8:39:00","departure_time":"8:40:00","lat":49.250794,"lon":16.590446,"is_passed":false},{"stop_id":"U13109Z10","name":"Česká, železniční stanice","arrival_time":"8:43:00","departure_time":"8:44:00","lat":49.284546,"lon":16.566731,"is_passed":false},{"stop_id":"U13143Z10","name":"Kuřim, železniční stanice","arrival_time":"8:47:00","departure_time":"8:48:00","lat":49.301,"lon":16.534523,"is_passed":false},{"stop_id":"U13206Z10","name":"Čebín, železniční stanice","arrival_time":"8:53:00","departure_time":"8:53:00","lat":49.319722,"lon":16.465278,"is_passed":false},{"stop_id":"U13306Z10","name":"Hradčany, železniční stanice","arrival_time":"8:56:00","departure_time":"8:56:00","lat":49.334153,"lon":16.437807,"is_passed":false},{"stop_id":"U13334Z20","name":"Tišnov, železniční stanice","arrival_time":"8:59:00","departure_time":"13:59:00","lat":49.3475,"lon":16.41725,"is_passed":false}],"9070":[{"stop_id":"U18215Z3","name":"Lechovice, zámek","arrival_time":"15:00:00","departure_time":"15:00:00","lat":48.874591,"lon":16.236258,"is_passed":false},{"stop_id":"U18214Z1","name":"Lechovice, obecní úřad","arrival_time":"15:02:00","departure_time":"15:02:00","lat":48.872558,"lon":16.222179,"is_passed":false},{"stop_id":"U18125Z1","name":"Práče, obecní úřad","arrival_time":"15:06:00","departure_time":"15:06:00","lat":48.877058,"lon":16.202218,"is_passed":false},{"stop_id":"U18222Z1","name":"Stošíkovice na Louce","arrival_time":"15:11:00","departure_time":"15:11:00","lat":48.89529,"lon":16.214773,"is_passed":false},{"stop_id":"U18223Z1","name":"Stošíkovice na Louce, rozcestí","arrival_time":"15:14:00","departure_time":"15:14:00","lat":48.890458,"lon":16.196641,"is_passed":false},{"stop_id":"U18219Z3","name":"Prosiměřice, hostinec","arrival_time":"15:17:00","departure_time":"15:17:00","lat":48.902718,"lon":16.192215,"is_passed":false},{"stop_id":"U18221Z3","name":"Prosiměřice, u bufetu","arrival_time":"15:18:00","departure_time":"15:18:00","lat":48.903893,"lon":16.190322,"is_passed":false},{"stop_id":"U18212Z1","name":"Kyjovice","arrival_time":"15:21:00","departure_time":"15:21:00","lat":48.915567,"lon":16.166742,"is_passed":false},{"stop_id":"U18238Z1","name":"Žerotice, Kyjovická","arrival_time":"15:23:00","departure_time":"15:23:00","lat":48.925525,"lon":16.165198,"is_passed":false},{"stop_id":"U18239Z1","name":"Žerotice, požární zbrojnice","arrival_time":"15:25:00","departure_time":"15:31:00","lat":48.926905,"lon":16.167782,"is_passed":false}],"9071":[{"stop_id":"U18239Z2","name":"Žerotice, požární zbrojnice","arrival_time":"15:31:00","departure_time":"15:31:00","lat":48.926907,"lon":16.16763,"is_passed":false},{"stop_id":"U18238Z2","name":"Žerotice, Kyjovická","arrival_time":"15:33:00","departure_time":"15:33:00","lat":48.925525,"lon":16.165198,"is_passed":false},{"stop_id":"U18212Z2","name":"Kyjovice","arrival_time":"15:35:00","departure_time":"15:35:00","lat":48.915725,"lon":16.16638,"is_passed":false},{"stop_id":"U18221Z4","name":"Prosiměřice, u bufetu","arrival_time":"15:38:00","departure_time":"15:38:00","lat":48.903398,"lon":16.190627,"is_passed":false},{"stop_id":"U18219Z4","name":"Prosiměřice, hostinec","arrival_time":"15:39:00","departure_time":"15:39:00","lat":48.902423,"lon":16.192625,"is_passed":false},{"stop_id":"U18222Z3","name":"Stošíkovice na Louce","arrival_time":"15:45:00","departure_time":"15:45:00","lat":48.89529,"lon":16.214773,"is_passed":false},{"stop_id":"U18223Z5","name":"Stošíkovice na Louce, rozcestí","arrival_time":"15:48:00","departure_time":"15:48:00","lat":48.889336,"lon":16.196984,"is_passed":false},{"stop_id":"U18125Z2","name":"Práče, obecní úřad","arrival_time":"15:50:00","departure_time":"15:50:00","lat":48.876979,"lon":16.202572,"is_passed":false},{"stop_id":"U18214Z2","name":"Lechovice, obecní úřad","arrival_time":"15:53:00","departure_time":"15:53:00","lat":48.872568,"lon":16.221965,"is_passed":false},{"stop_id":"U18215Z3","name":"Lechovice, zámek","arrival_time":"15:55:00","departure_time":"17:00:00","lat":48.874591,"lon":16.236258,"is_passed":false}],"9072":[{"stop_id":"U18215Z3","name":"Lechovice, zámek","arrival_time":"17:00:00","departure_time":"17:00:00","lat":48.874591,"lon":16.236258,"is_passed":false},{"stop_id":"U18214Z1","name":"Lechovice, obecní úřad","arrival_time":"17:02:00","departure_time":"17:02:00","lat":48.872558,"lon":16.222179,"is_passed":false},{"stop_id":"U18125Z1","name":"Práče, obecní úřad","arrival_time":"17:06:00","departure_time":"17:06:00","lat":48.877058,"lon":16.202218,"is_passed":false},{"stop_id":"U18223Z1","name":"Stošíkovice na Louce, rozcestí","arrival_time":"17:08:00","departure_time":"17:08:00","lat":48.890458,"lon":16.196641,"is_passed":false},{"stop_id":"U18219Z3","name":"Prosiměřice, hostinec","arrival_time":"17:11:00","departure_time":"17:17:00","lat":48.902718,"lon":16.192215,"is_passed":false},{"stop_id":"U18221Z3","name":"Prosiměřice, u bufetu","arrival_time":"17:18:00","departure_time":"17:18:00","lat":48.903893,"lon":16.190322,"is_passed":false},{"stop_id":"U18212Z1","name":"Kyjovice","arrival_time":"17:21:00","departure_time":"17:21:00","lat":48.915567,"lon":16.166742,"is_passed":false},{"stop_id":"U18238Z1","name":"Žerotice, Kyjovická","arrival_time":"17:23:00","departure_time":"17:23:00","lat":48.925525,"lon":16.165198,"is_passed":false},{"stop_id":"U18239Z1","name":"Žerotice, požární zbrojnice","arrival_time":"17:25:00","departure_time":"17:31:00","lat":48.926905,"lon":16.167782,"is_passed":false}],"9073":[{"stop_id":"U18239Z2","name":"Žerotice, požární zbrojnice","arrival_time":"17:31:00","departure_time":"17:31:00","lat":48.926907,"lon":16.16763,"is_passed":false},{"stop_id":"U18238Z2","name":"Žerotice, Kyjovická","arrival_time":"17:33:00","departure_time":"17:33:00","lat":48.925525,"lon":16.165198,"is_passed":false},{"stop_id":"U18212Z2","name":"Kyjovice","arrival_time":"17:35:00","departure_time":"17:35:00","lat":48.915725,"lon":16.16638,"is_passed":false},{"stop_id":"U18221Z4","name":"Prosiměřice, u bufetu","arrival_time":"17:38:00","departure_time":"17:38:00","lat":48.903398,"lon":16.190627,"is_passed":false},{"stop_id":"U18219Z4","name":"Prosiměřice, hostinec","arrival_time":"17:39:00","departure_time":"17:39:00","lat":48.902423,"lon":16.192625,"is_passed":false}],"9074":[{"stop_id":"U18122Z2","name":"Hodonice, střed","arrival_time":"5:07:00","departure_time":"5:07:00","lat":48.835975,"lon":16.165225,"is_passed":false},{"stop_id":"U18133Z2","name":"Tasovice, u prodejen","arrival_time":"5:09:00","departure_time":"5:09:00","lat":48.836068,"lon":16.156327,"is_passed":false},{"stop_id":"U18132Z2","name":"Tasovice, škola","arrival_time":"5:11:00","departure_time":"5:11:00","lat":48.83865,"lon":16.157345,"is_passed":false},{"stop_id":"U18214Z2","name":"Lechovice, obecní úřad","arrival_time":"5:20:00","departure_time":"5:28:00","lat":48.872568,"lon":16.221965,"is_passed":false}],"9075":[{"stop_id":"U18214Z1","name":"Lechovice, obecní úřad","arrival_time":"5:28:00","departure_time":"5:28:00","lat":48.872558,"lon":16.222179,"is_passed":false},{"stop_id":"U18132Z1","name":"Tasovice, škola","arrival_time":"5:37:00","departure_time":"5:37:00","lat":48.83865,"lon":16.157345,"is_passed":false},{"stop_id":"U18133Z1","name":"Tasovice, u prodejen","arrival_time":"5:38:00","departure_time":"5:38:00","lat":48.83599,"lon":16.156078,"is_passed":false},{"stop_id":"U18122Z1","name":"Hodonice, střed","arrival_time":"5:40:00","departure_time":"6:07:00","lat":48.835833,"lon":16.164223,"is_passed":false}],"9076":[{"stop_id":"U18122Z2","name":"Hodonice, střed","arrival_time":"6:07:00","departure_time":"6:07:00","lat":48.835975,"lon":16.165225,"is_passed":false},{"stop_id":"U18133Z2","name":"Tasovice, u prodejen","arrival_time":"6:09:00","departure_time":"6:09:00","lat":48.836068,"lon":16.156327,"is_passed":false},{"stop_id":"U18132Z2","name":"Tasovice, škola","arrival_time":"6:11:00","departure_time":"6:11:00","lat":48.83865,"lon":16.157345,"is_passed":false},{"stop_id":"U18214Z4","name":"Lechovice, obecní úřad","arrival_time":"6:20:00","departure_time":"6:21:00","lat":48.872491,"lon":16.221123,"is_passed":false}],"9077":[{"stop_id":"U18214Z4","name":"Lechovice, obecní úřad","arrival_time":"6:21:00","departure_time":"6:21:00","lat":48.872491,"lon":16.221123,"is_passed":false},{"stop_id":"U18201Z1","name":"Borotice","arrival_time":"6:25:00","departure_time":"6:25:00","lat":48.857318,"lon":16.244243,"is_passed":false},{"stop_id":"U18202Z1","name":"Borotice, Filipovice","arrival_time":"6:26:00","departure_time":"6:26:00","lat":48.85307,"lon":16.24943,"is_passed":false},{"stop_id":"U18207Z1","name":"Božice, u sklepů","arrival_time":"6:28:00","departure_time":"6:28:00","lat":48.847848,"lon":16.259072,"is_passed":false},{"stop_id":"U18209Z1","name":"Božice, České Křídlovice","arrival_time":"6:30:00","departure_time":"6:30:00","lat":48.838583,"lon":16.275993,"is_passed":false},{"stop_id":"U18206Z1","name":"Božice, u pošty","arrival_time":"6:33:00","departure_time":"6:33:00","lat":48.835257,"lon":16.281438,"is_passed":false},{"stop_id":"U18205Z3","name":"Božice, škola","arrival_time":"6:35:00","departure_time":"6:35:00","lat":48.83442,"lon":16.290619,"is_passed":false},{"stop_id":"U18203Z1","name":"Božice, Jednota","arrival_time":"6:36:00","departure_time":"6:36:00","lat":48.836773,"lon":16.288992,"is_passed":false},{"stop_id":"U18204Z1","name":"Božice, Oseva","arrival_time":"6:37:00","departure_time":"6:37:00","lat":48.84462,"lon":16.289657,"is_passed":false},{"stop_id":"U18210Z1","name":"Čejkovice","arrival_time":"6:43:00","departure_time":"6:43:00","lat":48.877778,"lon":16.286723,"is_passed":false},{"stop_id":"U15556Z1","name":"Mackovice, obecní úřad","arrival_time":"6:47:00","departure_time":"6:47:00","lat":48.883097,"lon":16.309653,"is_passed":false},{"stop_id":"U15555Z1","name":"Mackovice, Břežanská","arrival_time":"6:49:00","departure_time":"6:49:00","lat":48.88166,"lon":16.316945,"is_passed":false},{"stop_id":"U15569Z2","name":"Břežany, škola","arrival_time":"6:51:00","departure_time":"6:51:00","lat":48.874205,"lon":16.334924,"is_passed":false},{"stop_id":"U15548Z1","name":"Břežany, u statku","arrival_time":"6:52:00","departure_time":"6:52:00","lat":48.872453,"lon":16.3381,"is_passed":false},{"stop_id":"U15547Z1","name":"Břežany, u pošty","arrival_time":"6:53:00","departure_time":"6:53:00","lat":48.87018,"lon":16.339872,"is_passed":false},{"stop_id":"U15546Z1","name":"Břežany, u hostince","arrival_time":"6:55:00","departure_time":"6:55:00","lat":48.867867,"lon":16.344198,"is_passed":false},{"stop_id":"U15638Z1","name":"Pravice","arrival_time":"6:59:00","departure_time":"6:59:00","lat":48.84384,"lon":16.36177,"is_passed":false},{"stop_id":"U15636Z1","name":"Hrušovany nad Jevišovkou, Znojemská","arrival_time":"7:02:00","departure_time":"7:02:00","lat":48.829838,"lon":16.394525,"is_passed":false},{"stop_id":"U15632Z2","name":"Hrušovany nad Jevišovkou, Lidická, VÚPP","arrival_time":"7:04:00","departure_time":"7:04:00","lat":48.831517,"lon":16.401898,"is_passed":false}],"9078":[{"stop_id":"U15632Z3","name":"Hrušovany nad Jevišovkou, Lidická, VÚPP","arrival_time":"7:06:00","departure_time":"7:06:00","lat":48.831517,"lon":16.401898,"is_passed":false},{"stop_id":"U15636Z2","name":"Hrušovany nad Jevišovkou, Znojemská","arrival_time":"7:08:00","departure_time":"7:08:00","lat":48.829857,"lon":16.394073,"is_passed":false},{"stop_id":"U15638Z2","name":"Pravice","arrival_time":"7:11:00","departure_time":"7:11:00","lat":48.843938,"lon":16.361952,"is_passed":false},{"stop_id":"U15546Z2","name":"Břežany, u hostince","arrival_time":"7:15:00","departure_time":"7:15:00","lat":48.867867,"lon":16.344198,"is_passed":false},{"stop_id":"U15547Z2","name":"Břežany, u pošty","arrival_time":"7:17:00","departure_time":"7:17:00","lat":48.870177,"lon":16.339543,"is_passed":false},{"stop_id":"U15548Z2","name":"Břežany, u statku","arrival_time":"7:18:00","departure_time":"7:18:00","lat":48.872375,"lon":16.33823,"is_passed":false},{"stop_id":"U15566Z2","name":"Břežany, osada Ležák","arrival_time":"7:20:00","departure_time":"7:20:00","lat":48.887033,"lon":16.347558,"is_passed":false},{"stop_id":"U15551Z2","name":"Dolenice","arrival_time":"7:25:00","departure_time":"7:25:00","lat":48.909272,"lon":16.364848,"is_passed":false},{"stop_id":"U15550Z1","name":"Damnice","arrival_time":"7:27:00","departure_time":"7:27:00","lat":48.920138,"lon":16.373542,"is_passed":false},{"stop_id":"U14551Z2","name":"Miroslav, Réna","arrival_time":"7:32:00","departure_time":"7:32:00","lat":48.93358,"lon":16.337223,"is_passed":false},{"stop_id":"U14550Z2","name":"Miroslav, provozovna ČAS","arrival_time":"7:34:00","departure_time":"7:34:00","lat":48.941947,"lon":16.321227,"is_passed":false},{"stop_id":"U14554Z2","name":"Miroslav, statek","arrival_time":"7:35:00","departure_time":"7:35:00","lat":48.945973,"lon":16.317908,"is_passed":false},{"stop_id":"U14546Z2","name":"Miroslav, autobusové nádraží","arrival_time":"7:38:00","departure_time":"7:38:00","lat":48.946832,"lon":16.313061,"is_passed":false}],"9079":[{"stop_id":"U14546Z4","name":"Miroslav, autobusové nádraží","arrival_time":"8:37:00","departure_time":"8:37:00","lat":48.947111,"lon":16.31297,"is_passed":false},{"stop_id":"U14549Z2","name":"Miroslav, kostel","arrival_time":"8:40:00","departure_time":"8:40:00","lat":48.950238,"lon":16.313682,"is_passed":false},{"stop_id":"U14532Z4","name":"Kadov","arrival_time":"8:46:00","departure_time":"8:48:00","lat":48.982415,"lon":16.28708,"is_passed":false}]}