[{"stop_id":"U13701Z11","name":"Bystřice nad Pern., železniční stanice","arrival_time":"13:35:00","departure_time":"13:35:00","lat":49.513611,"lon":16.246667,"is_passed":false},{"stop_id":"U13605Z11","name":"Rožná, železniční stanice","arrival_time":"13:44:00","departure_time":"13:45:00","lat":49.472143,"lon":16.245416,"is_passed":false},{"stop_id":"U23601Z1","name":"Věžná","arrival_time":"13:49:00","departure_time":"13:49:00","lat":49.451547,"lon":16.270316,"is_passed":false},{"stop_id":"U13520Z2","name":"Nedvědice, železniční stanice","arrival_time":"13:58:00","departure_time":"14:01:00","lat":49.454167,"lon":16.338333,"is_passed":false},{"stop_id":"U13506Z11","name":"Doubravník, železniční stanice","arrival_time":"14:06:00","departure_time":"14:07:00","lat":49.426945,"lon":16.352389,"is_passed":false},{"stop_id":"U13464Z2","name":"Prudká zastávka","arrival_time":"14:10:00","departure_time":"14:10:00","lat":49.419195,"lon":16.367361,"is_passed":false},{"stop_id":"U13463Z2","name":"Borač, žel. st.","arrival_time":"14:14:00","departure_time":"14:14:00","lat":49.400689,"lon":16.366288,"is_passed":false},{"stop_id":"U13462Z2","name":"Štěpánovice","arrival_time":"14:19:00","departure_time":"14:19:00","lat":49.373054,"lon":16.389952,"is_passed":false},{"stop_id":"U13334Z21","name":"Tišnov, železniční stanice","arrival_time":"14:25:00","departure_time":"14:33:00","lat":49.3475,"lon":16.41725,"is_passed":false}]