[{"stop_id":"U13334Z20","name":"Tišnov, železniční stanice","arrival_time":"6:33:00","departure_time":"6:33:00","lat":49.3475,"lon":16.41725,"is_passed":false},{"stop_id":"U13462Z1","name":"Štěpánovice","arrival_time":"6:37:00","departure_time":"6:37:00","lat":49.373141,"lon":16.389854,"is_passed":false},{"stop_id":"U13463Z1","name":"Borač, žel. st.","arrival_time":"6:42:00","departure_time":"6:43:00","lat":49.400768,"lon":16.366252,"is_passed":false},{"stop_id":"U13464Z1","name":"Prudká zastávka","arrival_time":"6:46:00","departure_time":"6:46:00","lat":49.419195,"lon":16.367361,"is_passed":false},{"stop_id":"U13506Z10","name":"Doubravník, železniční stanice","arrival_time":"6:50:00","departure_time":"6:50:00","lat":49.426945,"lon":16.352389,"is_passed":false},{"stop_id":"U13520Z1","name":"Nedvědice, železniční stanice","arrival_time":"6:56:00","departure_time":"7:01:00","lat":49.454167,"lon":16.338333,"is_passed":false}]