[{"stop_id":"U14543Z3","name":"Hostěradice, náměstí","arrival_time":"7:01:00","departure_time":"7:01:00","lat":48.950522,"lon":16.259511,"is_passed":false},{"stop_id":"U18224Z1","name":"Vítonice","arrival_time":"7:07:00","departure_time":"7:07:00","lat":48.916498,"lon":16.20106,"is_passed":false},{"stop_id":"U18221Z1","name":"Prosiměřice, u bufetu","arrival_time":"7:10:00","departure_time":"7:10:00","lat":48.903893,"lon":16.190322,"is_passed":false},{"stop_id":"U18135Z1","name":"Těšetice, na hlavní","arrival_time":"7:15:00","departure_time":"7:15:00","lat":48.887956,"lon":16.157624,"is_passed":false},{"stop_id":"U18116Z1","name":"Suchohrdly, Purkrábka","arrival_time":"7:20:00","departure_time":"7:20:00","lat":48.868878,"lon":16.106653,"is_passed":false},{"stop_id":"U18115Z1","name":"Suchohrdly, kurty","arrival_time":"7:22:00","departure_time":"7:22:00","lat":48.868297,"lon":16.096222,"is_passed":false},{"stop_id":"U18110Z2","name":"Suchohrdly, prodejna","arrival_time":"7:23:00","departure_time":"7:23:00","lat":48.866425,"lon":16.089202,"is_passed":false},{"stop_id":"U18002Z2","name":"Znojmo, Suchohrdelská, hřbitov","arrival_time":"7:26:00","departure_time":"7:26:00","lat":48.857448,"lon":16.066435,"is_passed":false},{"stop_id":"U18059Z2","name":"Znojmo, Mariánské nám.","arrival_time":"7:28:00","departure_time":"7:28:00","lat":48.855961,"lon":16.054083,"is_passed":false},{"stop_id":"U18009Z51","name":"Znojmo, autobusové nádraží","arrival_time":"7:30:00","departure_time":"7:30:00","lat":48.851908,"lon":16.056983,"is_passed":false}]