[{"stop_id":"U1696Z13","name":"ÚAN Zvonařka","arrival_time":"14:40:00","departure_time":"14:40:00","lat":49.185364,"lon":16.616151,"is_passed":false},{"stop_id":"U1622Z2","name":"Strážní","arrival_time":"14:43:00","departure_time":"14:43:00","lat":49.178477,"lon":16.603646,"is_passed":false},{"stop_id":"U1703Z6","name":"Ústřední hřbitov","arrival_time":"14:46:00","departure_time":"14:46:00","lat":49.170744,"lon":16.597612,"is_passed":false},{"stop_id":"U15137Z10","name":"Modřice, Tyršova","arrival_time":"14:52:00","departure_time":"14:52:00","lat":49.130136,"lon":16.603469,"is_passed":false},{"stop_id":"U15379Z1","name":"Pohořelice, průmyslová zóna východ","arrival_time":"15:05:00","departure_time":"15:05:00","lat":48.989921,"lon":16.539353,"is_passed":false},{"stop_id":"U15315Z1","name":"Pohořelice, Brněnská","arrival_time":"15:06:00","departure_time":"15:06:00","lat":48.984843,"lon":16.529998,"is_passed":false},{"stop_id":"U15317Z6","name":"Pohořelice, náměstí","arrival_time":"15:08:00","departure_time":"15:10:00","lat":48.980709,"lon":16.521906,"is_passed":false},{"stop_id":"U15320Z1","name":"Pohořelice, obchodní akademie","arrival_time":"15:12:00","departure_time":"15:12:00","lat":48.978628,"lon":16.505258,"is_passed":false},{"stop_id":"U14011Z1","name":"Branišovice, státní silnice","arrival_time":"15:18:00","departure_time":"15:18:00","lat":48.959107,"lon":16.428737,"is_passed":false},{"stop_id":"U14024Z1","name":"Trnové Pole, rozcestí","arrival_time":"15:20:00","departure_time":"15:20:00","lat":48.955275,"lon":16.413453,"is_passed":false},{"stop_id":"U14552Z4","name":"Miroslav, rozcestí","arrival_time":"15:25:00","departure_time":"15:25:00","lat":48.933498,"lon":16.362293,"is_passed":false}]