[{"stop_id":"U18009Z5","name":"Znojmo, autobusové nádraží","arrival_time":"6:11:00","departure_time":"6:11:00","lat":48.85175,"lon":16.056878,"is_passed":false},{"stop_id":"U18011Z1","name":"Znojmo, nám.Svobody, lázně","arrival_time":"6:16:00","departure_time":"6:16:00","lat":48.860815,"lon":16.049749,"is_passed":false},{"stop_id":"U18015Z4","name":"Znojmo, Přímětická, Resslova","arrival_time":"6:19:00","departure_time":"6:19:00","lat":48.867787,"lon":16.041417,"is_passed":false},{"stop_id":"U18068Z4","name":"Znojmo, Městský lesík","arrival_time":"6:21:00","departure_time":"6:21:00","lat":48.87308,"lon":16.052093,"is_passed":false},{"stop_id":"U18139Z1","name":"Únanov, závod","arrival_time":"6:23:00","departure_time":"6:23:00","lat":48.888422,"lon":16.064178,"is_passed":false},{"stop_id":"U18138Z1","name":"Únanov, obecní úřad","arrival_time":"6:25:00","departure_time":"6:25:00","lat":48.900695,"lon":16.063443,"is_passed":false},{"stop_id":"U18136Z1","name":"Plaveč","arrival_time":"6:31:00","departure_time":"6:31:00","lat":48.929175,"lon":16.079838,"is_passed":false},{"stop_id":"U18229Z1","name":"Němčičky, rozcestí","arrival_time":"6:33:00","departure_time":"6:33:00","lat":48.939468,"lon":16.083075,"is_passed":false},{"stop_id":"U18230Z1","name":"Rudlice, rozcestí","arrival_time":"6:35:00","departure_time":"6:35:00","lat":48.945317,"lon":16.077778,"is_passed":false},{"stop_id":"U18227Z1","name":"Mikulovice, škola","arrival_time":"6:39:00","departure_time":"6:39:00","lat":48.956342,"lon":16.089385,"is_passed":false},{"stop_id":"U18225Z1","name":"Mikulovice, náměstí","arrival_time":"6:40:00","departure_time":"6:40:00","lat":48.956523,"lon":16.092141,"is_passed":false},{"stop_id":"U18314Z1","name":"Křepice","arrival_time":"6:44:00","departure_time":"6:44:00","lat":48.987202,"lon":16.095597,"is_passed":false},{"stop_id":"U18310Z1","name":"Běhařovice, obecní úřad","arrival_time":"6:48:00","departure_time":"6:48:00","lat":49.003335,"lon":16.079957,"is_passed":false},{"stop_id":"U14723Z1","name":"Újezd, zámeček","arrival_time":"6:52:00","departure_time":"6:52:00","lat":49.023143,"lon":16.05406,"is_passed":false},{"stop_id":"U14720Z1","name":"Tavíkovice, Dobronice","arrival_time":"6:58:00","departure_time":"6:58:00","lat":49.020443,"lon":16.077052,"is_passed":false},{"stop_id":"U14725Z1","name":"Tavíkovice, Oseva","arrival_time":"7:02:00","departure_time":"7:02:00","lat":49.032868,"lon":16.103444,"is_passed":false},{"stop_id":"U14718Z1","name":"Tavíkovice, hostinec","arrival_time":"7:05:00","departure_time":"7:05:00","lat":49.031716,"lon":16.106537,"is_passed":false},{"stop_id":"U14710Z1","name":"Rouchovany, Šemíkovice","arrival_time":"7:11:00","departure_time":"7:11:00","lat":49.053162,"lon":16.112698,"is_passed":false},{"stop_id":"U14706Z1","name":"Rouchovany","arrival_time":"7:16:00","departure_time":"7:16:00","lat":49.069278,"lon":16.109022,"is_passed":false}]