[{"stop_id":"U18245Z4","name":"Jevišovice, náměstí","arrival_time":"9:19:00","departure_time":"9:19:00","lat":48.98813,"lon":15.992482,"is_passed":false},{"stop_id":"U18243Z2","name":"Černín, lávka","arrival_time":"9:24:00","departure_time":"9:24:00","lat":48.980218,"lon":16.015953,"is_passed":false},{"stop_id":"U18244Z2","name":"Černín, Závoda","arrival_time":"9:25:00","departure_time":"9:25:00","lat":48.981192,"lon":16.026243,"is_passed":false},{"stop_id":"U18247Z2","name":"Vevčice","arrival_time":"9:29:00","departure_time":"9:29:00","lat":48.961985,"lon":16.044405,"is_passed":false},{"stop_id":"U18231Z2","name":"Rudlice, samota","arrival_time":"9:32:00","departure_time":"9:32:00","lat":48.954161,"lon":16.0561,"is_passed":false},{"stop_id":"U18232Z31","name":"Rudlice, u pomníku","arrival_time":"9:33:00","departure_time":"9:33:00","lat":48.94885,"lon":16.067387,"is_passed":false},{"stop_id":"U18229Z31","name":"Němčičky, rozcestí","arrival_time":"9:36:00","departure_time":"9:36:00","lat":48.939468,"lon":16.083075,"is_passed":false},{"stop_id":"U18136Z31","name":"Plaveč","arrival_time":"9:39:00","departure_time":"9:39:00","lat":48.929175,"lon":16.079838,"is_passed":false},{"stop_id":"U18138Z31","name":"Únanov, obecní úřad","arrival_time":"9:45:00","departure_time":"9:45:00","lat":48.900605,"lon":16.06351,"is_passed":false},{"stop_id":"U18139Z31","name":"Únanov, závod","arrival_time":"9:47:00","departure_time":"9:47:00","lat":48.888422,"lon":16.064178,"is_passed":false},{"stop_id":"U18068Z2","name":"Znojmo, Městský lesík","arrival_time":"9:49:00","departure_time":"9:49:00","lat":48.87308,"lon":16.052093,"is_passed":false},{"stop_id":"U18015Z2","name":"Znojmo, Přímětická, Resslova","arrival_time":"9:51:00","departure_time":"9:51:00","lat":48.867688,"lon":16.041435,"is_passed":false},{"stop_id":"U18011Z2","name":"Znojmo, nám.Svobody, lázně","arrival_time":"9:54:00","departure_time":"9:54:00","lat":48.860435,"lon":16.049027,"is_passed":false},{"stop_id":"U18009Z51","name":"Znojmo, autobusové nádraží","arrival_time":"9:59:00","departure_time":"9:59:00","lat":48.851908,"lon":16.056983,"is_passed":false}]