[{"stop_id":"U18009Z8","name":"Znojmo, autobusové nádraží","arrival_time":"18:10:00","departure_time":"18:10:00","lat":48.851686,"lon":16.05677,"is_passed":false},{"stop_id":"U18011Z4","name":"Znojmo, nám.Svobody, lázně","arrival_time":"18:15:00","departure_time":"18:15:00","lat":48.860867,"lon":16.049582,"is_passed":false},{"stop_id":"U18012Z2","name":"Znojmo, Pražská, Kolonka","arrival_time":"18:16:00","departure_time":"18:16:00","lat":48.863104,"lon":16.042081,"is_passed":false},{"stop_id":"U18075Z1","name":"Znojmo, Pražská, sídliště","arrival_time":"18:18:00","departure_time":"18:18:00","lat":48.866939,"lon":16.035432,"is_passed":false},{"stop_id":"U18049Z2","name":"Znojmo, Kasárna","arrival_time":"18:22:00","departure_time":"18:22:00","lat":48.892641,"lon":15.999284,"is_passed":false},{"stop_id":"U18071Z1","name":"Znojmo, Mramotice, rozcestí","arrival_time":"18:24:00","departure_time":"18:24:00","lat":48.897417,"lon":15.993281,"is_passed":false},{"stop_id":"U18162Z1","name":"Žerůtky","arrival_time":"18:28:00","departure_time":"18:28:00","lat":48.905857,"lon":15.962058,"is_passed":false},{"stop_id":"U18158Z1","name":"Olbramkostel, železniční stanice","arrival_time":"18:30:00","departure_time":"18:30:00","lat":48.903537,"lon":15.949112,"is_passed":false},{"stop_id":"U18156Z1","name":"Olbramkostel, restaurace","arrival_time":"18:33:00","departure_time":"18:33:00","lat":48.922627,"lon":15.950368,"is_passed":false},{"stop_id":"U18261Z1","name":"Vranovská Ves, Hostěrádky","arrival_time":"18:36:00","departure_time":"18:36:00","lat":48.941252,"lon":15.9262,"is_passed":false},{"stop_id":"U18263Z1","name":"Vranovská Ves, u lesa","arrival_time":"18:37:00","departure_time":"18:37:00","lat":48.94909,"lon":15.920488,"is_passed":false},{"stop_id":"U18341Z1","name":"Pavlice, na kopci","arrival_time":"18:41:00","departure_time":"18:41:00","lat":48.972683,"lon":15.896083,"is_passed":false},{"stop_id":"U18337Z1","name":"Grešlové Mýto, motorest","arrival_time":"18:43:00","departure_time":"18:43:00","lat":48.981657,"lon":15.885145,"is_passed":false},{"stop_id":"U18330Z1","name":"Blanné","arrival_time":"18:46:00","departure_time":"18:46:00","lat":48.992495,"lon":15.882532,"is_passed":false}]