[{"stop_id":"U18701Z2","name":"Dešná","arrival_time":"13:07:00","departure_time":"13:07:00","lat":48.958371,"lon":15.546522,"is_passed":false},{"stop_id":"U18603Z2","name":"Lubnice, škola","arrival_time":"13:16:00","departure_time":"13:19:00","lat":48.941718,"lon":15.611095,"is_passed":false},{"stop_id":"U18604Z2","name":"Lubnice, u kostela","arrival_time":"13:20:00","departure_time":"13:20:00","lat":48.938903,"lon":15.613935,"is_passed":false},{"stop_id":"U18602Z2","name":"Korolupy, rozcestí","arrival_time":"13:22:00","departure_time":"13:22:00","lat":48.92701,"lon":15.621778,"is_passed":false},{"stop_id":"U18606Z1","name":"Uherčice, u parku","arrival_time":"13:24:00","departure_time":"13:24:00","lat":48.914381,"lon":15.631452,"is_passed":false},{"stop_id":"U18610Z2","name":"Vratěnín","arrival_time":"13:28:00","departure_time":"13:28:00","lat":48.903727,"lon":15.597175,"is_passed":false}]