[{"stop_id":"U18610Z2","name":"Vratěnín","arrival_time":"6:16:00","departure_time":"6:16:00","lat":48.903727,"lon":15.597175,"is_passed":false},{"stop_id":"U18609Z2","name":"Uherčice, Mešovice","arrival_time":"6:19:00","departure_time":"6:19:00","lat":48.924319,"lon":15.593367,"is_passed":false},{"stop_id":"U18606Z2","name":"Uherčice, u parku","arrival_time":"6:25:00","departure_time":"6:25:00","lat":48.914381,"lon":15.631452,"is_passed":false},{"stop_id":"U18607Z2","name":"Uherčice, statek Mitrov","arrival_time":"6:28:00","departure_time":"6:28:00","lat":48.902808,"lon":15.64658,"is_passed":false},{"stop_id":"U18518Z3","name":"Podhradí nad Dyjí, rozcestí","arrival_time":"6:32:00","departure_time":"6:32:00","lat":48.8907,"lon":15.661905,"is_passed":false},{"stop_id":"U18519Z2","name":"Stálky","arrival_time":"6:37:00","departure_time":"6:37:00","lat":48.870667,"lon":15.684187,"is_passed":false},{"stop_id":"U18421Z2","name":"Šafov","arrival_time":"6:43:00","departure_time":"6:43:00","lat":48.866918,"lon":15.734799,"is_passed":false},{"stop_id":"U18417Z2","name":"Starý Petřín","arrival_time":"6:48:00","departure_time":"6:48:00","lat":48.890255,"lon":15.734785,"is_passed":false},{"stop_id":"U18418Z2","name":"Starý Petřín, Jazovice","arrival_time":"6:50:00","departure_time":"6:50:00","lat":48.897913,"lon":15.743677,"is_passed":false},{"stop_id":"U18411Z2","name":"Lančov, hostinec","arrival_time":"6:54:00","departure_time":"6:54:00","lat":48.906852,"lon":15.766988,"is_passed":false},{"stop_id":"U18412Z2","name":"Lančov, kaplička","arrival_time":"6:57:00","departure_time":"6:57:00","lat":48.906437,"lon":15.798858,"is_passed":false},{"stop_id":"U18355Z2","name":"Vranov nad Dyjí, Zámecký hotel","arrival_time":"7:00:00","departure_time":"7:05:00","lat":48.896127,"lon":15.812002,"is_passed":false},{"stop_id":"U18350Z2","name":"Vranov nad Dyjí, náměstí","arrival_time":"7:06:00","departure_time":"7:06:00","lat":48.894475,"lon":15.813002,"is_passed":false},{"stop_id":"U18344Z2","name":"Onšov, rozcestí","arrival_time":"7:11:00","departure_time":"7:11:00","lat":48.902605,"lon":15.838153,"is_passed":false},{"stop_id":"U18252Z2","name":"Lesná, hájenka","arrival_time":"7:12:00","departure_time":"7:12:00","lat":48.90832,"lon":15.85376,"is_passed":false},{"stop_id":"U18253Z2","name":"Lesná, penzion","arrival_time":"7:15:00","departure_time":"7:15:00","lat":48.90747,"lon":15.86739,"is_passed":false},{"stop_id":"U18260Z2","name":"Vracovice","arrival_time":"7:18:00","departure_time":"7:18:00","lat":48.89987,"lon":15.89986,"is_passed":false},{"stop_id":"U18155Z2","name":"Milíčovice, na státní","arrival_time":"7:21:00","departure_time":"7:21:00","lat":48.888592,"lon":15.93307,"is_passed":false},{"stop_id":"U18141Z2","name":"Citonice","arrival_time":"7:24:00","departure_time":"7:24:00","lat":48.881123,"lon":15.968332,"is_passed":false},{"stop_id":"U18075Z2","name":"Znojmo, Pražská, sídliště","arrival_time":"7:30:00","departure_time":"7:30:00","lat":48.868261,"lon":16.032958,"is_passed":false},{"stop_id":"U18012Z1","name":"Znojmo, Pražská, Kolonka","arrival_time":"7:31:00","departure_time":"7:31:00","lat":48.862898,"lon":16.042294,"is_passed":false},{"stop_id":"U18011Z2","name":"Znojmo, nám.Svobody, lázně","arrival_time":"7:33:00","departure_time":"7:33:00","lat":48.860435,"lon":16.049027,"is_passed":false},{"stop_id":"U18010Z1","name":"Znojmo, nám.Komenského","arrival_time":"7:35:00","departure_time":"7:35:00","lat":48.856406,"lon":16.053424,"is_passed":false},{"stop_id":"U18009Z51","name":"Znojmo, autobusové nádraží","arrival_time":"7:38:00","departure_time":"9:02:00","lat":48.851908,"lon":16.056983,"is_passed":false}]