[{"stop_id":"U25504Z10","name":"Kobylí na Moravě","arrival_time":"4:30:00","departure_time":"4:30:00","lat":48.934022,"lon":16.881272,"is_passed":false},{"stop_id":"U15513Z10","name":"Bořetice, železniční stanice","arrival_time":"4:34:00","departure_time":"4:35:00","lat":48.916314,"lon":16.850139,"is_passed":false},{"stop_id":"U25503Z10","name":"Velké Pavlovice zastávka","arrival_time":"4:40:00","departure_time":"4:41:00","lat":48.901672,"lon":16.8224,"is_passed":false},{"stop_id":"U25502Z10","name":"Velké Pavlovice","arrival_time":"4:43:00","departure_time":"4:44:00","lat":48.88985,"lon":16.823672,"is_passed":false},{"stop_id":"U15537Z12","name":"Zaječí, železniční stanice","arrival_time":"4:50:00","departure_time":"5:08:00","lat":48.889637,"lon":16.781831,"is_passed":false}]