{"964":[{"stop_id":"U15729Z12","name":"Břeclav, autobusové nádraží","arrival_time":"9:41:00","departure_time":"9:41:00","lat":48.753851,"lon":16.893169,"is_passed":false},{"stop_id":"U1146Z99","name":"Hlavní nádraží","arrival_time":"10:12:00","departure_time":"10:16:00","lat":49.19035,"lon":16.612342,"is_passed":false},{"stop_id":"U1809Z10","name":"Židenice, nádraží","arrival_time":"10:20:00","departure_time":"10:20:00","lat":49.204282,"lon":16.636042,"is_passed":false}],"9640":[{"stop_id":"U1696Z6","name":"ÚAN Zvonařka","arrival_time":"10:12:00","departure_time":"10:12:00","lat":49.185364,"lon":16.616151,"is_passed":false},{"stop_id":"U1677Z3","name":"Tržní","arrival_time":"10:16:00","departure_time":"10:16:00","lat":49.189342,"lon":16.630314,"is_passed":false},{"stop_id":"U16206Z1","name":"Holubice, nadjezd","arrival_time":"10:29:00","departure_time":"10:29:00","lat":49.178081,"lon":16.819173,"is_passed":false},{"stop_id":"U16334Z1","name":"Velešovice, rozc.","arrival_time":"10:31:00","departure_time":"10:31:00","lat":49.166882,"lon":16.842802,"is_passed":false},{"stop_id":"U16328Z3","name":"Slavkov u Brna, aut. st.","arrival_time":"10:37:00","departure_time":"10:37:00","lat":49.149057,"lon":16.876562,"is_passed":false},{"stop_id":"U16332Z1","name":"Slavkov u Brna, rozcestí k žel. st.","arrival_time":"10:40:00","departure_time":"10:40:00","lat":49.143955,"lon":16.878297,"is_passed":false},{"stop_id":"U16337Z1","name":"Nížkovice, rozcestí","arrival_time":"10:43:00","departure_time":"10:43:00","lat":49.11212,"lon":16.895599,"is_passed":false},{"stop_id":"U16336Z1","name":"Heršpice, Bílý Vlk","arrival_time":"10:46:00","departure_time":"10:46:00","lat":49.095813,"lon":16.909428,"is_passed":false},{"stop_id":"U16445Z1","name":"Žarošice, Těšanka","arrival_time":"10:48:00","departure_time":"10:48:00","lat":49.079005,"lon":16.936517,"is_passed":false},{"stop_id":"U16446Z1","name":"Žarošice, Zdravá Voda","arrival_time":"10:50:00","departure_time":"10:50:00","lat":49.065466,"lon":16.945145,"is_passed":false},{"stop_id":"U16444Z1","name":"Žarošice, Silničná, rozcestí Uhřice","arrival_time":"10:53:00","departure_time":"10:53:00","lat":49.051812,"lon":16.953006,"is_passed":false},{"stop_id":"U16448Z1","name":"Žarošice, škola","arrival_time":"10:56:00","departure_time":"10:56:00","lat":49.039337,"lon":16.96142,"is_passed":false},{"stop_id":"U16449Z1","name":"Žarošice","arrival_time":"10:57:00","departure_time":"10:57:00","lat":49.040617,"lon":16.967482,"is_passed":false},{"stop_id":"U16525Z1","name":"Archlebov","arrival_time":"11:02:00","departure_time":"11:02:00","lat":49.043113,"lon":17.00413,"is_passed":false},{"stop_id":"U16527Z1","name":"Dražůvky","arrival_time":"11:06:00","departure_time":"11:06:00","lat":49.031967,"lon":17.020073,"is_passed":false},{"stop_id":"U16622Z1","name":"Strážovice","arrival_time":"11:13:00","departure_time":"11:13:00","lat":49.0093,"lon":17.047132,"is_passed":false},{"stop_id":"U16612Z1","name":"Kyjov, nemocnice","arrival_time":"11:20:00","departure_time":"11:20:00","lat":49.006845,"lon":17.11013,"is_passed":false},{"stop_id":"U16608Z16","name":"Kyjov, aut. st.","arrival_time":"11:22:00","departure_time":"12:37:00","lat":49.006873,"lon":17.123912,"is_passed":false}],"9641":[{"stop_id":"U16608Z2","name":"Kyjov, aut. st.","arrival_time":"12:37:00","departure_time":"12:37:00","lat":49.006785,"lon":17.124327,"is_passed":false},{"stop_id":"U16612Z2","name":"Kyjov, nemocnice","arrival_time":"12:39:00","departure_time":"12:39:00","lat":49.007061,"lon":17.111463,"is_passed":false},{"stop_id":"U16622Z2","name":"Strážovice","arrival_time":"12:46:00","departure_time":"12:46:00","lat":49.0093,"lon":17.047132,"is_passed":false},{"stop_id":"U16527Z2","name":"Dražůvky","arrival_time":"12:53:00","departure_time":"12:53:00","lat":49.031967,"lon":17.020073,"is_passed":false},{"stop_id":"U16525Z2","name":"Archlebov","arrival_time":"12:57:00","departure_time":"12:57:00","lat":49.043193,"lon":17.003877,"is_passed":false},{"stop_id":"U16449Z2","name":"Žarošice","arrival_time":"13:02:00","departure_time":"13:02:00","lat":49.040472,"lon":16.966415,"is_passed":false},{"stop_id":"U16448Z2","name":"Žarošice, škola","arrival_time":"13:03:00","departure_time":"13:03:00","lat":49.039435,"lon":16.9616,"is_passed":false},{"stop_id":"U16444Z2","name":"Žarošice, Silničná, rozcestí Uhřice","arrival_time":"13:06:00","departure_time":"13:06:00","lat":49.051834,"lon":16.95308,"is_passed":false},{"stop_id":"U16446Z2","name":"Žarošice, Zdravá Voda","arrival_time":"13:09:00","departure_time":"13:09:00","lat":49.065466,"lon":16.945145,"is_passed":false},{"stop_id":"U16445Z2","name":"Žarošice, Těšanka","arrival_time":"13:11:00","departure_time":"13:11:00","lat":49.079165,"lon":16.936537,"is_passed":false},{"stop_id":"U16336Z2","name":"Heršpice, Bílý Vlk","arrival_time":"13:13:00","departure_time":"13:13:00","lat":49.095822,"lon":16.90958,"is_passed":false},{"stop_id":"U16337Z2","name":"Nížkovice, rozcestí","arrival_time":"13:16:00","departure_time":"13:16:00","lat":49.11172,"lon":16.896114,"is_passed":false},{"stop_id":"U16332Z2","name":"Slavkov u Brna, rozcestí k žel. st.","arrival_time":"13:19:00","departure_time":"13:19:00","lat":49.14503,"lon":16.877933,"is_passed":false},{"stop_id":"U16328Z2","name":"Slavkov u Brna, aut. st.","arrival_time":"13:22:00","departure_time":"13:22:00","lat":49.149057,"lon":16.876562,"is_passed":false},{"stop_id":"U16334Z2","name":"Velešovice, rozc.","arrival_time":"13:28:00","departure_time":"13:28:00","lat":49.167572,"lon":16.84187,"is_passed":false},{"stop_id":"U16206Z2","name":"Holubice, nadjezd","arrival_time":"13:30:00","departure_time":"13:30:00","lat":49.178267,"lon":16.819095,"is_passed":false},{"stop_id":"U1677Z2","name":"Tržní","arrival_time":"13:43:00","departure_time":"13:43:00","lat":49.189407,"lon":16.629972,"is_passed":false},{"stop_id":"U1696Z6","name":"ÚAN Zvonařka","arrival_time":"13:47:00","departure_time":"14:12:00","lat":49.185364,"lon":16.616151,"is_passed":false}],"9642":[{"stop_id":"U1696Z6","name":"ÚAN Zvonařka","arrival_time":"14:12:00","departure_time":"14:12:00","lat":49.185364,"lon":16.616151,"is_passed":false},{"stop_id":"U1677Z3","name":"Tržní","arrival_time":"14:16:00","departure_time":"14:16:00","lat":49.189342,"lon":16.630314,"is_passed":false},{"stop_id":"U16206Z1","name":"Holubice, nadjezd","arrival_time":"14:29:00","departure_time":"14:29:00","lat":49.178081,"lon":16.819173,"is_passed":false},{"stop_id":"U16334Z1","name":"Velešovice, rozc.","arrival_time":"14:31:00","departure_time":"14:31:00","lat":49.166882,"lon":16.842802,"is_passed":false},{"stop_id":"U16328Z3","name":"Slavkov u Brna, aut. st.","arrival_time":"14:37:00","departure_time":"14:37:00","lat":49.149057,"lon":16.876562,"is_passed":false},{"stop_id":"U16332Z1","name":"Slavkov u Brna, rozcestí k žel. st.","arrival_time":"14:40:00","departure_time":"14:40:00","lat":49.143955,"lon":16.878297,"is_passed":false},{"stop_id":"U16337Z1","name":"Nížkovice, rozcestí","arrival_time":"14:43:00","departure_time":"14:43:00","lat":49.11212,"lon":16.895599,"is_passed":false},{"stop_id":"U16336Z1","name":"Heršpice, Bílý Vlk","arrival_time":"14:46:00","departure_time":"14:46:00","lat":49.095813,"lon":16.909428,"is_passed":false},{"stop_id":"U16445Z1","name":"Žarošice, Těšanka","arrival_time":"14:48:00","departure_time":"14:48:00","lat":49.079005,"lon":16.936517,"is_passed":false},{"stop_id":"U16446Z1","name":"Žarošice, Zdravá Voda","arrival_time":"14:50:00","departure_time":"14:50:00","lat":49.065466,"lon":16.945145,"is_passed":false},{"stop_id":"U16444Z1","name":"Žarošice, Silničná, rozcestí Uhřice","arrival_time":"14:53:00","departure_time":"14:53:00","lat":49.051812,"lon":16.953006,"is_passed":false},{"stop_id":"U16448Z1","name":"Žarošice, škola","arrival_time":"14:56:00","departure_time":"14:56:00","lat":49.039337,"lon":16.96142,"is_passed":false},{"stop_id":"U16449Z1","name":"Žarošice","arrival_time":"14:57:00","departure_time":"14:57:00","lat":49.040617,"lon":16.967482,"is_passed":false},{"stop_id":"U16525Z1","name":"Archlebov","arrival_time":"15:02:00","departure_time":"15:02:00","lat":49.043113,"lon":17.00413,"is_passed":false},{"stop_id":"U16527Z1","name":"Dražůvky","arrival_time":"15:06:00","departure_time":"15:06:00","lat":49.031967,"lon":17.020073,"is_passed":false},{"stop_id":"U16622Z1","name":"Strážovice","arrival_time":"15:13:00","departure_time":"15:13:00","lat":49.0093,"lon":17.047132,"is_passed":false},{"stop_id":"U16612Z1","name":"Kyjov, nemocnice","arrival_time":"15:20:00","departure_time":"15:20:00","lat":49.006845,"lon":17.11013,"is_passed":false},{"stop_id":"U16608Z16","name":"Kyjov, aut. st.","arrival_time":"15:22:00","departure_time":"16:37:00","lat":49.006873,"lon":17.123912,"is_passed":false}],"9643":[{"stop_id":"U16608Z2","name":"Kyjov, aut. st.","arrival_time":"16:37:00","departure_time":"16:37:00","lat":49.006785,"lon":17.124327,"is_passed":false},{"stop_id":"U16612Z2","name":"Kyjov, nemocnice","arrival_time":"16:39:00","departure_time":"16:39:00","lat":49.007061,"lon":17.111463,"is_passed":false},{"stop_id":"U16622Z2","name":"Strážovice","arrival_time":"16:46:00","departure_time":"16:46:00","lat":49.0093,"lon":17.047132,"is_passed":false},{"stop_id":"U16527Z2","name":"Dražůvky","arrival_time":"16:53:00","departure_time":"16:53:00","lat":49.031967,"lon":17.020073,"is_passed":false},{"stop_id":"U16525Z2","name":"Archlebov","arrival_time":"16:57:00","departure_time":"16:57:00","lat":49.043193,"lon":17.003877,"is_passed":false},{"stop_id":"U16449Z2","name":"Žarošice","arrival_time":"17:02:00","departure_time":"17:02:00","lat":49.040472,"lon":16.966415,"is_passed":false},{"stop_id":"U16448Z2","name":"Žarošice, škola","arrival_time":"17:03:00","departure_time":"17:03:00","lat":49.039435,"lon":16.9616,"is_passed":false},{"stop_id":"U16444Z2","name":"Žarošice, Silničná, rozcestí Uhřice","arrival_time":"17:06:00","departure_time":"17:06:00","lat":49.051834,"lon":16.95308,"is_passed":false},{"stop_id":"U16446Z2","name":"Žarošice, Zdravá Voda","arrival_time":"17:09:00","departure_time":"17:09:00","lat":49.065466,"lon":16.945145,"is_passed":false},{"stop_id":"U16445Z2","name":"Žarošice, Těšanka","arrival_time":"17:11:00","departure_time":"17:11:00","lat":49.079165,"lon":16.936537,"is_passed":false},{"stop_id":"U16336Z2","name":"Heršpice, Bílý Vlk","arrival_time":"17:13:00","departure_time":"17:13:00","lat":49.095822,"lon":16.90958,"is_passed":false},{"stop_id":"U16337Z2","name":"Nížkovice, rozcestí","arrival_time":"17:16:00","departure_time":"17:16:00","lat":49.11172,"lon":16.896114,"is_passed":false},{"stop_id":"U16332Z2","name":"Slavkov u Brna, rozcestí k žel. st.","arrival_time":"17:19:00","departure_time":"17:19:00","lat":49.14503,"lon":16.877933,"is_passed":false},{"stop_id":"U16328Z2","name":"Slavkov u Brna, aut. st.","arrival_time":"17:22:00","departure_time":"17:22:00","lat":49.149057,"lon":16.876562,"is_passed":false},{"stop_id":"U16334Z2","name":"Velešovice, rozc.","arrival_time":"17:28:00","departure_time":"17:28:00","lat":49.167572,"lon":16.84187,"is_passed":false},{"stop_id":"U16206Z2","name":"Holubice, nadjezd","arrival_time":"17:30:00","departure_time":"17:30:00","lat":49.178267,"lon":16.819095,"is_passed":false},{"stop_id":"U1677Z2","name":"Tržní","arrival_time":"17:43:00","departure_time":"17:43:00","lat":49.189407,"lon":16.629972,"is_passed":false},{"stop_id":"U1696Z6","name":"ÚAN Zvonařka","arrival_time":"17:47:00","departure_time":"18:12:00","lat":49.185364,"lon":16.616151,"is_passed":false}],"9644":[{"stop_id":"U1696Z6","name":"ÚAN Zvonařka","arrival_time":"18:12:00","departure_time":"18:12:00","lat":49.185364,"lon":16.616151,"is_passed":false},{"stop_id":"U1677Z3","name":"Tržní","arrival_time":"18:16:00","departure_time":"18:16:00","lat":49.189342,"lon":16.630314,"is_passed":false},{"stop_id":"U16206Z1","name":"Holubice, nadjezd","arrival_time":"18:29:00","departure_time":"18:29:00","lat":49.178081,"lon":16.819173,"is_passed":false},{"stop_id":"U16334Z1","name":"Velešovice, rozc.","arrival_time":"18:31:00","departure_time":"18:31:00","lat":49.166882,"lon":16.842802,"is_passed":false},{"stop_id":"U16328Z3","name":"Slavkov u Brna, aut. st.","arrival_time":"18:37:00","departure_time":"18:37:00","lat":49.149057,"lon":16.876562,"is_passed":false},{"stop_id":"U16332Z1","name":"Slavkov u Brna, rozcestí k žel. st.","arrival_time":"18:40:00","departure_time":"18:40:00","lat":49.143955,"lon":16.878297,"is_passed":false},{"stop_id":"U16337Z1","name":"Nížkovice, rozcestí","arrival_time":"18:43:00","departure_time":"18:43:00","lat":49.11212,"lon":16.895599,"is_passed":false},{"stop_id":"U16336Z1","name":"Heršpice, Bílý Vlk","arrival_time":"18:46:00","departure_time":"18:46:00","lat":49.095813,"lon":16.909428,"is_passed":false},{"stop_id":"U16445Z1","name":"Žarošice, Těšanka","arrival_time":"18:48:00","departure_time":"18:48:00","lat":49.079005,"lon":16.936517,"is_passed":false},{"stop_id":"U16446Z1","name":"Žarošice, Zdravá Voda","arrival_time":"18:50:00","departure_time":"18:50:00","lat":49.065466,"lon":16.945145,"is_passed":false},{"stop_id":"U16444Z1","name":"Žarošice, Silničná, rozcestí Uhřice","arrival_time":"18:53:00","departure_time":"18:53:00","lat":49.051812,"lon":16.953006,"is_passed":false},{"stop_id":"U16448Z1","name":"Žarošice, škola","arrival_time":"18:56:00","departure_time":"18:56:00","lat":49.039337,"lon":16.96142,"is_passed":false},{"stop_id":"U16449Z1","name":"Žarošice","arrival_time":"18:57:00","departure_time":"18:57:00","lat":49.040617,"lon":16.967482,"is_passed":false},{"stop_id":"U16525Z1","name":"Archlebov","arrival_time":"19:02:00","departure_time":"19:02:00","lat":49.043113,"lon":17.00413,"is_passed":false},{"stop_id":"U16527Z1","name":"Dražůvky","arrival_time":"19:06:00","departure_time":"19:06:00","lat":49.031967,"lon":17.020073,"is_passed":false},{"stop_id":"U16622Z1","name":"Strážovice","arrival_time":"19:13:00","departure_time":"19:13:00","lat":49.0093,"lon":17.047132,"is_passed":false},{"stop_id":"U16612Z1","name":"Kyjov, nemocnice","arrival_time":"19:20:00","departure_time":"19:20:00","lat":49.006845,"lon":17.11013,"is_passed":false},{"stop_id":"U16608Z16","name":"Kyjov, aut. st.","arrival_time":"19:22:00","departure_time":"20:37:00","lat":49.006873,"lon":17.123912,"is_passed":false}],"9645":[{"stop_id":"U16608Z2","name":"Kyjov, aut. st.","arrival_time":"20:37:00","departure_time":"20:37:00","lat":49.006785,"lon":17.124327,"is_passed":false},{"stop_id":"U16612Z2","name":"Kyjov, nemocnice","arrival_time":"20:39:00","departure_time":"20:39:00","lat":49.007061,"lon":17.111463,"is_passed":false},{"stop_id":"U16622Z2","name":"Strážovice","arrival_time":"20:46:00","departure_time":"20:46:00","lat":49.0093,"lon":17.047132,"is_passed":false},{"stop_id":"U16527Z2","name":"Dražůvky","arrival_time":"20:53:00","departure_time":"20:53:00","lat":49.031967,"lon":17.020073,"is_passed":false},{"stop_id":"U16525Z2","name":"Archlebov","arrival_time":"20:57:00","departure_time":"20:57:00","lat":49.043193,"lon":17.003877,"is_passed":false},{"stop_id":"U16449Z2","name":"Žarošice","arrival_time":"21:02:00","departure_time":"21:02:00","lat":49.040472,"lon":16.966415,"is_passed":false},{"stop_id":"U16448Z2","name":"Žarošice, škola","arrival_time":"21:03:00","departure_time":"21:03:00","lat":49.039435,"lon":16.9616,"is_passed":false},{"stop_id":"U16444Z2","name":"Žarošice, Silničná, rozcestí Uhřice","arrival_time":"21:06:00","departure_time":"21:06:00","lat":49.051834,"lon":16.95308,"is_passed":false},{"stop_id":"U16446Z2","name":"Žarošice, Zdravá Voda","arrival_time":"21:09:00","departure_time":"21:09:00","lat":49.065466,"lon":16.945145,"is_passed":false},{"stop_id":"U16445Z2","name":"Žarošice, Těšanka","arrival_time":"21:11:00","departure_time":"21:11:00","lat":49.079165,"lon":16.936537,"is_passed":false},{"stop_id":"U16336Z2","name":"Heršpice, Bílý Vlk","arrival_time":"21:13:00","departure_time":"21:13:00","lat":49.095822,"lon":16.90958,"is_passed":false},{"stop_id":"U16337Z2","name":"Nížkovice, rozcestí","arrival_time":"21:16:00","departure_time":"21:16:00","lat":49.11172,"lon":16.896114,"is_passed":false},{"stop_id":"U16332Z2","name":"Slavkov u Brna, rozcestí k žel. st.","arrival_time":"21:19:00","departure_time":"21:19:00","lat":49.14503,"lon":16.877933,"is_passed":false},{"stop_id":"U16328Z2","name":"Slavkov u Brna, aut. st.","arrival_time":"21:22:00","departure_time":"21:22:00","lat":49.149057,"lon":16.876562,"is_passed":false},{"stop_id":"U16334Z2","name":"Velešovice, rozc.","arrival_time":"21:28:00","departure_time":"21:28:00","lat":49.167572,"lon":16.84187,"is_passed":false},{"stop_id":"U16206Z2","name":"Holubice, nadjezd","arrival_time":"21:30:00","departure_time":"21:30:00","lat":49.178267,"lon":16.819095,"is_passed":false},{"stop_id":"U1677Z2","name":"Tržní","arrival_time":"21:43:00","departure_time":"21:43:00","lat":49.189407,"lon":16.629972,"is_passed":false},{"stop_id":"U1696Z6","name":"ÚAN Zvonařka","arrival_time":"21:47:00","departure_time":"22:42:00","lat":49.185364,"lon":16.616151,"is_passed":false}],"9646":[{"stop_id":"U1696Z6","name":"ÚAN Zvonařka","arrival_time":"22:42:00","departure_time":"22:42:00","lat":49.185364,"lon":16.616151,"is_passed":false},{"stop_id":"U1677Z3","name":"Tržní","arrival_time":"22:46:00","departure_time":"22:46:00","lat":49.189342,"lon":16.630314,"is_passed":false},{"stop_id":"U16206Z1","name":"Holubice, nadjezd","arrival_time":"22:59:00","departure_time":"22:59:00","lat":49.178081,"lon":16.819173,"is_passed":false},{"stop_id":"U16334Z1","name":"Velešovice, rozc.","arrival_time":"23:01:00","departure_time":"23:01:00","lat":49.166882,"lon":16.842802,"is_passed":false},{"stop_id":"U16328Z3","name":"Slavkov u Brna, aut. st.","arrival_time":"23:07:00","departure_time":"23:07:00","lat":49.149057,"lon":16.876562,"is_passed":false},{"stop_id":"U16332Z1","name":"Slavkov u Brna, rozcestí k žel. st.","arrival_time":"23:10:00","departure_time":"23:10:00","lat":49.143955,"lon":16.878297,"is_passed":false},{"stop_id":"U16337Z1","name":"Nížkovice, rozcestí","arrival_time":"23:13:00","departure_time":"23:13:00","lat":49.11212,"lon":16.895599,"is_passed":false},{"stop_id":"U16336Z1","name":"Heršpice, Bílý Vlk","arrival_time":"23:16:00","departure_time":"23:16:00","lat":49.095813,"lon":16.909428,"is_passed":false},{"stop_id":"U16445Z1","name":"Žarošice, Těšanka","arrival_time":"23:18:00","departure_time":"23:18:00","lat":49.079005,"lon":16.936517,"is_passed":false},{"stop_id":"U16446Z1","name":"Žarošice, Zdravá Voda","arrival_time":"23:20:00","departure_time":"23:20:00","lat":49.065466,"lon":16.945145,"is_passed":false},{"stop_id":"U16444Z1","name":"Žarošice, Silničná, rozcestí Uhřice","arrival_time":"23:23:00","departure_time":"23:23:00","lat":49.051812,"lon":16.953006,"is_passed":false},{"stop_id":"U16448Z1","name":"Žarošice, škola","arrival_time":"23:26:00","departure_time":"23:26:00","lat":49.039337,"lon":16.96142,"is_passed":false},{"stop_id":"U16449Z1","name":"Žarošice","arrival_time":"23:27:00","departure_time":"23:27:00","lat":49.040617,"lon":16.967482,"is_passed":false},{"stop_id":"U16525Z1","name":"Archlebov","arrival_time":"23:32:00","departure_time":"23:32:00","lat":49.043113,"lon":17.00413,"is_passed":false},{"stop_id":"U16527Z1","name":"Dražůvky","arrival_time":"23:36:00","departure_time":"23:36:00","lat":49.031967,"lon":17.020073,"is_passed":false},{"stop_id":"U16622Z1","name":"Strážovice","arrival_time":"23:43:00","departure_time":"23:43:00","lat":49.0093,"lon":17.047132,"is_passed":false},{"stop_id":"U16612Z1","name":"Kyjov, nemocnice","arrival_time":"23:50:00","departure_time":"23:50:00","lat":49.006845,"lon":17.11013,"is_passed":false},{"stop_id":"U16608Z16","name":"Kyjov, aut. st.","arrival_time":"23:52:00","departure_time":"23:52:00","lat":49.006873,"lon":17.123912,"is_passed":false}],"9647":[{"stop_id":"U18009Z1","name":"Znojmo, autobusové nádraží","arrival_time":"6:12:00","departure_time":"6:12:00","lat":48.851886,"lon":16.057356,"is_passed":false},{"stop_id":"U18214Z2","name":"Lechovice, obecní úřad","arrival_time":"6:26:00","departure_time":"6:26:00","lat":48.872568,"lon":16.221965,"is_passed":false},{"stop_id":"U18215Z2","name":"Lechovice, zámek","arrival_time":"6:28:00","departure_time":"6:28:00","lat":48.875885,"lon":16.236996,"is_passed":false},{"stop_id":"U18217Z2","name":"Oleksovice, rozcestí","arrival_time":"6:31:00","departure_time":"6:31:00","lat":48.887523,"lon":16.260499,"is_passed":false},{"stop_id":"U15557Z2","name":"Mackovice, rozcestí","arrival_time":"6:34:00","departure_time":"6:34:00","lat":48.901053,"lon":16.294054,"is_passed":false},{"stop_id":"U14557Z2","name":"Miroslav, Kašenec, státní silnice","arrival_time":"6:37:00","departure_time":"6:37:00","lat":48.91853,"lon":16.33381,"is_passed":false},{"stop_id":"U14552Z2","name":"Miroslav, rozcestí","arrival_time":"6:40:00","departure_time":"6:40:00","lat":48.933616,"lon":16.362524,"is_passed":false},{"stop_id":"U14024Z2","name":"Trnové Pole, rozcestí","arrival_time":"6:45:00","departure_time":"6:45:00","lat":48.955186,"lon":16.413722,"is_passed":false},{"stop_id":"U14011Z2","name":"Branišovice, státní silnice","arrival_time":"6:47:00","departure_time":"6:47:00","lat":48.959163,"lon":16.430035,"is_passed":false},{"stop_id":"U15320Z2","name":"Pohořelice, obchodní akademie","arrival_time":"6:53:00","departure_time":"6:53:00","lat":48.978585,"lon":16.505427,"is_passed":false},{"stop_id":"U15317Z3","name":"Pohořelice, náměstí","arrival_time":"6:55:00","departure_time":"6:55:00","lat":48.980878,"lon":16.522413,"is_passed":false},{"stop_id":"U15315Z2","name":"Pohořelice, Brněnská","arrival_time":"6:57:00","departure_time":"6:57:00","lat":48.984956,"lon":16.530513,"is_passed":false},{"stop_id":"U15379Z2","name":"Pohořelice, průmyslová zóna východ","arrival_time":"6:58:00","departure_time":"6:58:00","lat":48.990539,"lon":16.540751,"is_passed":false},{"stop_id":"U15122Z4","name":"Modřice, Brněnská","arrival_time":"7:12:00","departure_time":"7:12:00","lat":49.130132,"lon":16.604936,"is_passed":false},{"stop_id":"U1703Z7","name":"Ústřední hřbitov","arrival_time":"7:18:00","departure_time":"7:18:00","lat":49.170741,"lon":16.597834,"is_passed":false},{"stop_id":"U1622Z1","name":"Strážní","arrival_time":"7:21:00","departure_time":"7:21:00","lat":49.178207,"lon":16.603976,"is_passed":false},{"stop_id":"U1696Z11","name":"ÚAN Zvonařka","arrival_time":"7:25:00","departure_time":"7:55:00","lat":49.185364,"lon":16.616151,"is_passed":false}],"9648":[{"stop_id":"U1696Z8","name":"ÚAN Zvonařka","arrival_time":"7:55:00","departure_time":"7:55:00","lat":49.185364,"lon":16.616151,"is_passed":false},{"stop_id":"U18009Z51","name":"Znojmo, autobusové nádraží","arrival_time":"8:47:00","departure_time":"9:12:00","lat":48.851908,"lon":16.056983,"is_passed":false}],"9649":[{"stop_id":"U18009Z1","name":"Znojmo, autobusové nádraží","arrival_time":"9:12:00","departure_time":"9:12:00","lat":48.851886,"lon":16.057356,"is_passed":false},{"stop_id":"U18214Z2","name":"Lechovice, obecní úřad","arrival_time":"9:26:00","departure_time":"9:26:00","lat":48.872568,"lon":16.221965,"is_passed":false},{"stop_id":"U18215Z2","name":"Lechovice, zámek","arrival_time":"9:28:00","departure_time":"9:28:00","lat":48.875885,"lon":16.236996,"is_passed":false},{"stop_id":"U18217Z2","name":"Oleksovice, rozcestí","arrival_time":"9:31:00","departure_time":"9:31:00","lat":48.887523,"lon":16.260499,"is_passed":false},{"stop_id":"U15557Z2","name":"Mackovice, rozcestí","arrival_time":"9:34:00","departure_time":"9:34:00","lat":48.901053,"lon":16.294054,"is_passed":false},{"stop_id":"U14557Z2","name":"Miroslav, Kašenec, státní silnice","arrival_time":"9:37:00","departure_time":"9:37:00","lat":48.91853,"lon":16.33381,"is_passed":false},{"stop_id":"U14552Z2","name":"Miroslav, rozcestí","arrival_time":"9:40:00","departure_time":"9:40:00","lat":48.933616,"lon":16.362524,"is_passed":false},{"stop_id":"U14024Z2","name":"Trnové Pole, rozcestí","arrival_time":"9:45:00","departure_time":"9:45:00","lat":48.955186,"lon":16.413722,"is_passed":false},{"stop_id":"U14011Z2","name":"Branišovice, státní silnice","arrival_time":"9:47:00","departure_time":"9:47:00","lat":48.959163,"lon":16.430035,"is_passed":false},{"stop_id":"U15320Z2","name":"Pohořelice, obchodní akademie","arrival_time":"9:53:00","departure_time":"9:53:00","lat":48.978585,"lon":16.505427,"is_passed":false},{"stop_id":"U15317Z3","name":"Pohořelice, náměstí","arrival_time":"9:55:00","departure_time":"9:55:00","lat":48.980878,"lon":16.522413,"is_passed":false},{"stop_id":"U15315Z2","name":"Pohořelice, Brněnská","arrival_time":"9:57:00","departure_time":"9:57:00","lat":48.984956,"lon":16.530513,"is_passed":false},{"stop_id":"U15379Z2","name":"Pohořelice, průmyslová zóna východ","arrival_time":"9:58:00","departure_time":"9:58:00","lat":48.990539,"lon":16.540751,"is_passed":false},{"stop_id":"U15122Z4","name":"Modřice, Brněnská","arrival_time":"10:12:00","departure_time":"10:12:00","lat":49.130132,"lon":16.604936,"is_passed":false},{"stop_id":"U1703Z7","name":"Ústřední hřbitov","arrival_time":"10:18:00","departure_time":"10:18:00","lat":49.170741,"lon":16.597834,"is_passed":false},{"stop_id":"U1622Z1","name":"Strážní","arrival_time":"10:21:00","departure_time":"10:21:00","lat":49.178207,"lon":16.603976,"is_passed":false},{"stop_id":"U1696Z11","name":"ÚAN Zvonařka","arrival_time":"10:25:00","departure_time":"11:25:00","lat":49.185364,"lon":16.616151,"is_passed":false}]}