{"966":[{"stop_id":"U1146Z98","name":"Hlavní nádraží","arrival_time":"19:35:00","departure_time":"19:35:00","lat":49.19035,"lon":16.612342,"is_passed":false},{"stop_id":"U15425Z11","name":"Šakvice, železniční stanice","arrival_time":"19:53:00","departure_time":"19:54:00","lat":48.912883,"lon":16.70557,"is_passed":false},{"stop_id":"U15537Z11","name":"Zaječí, železniční stanice","arrival_time":"19:58:00","departure_time":"19:59:00","lat":48.889637,"lon":16.781831,"is_passed":false},{"stop_id":"U25501Z11","name":"Rakvice","arrival_time":"20:02:00","departure_time":"20:03:00","lat":48.866893,"lon":16.821444,"is_passed":false},{"stop_id":"U15619Z11","name":"Podivín, železniční stanice","arrival_time":"20:06:00","departure_time":"20:07:00","lat":48.837726,"lon":16.853526,"is_passed":false},{"stop_id":"U15729Z11","name":"Břeclav, autobusové nádraží","arrival_time":"20:14:00","departure_time":"20:24:00","lat":48.753851,"lon":16.893169,"is_passed":false},{"stop_id":"U19001Z21","name":"Hodonín, autobusové nádraží","arrival_time":"20:37:00","departure_time":"20:37:00","lat":48.85575,"lon":17.12069,"is_passed":false}],"9660":[{"stop_id":"U1696Z12","name":"ÚAN Zvonařka","arrival_time":"17:14:00","departure_time":"17:14:00","lat":49.185364,"lon":16.616151,"is_passed":false},{"stop_id":"U1266Z3","name":"Konopná","arrival_time":"17:16:00","departure_time":"17:16:00","lat":49.180126,"lon":16.621339,"is_passed":false},{"stop_id":"U1256Z3","name":"Komárov","arrival_time":"17:19:00","departure_time":"17:19:00","lat":49.17444,"lon":16.622448,"is_passed":false},{"stop_id":"U1533Z1","name":"Ráječek","arrival_time":"17:23:00","departure_time":"17:23:00","lat":49.160802,"lon":16.638242,"is_passed":false},{"stop_id":"U1191Z1","name":"Ivanovické náměstí","arrival_time":"17:25:00","departure_time":"17:25:00","lat":49.153066,"lon":16.653791,"is_passed":false},{"stop_id":"U1131Z7","name":"Hanácká","arrival_time":"17:29:00","departure_time":"17:29:00","lat":49.146163,"lon":16.665975,"is_passed":false},{"stop_id":"U1681Z3","name":"Tuřany, smyčka","arrival_time":"17:31:00","departure_time":"17:31:00","lat":49.141407,"lon":16.667828,"is_passed":false},{"stop_id":"U16147Z1","name":"Sokolnice, rozvodna","arrival_time":"17:35:00","departure_time":"17:35:00","lat":49.115062,"lon":16.704663,"is_passed":false},{"stop_id":"U16138Z3","name":"Telnice","arrival_time":"17:37:00","departure_time":"17:37:00","lat":49.101602,"lon":16.717823,"is_passed":false},{"stop_id":"U15167Z2","name":"Měnín, rozcestí","arrival_time":"17:39:00","departure_time":"17:39:00","lat":49.087125,"lon":16.716473,"is_passed":false},{"stop_id":"U15232Z1","name":"Moutnice, Rozařín","arrival_time":"17:43:00","departure_time":"17:43:00","lat":49.05247,"lon":16.737351,"is_passed":false},{"stop_id":"U15223Z1","name":"Moutnice, střed","arrival_time":"17:45:00","departure_time":"17:45:00","lat":49.048967,"lon":16.736746,"is_passed":false},{"stop_id":"U15227Z1","name":"Těšany, u váhy","arrival_time":"17:47:00","departure_time":"17:47:00","lat":49.041022,"lon":16.764925,"is_passed":false},{"stop_id":"U15226Z1","name":"Těšany","arrival_time":"17:49:00","departure_time":"17:49:00","lat":49.039299,"lon":16.771319,"is_passed":false},{"stop_id":"U16341Z1","name":"Borkovany, Tomášov","arrival_time":"17:51:00","departure_time":"17:51:00","lat":49.029118,"lon":16.804862,"is_passed":false},{"stop_id":"U16340Z1","name":"Borkovany","arrival_time":"17:53:00","departure_time":"17:53:00","lat":49.028483,"lon":16.809738,"is_passed":false},{"stop_id":"U16342Z1","name":"Borkovany, Štoček","arrival_time":"17:54:00","departure_time":"17:54:00","lat":49.024727,"lon":16.812867,"is_passed":false},{"stop_id":"U16344Z1","name":"Klobouky u Brna, Martinice, rozcestí","arrival_time":"17:57:00","departure_time":"17:57:00","lat":49.013442,"lon":16.828372,"is_passed":false},{"stop_id":"U16347Z1","name":"Klobouky u Brna, rozcestí","arrival_time":"17:59:00","departure_time":"17:59:00","lat":49.000525,"lon":16.862658,"is_passed":false},{"stop_id":"U16356Z1","name":"Klobouky u Brna, hřbitov","arrival_time":"18:00:00","departure_time":"18:00:00","lat":48.998318,"lon":16.862927,"is_passed":false},{"stop_id":"U16345Z1","name":"Klobouky u Brna, náměstí","arrival_time":"18:01:00","departure_time":"18:01:00","lat":48.99538,"lon":16.85736,"is_passed":false}],"9661":[{"stop_id":"U31026Z1","name":"Kunovice","arrival_time":"3:54:00","departure_time":"3:54:00","lat":49.051998,"lon":17.470067,"is_passed":false},{"stop_id":"U31027Z2","name":"Uherské Hradiště","arrival_time":"3:58:00","departure_time":"4:18:00","lat":49.066825,"lon":17.457085,"is_passed":false},{"stop_id":"U31028Z2","name":"Staré Město u Uherského Hradiště","arrival_time":"4:24:00","departure_time":"4:52:00","lat":49.076022,"lon":17.42271,"is_passed":false}],"9662":[{"stop_id":"U31028Z1","name":"Staré Město u Uherského Hradiště","arrival_time":"4:52:00","departure_time":"4:52:00","lat":49.076029,"lon":17.422624,"is_passed":false},{"stop_id":"U31027Z1","name":"Uherské Hradiště","arrival_time":"4:58:00","departure_time":"5:00:00","lat":49.066881,"lon":17.457171,"is_passed":false},{"stop_id":"U31026Z2","name":"Kunovice","arrival_time":"5:03:00","departure_time":"5:06:00","lat":49.051914,"lon":17.470711,"is_passed":false}],"9663":[{"stop_id":"U31026Z1","name":"Kunovice","arrival_time":"5:06:00","departure_time":"5:06:00","lat":49.051998,"lon":17.470067,"is_passed":false},{"stop_id":"U31027Z2","name":"Uherské Hradiště","arrival_time":"5:09:00","departure_time":"5:13:00","lat":49.066825,"lon":17.457085,"is_passed":false},{"stop_id":"U31028Z2","name":"Staré Město u Uherského Hradiště","arrival_time":"5:19:00","departure_time":"5:36:00","lat":49.076022,"lon":17.42271,"is_passed":false}],"9664":[{"stop_id":"U31028Z1","name":"Staré Město u Uherského Hradiště","arrival_time":"5:36:00","departure_time":"5:36:00","lat":49.076029,"lon":17.422624,"is_passed":false},{"stop_id":"U31027Z1","name":"Uherské Hradiště","arrival_time":"5:42:00","departure_time":"5:44:00","lat":49.066881,"lon":17.457171,"is_passed":false},{"stop_id":"U31026Z2","name":"Kunovice","arrival_time":"5:47:00","departure_time":"5:48:00","lat":49.051914,"lon":17.470711,"is_passed":false}],"9665":[{"stop_id":"U31026Z1","name":"Kunovice","arrival_time":"5:41:00","departure_time":"5:41:00","lat":49.051998,"lon":17.470067,"is_passed":false},{"stop_id":"U31027Z2","name":"Uherské Hradiště","arrival_time":"5:44:00","departure_time":"5:49:00","lat":49.066825,"lon":17.457085,"is_passed":false},{"stop_id":"U31028Z2","name":"Staré Město u Uherského Hradiště","arrival_time":"5:55:00","departure_time":"6:07:00","lat":49.076022,"lon":17.42271,"is_passed":false}],"9666":[{"stop_id":"U31028Z1","name":"Staré Město u Uherského Hradiště","arrival_time":"6:07:00","departure_time":"6:07:00","lat":49.076029,"lon":17.422624,"is_passed":false},{"stop_id":"U31027Z1","name":"Uherské Hradiště","arrival_time":"6:13:00","departure_time":"6:13:00","lat":49.066881,"lon":17.457171,"is_passed":false}],"9667":[{"stop_id":"U31027Z2","name":"Uherské Hradiště","arrival_time":"6:16:00","departure_time":"6:16:00","lat":49.066825,"lon":17.457085,"is_passed":false},{"stop_id":"U31028Z2","name":"Staré Město u Uherského Hradiště","arrival_time":"6:22:00","departure_time":"6:32:00","lat":49.076022,"lon":17.42271,"is_passed":false}],"9668":[{"stop_id":"U31028Z1","name":"Staré Město u Uherského Hradiště","arrival_time":"6:32:00","departure_time":"6:32:00","lat":49.076029,"lon":17.422624,"is_passed":false},{"stop_id":"U31027Z1","name":"Uherské Hradiště","arrival_time":"6:38:00","departure_time":"6:39:00","lat":49.066881,"lon":17.457171,"is_passed":false},{"stop_id":"U31026Z2","name":"Kunovice","arrival_time":"6:42:00","departure_time":"6:42:00","lat":49.051914,"lon":17.470711,"is_passed":false}],"9669":[{"stop_id":"U31026Z1","name":"Kunovice","arrival_time":"7:01:00","departure_time":"7:01:00","lat":49.051998,"lon":17.470067,"is_passed":false},{"stop_id":"U31027Z2","name":"Uherské Hradiště","arrival_time":"7:04:00","departure_time":"7:06:00","lat":49.066825,"lon":17.457085,"is_passed":false},{"stop_id":"U31028Z2","name":"Staré Město u Uherského Hradiště","arrival_time":"7:12:00","departure_time":"7:39:00","lat":49.076022,"lon":17.42271,"is_passed":false}]}