[{"stop_id":"U25504Z10","name":"Kobylí na Moravě","arrival_time":"5:33:00","departure_time":"5:33:00","lat":48.934022,"lon":16.881272,"is_passed":false},{"stop_id":"U15513Z10","name":"Bořetice, železniční stanice","arrival_time":"5:37:00","departure_time":"5:38:00","lat":48.916314,"lon":16.850139,"is_passed":false},{"stop_id":"U25503Z10","name":"Velké Pavlovice zastávka","arrival_time":"5:43:00","departure_time":"5:44:00","lat":48.901672,"lon":16.8224,"is_passed":false},{"stop_id":"U25502Z10","name":"Velké Pavlovice","arrival_time":"5:46:00","departure_time":"5:47:00","lat":48.88985,"lon":16.823672,"is_passed":false},{"stop_id":"U15537Z12","name":"Zaječí, železniční stanice","arrival_time":"5:53:00","departure_time":"6:12:00","lat":48.889637,"lon":16.781831,"is_passed":false}]