{"970":[{"stop_id":"U1146Z98","name":"Hlavní nádraží","arrival_time":"22:36:00","departure_time":"22:36:00","lat":49.19035,"lon":16.612342,"is_passed":false},{"stop_id":"U15425Z11","name":"Šakvice, železniční stanice","arrival_time":"22:54:00","departure_time":"22:55:00","lat":48.912883,"lon":16.70557,"is_passed":false},{"stop_id":"U15537Z11","name":"Zaječí, železniční stanice","arrival_time":"22:59:00","departure_time":"23:00:00","lat":48.889637,"lon":16.781831,"is_passed":false},{"stop_id":"U25501Z11","name":"Rakvice","arrival_time":"23:03:00","departure_time":"23:03:00","lat":48.866893,"lon":16.821444,"is_passed":false},{"stop_id":"U15619Z11","name":"Podivín, železniční stanice","arrival_time":"23:07:00","departure_time":"23:08:00","lat":48.837726,"lon":16.853526,"is_passed":false},{"stop_id":"U15729Z11","name":"Břeclav, autobusové nádraží","arrival_time":"23:14:00","departure_time":"23:21:00","lat":48.753851,"lon":16.893169,"is_passed":false},{"stop_id":"U19129Z11","name":"Moravská Nová Ves, železniční stanice","arrival_time":"23:28:00","departure_time":"23:29:00","lat":48.799493,"lon":17.021674,"is_passed":false},{"stop_id":"U19001Z21","name":"Hodonín, autobusové nádraží","arrival_time":"23:36:00","departure_time":"23:36:00","lat":48.85575,"lon":17.12069,"is_passed":false}],"9700":[{"stop_id":"U31026Z1","name":"Kunovice","arrival_time":"19:21:00","departure_time":"19:21:00","lat":49.051998,"lon":17.470067,"is_passed":false},{"stop_id":"U31027Z2","name":"Uherské Hradiště","arrival_time":"19:24:00","departure_time":"19:26:00","lat":49.066825,"lon":17.457085,"is_passed":false},{"stop_id":"U31028Z2","name":"Staré Město u Uherského Hradiště","arrival_time":"19:32:00","departure_time":"19:36:00","lat":49.076022,"lon":17.42271,"is_passed":false}],"9701":[{"stop_id":"U31028Z1","name":"Staré Město u Uherského Hradiště","arrival_time":"19:36:00","departure_time":"19:36:00","lat":49.076029,"lon":17.422624,"is_passed":false},{"stop_id":"U31027Z1","name":"Uherské Hradiště","arrival_time":"19:42:00","departure_time":"19:42:00","lat":49.066881,"lon":17.457171,"is_passed":false}],"9702":[{"stop_id":"U31027Z2","name":"Uherské Hradiště","arrival_time":"19:46:00","departure_time":"19:46:00","lat":49.066825,"lon":17.457085,"is_passed":false},{"stop_id":"U31028Z2","name":"Staré Město u Uherského Hradiště","arrival_time":"19:52:00","departure_time":"19:52:00","lat":49.076022,"lon":17.42271,"is_passed":false}],"9703":[{"stop_id":"U31028Z1","name":"Staré Město u Uherského Hradiště","arrival_time":"20:28:00","departure_time":"20:28:00","lat":49.076029,"lon":17.422624,"is_passed":false},{"stop_id":"U31027Z1","name":"Uherské Hradiště","arrival_time":"20:34:00","departure_time":"20:39:00","lat":49.066881,"lon":17.457171,"is_passed":false},{"stop_id":"U31026Z2","name":"Kunovice","arrival_time":"20:42:00","departure_time":"20:42:00","lat":49.051914,"lon":17.470711,"is_passed":false}],"9704":[{"stop_id":"U31026Z1","name":"Kunovice","arrival_time":"21:04:00","departure_time":"21:04:00","lat":49.051998,"lon":17.470067,"is_passed":false},{"stop_id":"U31027Z2","name":"Uherské Hradiště","arrival_time":"21:07:00","departure_time":"21:08:00","lat":49.066825,"lon":17.457085,"is_passed":false},{"stop_id":"U31028Z2","name":"Staré Město u Uherského Hradiště","arrival_time":"21:14:00","departure_time":"21:29:00","lat":49.076022,"lon":17.42271,"is_passed":false}],"9705":[{"stop_id":"U31028Z1","name":"Staré Město u Uherského Hradiště","arrival_time":"21:29:00","departure_time":"21:29:00","lat":49.076029,"lon":17.422624,"is_passed":false},{"stop_id":"U31027Z1","name":"Uherské Hradiště","arrival_time":"21:35:00","departure_time":"21:36:00","lat":49.066881,"lon":17.457171,"is_passed":false},{"stop_id":"U31026Z2","name":"Kunovice","arrival_time":"21:39:00","departure_time":"21:40:00","lat":49.051914,"lon":17.470711,"is_passed":false}],"9706":[{"stop_id":"U31026Z1","name":"Kunovice","arrival_time":"21:39:00","departure_time":"21:39:00","lat":49.051998,"lon":17.470067,"is_passed":false},{"stop_id":"U31027Z2","name":"Uherské Hradiště","arrival_time":"21:42:00","departure_time":"21:45:00","lat":49.066825,"lon":17.457085,"is_passed":false},{"stop_id":"U31028Z2","name":"Staré Město u Uherského Hradiště","arrival_time":"21:51:00","departure_time":"21:59:00","lat":49.076022,"lon":17.42271,"is_passed":false}],"9707":[{"stop_id":"U31028Z1","name":"Staré Město u Uherského Hradiště","arrival_time":"21:59:00","departure_time":"21:59:00","lat":49.076029,"lon":17.422624,"is_passed":false},{"stop_id":"U31027Z1","name":"Uherské Hradiště","arrival_time":"22:05:00","departure_time":"22:06:00","lat":49.066881,"lon":17.457171,"is_passed":false},{"stop_id":"U31026Z2","name":"Kunovice","arrival_time":"22:09:00","departure_time":"22:09:00","lat":49.051914,"lon":17.470711,"is_passed":false}],"9708":[{"stop_id":"U31026Z1","name":"Kunovice","arrival_time":"18:11:00","departure_time":"18:11:00","lat":49.051998,"lon":17.470067,"is_passed":false},{"stop_id":"U31027Z2","name":"Uherské Hradiště","arrival_time":"18:14:00","departure_time":"18:16:00","lat":49.066825,"lon":17.457085,"is_passed":false},{"stop_id":"U31028Z2","name":"Staré Město u Uherského Hradiště","arrival_time":"18:22:00","departure_time":"22:36:00","lat":49.076022,"lon":17.42271,"is_passed":false}],"9709":[{"stop_id":"U31028Z1","name":"Staré Město u Uherského Hradiště","arrival_time":"22:36:00","departure_time":"22:36:00","lat":49.076029,"lon":17.422624,"is_passed":false},{"stop_id":"U31027Z1","name":"Uherské Hradiště","arrival_time":"22:42:00","departure_time":"22:43:00","lat":49.066881,"lon":17.457171,"is_passed":false},{"stop_id":"U31026Z2","name":"Kunovice","arrival_time":"22:46:00","departure_time":"22:46:00","lat":49.051914,"lon":17.470711,"is_passed":false}]}