[{"stop_id":"U18009Z14","name":"Znojmo, autobusové nádraží","arrival_time":"14:44:00","departure_time":"14:44:00","lat":48.851564,"lon":16.05657,"is_passed":false},{"stop_id":"U18022Z1","name":"Znojmo, Vídeňská, u školy","arrival_time":"14:47:00","departure_time":"14:47:00","lat":48.843183,"lon":16.060932,"is_passed":false},{"stop_id":"U18107Z2","name":"Dobšice, rest.","arrival_time":"14:50:00","departure_time":"14:50:00","lat":48.84842,"lon":16.085268,"is_passed":false},{"stop_id":"U18119Z1","name":"Dyje, cihelna","arrival_time":"14:53:00","departure_time":"14:53:00","lat":48.852592,"lon":16.113313,"is_passed":false},{"stop_id":"U18121Z1","name":"Dyje, u železničního přejezdu","arrival_time":"14:54:00","departure_time":"14:54:00","lat":48.849413,"lon":16.12016,"is_passed":false},{"stop_id":"U18186Z1","name":"Tasovice, u hřbitova","arrival_time":"14:57:00","departure_time":"14:57:00","lat":48.836051,"lon":16.15051,"is_passed":false},{"stop_id":"U18132Z1","name":"Tasovice, škola","arrival_time":"15:00:00","departure_time":"15:00:00","lat":48.83865,"lon":16.157345,"is_passed":false},{"stop_id":"U18133Z1","name":"Tasovice, u prodejen","arrival_time":"15:01:00","departure_time":"15:01:00","lat":48.83599,"lon":16.156078,"is_passed":false},{"stop_id":"U18122Z1","name":"Hodonice, střed","arrival_time":"15:03:00","departure_time":"15:03:00","lat":48.835833,"lon":16.164223,"is_passed":false},{"stop_id":"U18123Z1","name":"Krhovice","arrival_time":"15:06:00","departure_time":"15:06:00","lat":48.817342,"lon":16.174398,"is_passed":false},{"stop_id":"U18130Z1","name":"Strachotice, rozcestí","arrival_time":"15:09:00","departure_time":"15:09:00","lat":48.806187,"lon":16.202127,"is_passed":false},{"stop_id":"U18281Z1","name":"Valtrovice, obecní úřad","arrival_time":"15:11:00","departure_time":"15:11:00","lat":48.794367,"lon":16.222445,"is_passed":false},{"stop_id":"U18275Z1","name":"Křídlůvky","arrival_time":"15:16:00","departure_time":"15:16:00","lat":48.781775,"lon":16.239319,"is_passed":false},{"stop_id":"U18276Z1","name":"Křídlůvky, rozcestí","arrival_time":"15:17:00","departure_time":"15:17:00","lat":48.784937,"lon":16.242362,"is_passed":false},{"stop_id":"U18361Z2","name":"Hrádek, zahradnictví","arrival_time":"15:18:00","departure_time":"15:18:00","lat":48.782305,"lon":16.255478,"is_passed":false},{"stop_id":"U18359Z2","name":"Hrádek, kulturní dům","arrival_time":"15:19:00","departure_time":"15:19:00","lat":48.775425,"lon":16.269938,"is_passed":false},{"stop_id":"U18363Z2","name":"Hrádek, u mlýna","arrival_time":"15:20:00","departure_time":"15:20:00","lat":48.773192,"lon":16.278031,"is_passed":false},{"stop_id":"U18357Z2","name":"Dyjákovice, nad hostincem","arrival_time":"15:23:00","departure_time":"15:23:00","lat":48.772632,"lon":16.29921,"is_passed":false},{"stop_id":"U18358Z1","name":"Dyjákovice, škola","arrival_time":"15:24:00","departure_time":"15:24:00","lat":48.772805,"lon":16.303553,"is_passed":false}]