{"976":[{"stop_id":"U18009Z22","name":"Znojmo, autobusové nádraží","arrival_time":"17:38:00","departure_time":"17:38:00","lat":48.852761,"lon":16.059287,"is_passed":false},{"stop_id":"U28002Z10","name":"Znojmo nemocnice","arrival_time":"17:41:00","departure_time":"17:41:00","lat":48.865504,"lon":16.048394,"is_passed":false},{"stop_id":"U28103Z10","name":"Citonice","arrival_time":"17:47:00","departure_time":"17:47:00","lat":48.878906,"lon":15.977467,"is_passed":false},{"stop_id":"U18158Z10","name":"Olbramkostel, železniční stanice","arrival_time":"17:52:00","departure_time":"17:53:00","lat":48.903229,"lon":15.949177,"is_passed":false},{"stop_id":"U18259Z10","name":"Šumná, železniční stanice","arrival_time":"18:00:00","departure_time":"18:00:00","lat":48.923097,"lon":15.874306,"is_passed":false},{"stop_id":"U18339Z10","name":"Grešlové Mýto, železniční stanice","arrival_time":"18:08:00","departure_time":"18:08:00","lat":48.98455,"lon":15.874436,"is_passed":false},{"stop_id":"U28401Z10","name":"Blížkovice","arrival_time":"18:11:00","departure_time":"18:12:00","lat":49.004292,"lon":15.854364,"is_passed":false},{"stop_id":"U28501Z10","name":"Vesce","arrival_time":"18:15:00","departure_time":"18:15:00","lat":49.019071,"lon":15.831277,"is_passed":false},{"stop_id":"U28502Z10","name":"Moravské Budějovice","arrival_time":"18:21:00","departure_time":"18:30:00","lat":49.057522,"lon":15.809326,"is_passed":false}],"9760":[{"stop_id":"U31028Z1","name":"Staré Město u Uherského Hradiště","arrival_time":"22:36:00","departure_time":"22:36:00","lat":49.076029,"lon":17.422624,"is_passed":false},{"stop_id":"U31027Z1","name":"Uherské Hradiště","arrival_time":"22:42:00","departure_time":"22:43:00","lat":49.066881,"lon":17.457171,"is_passed":false},{"stop_id":"U31026Z2","name":"Kunovice","arrival_time":"22:46:00","departure_time":"22:46:00","lat":49.051914,"lon":17.470711,"is_passed":false}],"9761":[{"stop_id":"U31028Z1","name":"Staré Město u Uherského Hradiště","arrival_time":"5:26:00","departure_time":"5:26:00","lat":49.076029,"lon":17.422624,"is_passed":false},{"stop_id":"U31027Z1","name":"Uherské Hradiště","arrival_time":"5:32:00","departure_time":"5:32:00","lat":49.066881,"lon":17.457171,"is_passed":false}],"9762":[{"stop_id":"U31027Z2","name":"Uherské Hradiště","arrival_time":"4:00:00","departure_time":"4:00:00","lat":49.066825,"lon":17.457085,"is_passed":false},{"stop_id":"U31028Z2","name":"Staré Město u Uherského Hradiště","arrival_time":"4:06:00","departure_time":"4:06:00","lat":49.076022,"lon":17.42271,"is_passed":false}],"9763":[{"stop_id":"U12342Z40","name":"Blansko, aut. st.","arrival_time":"3:12:00","departure_time":"3:12:00","lat":49.352081,"lon":16.648323,"is_passed":false},{"stop_id":"U1146Z31","name":"Hlavní nádraží","arrival_time":"3:42:00","departure_time":"3:42:00","lat":49.191815,"lon":16.613991,"is_passed":false}],"9764":[{"stop_id":"U1146Z98","name":"Hlavní nádraží","arrival_time":"22:46:00","departure_time":"22:46:00","lat":49.19035,"lon":16.612342,"is_passed":false},{"stop_id":"U1183Z11","name":"Chrlice, nádraží","arrival_time":"22:54:00","departure_time":"22:55:00","lat":49.132031,"lon":16.657232,"is_passed":false},{"stop_id":"U16149Z11","name":"Sokolnice, železniční stanice","arrival_time":"23:00:00","departure_time":"23:01:00","lat":49.108029,"lon":16.733459,"is_passed":false},{"stop_id":"U26101Z2","name":"Újezd u Brna","arrival_time":"23:02:00","departure_time":"23:03:00","lat":49.107297,"lon":16.745564,"is_passed":false},{"stop_id":"U26102Z2","name":"Hostěrádky-Rešov","arrival_time":"23:06:00","departure_time":"23:06:00","lat":49.119822,"lon":16.782755,"is_passed":false},{"stop_id":"U26201Z2","name":"Zbýšov","arrival_time":"23:09:00","departure_time":"23:09:00","lat":49.132691,"lon":16.806859,"is_passed":false},{"stop_id":"U16212Z11","name":"Křenovice, hor. žel. st.","arrival_time":"23:11:00","departure_time":"23:12:00","lat":49.143553,"lon":16.824564,"is_passed":false},{"stop_id":"U16228Z11","name":"Holubice, žel.st.","arrival_time":"23:15:00","departure_time":"23:16:00","lat":49.179869,"lon":16.824654,"is_passed":false},{"stop_id":"U17342Z11","name":"Rousínov, žel. st.","arrival_time":"23:19:00","departure_time":"23:20:00","lat":49.196667,"lon":16.867139,"is_passed":false},{"stop_id":"U27301Z2","name":"Luleč","arrival_time":"23:26:00","departure_time":"23:26:00","lat":49.248056,"lon":16.921667,"is_passed":false},{"stop_id":"U17446Z11","name":"Vyškov, železniční stanice","arrival_time":"23:32:00","departure_time":"23:32:00","lat":49.277222,"lon":16.990833,"is_passed":false}],"9765":[{"stop_id":"U12676Z50","name":"Skalice nad Svitavou, žel.st.","arrival_time":"4:36:00","departure_time":"4:36:00","lat":49.480123,"lon":16.609726,"is_passed":false},{"stop_id":"U22602Z1","name":"Svitávka","arrival_time":"4:38:00","departure_time":"4:39:00","lat":49.499434,"lon":16.599208,"is_passed":false},{"stop_id":"U22701Z1","name":"Zboněk","arrival_time":"4:41:00","departure_time":"4:41:00","lat":49.521608,"lon":16.583438,"is_passed":false},{"stop_id":"U22702Z1","name":"Letovice zastávka","arrival_time":"4:44:00","departure_time":"4:44:00","lat":49.535496,"lon":16.576998,"is_passed":false},{"stop_id":"U12736Z50","name":"Letovice, železniční stanice","arrival_time":"4:47:00","departure_time":"4:56:00","lat":49.555973,"lon":16.570906,"is_passed":false}],"9766":[{"stop_id":"U12736Z51","name":"Letovice, železniční stanice","arrival_time":"4:56:00","departure_time":"4:56:00","lat":49.555973,"lon":16.570906,"is_passed":false},{"stop_id":"U22702Z2","name":"Letovice zastávka","arrival_time":"4:58:00","departure_time":"4:59:00","lat":49.536152,"lon":16.576186,"is_passed":false},{"stop_id":"U22701Z2","name":"Zboněk","arrival_time":"5:01:00","departure_time":"5:01:00","lat":49.520482,"lon":16.584439,"is_passed":false},{"stop_id":"U22602Z2","name":"Svitávka","arrival_time":"5:03:00","departure_time":"5:04:00","lat":49.499434,"lon":16.599208,"is_passed":false},{"stop_id":"U12676Z51","name":"Skalice nad Svitavou, žel.st.","arrival_time":"5:07:00","departure_time":"5:11:00","lat":49.480123,"lon":16.609726,"is_passed":false},{"stop_id":"U12511Z51","name":"Doubravice, žel.st.","arrival_time":"5:15:00","departure_time":"5:16:00","lat":49.438707,"lon":16.621809,"is_passed":false},{"stop_id":"U12439Z51","name":"Rájec-Jestřebí, železniční stanice","arrival_time":"5:19:00","departure_time":"5:20:00","lat":49.408206,"lon":16.627711,"is_passed":false},{"stop_id":"U22301Z2","name":"Dolní Lhota","arrival_time":"5:22:00","departure_time":"5:22:00","lat":49.386917,"lon":16.633978,"is_passed":false},{"stop_id":"U22302Z2","name":"Blansko město","arrival_time":"5:25:00","departure_time":"5:26:00","lat":49.360996,"lon":16.639464,"is_passed":false},{"stop_id":"U12342Z29","name":"Blansko, aut. st.","arrival_time":"5:27:00","departure_time":"5:30:00","lat":49.352753,"lon":16.646848,"is_passed":false},{"stop_id":"U12231Z11","name":"Adamov, železniční zastávka","arrival_time":"5:35:00","departure_time":"5:36:00","lat":49.300671,"lon":16.650653,"is_passed":false},{"stop_id":"U12230Z11","name":"Adamov, železniční stanice","arrival_time":"5:37:00","departure_time":"5:38:00","lat":49.295341,"lon":16.663538,"is_passed":false},{"stop_id":"U22101Z2","name":"Babice nad Svitavou","arrival_time":"5:41:00","departure_time":"5:41:00","lat":49.276645,"lon":16.673012,"is_passed":false},{"stop_id":"U12158Z11","name":"Bílovice nad Svitavou, žel. stanice","arrival_time":"5:45:00","departure_time":"5:46:00","lat":49.242715,"lon":16.673677,"is_passed":false},{"stop_id":"U1809Z11","name":"Židenice, nádraží","arrival_time":"5:51:00","departure_time":"5:51:00","lat":49.204282,"lon":16.636042,"is_passed":false},{"stop_id":"U1146Z98","name":"Hlavní nádraží","arrival_time":"5:56:00","departure_time":"6:06:00","lat":49.19035,"lon":16.612342,"is_passed":false},{"stop_id":"U1183Z11","name":"Chrlice, nádraží","arrival_time":"6:14:00","departure_time":"6:17:00","lat":49.132031,"lon":16.657232,"is_passed":false},{"stop_id":"U16149Z11","name":"Sokolnice, železniční stanice","arrival_time":"6:23:00","departure_time":"6:24:00","lat":49.108029,"lon":16.733459,"is_passed":false},{"stop_id":"U26101Z2","name":"Újezd u Brna","arrival_time":"6:25:00","departure_time":"6:26:00","lat":49.107297,"lon":16.745564,"is_passed":false},{"stop_id":"U26102Z2","name":"Hostěrádky-Rešov","arrival_time":"6:29:00","departure_time":"6:29:00","lat":49.119822,"lon":16.782755,"is_passed":false},{"stop_id":"U26201Z2","name":"Zbýšov","arrival_time":"6:32:00","departure_time":"6:32:00","lat":49.132691,"lon":16.806859,"is_passed":false},{"stop_id":"U16212Z11","name":"Křenovice, hor. žel. st.","arrival_time":"6:35:00","departure_time":"6:58:00","lat":49.143553,"lon":16.824564,"is_passed":false}],"9767":[{"stop_id":"U16212Z10","name":"Křenovice, hor. žel. st.","arrival_time":"6:58:00","departure_time":"6:58:00","lat":49.143553,"lon":16.824564,"is_passed":false},{"stop_id":"U26201Z1","name":"Zbýšov","arrival_time":"7:00:00","departure_time":"7:01:00","lat":49.132691,"lon":16.806859,"is_passed":false},{"stop_id":"U26102Z1","name":"Hostěrádky-Rešov","arrival_time":"7:03:00","departure_time":"7:04:00","lat":49.119822,"lon":16.782755,"is_passed":false},{"stop_id":"U26101Z1","name":"Újezd u Brna","arrival_time":"7:07:00","departure_time":"7:07:00","lat":49.107297,"lon":16.745564,"is_passed":false},{"stop_id":"U16149Z10","name":"Sokolnice, železniční stanice","arrival_time":"7:09:00","departure_time":"7:10:00","lat":49.108029,"lon":16.733459,"is_passed":false},{"stop_id":"U1183Z10","name":"Chrlice, nádraží","arrival_time":"7:15:00","departure_time":"7:16:00","lat":49.132031,"lon":16.657232,"is_passed":false},{"stop_id":"U1146Z99","name":"Hlavní nádraží","arrival_time":"7:26:00","departure_time":"7:29:00","lat":49.19035,"lon":16.612342,"is_passed":false},{"stop_id":"U1809Z10","name":"Židenice, nádraží","arrival_time":"7:33:00","departure_time":"7:34:00","lat":49.204282,"lon":16.636042,"is_passed":false},{"stop_id":"U12158Z10","name":"Bílovice nad Svitavou, žel. stanice","arrival_time":"7:39:00","departure_time":"7:40:00","lat":49.242715,"lon":16.673677,"is_passed":false},{"stop_id":"U12230Z10","name":"Adamov, železniční stanice","arrival_time":"7:47:00","departure_time":"7:48:00","lat":49.295341,"lon":16.663538,"is_passed":false},{"stop_id":"U12231Z10","name":"Adamov, železniční zastávka","arrival_time":"7:49:00","departure_time":"7:50:00","lat":49.300671,"lon":16.650653,"is_passed":false},{"stop_id":"U12342Z30","name":"Blansko, aut. st.","arrival_time":"7:55:00","departure_time":"7:57:00","lat":49.352753,"lon":16.646848,"is_passed":false},{"stop_id":"U22302Z1","name":"Blansko město","arrival_time":"7:59:00","departure_time":"8:00:00","lat":49.360996,"lon":16.639464,"is_passed":false},{"stop_id":"U22301Z1","name":"Dolní Lhota","arrival_time":"8:02:00","departure_time":"8:03:00","lat":49.386917,"lon":16.633978,"is_passed":false},{"stop_id":"U12439Z50","name":"Rájec-Jestřebí, železniční stanice","arrival_time":"8:06:00","departure_time":"8:53:00","lat":49.408206,"lon":16.627711,"is_passed":false}],"9768":[{"stop_id":"U12439Z51","name":"Rájec-Jestřebí, železniční stanice","arrival_time":"8:53:00","departure_time":"8:53:00","lat":49.408206,"lon":16.627711,"is_passed":false},{"stop_id":"U22301Z2","name":"Dolní Lhota","arrival_time":"8:55:00","departure_time":"8:56:00","lat":49.386917,"lon":16.633978,"is_passed":false},{"stop_id":"U22302Z2","name":"Blansko město","arrival_time":"8:58:00","departure_time":"8:59:00","lat":49.360996,"lon":16.639464,"is_passed":false},{"stop_id":"U12342Z29","name":"Blansko, aut. st.","arrival_time":"9:00:00","departure_time":"9:01:00","lat":49.352753,"lon":16.646848,"is_passed":false},{"stop_id":"U12231Z11","name":"Adamov, železniční zastávka","arrival_time":"9:07:00","departure_time":"9:07:00","lat":49.300671,"lon":16.650653,"is_passed":false},{"stop_id":"U12230Z11","name":"Adamov, železniční stanice","arrival_time":"9:09:00","departure_time":"9:10:00","lat":49.295341,"lon":16.663538,"is_passed":false},{"stop_id":"U12158Z11","name":"Bílovice nad Svitavou, žel. stanice","arrival_time":"9:16:00","departure_time":"9:17:00","lat":49.242715,"lon":16.673677,"is_passed":false},{"stop_id":"U1809Z11","name":"Židenice, nádraží","arrival_time":"9:22:00","departure_time":"9:22:00","lat":49.204282,"lon":16.636042,"is_passed":false},{"stop_id":"U1146Z98","name":"Hlavní nádraží","arrival_time":"9:29:00","departure_time":"9:58:00","lat":49.19035,"lon":16.612342,"is_passed":false}],"9769":[{"stop_id":"U1146Z99","name":"Hlavní nádraží","arrival_time":"9:58:00","departure_time":"9:58:00","lat":49.19035,"lon":16.612342,"is_passed":false},{"stop_id":"U1809Z10","name":"Židenice, nádraží","arrival_time":"10:01:00","departure_time":"10:04:00","lat":49.204282,"lon":16.636042,"is_passed":false},{"stop_id":"U12158Z10","name":"Bílovice nad Svitavou, žel. stanice","arrival_time":"10:09:00","departure_time":"10:09:00","lat":49.242715,"lon":16.673677,"is_passed":false},{"stop_id":"U22101Z1","name":"Babice nad Svitavou","arrival_time":"10:13:00","departure_time":"10:13:00","lat":49.276645,"lon":16.673012,"is_passed":false},{"stop_id":"U12230Z10","name":"Adamov, železniční stanice","arrival_time":"10:16:00","departure_time":"10:17:00","lat":49.295341,"lon":16.663538,"is_passed":false},{"stop_id":"U12231Z10","name":"Adamov, železniční zastávka","arrival_time":"10:18:00","departure_time":"10:19:00","lat":49.300671,"lon":16.650653,"is_passed":false},{"stop_id":"U12342Z30","name":"Blansko, aut. st.","arrival_time":"10:24:00","departure_time":"10:25:00","lat":49.352753,"lon":16.646848,"is_passed":false},{"stop_id":"U22302Z1","name":"Blansko město","arrival_time":"10:27:00","departure_time":"10:28:00","lat":49.360996,"lon":16.639464,"is_passed":false},{"stop_id":"U22301Z1","name":"Dolní Lhota","arrival_time":"10:30:00","departure_time":"10:31:00","lat":49.386917,"lon":16.633978,"is_passed":false},{"stop_id":"U12439Z50","name":"Rájec-Jestřebí, železniční stanice","arrival_time":"10:33:00","departure_time":"10:34:00","lat":49.408206,"lon":16.627711,"is_passed":false},{"stop_id":"U12511Z50","name":"Doubravice, žel.st.","arrival_time":"10:37:00","departure_time":"10:37:00","lat":49.438707,"lon":16.621809,"is_passed":false},{"stop_id":"U12676Z50","name":"Skalice nad Svitavou, žel.st.","arrival_time":"10:43:00","departure_time":"10:51:00","lat":49.480123,"lon":16.609726,"is_passed":false},{"stop_id":"U22602Z1","name":"Svitávka","arrival_time":"10:53:00","departure_time":"10:54:00","lat":49.499434,"lon":16.599208,"is_passed":false},{"stop_id":"U22701Z1","name":"Zboněk","arrival_time":"10:56:00","departure_time":"10:56:00","lat":49.521608,"lon":16.583438,"is_passed":false},{"stop_id":"U22702Z1","name":"Letovice zastávka","arrival_time":"10:59:00","departure_time":"10:59:00","lat":49.535496,"lon":16.576998,"is_passed":false},{"stop_id":"U12736Z50","name":"Letovice, železniční stanice","arrival_time":"11:02:00","departure_time":"11:57:00","lat":49.555973,"lon":16.570906,"is_passed":false}]}