{"976":[{"stop_id":"U13334Z20","name":"Tišnov, železniční stanice","arrival_time":"11:33:00","departure_time":"11:33:00","lat":49.3475,"lon":16.41725,"is_passed":false},{"stop_id":"U13462Z1","name":"Štěpánovice","arrival_time":"11:37:00","departure_time":"11:37:00","lat":49.373141,"lon":16.389854,"is_passed":false},{"stop_id":"U13463Z1","name":"Borač, žel. st.","arrival_time":"11:42:00","departure_time":"11:43:00","lat":49.400768,"lon":16.366252,"is_passed":false},{"stop_id":"U13464Z1","name":"Prudká zastávka","arrival_time":"11:46:00","departure_time":"11:46:00","lat":49.419195,"lon":16.367361,"is_passed":false},{"stop_id":"U13506Z10","name":"Doubravník, železniční stanice","arrival_time":"11:50:00","departure_time":"11:50:00","lat":49.426945,"lon":16.352389,"is_passed":false},{"stop_id":"U13520Z1","name":"Nedvědice, železniční stanice","arrival_time":"11:56:00","departure_time":"12:01:00","lat":49.454167,"lon":16.338333,"is_passed":false},{"stop_id":"U23601Z2","name":"Věžná","arrival_time":"12:09:00","departure_time":"12:09:00","lat":49.451547,"lon":16.270316,"is_passed":false},{"stop_id":"U13605Z12","name":"Rožná, železniční stanice","arrival_time":"12:13:00","departure_time":"12:14:00","lat":49.472143,"lon":16.245416,"is_passed":false},{"stop_id":"U13701Z12","name":"Bystřice nad Pern., železniční stanice","arrival_time":"12:25:00","departure_time":"12:32:00","lat":49.513611,"lon":16.246667,"is_passed":false},{"stop_id":"U13801Z12","name":"Rozsochy, železniční stanice","arrival_time":"12:39:00","departure_time":"12:39:00","lat":49.537385,"lon":16.195122,"is_passed":false},{"stop_id":"U23801Z2","name":"Rovné-Divišov","arrival_time":"12:42:00","departure_time":"12:42:00","lat":49.547632,"lon":16.172826,"is_passed":false}],"9760":[{"stop_id":"U18009Z1","name":"Znojmo, autobusové nádraží","arrival_time":"12:52:00","departure_time":"12:52:00","lat":48.851886,"lon":16.057356,"is_passed":false},{"stop_id":"U1696Z11","name":"ÚAN Zvonařka","arrival_time":"13:44:00","departure_time":"13:55:00","lat":49.185364,"lon":16.616151,"is_passed":false}],"9761":[{"stop_id":"U1696Z8","name":"ÚAN Zvonařka","arrival_time":"13:55:00","departure_time":"13:55:00","lat":49.185364,"lon":16.616151,"is_passed":false},{"stop_id":"U18009Z51","name":"Znojmo, autobusové nádraží","arrival_time":"14:47:00","departure_time":"16:52:00","lat":48.851908,"lon":16.056983,"is_passed":false}],"9762":[{"stop_id":"U18009Z1","name":"Znojmo, autobusové nádraží","arrival_time":"16:52:00","departure_time":"16:52:00","lat":48.851886,"lon":16.057356,"is_passed":false},{"stop_id":"U1696Z11","name":"ÚAN Zvonařka","arrival_time":"17:44:00","departure_time":"17:55:00","lat":49.185364,"lon":16.616151,"is_passed":false}],"9763":[{"stop_id":"U1696Z8","name":"ÚAN Zvonařka","arrival_time":"17:55:00","departure_time":"17:55:00","lat":49.185364,"lon":16.616151,"is_passed":false},{"stop_id":"U18009Z51","name":"Znojmo, autobusové nádraží","arrival_time":"18:47:00","departure_time":"18:52:00","lat":48.851908,"lon":16.056983,"is_passed":false}],"9764":[{"stop_id":"U18009Z1","name":"Znojmo, autobusové nádraží","arrival_time":"18:52:00","departure_time":"18:52:00","lat":48.851886,"lon":16.057356,"is_passed":false},{"stop_id":"U1696Z11","name":"ÚAN Zvonařka","arrival_time":"19:44:00","departure_time":"19:55:00","lat":49.185364,"lon":16.616151,"is_passed":false}],"9765":[{"stop_id":"U1696Z8","name":"ÚAN Zvonařka","arrival_time":"19:55:00","departure_time":"19:55:00","lat":49.185364,"lon":16.616151,"is_passed":false},{"stop_id":"U18009Z51","name":"Znojmo, autobusové nádraží","arrival_time":"20:47:00","departure_time":"20:47:00","lat":48.851908,"lon":16.056983,"is_passed":false}],"9766":[{"stop_id":"U18009Z1","name":"Znojmo, autobusové nádraží","arrival_time":"5:12:00","departure_time":"5:12:00","lat":48.851886,"lon":16.057356,"is_passed":false},{"stop_id":"U18214Z2","name":"Lechovice, obecní úřad","arrival_time":"5:26:00","departure_time":"5:26:00","lat":48.872568,"lon":16.221965,"is_passed":false},{"stop_id":"U18215Z2","name":"Lechovice, zámek","arrival_time":"5:28:00","departure_time":"5:28:00","lat":48.875885,"lon":16.236996,"is_passed":false},{"stop_id":"U18217Z2","name":"Oleksovice, rozcestí","arrival_time":"5:31:00","departure_time":"5:31:00","lat":48.887523,"lon":16.260499,"is_passed":false},{"stop_id":"U15557Z2","name":"Mackovice, rozcestí","arrival_time":"5:34:00","departure_time":"5:34:00","lat":48.901053,"lon":16.294054,"is_passed":false},{"stop_id":"U14557Z2","name":"Miroslav, Kašenec, státní silnice","arrival_time":"5:37:00","departure_time":"5:37:00","lat":48.91853,"lon":16.33381,"is_passed":false},{"stop_id":"U14552Z2","name":"Miroslav, rozcestí","arrival_time":"5:40:00","departure_time":"5:40:00","lat":48.933616,"lon":16.362524,"is_passed":false},{"stop_id":"U14024Z2","name":"Trnové Pole, rozcestí","arrival_time":"5:45:00","departure_time":"5:45:00","lat":48.955186,"lon":16.413722,"is_passed":false},{"stop_id":"U14011Z2","name":"Branišovice, státní silnice","arrival_time":"5:47:00","departure_time":"5:47:00","lat":48.959163,"lon":16.430035,"is_passed":false},{"stop_id":"U15320Z2","name":"Pohořelice, obchodní akademie","arrival_time":"5:53:00","departure_time":"5:53:00","lat":48.978585,"lon":16.505427,"is_passed":false},{"stop_id":"U15317Z3","name":"Pohořelice, náměstí","arrival_time":"5:55:00","departure_time":"5:55:00","lat":48.980878,"lon":16.522413,"is_passed":false},{"stop_id":"U15315Z2","name":"Pohořelice, Brněnská","arrival_time":"5:57:00","departure_time":"5:57:00","lat":48.984956,"lon":16.530513,"is_passed":false},{"stop_id":"U15379Z2","name":"Pohořelice, průmyslová zóna východ","arrival_time":"5:58:00","departure_time":"5:58:00","lat":48.990539,"lon":16.540751,"is_passed":false},{"stop_id":"U15122Z4","name":"Modřice, Brněnská","arrival_time":"6:12:00","departure_time":"6:12:00","lat":49.130132,"lon":16.604936,"is_passed":false},{"stop_id":"U1703Z7","name":"Ústřední hřbitov","arrival_time":"6:18:00","departure_time":"6:18:00","lat":49.170741,"lon":16.597834,"is_passed":false},{"stop_id":"U1622Z1","name":"Strážní","arrival_time":"6:21:00","departure_time":"6:21:00","lat":49.178207,"lon":16.603976,"is_passed":false},{"stop_id":"U1696Z11","name":"ÚAN Zvonařka","arrival_time":"6:25:00","departure_time":"7:25:00","lat":49.185364,"lon":16.616151,"is_passed":false}],"9767":[{"stop_id":"U1696Z11","name":"ÚAN Zvonařka","arrival_time":"7:25:00","departure_time":"7:25:00","lat":49.185364,"lon":16.616151,"is_passed":false},{"stop_id":"U1622Z2","name":"Strážní","arrival_time":"7:28:00","departure_time":"7:28:00","lat":49.178477,"lon":16.603646,"is_passed":false},{"stop_id":"U1703Z6","name":"Ústřední hřbitov","arrival_time":"7:31:00","departure_time":"7:31:00","lat":49.170744,"lon":16.597612,"is_passed":false},{"stop_id":"U15137Z10","name":"Modřice, Tyršova","arrival_time":"7:37:00","departure_time":"7:37:00","lat":49.130136,"lon":16.603469,"is_passed":false},{"stop_id":"U15379Z1","name":"Pohořelice, průmyslová zóna východ","arrival_time":"7:50:00","departure_time":"7:50:00","lat":48.989921,"lon":16.539353,"is_passed":false},{"stop_id":"U15315Z1","name":"Pohořelice, Brněnská","arrival_time":"7:51:00","departure_time":"7:51:00","lat":48.984843,"lon":16.529998,"is_passed":false},{"stop_id":"U15317Z6","name":"Pohořelice, náměstí","arrival_time":"7:53:00","departure_time":"7:55:00","lat":48.980709,"lon":16.521906,"is_passed":false},{"stop_id":"U15320Z1","name":"Pohořelice, obchodní akademie","arrival_time":"7:57:00","departure_time":"7:57:00","lat":48.978628,"lon":16.505258,"is_passed":false},{"stop_id":"U14011Z1","name":"Branišovice, státní silnice","arrival_time":"8:03:00","departure_time":"8:03:00","lat":48.959107,"lon":16.428737,"is_passed":false},{"stop_id":"U14024Z1","name":"Trnové Pole, rozcestí","arrival_time":"8:05:00","departure_time":"8:05:00","lat":48.955275,"lon":16.413453,"is_passed":false},{"stop_id":"U14552Z1","name":"Miroslav, rozcestí","arrival_time":"8:10:00","departure_time":"8:10:00","lat":48.933498,"lon":16.362293,"is_passed":false},{"stop_id":"U14557Z1","name":"Miroslav, Kašenec, státní silnice","arrival_time":"8:13:00","departure_time":"8:13:00","lat":48.918435,"lon":16.33352,"is_passed":false},{"stop_id":"U15557Z1","name":"Mackovice, rozcestí","arrival_time":"8:16:00","departure_time":"8:16:00","lat":48.900637,"lon":16.292692,"is_passed":false},{"stop_id":"U18217Z1","name":"Oleksovice, rozcestí","arrival_time":"8:19:00","departure_time":"8:19:00","lat":48.887532,"lon":16.260192,"is_passed":false},{"stop_id":"U18215Z1","name":"Lechovice, zámek","arrival_time":"8:22:00","departure_time":"8:22:00","lat":48.875338,"lon":16.236347,"is_passed":false},{"stop_id":"U18214Z1","name":"Lechovice, obecní úřad","arrival_time":"8:25:00","departure_time":"8:25:00","lat":48.872558,"lon":16.222179,"is_passed":false},{"stop_id":"U18009Z51","name":"Znojmo, autobusové nádraží","arrival_time":"8:40:00","departure_time":"10:12:00","lat":48.851908,"lon":16.056983,"is_passed":false}],"9768":[{"stop_id":"U18009Z1","name":"Znojmo, autobusové nádraží","arrival_time":"10:12:00","departure_time":"10:12:00","lat":48.851886,"lon":16.057356,"is_passed":false},{"stop_id":"U18214Z2","name":"Lechovice, obecní úřad","arrival_time":"10:26:00","departure_time":"10:26:00","lat":48.872568,"lon":16.221965,"is_passed":false},{"stop_id":"U18215Z2","name":"Lechovice, zámek","arrival_time":"10:28:00","departure_time":"10:28:00","lat":48.875885,"lon":16.236996,"is_passed":false},{"stop_id":"U18217Z2","name":"Oleksovice, rozcestí","arrival_time":"10:31:00","departure_time":"10:31:00","lat":48.887523,"lon":16.260499,"is_passed":false},{"stop_id":"U15557Z2","name":"Mackovice, rozcestí","arrival_time":"10:34:00","departure_time":"10:34:00","lat":48.901053,"lon":16.294054,"is_passed":false},{"stop_id":"U14557Z2","name":"Miroslav, Kašenec, státní silnice","arrival_time":"10:37:00","departure_time":"10:37:00","lat":48.91853,"lon":16.33381,"is_passed":false},{"stop_id":"U14552Z2","name":"Miroslav, rozcestí","arrival_time":"10:40:00","departure_time":"10:40:00","lat":48.933616,"lon":16.362524,"is_passed":false},{"stop_id":"U14024Z2","name":"Trnové Pole, rozcestí","arrival_time":"10:45:00","departure_time":"10:45:00","lat":48.955186,"lon":16.413722,"is_passed":false},{"stop_id":"U14011Z2","name":"Branišovice, státní silnice","arrival_time":"10:47:00","departure_time":"10:47:00","lat":48.959163,"lon":16.430035,"is_passed":false},{"stop_id":"U15320Z2","name":"Pohořelice, obchodní akademie","arrival_time":"10:53:00","departure_time":"10:53:00","lat":48.978585,"lon":16.505427,"is_passed":false},{"stop_id":"U15317Z3","name":"Pohořelice, náměstí","arrival_time":"10:55:00","departure_time":"10:55:00","lat":48.980878,"lon":16.522413,"is_passed":false},{"stop_id":"U15315Z2","name":"Pohořelice, Brněnská","arrival_time":"10:57:00","departure_time":"10:57:00","lat":48.984956,"lon":16.530513,"is_passed":false},{"stop_id":"U15379Z2","name":"Pohořelice, průmyslová zóna východ","arrival_time":"10:58:00","departure_time":"10:58:00","lat":48.990539,"lon":16.540751,"is_passed":false},{"stop_id":"U15122Z4","name":"Modřice, Brněnská","arrival_time":"11:12:00","departure_time":"11:12:00","lat":49.130132,"lon":16.604936,"is_passed":false},{"stop_id":"U1703Z7","name":"Ústřední hřbitov","arrival_time":"11:18:00","departure_time":"11:18:00","lat":49.170741,"lon":16.597834,"is_passed":false},{"stop_id":"U1622Z1","name":"Strážní","arrival_time":"11:21:00","departure_time":"11:21:00","lat":49.178207,"lon":16.603976,"is_passed":false},{"stop_id":"U1696Z11","name":"ÚAN Zvonařka","arrival_time":"11:25:00","departure_time":"11:55:00","lat":49.185364,"lon":16.616151,"is_passed":false}],"9769":[{"stop_id":"U1696Z8","name":"ÚAN Zvonařka","arrival_time":"11:55:00","departure_time":"11:55:00","lat":49.185364,"lon":16.616151,"is_passed":false},{"stop_id":"U18009Z51","name":"Znojmo, autobusové nádraží","arrival_time":"12:47:00","departure_time":"14:52:00","lat":48.851908,"lon":16.056983,"is_passed":false}]}