{"981":[{"stop_id":"U28502Z11","name":"Moravské Budějovice","arrival_time":"6:47:00","departure_time":"6:47:00","lat":49.057522,"lon":15.809326,"is_passed":false},{"stop_id":"U28501Z11","name":"Vesce","arrival_time":"6:53:00","departure_time":"6:53:00","lat":49.019071,"lon":15.831277,"is_passed":false},{"stop_id":"U28401Z11","name":"Blížkovice","arrival_time":"6:56:00","departure_time":"6:56:00","lat":49.004292,"lon":15.854364,"is_passed":false},{"stop_id":"U18339Z11","name":"Grešlové Mýto, železniční stanice","arrival_time":"6:59:00","departure_time":"7:00:00","lat":48.98455,"lon":15.874436,"is_passed":false},{"stop_id":"U18259Z11","name":"Šumná, železniční stanice","arrival_time":"7:07:00","departure_time":"7:08:00","lat":48.923097,"lon":15.874306,"is_passed":false},{"stop_id":"U18158Z11","name":"Olbramkostel, železniční stanice","arrival_time":"7:15:00","departure_time":"7:16:00","lat":48.903229,"lon":15.949177,"is_passed":false},{"stop_id":"U28103Z11","name":"Citonice","arrival_time":"7:20:00","departure_time":"7:20:00","lat":48.878906,"lon":15.977467,"is_passed":false},{"stop_id":"U28002Z11","name":"Znojmo nemocnice","arrival_time":"7:26:00","departure_time":"7:27:00","lat":48.865504,"lon":16.048394,"is_passed":false},{"stop_id":"U18009Z23","name":"Znojmo, autobusové nádraží","arrival_time":"7:30:00","departure_time":"7:30:00","lat":48.852761,"lon":16.059287,"is_passed":false}],"9810":[{"stop_id":"U12439Z51","name":"Rájec-Jestřebí, železniční stanice","arrival_time":"13:53:00","departure_time":"13:53:00","lat":49.408206,"lon":16.627711,"is_passed":false},{"stop_id":"U22301Z2","name":"Dolní Lhota","arrival_time":"13:55:00","departure_time":"13:56:00","lat":49.386917,"lon":16.633978,"is_passed":false},{"stop_id":"U22302Z2","name":"Blansko město","arrival_time":"13:58:00","departure_time":"13:59:00","lat":49.360996,"lon":16.639464,"is_passed":false},{"stop_id":"U12342Z29","name":"Blansko, aut. st.","arrival_time":"14:00:00","departure_time":"14:01:00","lat":49.352753,"lon":16.646848,"is_passed":false},{"stop_id":"U12231Z11","name":"Adamov, železniční zastávka","arrival_time":"14:07:00","departure_time":"14:07:00","lat":49.300671,"lon":16.650653,"is_passed":false},{"stop_id":"U12230Z11","name":"Adamov, železniční stanice","arrival_time":"14:09:00","departure_time":"14:10:00","lat":49.295341,"lon":16.663538,"is_passed":false},{"stop_id":"U12158Z11","name":"Bílovice nad Svitavou, žel. stanice","arrival_time":"14:17:00","departure_time":"14:18:00","lat":49.242715,"lon":16.673677,"is_passed":false},{"stop_id":"U1809Z11","name":"Židenice, nádraží","arrival_time":"14:23:00","departure_time":"14:23:00","lat":49.204282,"lon":16.636042,"is_passed":false},{"stop_id":"U1146Z98","name":"Hlavní nádraží","arrival_time":"14:29:00","departure_time":"15:00:00","lat":49.19035,"lon":16.612342,"is_passed":false}],"9811":[{"stop_id":"U1146Z99","name":"Hlavní nádraží","arrival_time":"15:00:00","departure_time":"15:00:00","lat":49.19035,"lon":16.612342,"is_passed":false},{"stop_id":"U1809Z10","name":"Židenice, nádraží","arrival_time":"15:04:00","departure_time":"15:05:00","lat":49.204282,"lon":16.636042,"is_passed":false},{"stop_id":"U12158Z10","name":"Bílovice nad Svitavou, žel. stanice","arrival_time":"15:10:00","departure_time":"15:11:00","lat":49.242715,"lon":16.673677,"is_passed":false},{"stop_id":"U22101Z1","name":"Babice nad Svitavou","arrival_time":"15:15:00","departure_time":"15:15:00","lat":49.276645,"lon":16.673012,"is_passed":false},{"stop_id":"U12230Z10","name":"Adamov, železniční stanice","arrival_time":"15:18:00","departure_time":"15:19:00","lat":49.295341,"lon":16.663538,"is_passed":false},{"stop_id":"U12231Z10","name":"Adamov, železniční zastávka","arrival_time":"15:20:00","departure_time":"15:21:00","lat":49.300671,"lon":16.650653,"is_passed":false},{"stop_id":"U12342Z30","name":"Blansko, aut. st.","arrival_time":"15:26:00","departure_time":"15:28:00","lat":49.352753,"lon":16.646848,"is_passed":false},{"stop_id":"U22302Z1","name":"Blansko město","arrival_time":"15:30:00","departure_time":"15:31:00","lat":49.360996,"lon":16.639464,"is_passed":false},{"stop_id":"U22301Z1","name":"Dolní Lhota","arrival_time":"15:33:00","departure_time":"15:34:00","lat":49.386917,"lon":16.633978,"is_passed":false},{"stop_id":"U12439Z50","name":"Rájec-Jestřebí, železniční stanice","arrival_time":"15:36:00","departure_time":"15:37:00","lat":49.408206,"lon":16.627711,"is_passed":false},{"stop_id":"U12511Z50","name":"Doubravice, žel.st.","arrival_time":"15:40:00","departure_time":"15:40:00","lat":49.438707,"lon":16.621809,"is_passed":false},{"stop_id":"U12676Z50","name":"Skalice nad Svitavou, žel.st.","arrival_time":"15:45:00","departure_time":"15:51:00","lat":49.480123,"lon":16.609726,"is_passed":false},{"stop_id":"U22602Z1","name":"Svitávka","arrival_time":"15:53:00","departure_time":"15:54:00","lat":49.499434,"lon":16.599208,"is_passed":false},{"stop_id":"U22701Z1","name":"Zboněk","arrival_time":"15:56:00","departure_time":"15:56:00","lat":49.521608,"lon":16.583438,"is_passed":false},{"stop_id":"U22702Z1","name":"Letovice zastávka","arrival_time":"15:59:00","departure_time":"15:59:00","lat":49.535496,"lon":16.576998,"is_passed":false},{"stop_id":"U12736Z50","name":"Letovice, železniční stanice","arrival_time":"16:02:00","departure_time":"16:57:00","lat":49.555973,"lon":16.570906,"is_passed":false}],"9812":[{"stop_id":"U12736Z51","name":"Letovice, železniční stanice","arrival_time":"16:57:00","departure_time":"16:57:00","lat":49.555973,"lon":16.570906,"is_passed":false},{"stop_id":"U22702Z2","name":"Letovice zastávka","arrival_time":"16:59:00","departure_time":"17:00:00","lat":49.536152,"lon":16.576186,"is_passed":false},{"stop_id":"U22701Z2","name":"Zboněk","arrival_time":"17:02:00","departure_time":"17:02:00","lat":49.520482,"lon":16.584439,"is_passed":false},{"stop_id":"U22602Z2","name":"Svitávka","arrival_time":"17:05:00","departure_time":"17:05:00","lat":49.499434,"lon":16.599208,"is_passed":false},{"stop_id":"U12676Z51","name":"Skalice nad Svitavou, žel.st.","arrival_time":"17:08:00","departure_time":"17:13:00","lat":49.480123,"lon":16.609726,"is_passed":false},{"stop_id":"U12511Z51","name":"Doubravice, žel.st.","arrival_time":"17:18:00","departure_time":"17:18:00","lat":49.438707,"lon":16.621809,"is_passed":false},{"stop_id":"U12439Z51","name":"Rájec-Jestřebí, železniční stanice","arrival_time":"17:21:00","departure_time":"17:22:00","lat":49.408206,"lon":16.627711,"is_passed":false},{"stop_id":"U22301Z2","name":"Dolní Lhota","arrival_time":"17:24:00","departure_time":"17:25:00","lat":49.386917,"lon":16.633978,"is_passed":false},{"stop_id":"U22302Z2","name":"Blansko město","arrival_time":"17:27:00","departure_time":"17:28:00","lat":49.360996,"lon":16.639464,"is_passed":false},{"stop_id":"U12342Z29","name":"Blansko, aut. st.","arrival_time":"17:30:00","departure_time":"17:31:00","lat":49.352753,"lon":16.646848,"is_passed":false},{"stop_id":"U12231Z11","name":"Adamov, železniční zastávka","arrival_time":"17:36:00","departure_time":"17:37:00","lat":49.300671,"lon":16.650653,"is_passed":false},{"stop_id":"U12230Z11","name":"Adamov, železniční stanice","arrival_time":"17:38:00","departure_time":"17:39:00","lat":49.295341,"lon":16.663538,"is_passed":false},{"stop_id":"U22101Z2","name":"Babice nad Svitavou","arrival_time":"17:42:00","departure_time":"17:42:00","lat":49.276645,"lon":16.673012,"is_passed":false},{"stop_id":"U12158Z11","name":"Bílovice nad Svitavou, žel. stanice","arrival_time":"17:46:00","departure_time":"17:47:00","lat":49.242715,"lon":16.673677,"is_passed":false},{"stop_id":"U1809Z11","name":"Židenice, nádraží","arrival_time":"17:52:00","departure_time":"17:52:00","lat":49.204282,"lon":16.636042,"is_passed":false},{"stop_id":"U1146Z98","name":"Hlavní nádraží","arrival_time":"17:59:00","departure_time":"18:06:00","lat":49.19035,"lon":16.612342,"is_passed":false},{"stop_id":"U1183Z11","name":"Chrlice, nádraží","arrival_time":"18:14:00","departure_time":"18:17:00","lat":49.132031,"lon":16.657232,"is_passed":false},{"stop_id":"U16149Z11","name":"Sokolnice, železniční stanice","arrival_time":"18:23:00","departure_time":"19:10:00","lat":49.108029,"lon":16.733459,"is_passed":false}],"9813":[{"stop_id":"U16149Z10","name":"Sokolnice, železniční stanice","arrival_time":"19:10:00","departure_time":"19:10:00","lat":49.108029,"lon":16.733459,"is_passed":false},{"stop_id":"U1183Z10","name":"Chrlice, nádraží","arrival_time":"19:15:00","departure_time":"19:16:00","lat":49.132031,"lon":16.657232,"is_passed":false},{"stop_id":"U1146Z99","name":"Hlavní nádraží","arrival_time":"19:26:00","departure_time":"19:29:00","lat":49.19035,"lon":16.612342,"is_passed":false},{"stop_id":"U1809Z10","name":"Židenice, nádraží","arrival_time":"19:33:00","departure_time":"19:35:00","lat":49.204282,"lon":16.636042,"is_passed":false},{"stop_id":"U12158Z10","name":"Bílovice nad Svitavou, žel. stanice","arrival_time":"19:40:00","departure_time":"19:41:00","lat":49.242715,"lon":16.673677,"is_passed":false},{"stop_id":"U12230Z10","name":"Adamov, železniční stanice","arrival_time":"19:48:00","departure_time":"19:49:00","lat":49.295341,"lon":16.663538,"is_passed":false},{"stop_id":"U12231Z10","name":"Adamov, železniční zastávka","arrival_time":"19:50:00","departure_time":"19:51:00","lat":49.300671,"lon":16.650653,"is_passed":false},{"stop_id":"U12342Z30","name":"Blansko, aut. st.","arrival_time":"19:56:00","departure_time":"19:58:00","lat":49.352753,"lon":16.646848,"is_passed":false},{"stop_id":"U22302Z1","name":"Blansko město","arrival_time":"20:00:00","departure_time":"20:00:00","lat":49.360996,"lon":16.639464,"is_passed":false},{"stop_id":"U22301Z1","name":"Dolní Lhota","arrival_time":"20:03:00","departure_time":"20:03:00","lat":49.386917,"lon":16.633978,"is_passed":false},{"stop_id":"U12439Z50","name":"Rájec-Jestřebí, železniční stanice","arrival_time":"20:06:00","departure_time":"20:10:00","lat":49.408206,"lon":16.627711,"is_passed":false},{"stop_id":"U12511Z50","name":"Doubravice, žel.st.","arrival_time":"20:13:00","departure_time":"20:13:00","lat":49.438707,"lon":16.621809,"is_passed":false},{"stop_id":"U12676Z50","name":"Skalice nad Svitavou, žel.st.","arrival_time":"20:19:00","departure_time":"20:19:00","lat":49.480123,"lon":16.609726,"is_passed":false}],"9814":[{"stop_id":"U1146Z99","name":"Hlavní nádraží","arrival_time":"9:00:00","departure_time":"9:00:00","lat":49.19035,"lon":16.612342,"is_passed":false},{"stop_id":"U1809Z10","name":"Židenice, nádraží","arrival_time":"9:04:00","departure_time":"9:05:00","lat":49.204282,"lon":16.636042,"is_passed":false},{"stop_id":"U12158Z10","name":"Bílovice nad Svitavou, žel. stanice","arrival_time":"9:10:00","departure_time":"9:11:00","lat":49.242715,"lon":16.673677,"is_passed":false},{"stop_id":"U22101Z1","name":"Babice nad Svitavou","arrival_time":"9:15:00","departure_time":"9:15:00","lat":49.276645,"lon":16.673012,"is_passed":false},{"stop_id":"U12230Z10","name":"Adamov, železniční stanice","arrival_time":"9:18:00","departure_time":"9:19:00","lat":49.295341,"lon":16.663538,"is_passed":false},{"stop_id":"U12231Z10","name":"Adamov, železniční zastávka","arrival_time":"9:20:00","departure_time":"9:21:00","lat":49.300671,"lon":16.650653,"is_passed":false},{"stop_id":"U12342Z30","name":"Blansko, aut. st.","arrival_time":"9:26:00","departure_time":"9:28:00","lat":49.352753,"lon":16.646848,"is_passed":false},{"stop_id":"U22302Z1","name":"Blansko město","arrival_time":"9:30:00","departure_time":"9:31:00","lat":49.360996,"lon":16.639464,"is_passed":false},{"stop_id":"U22301Z1","name":"Dolní Lhota","arrival_time":"9:33:00","departure_time":"9:34:00","lat":49.386917,"lon":16.633978,"is_passed":false},{"stop_id":"U12439Z50","name":"Rájec-Jestřebí, železniční stanice","arrival_time":"9:36:00","departure_time":"9:37:00","lat":49.408206,"lon":16.627711,"is_passed":false},{"stop_id":"U12511Z50","name":"Doubravice, žel.st.","arrival_time":"9:40:00","departure_time":"9:40:00","lat":49.438707,"lon":16.621809,"is_passed":false},{"stop_id":"U12676Z50","name":"Skalice nad Svitavou, žel.st.","arrival_time":"9:45:00","departure_time":"9:51:00","lat":49.480123,"lon":16.609726,"is_passed":false},{"stop_id":"U22602Z1","name":"Svitávka","arrival_time":"9:53:00","departure_time":"9:54:00","lat":49.499434,"lon":16.599208,"is_passed":false},{"stop_id":"U22701Z1","name":"Zboněk","arrival_time":"9:56:00","departure_time":"9:56:00","lat":49.521608,"lon":16.583438,"is_passed":false},{"stop_id":"U22702Z1","name":"Letovice zastávka","arrival_time":"9:59:00","departure_time":"9:59:00","lat":49.535496,"lon":16.576998,"is_passed":false},{"stop_id":"U12736Z50","name":"Letovice, železniční stanice","arrival_time":"10:02:00","departure_time":"10:57:00","lat":49.555973,"lon":16.570906,"is_passed":false}],"9815":[{"stop_id":"U12736Z51","name":"Letovice, železniční stanice","arrival_time":"10:57:00","departure_time":"10:57:00","lat":49.555973,"lon":16.570906,"is_passed":false},{"stop_id":"U22702Z2","name":"Letovice zastávka","arrival_time":"10:59:00","departure_time":"11:00:00","lat":49.536152,"lon":16.576186,"is_passed":false},{"stop_id":"U22701Z2","name":"Zboněk","arrival_time":"11:02:00","departure_time":"11:02:00","lat":49.520482,"lon":16.584439,"is_passed":false},{"stop_id":"U22602Z2","name":"Svitávka","arrival_time":"11:05:00","departure_time":"11:05:00","lat":49.499434,"lon":16.599208,"is_passed":false},{"stop_id":"U12676Z51","name":"Skalice nad Svitavou, žel.st.","arrival_time":"11:08:00","departure_time":"11:13:00","lat":49.480123,"lon":16.609726,"is_passed":false},{"stop_id":"U12511Z51","name":"Doubravice, žel.st.","arrival_time":"11:18:00","departure_time":"11:18:00","lat":49.438707,"lon":16.621809,"is_passed":false},{"stop_id":"U12439Z51","name":"Rájec-Jestřebí, železniční stanice","arrival_time":"11:21:00","departure_time":"11:22:00","lat":49.408206,"lon":16.627711,"is_passed":false},{"stop_id":"U22301Z2","name":"Dolní Lhota","arrival_time":"11:24:00","departure_time":"11:25:00","lat":49.386917,"lon":16.633978,"is_passed":false},{"stop_id":"U22302Z2","name":"Blansko město","arrival_time":"11:27:00","departure_time":"11:28:00","lat":49.360996,"lon":16.639464,"is_passed":false},{"stop_id":"U12342Z29","name":"Blansko, aut. st.","arrival_time":"11:30:00","departure_time":"11:31:00","lat":49.352753,"lon":16.646848,"is_passed":false},{"stop_id":"U12231Z11","name":"Adamov, železniční zastávka","arrival_time":"11:36:00","departure_time":"11:37:00","lat":49.300671,"lon":16.650653,"is_passed":false},{"stop_id":"U12230Z11","name":"Adamov, železniční stanice","arrival_time":"11:38:00","departure_time":"11:39:00","lat":49.295341,"lon":16.663538,"is_passed":false},{"stop_id":"U22101Z2","name":"Babice nad Svitavou","arrival_time":"11:42:00","departure_time":"11:42:00","lat":49.276645,"lon":16.673012,"is_passed":false},{"stop_id":"U12158Z11","name":"Bílovice nad Svitavou, žel. stanice","arrival_time":"11:46:00","departure_time":"11:47:00","lat":49.242715,"lon":16.673677,"is_passed":false},{"stop_id":"U1809Z11","name":"Židenice, nádraží","arrival_time":"11:52:00","departure_time":"11:52:00","lat":49.204282,"lon":16.636042,"is_passed":false},{"stop_id":"U1146Z98","name":"Hlavní nádraží","arrival_time":"11:59:00","departure_time":"12:06:00","lat":49.19035,"lon":16.612342,"is_passed":false},{"stop_id":"U1183Z11","name":"Chrlice, nádraží","arrival_time":"12:14:00","departure_time":"12:17:00","lat":49.132031,"lon":16.657232,"is_passed":false},{"stop_id":"U16149Z11","name":"Sokolnice, železniční stanice","arrival_time":"12:23:00","departure_time":"13:10:00","lat":49.108029,"lon":16.733459,"is_passed":false}],"9816":[{"stop_id":"U16149Z10","name":"Sokolnice, železniční stanice","arrival_time":"13:10:00","departure_time":"13:10:00","lat":49.108029,"lon":16.733459,"is_passed":false},{"stop_id":"U1183Z10","name":"Chrlice, nádraží","arrival_time":"13:15:00","departure_time":"13:16:00","lat":49.132031,"lon":16.657232,"is_passed":false},{"stop_id":"U1146Z99","name":"Hlavní nádraží","arrival_time":"13:26:00","departure_time":"13:29:00","lat":49.19035,"lon":16.612342,"is_passed":false},{"stop_id":"U1809Z10","name":"Židenice, nádraží","arrival_time":"13:33:00","departure_time":"13:34:00","lat":49.204282,"lon":16.636042,"is_passed":false},{"stop_id":"U12158Z10","name":"Bílovice nad Svitavou, žel. stanice","arrival_time":"13:39:00","departure_time":"13:40:00","lat":49.242715,"lon":16.673677,"is_passed":false},{"stop_id":"U12230Z10","name":"Adamov, železniční stanice","arrival_time":"13:47:00","departure_time":"13:48:00","lat":49.295341,"lon":16.663538,"is_passed":false},{"stop_id":"U12231Z10","name":"Adamov, železniční zastávka","arrival_time":"13:50:00","departure_time":"13:50:00","lat":49.300671,"lon":16.650653,"is_passed":false},{"stop_id":"U12342Z30","name":"Blansko, aut. st.","arrival_time":"13:56:00","departure_time":"13:57:00","lat":49.352753,"lon":16.646848,"is_passed":false},{"stop_id":"U22302Z1","name":"Blansko město","arrival_time":"13:59:00","departure_time":"14:00:00","lat":49.360996,"lon":16.639464,"is_passed":false},{"stop_id":"U22301Z1","name":"Dolní Lhota","arrival_time":"14:02:00","departure_time":"14:03:00","lat":49.386917,"lon":16.633978,"is_passed":false},{"stop_id":"U12439Z50","name":"Rájec-Jestřebí, železniční stanice","arrival_time":"14:06:00","departure_time":"14:53:00","lat":49.408206,"lon":16.627711,"is_passed":false}],"9817":[{"stop_id":"U12439Z51","name":"Rájec-Jestřebí, železniční stanice","arrival_time":"14:53:00","departure_time":"14:53:00","lat":49.408206,"lon":16.627711,"is_passed":false},{"stop_id":"U22301Z2","name":"Dolní Lhota","arrival_time":"14:55:00","departure_time":"14:56:00","lat":49.386917,"lon":16.633978,"is_passed":false},{"stop_id":"U22302Z2","name":"Blansko město","arrival_time":"14:58:00","departure_time":"14:59:00","lat":49.360996,"lon":16.639464,"is_passed":false},{"stop_id":"U12342Z29","name":"Blansko, aut. st.","arrival_time":"15:00:00","departure_time":"15:01:00","lat":49.352753,"lon":16.646848,"is_passed":false},{"stop_id":"U12231Z11","name":"Adamov, železniční zastávka","arrival_time":"15:07:00","departure_time":"15:07:00","lat":49.300671,"lon":16.650653,"is_passed":false},{"stop_id":"U12230Z11","name":"Adamov, železniční stanice","arrival_time":"15:09:00","departure_time":"15:10:00","lat":49.295341,"lon":16.663538,"is_passed":false},{"stop_id":"U12158Z11","name":"Bílovice nad Svitavou, žel. stanice","arrival_time":"15:17:00","departure_time":"15:18:00","lat":49.242715,"lon":16.673677,"is_passed":false},{"stop_id":"U1809Z11","name":"Židenice, nádraží","arrival_time":"15:23:00","departure_time":"15:23:00","lat":49.204282,"lon":16.636042,"is_passed":false},{"stop_id":"U1146Z98","name":"Hlavní nádraží","arrival_time":"15:28:00","departure_time":"15:58:00","lat":49.19035,"lon":16.612342,"is_passed":false}],"9818":[{"stop_id":"U1146Z99","name":"Hlavní nádraží","arrival_time":"15:58:00","departure_time":"15:58:00","lat":49.19035,"lon":16.612342,"is_passed":false},{"stop_id":"U1809Z10","name":"Židenice, nádraží","arrival_time":"16:01:00","departure_time":"16:04:00","lat":49.204282,"lon":16.636042,"is_passed":false},{"stop_id":"U12158Z10","name":"Bílovice nad Svitavou, žel. stanice","arrival_time":"16:09:00","departure_time":"16:09:00","lat":49.242715,"lon":16.673677,"is_passed":false},{"stop_id":"U22101Z1","name":"Babice nad Svitavou","arrival_time":"16:13:00","departure_time":"16:13:00","lat":49.276645,"lon":16.673012,"is_passed":false},{"stop_id":"U12230Z10","name":"Adamov, železniční stanice","arrival_time":"16:16:00","departure_time":"16:17:00","lat":49.295341,"lon":16.663538,"is_passed":false},{"stop_id":"U12231Z10","name":"Adamov, železniční zastávka","arrival_time":"16:18:00","departure_time":"16:19:00","lat":49.300671,"lon":16.650653,"is_passed":false},{"stop_id":"U12342Z30","name":"Blansko, aut. st.","arrival_time":"16:24:00","departure_time":"16:25:00","lat":49.352753,"lon":16.646848,"is_passed":false},{"stop_id":"U22302Z1","name":"Blansko město","arrival_time":"16:27:00","departure_time":"16:28:00","lat":49.360996,"lon":16.639464,"is_passed":false},{"stop_id":"U22301Z1","name":"Dolní Lhota","arrival_time":"16:30:00","departure_time":"16:31:00","lat":49.386917,"lon":16.633978,"is_passed":false},{"stop_id":"U12439Z50","name":"Rájec-Jestřebí, železniční stanice","arrival_time":"16:33:00","departure_time":"16:34:00","lat":49.408206,"lon":16.627711,"is_passed":false},{"stop_id":"U12511Z50","name":"Doubravice, žel.st.","arrival_time":"16:37:00","departure_time":"16:37:00","lat":49.438707,"lon":16.621809,"is_passed":false},{"stop_id":"U12676Z50","name":"Skalice nad Svitavou, žel.st.","arrival_time":"16:43:00","departure_time":"16:51:00","lat":49.480123,"lon":16.609726,"is_passed":false},{"stop_id":"U22602Z1","name":"Svitávka","arrival_time":"16:53:00","departure_time":"16:54:00","lat":49.499434,"lon":16.599208,"is_passed":false},{"stop_id":"U22701Z1","name":"Zboněk","arrival_time":"16:56:00","departure_time":"16:56:00","lat":49.521608,"lon":16.583438,"is_passed":false},{"stop_id":"U22702Z1","name":"Letovice zastávka","arrival_time":"16:59:00","departure_time":"16:59:00","lat":49.535496,"lon":16.576998,"is_passed":false},{"stop_id":"U12736Z50","name":"Letovice, železniční stanice","arrival_time":"17:02:00","departure_time":"17:57:00","lat":49.555973,"lon":16.570906,"is_passed":false}],"9819":[{"stop_id":"U12736Z51","name":"Letovice, železniční stanice","arrival_time":"17:57:00","departure_time":"17:57:00","lat":49.555973,"lon":16.570906,"is_passed":false},{"stop_id":"U22702Z2","name":"Letovice zastávka","arrival_time":"17:59:00","departure_time":"18:00:00","lat":49.536152,"lon":16.576186,"is_passed":false},{"stop_id":"U22701Z2","name":"Zboněk","arrival_time":"18:02:00","departure_time":"18:02:00","lat":49.520482,"lon":16.584439,"is_passed":false},{"stop_id":"U22602Z2","name":"Svitávka","arrival_time":"18:05:00","departure_time":"18:05:00","lat":49.499434,"lon":16.599208,"is_passed":false},{"stop_id":"U12676Z51","name":"Skalice nad Svitavou, žel.st.","arrival_time":"18:08:00","departure_time":"18:13:00","lat":49.480123,"lon":16.609726,"is_passed":false},{"stop_id":"U12511Z51","name":"Doubravice, žel.st.","arrival_time":"18:18:00","departure_time":"18:18:00","lat":49.438707,"lon":16.621809,"is_passed":false},{"stop_id":"U12439Z51","name":"Rájec-Jestřebí, železniční stanice","arrival_time":"18:21:00","departure_time":"18:22:00","lat":49.408206,"lon":16.627711,"is_passed":false},{"stop_id":"U22301Z2","name":"Dolní Lhota","arrival_time":"18:24:00","departure_time":"18:25:00","lat":49.386917,"lon":16.633978,"is_passed":false},{"stop_id":"U22302Z2","name":"Blansko město","arrival_time":"18:27:00","departure_time":"18:28:00","lat":49.360996,"lon":16.639464,"is_passed":false},{"stop_id":"U12342Z29","name":"Blansko, aut. st.","arrival_time":"18:30:00","departure_time":"18:31:00","lat":49.352753,"lon":16.646848,"is_passed":false},{"stop_id":"U12231Z11","name":"Adamov, železniční zastávka","arrival_time":"18:36:00","departure_time":"18:37:00","lat":49.300671,"lon":16.650653,"is_passed":false},{"stop_id":"U12230Z11","name":"Adamov, železniční stanice","arrival_time":"18:38:00","departure_time":"18:39:00","lat":49.295341,"lon":16.663538,"is_passed":false},{"stop_id":"U22101Z2","name":"Babice nad Svitavou","arrival_time":"18:42:00","departure_time":"18:42:00","lat":49.276645,"lon":16.673012,"is_passed":false},{"stop_id":"U12158Z11","name":"Bílovice nad Svitavou, žel. stanice","arrival_time":"18:46:00","departure_time":"18:47:00","lat":49.242715,"lon":16.673677,"is_passed":false},{"stop_id":"U1809Z11","name":"Židenice, nádraží","arrival_time":"18:52:00","departure_time":"18:52:00","lat":49.204282,"lon":16.636042,"is_passed":false},{"stop_id":"U1146Z98","name":"Hlavní nádraží","arrival_time":"18:59:00","departure_time":"19:06:00","lat":49.19035,"lon":16.612342,"is_passed":false},{"stop_id":"U1183Z11","name":"Chrlice, nádraží","arrival_time":"19:14:00","departure_time":"19:17:00","lat":49.132031,"lon":16.657232,"is_passed":false},{"stop_id":"U16149Z11","name":"Sokolnice, železniční stanice","arrival_time":"19:23:00","departure_time":"19:24:00","lat":49.108029,"lon":16.733459,"is_passed":false},{"stop_id":"U26101Z2","name":"Újezd u Brna","arrival_time":"19:25:00","departure_time":"19:26:00","lat":49.107297,"lon":16.745564,"is_passed":false},{"stop_id":"U26102Z2","name":"Hostěrádky-Rešov","arrival_time":"19:29:00","departure_time":"19:29:00","lat":49.119822,"lon":16.782755,"is_passed":false},{"stop_id":"U26201Z2","name":"Zbýšov","arrival_time":"19:32:00","departure_time":"19:32:00","lat":49.132691,"lon":16.806859,"is_passed":false},{"stop_id":"U16212Z11","name":"Křenovice, hor. žel. st.","arrival_time":"19:35:00","departure_time":"19:58:00","lat":49.143553,"lon":16.824564,"is_passed":false}]}