{"981":[{"stop_id":"U13701Z12","name":"Bystřice nad Pern., železniční stanice","arrival_time":"4:35:00","departure_time":"4:35:00","lat":49.513611,"lon":16.246667,"is_passed":false},{"stop_id":"U13801Z12","name":"Rozsochy, železniční stanice","arrival_time":"4:42:00","departure_time":"4:42:00","lat":49.537385,"lon":16.195122,"is_passed":false},{"stop_id":"U23801Z2","name":"Rovné-Divišov","arrival_time":"4:45:00","departure_time":"4:45:00","lat":49.547632,"lon":16.172826,"is_passed":false}],"9810":[{"stop_id":"U31028Z1","name":"Staré Město u Uherského Hradiště","arrival_time":"6:07:00","departure_time":"6:07:00","lat":49.076029,"lon":17.422624,"is_passed":false},{"stop_id":"U31027Z1","name":"Uherské Hradiště","arrival_time":"6:13:00","departure_time":"6:13:00","lat":49.066881,"lon":17.457171,"is_passed":false}],"9811":[{"stop_id":"U31027Z2","name":"Uherské Hradiště","arrival_time":"6:16:00","departure_time":"6:16:00","lat":49.066825,"lon":17.457085,"is_passed":false},{"stop_id":"U31028Z2","name":"Staré Město u Uherského Hradiště","arrival_time":"6:22:00","departure_time":"6:32:00","lat":49.076022,"lon":17.42271,"is_passed":false}],"9812":[{"stop_id":"U31028Z1","name":"Staré Město u Uherského Hradiště","arrival_time":"6:32:00","departure_time":"6:32:00","lat":49.076029,"lon":17.422624,"is_passed":false},{"stop_id":"U31027Z1","name":"Uherské Hradiště","arrival_time":"6:38:00","departure_time":"6:39:00","lat":49.066881,"lon":17.457171,"is_passed":false},{"stop_id":"U31026Z2","name":"Kunovice","arrival_time":"6:42:00","departure_time":"6:42:00","lat":49.051914,"lon":17.470711,"is_passed":false}],"9813":[{"stop_id":"U31026Z1","name":"Kunovice","arrival_time":"7:01:00","departure_time":"7:01:00","lat":49.051998,"lon":17.470067,"is_passed":false},{"stop_id":"U31027Z2","name":"Uherské Hradiště","arrival_time":"7:04:00","departure_time":"7:06:00","lat":49.066825,"lon":17.457085,"is_passed":false},{"stop_id":"U31028Z2","name":"Staré Město u Uherského Hradiště","arrival_time":"7:12:00","departure_time":"7:39:00","lat":49.076022,"lon":17.42271,"is_passed":false}],"9814":[{"stop_id":"U31028Z1","name":"Staré Město u Uherského Hradiště","arrival_time":"7:39:00","departure_time":"7:39:00","lat":49.076029,"lon":17.422624,"is_passed":false},{"stop_id":"U31027Z1","name":"Uherské Hradiště","arrival_time":"7:45:00","departure_time":"7:47:00","lat":49.066881,"lon":17.457171,"is_passed":false},{"stop_id":"U31026Z2","name":"Kunovice","arrival_time":"7:50:00","departure_time":"7:50:00","lat":49.051914,"lon":17.470711,"is_passed":false}],"9815":[{"stop_id":"U31027Z2","name":"Uherské Hradiště","arrival_time":"7:47:00","departure_time":"7:47:00","lat":49.066825,"lon":17.457085,"is_passed":false},{"stop_id":"U31028Z2","name":"Staré Město u Uherského Hradiště","arrival_time":"7:53:00","departure_time":"7:59:00","lat":49.076022,"lon":17.42271,"is_passed":false}],"9816":[{"stop_id":"U31028Z1","name":"Staré Město u Uherského Hradiště","arrival_time":"7:59:00","departure_time":"7:59:00","lat":49.076029,"lon":17.422624,"is_passed":false},{"stop_id":"U31027Z1","name":"Uherské Hradiště","arrival_time":"8:05:00","departure_time":"8:07:00","lat":49.066881,"lon":17.457171,"is_passed":false}],"9817":[{"stop_id":"U31026Z1","name":"Kunovice","arrival_time":"7:26:00","departure_time":"7:26:00","lat":49.051998,"lon":17.470067,"is_passed":false},{"stop_id":"U31027Z2","name":"Uherské Hradiště","arrival_time":"7:28:00","departure_time":"7:32:00","lat":49.066825,"lon":17.457085,"is_passed":false},{"stop_id":"U31028Z2","name":"Staré Město u Uherského Hradiště","arrival_time":"7:38:00","departure_time":"7:38:00","lat":49.076022,"lon":17.42271,"is_passed":false}],"9818":[{"stop_id":"U31027Z1","name":"Uherské Hradiště","arrival_time":"8:31:00","departure_time":"8:31:00","lat":49.066881,"lon":17.457171,"is_passed":false},{"stop_id":"U31026Z2","name":"Kunovice","arrival_time":"8:34:00","departure_time":"8:34:00","lat":49.051914,"lon":17.470711,"is_passed":false}],"9819":[{"stop_id":"U31026Z1","name":"Kunovice","arrival_time":"8:10:00","departure_time":"8:10:00","lat":49.051998,"lon":17.470067,"is_passed":false},{"stop_id":"U31027Z2","name":"Uherské Hradiště","arrival_time":"8:13:00","departure_time":"8:16:00","lat":49.066825,"lon":17.457085,"is_passed":false},{"stop_id":"U31028Z2","name":"Staré Město u Uherského Hradiště","arrival_time":"8:22:00","departure_time":"9:35:00","lat":49.076022,"lon":17.42271,"is_passed":false}]}