{"981":[{"stop_id":"U1809Z11","name":"Židenice, nádraží","arrival_time":"13:35:00","departure_time":"13:35:00","lat":49.204282,"lon":16.636042,"is_passed":false},{"stop_id":"U1146Z98","name":"Hlavní nádraží","arrival_time":"13:40:00","departure_time":"13:48:00","lat":49.19035,"lon":16.612342,"is_passed":false},{"stop_id":"U15729Z13","name":"Břeclav, autobusové nádraží","arrival_time":"14:17:00","departure_time":"14:17:00","lat":48.753851,"lon":16.893169,"is_passed":false}],"9810":[{"stop_id":"U12635Z51","name":"Boskovice, aut.st.","arrival_time":"18:19:00","departure_time":"18:19:00","lat":49.491667,"lon":16.651778,"is_passed":false},{"stop_id":"U12676Z51","name":"Skalice nad Svitavou, žel.st.","arrival_time":"18:26:00","departure_time":"18:47:00","lat":49.480123,"lon":16.609726,"is_passed":false}],"9811":[{"stop_id":"U12676Z50","name":"Skalice nad Svitavou, žel.st.","arrival_time":"18:47:00","departure_time":"18:47:00","lat":49.480123,"lon":16.609726,"is_passed":false},{"stop_id":"U12635Z50","name":"Boskovice, aut.st.","arrival_time":"18:54:00","departure_time":"19:01:00","lat":49.491667,"lon":16.651778,"is_passed":false}],"9812":[{"stop_id":"U12635Z51","name":"Boskovice, aut.st.","arrival_time":"19:01:00","departure_time":"19:01:00","lat":49.491667,"lon":16.651778,"is_passed":false},{"stop_id":"U12676Z51","name":"Skalice nad Svitavou, žel.st.","arrival_time":"19:08:00","departure_time":"19:27:00","lat":49.480123,"lon":16.609726,"is_passed":false}],"9813":[{"stop_id":"U12676Z50","name":"Skalice nad Svitavou, žel.st.","arrival_time":"19:27:00","departure_time":"19:27:00","lat":49.480123,"lon":16.609726,"is_passed":false},{"stop_id":"U12635Z50","name":"Boskovice, aut.st.","arrival_time":"19:34:00","departure_time":"20:19:00","lat":49.491667,"lon":16.651778,"is_passed":false}],"9814":[{"stop_id":"U12635Z51","name":"Boskovice, aut.st.","arrival_time":"20:19:00","departure_time":"20:19:00","lat":49.491667,"lon":16.651778,"is_passed":false},{"stop_id":"U12676Z51","name":"Skalice nad Svitavou, žel.st.","arrival_time":"20:26:00","departure_time":"20:47:00","lat":49.480123,"lon":16.609726,"is_passed":false}],"9815":[{"stop_id":"U12676Z50","name":"Skalice nad Svitavou, žel.st.","arrival_time":"20:47:00","departure_time":"20:47:00","lat":49.480123,"lon":16.609726,"is_passed":false},{"stop_id":"U12635Z50","name":"Boskovice, aut.st.","arrival_time":"20:54:00","departure_time":"21:02:00","lat":49.491667,"lon":16.651778,"is_passed":false}],"9816":[{"stop_id":"U12635Z51","name":"Boskovice, aut.st.","arrival_time":"21:02:00","departure_time":"21:02:00","lat":49.491667,"lon":16.651778,"is_passed":false},{"stop_id":"U12676Z51","name":"Skalice nad Svitavou, žel.st.","arrival_time":"21:09:00","departure_time":"21:47:00","lat":49.480123,"lon":16.609726,"is_passed":false}],"9817":[{"stop_id":"U12676Z50","name":"Skalice nad Svitavou, žel.st.","arrival_time":"21:47:00","departure_time":"21:47:00","lat":49.480123,"lon":16.609726,"is_passed":false},{"stop_id":"U12635Z50","name":"Boskovice, aut.st.","arrival_time":"21:54:00","departure_time":"22:02:00","lat":49.491667,"lon":16.651778,"is_passed":false}],"9818":[{"stop_id":"U12635Z51","name":"Boskovice, aut.st.","arrival_time":"22:02:00","departure_time":"22:02:00","lat":49.491667,"lon":16.651778,"is_passed":false},{"stop_id":"U12676Z51","name":"Skalice nad Svitavou, žel.st.","arrival_time":"22:09:00","departure_time":"22:09:00","lat":49.480123,"lon":16.609726,"is_passed":false}],"9819":[{"stop_id":"U12936Z11","name":"Březová nad Svitavou, železniční stanice","arrival_time":"4:39:00","departure_time":"4:39:00","lat":49.633104,"lon":16.520656,"is_passed":false},{"stop_id":"U12804Z11","name":"Brněnec, Mor.Chrastová, žel.st.","arrival_time":"4:41:00","departure_time":"4:41:00","lat":49.623616,"lon":16.524459,"is_passed":false},{"stop_id":"U12819Z11","name":"Rozhraní, železniční zastávka","arrival_time":"4:44:00","departure_time":"4:44:00","lat":49.601763,"lon":16.532438,"is_passed":false},{"stop_id":"U12736Z51","name":"Letovice, železniční stanice","arrival_time":"4:49:00","departure_time":"4:49:00","lat":49.555973,"lon":16.570906,"is_passed":false}]}