[{"stop_id":"U18009Z9","name":"Znojmo, autobusové nádraží","arrival_time":"6:35:00","departure_time":"6:35:00","lat":48.851967,"lon":16.057217,"is_passed":false},{"stop_id":"U18011Z4","name":"Znojmo, nám.Svobody, lázně","arrival_time":"6:39:00","departure_time":"6:39:00","lat":48.860867,"lon":16.049582,"is_passed":false},{"stop_id":"U18012Z2","name":"Znojmo, Pražská, Kolonka","arrival_time":"6:40:00","departure_time":"6:40:00","lat":48.863104,"lon":16.042081,"is_passed":false},{"stop_id":"U18075Z1","name":"Znojmo, Pražská, sídliště","arrival_time":"6:42:00","departure_time":"6:42:00","lat":48.866939,"lon":16.035432,"is_passed":false},{"stop_id":"U18141Z1","name":"Citonice","arrival_time":"6:47:00","departure_time":"6:47:00","lat":48.88119,"lon":15.968185,"is_passed":false},{"stop_id":"U18154Z1","name":"Milíčovice, obecní úřad","arrival_time":"6:52:00","departure_time":"6:52:00","lat":48.891915,"lon":15.930685,"is_passed":false},{"stop_id":"U18260Z1","name":"Vracovice","arrival_time":"6:56:00","departure_time":"6:56:00","lat":48.899932,"lon":15.899868,"is_passed":false},{"stop_id":"U18282Z1","name":"Vracovice, u kostela","arrival_time":"6:59:00","departure_time":"6:59:00","lat":48.903403,"lon":15.899692,"is_passed":false},{"stop_id":"U18249Z1","name":"Horní Břečkov, Jednota","arrival_time":"7:02:00","departure_time":"7:06:00","lat":48.889915,"lon":15.898102,"is_passed":false},{"stop_id":"U18253Z2","name":"Lesná, penzion","arrival_time":"7:10:00","departure_time":"7:15:00","lat":48.90747,"lon":15.86739,"is_passed":false}]