{"983":[{"stop_id":"U1809Z11","name":"Židenice, nádraží","arrival_time":"17:35:00","departure_time":"17:35:00","lat":49.204282,"lon":16.636042,"is_passed":false},{"stop_id":"U1146Z98","name":"Hlavní nádraží","arrival_time":"17:40:00","departure_time":"17:48:00","lat":49.19035,"lon":16.612342,"is_passed":false},{"stop_id":"U15729Z13","name":"Břeclav, autobusové nádraží","arrival_time":"18:17:00","departure_time":"18:17:00","lat":48.753851,"lon":16.893169,"is_passed":false}],"9830":[{"stop_id":"U12936Z11","name":"Březová nad Svitavou, železniční stanice","arrival_time":"17:40:00","departure_time":"17:40:00","lat":49.633104,"lon":16.520656,"is_passed":false},{"stop_id":"U12804Z11","name":"Brněnec, Mor.Chrastová, žel.st.","arrival_time":"17:41:00","departure_time":"17:41:00","lat":49.623616,"lon":16.524459,"is_passed":false},{"stop_id":"U12819Z11","name":"Rozhraní, železniční zastávka","arrival_time":"17:44:00","departure_time":"17:44:00","lat":49.601763,"lon":16.532438,"is_passed":false},{"stop_id":"U12736Z51","name":"Letovice, železniční stanice","arrival_time":"17:50:00","departure_time":"17:50:00","lat":49.555973,"lon":16.570906,"is_passed":false}],"9831":[{"stop_id":"U12736Z50","name":"Letovice, železniční stanice","arrival_time":"18:09:00","departure_time":"18:09:00","lat":49.555973,"lon":16.570906,"is_passed":false},{"stop_id":"U12819Z10","name":"Rozhraní, železniční zastávka","arrival_time":"18:13:00","departure_time":"18:13:00","lat":49.601763,"lon":16.532438,"is_passed":false},{"stop_id":"U12804Z10","name":"Brněnec, Mor.Chrastová, žel.st.","arrival_time":"18:16:00","departure_time":"18:16:00","lat":49.622904,"lon":16.524586,"is_passed":false},{"stop_id":"U12936Z10","name":"Březová nad Svitavou, železniční stanice","arrival_time":"18:18:00","departure_time":"18:19:00","lat":49.633104,"lon":16.520656,"is_passed":false}],"9832":[{"stop_id":"U12936Z11","name":"Březová nad Svitavou, železniční stanice","arrival_time":"19:40:00","departure_time":"19:40:00","lat":49.633104,"lon":16.520656,"is_passed":false},{"stop_id":"U12804Z11","name":"Brněnec, Mor.Chrastová, žel.st.","arrival_time":"19:41:00","departure_time":"19:41:00","lat":49.623616,"lon":16.524459,"is_passed":false},{"stop_id":"U12819Z11","name":"Rozhraní, železniční zastávka","arrival_time":"19:44:00","departure_time":"19:44:00","lat":49.601763,"lon":16.532438,"is_passed":false},{"stop_id":"U12736Z51","name":"Letovice, železniční stanice","arrival_time":"19:49:00","departure_time":"19:49:00","lat":49.555973,"lon":16.570906,"is_passed":false}],"9833":[{"stop_id":"U12736Z50","name":"Letovice, železniční stanice","arrival_time":"21:28:00","departure_time":"21:28:00","lat":49.555973,"lon":16.570906,"is_passed":false},{"stop_id":"U12819Z10","name":"Rozhraní, železniční zastávka","arrival_time":"21:32:00","departure_time":"21:32:00","lat":49.601763,"lon":16.532438,"is_passed":false},{"stop_id":"U12804Z10","name":"Brněnec, Mor.Chrastová, žel.st.","arrival_time":"21:35:00","departure_time":"21:35:00","lat":49.622904,"lon":16.524586,"is_passed":false},{"stop_id":"U12936Z10","name":"Březová nad Svitavou, železniční stanice","arrival_time":"21:37:00","departure_time":"21:38:00","lat":49.633104,"lon":16.520656,"is_passed":false}],"9834":[{"stop_id":"U12736Z50","name":"Letovice, železniční stanice","arrival_time":"6:09:00","departure_time":"6:09:00","lat":49.555973,"lon":16.570906,"is_passed":false},{"stop_id":"U12819Z10","name":"Rozhraní, železniční zastávka","arrival_time":"6:13:00","departure_time":"6:13:00","lat":49.601763,"lon":16.532438,"is_passed":false},{"stop_id":"U12804Z10","name":"Brněnec, Mor.Chrastová, žel.st.","arrival_time":"6:16:00","departure_time":"6:16:00","lat":49.622904,"lon":16.524586,"is_passed":false},{"stop_id":"U12936Z10","name":"Březová nad Svitavou, železniční stanice","arrival_time":"6:18:00","departure_time":"6:19:00","lat":49.633104,"lon":16.520656,"is_passed":false}],"9835":[{"stop_id":"U12736Z50","name":"Letovice, železniční stanice","arrival_time":"14:09:00","departure_time":"14:09:00","lat":49.555973,"lon":16.570906,"is_passed":false},{"stop_id":"U12819Z10","name":"Rozhraní, železniční zastávka","arrival_time":"14:13:00","departure_time":"14:13:00","lat":49.601763,"lon":16.532438,"is_passed":false},{"stop_id":"U12804Z10","name":"Brněnec, Mor.Chrastová, žel.st.","arrival_time":"14:16:00","departure_time":"14:16:00","lat":49.622904,"lon":16.524586,"is_passed":false},{"stop_id":"U12936Z10","name":"Březová nad Svitavou, železniční stanice","arrival_time":"14:18:00","departure_time":"14:19:00","lat":49.633104,"lon":16.520656,"is_passed":false}],"9836":[{"stop_id":"U12736Z50","name":"Letovice, železniční stanice","arrival_time":"4:56:00","departure_time":"4:56:00","lat":49.555973,"lon":16.570906,"is_passed":false},{"stop_id":"U12819Z10","name":"Rozhraní, železniční zastávka","arrival_time":"5:01:00","departure_time":"5:01:00","lat":49.601763,"lon":16.532438,"is_passed":false},{"stop_id":"U12804Z10","name":"Brněnec, Mor.Chrastová, žel.st.","arrival_time":"5:04:00","departure_time":"5:04:00","lat":49.622904,"lon":16.524586,"is_passed":false},{"stop_id":"U12936Z10","name":"Březová nad Svitavou, železniční stanice","arrival_time":"5:06:00","departure_time":"5:07:00","lat":49.633104,"lon":16.520656,"is_passed":false}],"9837":[{"stop_id":"U1146Z99","name":"Hlavní nádraží","arrival_time":"6:15:00","departure_time":"6:15:00","lat":49.19035,"lon":16.612342,"is_passed":false},{"stop_id":"U1286Z10","name":"Královo Pole, nádraží","arrival_time":"6:26:00","departure_time":"6:27:00","lat":49.231051,"lon":16.596651,"is_passed":false},{"stop_id":"U13143Z10","name":"Kuřim, železniční stanice","arrival_time":"6:34:00","departure_time":"6:35:00","lat":49.301,"lon":16.534523,"is_passed":false},{"stop_id":"U13334Z20","name":"Tišnov, železniční stanice","arrival_time":"6:43:00","departure_time":"6:44:00","lat":49.3475,"lon":16.41725,"is_passed":false}],"9838":[{"stop_id":"U1146Z99","name":"Hlavní nádraží","arrival_time":"8:13:00","departure_time":"8:13:00","lat":49.19035,"lon":16.612342,"is_passed":false},{"stop_id":"U1286Z10","name":"Královo Pole, nádraží","arrival_time":"8:24:00","departure_time":"8:25:00","lat":49.231051,"lon":16.596651,"is_passed":false},{"stop_id":"U13334Z20","name":"Tišnov, železniční stanice","arrival_time":"8:40:00","departure_time":"8:44:00","lat":49.3475,"lon":16.41725,"is_passed":false}],"9839":[{"stop_id":"U1146Z99","name":"Hlavní nádraží","arrival_time":"10:13:00","departure_time":"10:13:00","lat":49.19035,"lon":16.612342,"is_passed":false},{"stop_id":"U1286Z10","name":"Královo Pole, nádraží","arrival_time":"10:24:00","departure_time":"10:26:00","lat":49.231051,"lon":16.596651,"is_passed":false},{"stop_id":"U13334Z20","name":"Tišnov, železniční stanice","arrival_time":"10:41:00","departure_time":"10:44:00","lat":49.3475,"lon":16.41725,"is_passed":false}]}