{"983":[{"stop_id":"U13334Z20","name":"Tišnov, železniční stanice","arrival_time":"8:33:00","departure_time":"8:33:00","lat":49.3475,"lon":16.41725,"is_passed":false},{"stop_id":"U13462Z1","name":"Štěpánovice","arrival_time":"8:37:00","departure_time":"8:37:00","lat":49.373141,"lon":16.389854,"is_passed":false},{"stop_id":"U13463Z1","name":"Borač, žel. st.","arrival_time":"8:42:00","departure_time":"8:43:00","lat":49.400768,"lon":16.366252,"is_passed":false},{"stop_id":"U13464Z1","name":"Prudká zastávka","arrival_time":"8:46:00","departure_time":"8:46:00","lat":49.419195,"lon":16.367361,"is_passed":false},{"stop_id":"U13506Z10","name":"Doubravník, železniční stanice","arrival_time":"8:50:00","departure_time":"8:50:00","lat":49.426945,"lon":16.352389,"is_passed":false},{"stop_id":"U13520Z1","name":"Nedvědice, železniční stanice","arrival_time":"8:56:00","departure_time":"9:01:00","lat":49.454167,"lon":16.338333,"is_passed":false}],"9830":[{"stop_id":"U31028Z1","name":"Staré Město u Uherského Hradiště","arrival_time":"14:09:00","departure_time":"14:09:00","lat":49.076029,"lon":17.422624,"is_passed":false},{"stop_id":"U31027Z1","name":"Uherské Hradiště","arrival_time":"14:15:00","departure_time":"14:29:00","lat":49.066881,"lon":17.457171,"is_passed":false},{"stop_id":"U31026Z2","name":"Kunovice","arrival_time":"14:32:00","departure_time":"14:32:00","lat":49.051914,"lon":17.470711,"is_passed":false}],"9831":[{"stop_id":"U31028Z1","name":"Staré Město u Uherského Hradiště","arrival_time":"13:59:00","departure_time":"13:59:00","lat":49.076029,"lon":17.422624,"is_passed":false},{"stop_id":"U31027Z1","name":"Uherské Hradiště","arrival_time":"14:05:00","departure_time":"14:09:00","lat":49.066881,"lon":17.457171,"is_passed":false}],"9832":[{"stop_id":"U31026Z1","name":"Kunovice","arrival_time":"15:22:00","departure_time":"15:22:00","lat":49.051998,"lon":17.470067,"is_passed":false},{"stop_id":"U31027Z2","name":"Uherské Hradiště","arrival_time":"15:25:00","departure_time":"15:26:00","lat":49.066825,"lon":17.457085,"is_passed":false},{"stop_id":"U31028Z2","name":"Staré Město u Uherského Hradiště","arrival_time":"15:32:00","departure_time":"15:39:00","lat":49.076022,"lon":17.42271,"is_passed":false}],"9833":[{"stop_id":"U31028Z1","name":"Staré Město u Uherského Hradiště","arrival_time":"15:39:00","departure_time":"15:39:00","lat":49.076029,"lon":17.422624,"is_passed":false},{"stop_id":"U31027Z1","name":"Uherské Hradiště","arrival_time":"15:45:00","departure_time":"15:46:00","lat":49.066881,"lon":17.457171,"is_passed":false},{"stop_id":"U31026Z2","name":"Kunovice","arrival_time":"15:49:00","departure_time":"15:50:00","lat":49.051914,"lon":17.470711,"is_passed":false}],"9834":[{"stop_id":"U31027Z2","name":"Uherské Hradiště","arrival_time":"15:46:00","departure_time":"15:46:00","lat":49.066825,"lon":17.457085,"is_passed":false},{"stop_id":"U31028Z2","name":"Staré Město u Uherského Hradiště","arrival_time":"15:52:00","departure_time":"16:12:00","lat":49.076022,"lon":17.42271,"is_passed":false}],"9835":[{"stop_id":"U31028Z1","name":"Staré Město u Uherského Hradiště","arrival_time":"16:12:00","departure_time":"16:12:00","lat":49.076029,"lon":17.422624,"is_passed":false},{"stop_id":"U31027Z1","name":"Uherské Hradiště","arrival_time":"16:18:00","departure_time":"16:29:00","lat":49.066881,"lon":17.457171,"is_passed":false},{"stop_id":"U31026Z2","name":"Kunovice","arrival_time":"16:32:00","departure_time":"16:32:00","lat":49.051914,"lon":17.470711,"is_passed":false}],"9836":[{"stop_id":"U31026Z1","name":"Kunovice","arrival_time":"14:13:00","departure_time":"14:13:00","lat":49.051998,"lon":17.470067,"is_passed":false},{"stop_id":"U31027Z2","name":"Uherské Hradiště","arrival_time":"14:15:00","departure_time":"14:16:00","lat":49.066825,"lon":17.457085,"is_passed":false},{"stop_id":"U31028Z2","name":"Staré Město u Uherského Hradiště","arrival_time":"14:22:00","departure_time":"15:59:00","lat":49.076022,"lon":17.42271,"is_passed":false}],"9837":[{"stop_id":"U31028Z1","name":"Staré Město u Uherského Hradiště","arrival_time":"15:59:00","departure_time":"15:59:00","lat":49.076029,"lon":17.422624,"is_passed":false},{"stop_id":"U31027Z1","name":"Uherské Hradiště","arrival_time":"16:04:00","departure_time":"16:09:00","lat":49.066881,"lon":17.457171,"is_passed":false}],"9838":[{"stop_id":"U31026Z1","name":"Kunovice","arrival_time":"16:12:00","departure_time":"16:12:00","lat":49.051998,"lon":17.470067,"is_passed":false},{"stop_id":"U31027Z2","name":"Uherské Hradiště","arrival_time":"16:15:00","departure_time":"16:18:00","lat":49.066825,"lon":17.457085,"is_passed":false},{"stop_id":"U31028Z2","name":"Staré Město u Uherského Hradiště","arrival_time":"16:24:00","departure_time":"17:39:00","lat":49.076022,"lon":17.42271,"is_passed":false}],"9839":[{"stop_id":"U31028Z1","name":"Staré Město u Uherského Hradiště","arrival_time":"17:39:00","departure_time":"17:39:00","lat":49.076029,"lon":17.422624,"is_passed":false},{"stop_id":"U31027Z1","name":"Uherské Hradiště","arrival_time":"17:45:00","departure_time":"17:46:00","lat":49.066881,"lon":17.457171,"is_passed":false},{"stop_id":"U31026Z2","name":"Kunovice","arrival_time":"17:49:00","departure_time":"17:50:00","lat":49.051914,"lon":17.470711,"is_passed":false}]}