{"984":[{"stop_id":"U13520Z2","name":"Nedvědice, železniční stanice","arrival_time":"9:01:00","departure_time":"9:01:00","lat":49.454167,"lon":16.338333,"is_passed":false},{"stop_id":"U13506Z11","name":"Doubravník, železniční stanice","arrival_time":"9:06:00","departure_time":"9:07:00","lat":49.426945,"lon":16.352389,"is_passed":false},{"stop_id":"U13464Z2","name":"Prudká zastávka","arrival_time":"9:10:00","departure_time":"9:10:00","lat":49.419195,"lon":16.367361,"is_passed":false},{"stop_id":"U13463Z2","name":"Borač, žel. st.","arrival_time":"9:14:00","departure_time":"9:14:00","lat":49.400689,"lon":16.366288,"is_passed":false},{"stop_id":"U13462Z2","name":"Štěpánovice","arrival_time":"9:19:00","departure_time":"9:19:00","lat":49.373054,"lon":16.389952,"is_passed":false},{"stop_id":"U13334Z21","name":"Tišnov, železniční stanice","arrival_time":"9:25:00","departure_time":"9:33:00","lat":49.3475,"lon":16.41725,"is_passed":false}],"9840":[{"stop_id":"U31026Z1","name":"Kunovice","arrival_time":"17:21:00","departure_time":"17:21:00","lat":49.051998,"lon":17.470067,"is_passed":false},{"stop_id":"U31027Z2","name":"Uherské Hradiště","arrival_time":"17:24:00","departure_time":"18:55:00","lat":49.066825,"lon":17.457085,"is_passed":false}],"9841":[{"stop_id":"U31027Z1","name":"Uherské Hradiště","arrival_time":"18:55:00","departure_time":"18:55:00","lat":49.066881,"lon":17.457171,"is_passed":false},{"stop_id":"U31026Z2","name":"Kunovice","arrival_time":"18:58:00","departure_time":"18:58:00","lat":49.051914,"lon":17.470711,"is_passed":false}],"9842":[{"stop_id":"U31027Z2","name":"Uherské Hradiště","arrival_time":"17:46:00","departure_time":"17:46:00","lat":49.066825,"lon":17.457085,"is_passed":false},{"stop_id":"U31028Z2","name":"Staré Město u Uherského Hradiště","arrival_time":"17:52:00","departure_time":"17:59:00","lat":49.076022,"lon":17.42271,"is_passed":false}],"9843":[{"stop_id":"U31028Z1","name":"Staré Město u Uherského Hradiště","arrival_time":"17:59:00","departure_time":"17:59:00","lat":49.076029,"lon":17.422624,"is_passed":false},{"stop_id":"U31027Z1","name":"Uherské Hradiště","arrival_time":"18:05:00","departure_time":"18:08:00","lat":49.066881,"lon":17.457171,"is_passed":false}],"9844":[{"stop_id":"U31026Z1","name":"Kunovice","arrival_time":"19:21:00","departure_time":"19:21:00","lat":49.051998,"lon":17.470067,"is_passed":false},{"stop_id":"U31027Z2","name":"Uherské Hradiště","arrival_time":"19:24:00","departure_time":"19:26:00","lat":49.066825,"lon":17.457085,"is_passed":false},{"stop_id":"U31028Z2","name":"Staré Město u Uherského Hradiště","arrival_time":"19:32:00","departure_time":"19:36:00","lat":49.076022,"lon":17.42271,"is_passed":false}],"9845":[{"stop_id":"U31028Z1","name":"Staré Město u Uherského Hradiště","arrival_time":"19:36:00","departure_time":"19:36:00","lat":49.076029,"lon":17.422624,"is_passed":false},{"stop_id":"U31027Z1","name":"Uherské Hradiště","arrival_time":"19:42:00","departure_time":"19:42:00","lat":49.066881,"lon":17.457171,"is_passed":false}],"9846":[{"stop_id":"U31027Z2","name":"Uherské Hradiště","arrival_time":"19:46:00","departure_time":"19:46:00","lat":49.066825,"lon":17.457085,"is_passed":false},{"stop_id":"U31028Z2","name":"Staré Město u Uherského Hradiště","arrival_time":"19:52:00","departure_time":"19:52:00","lat":49.076022,"lon":17.42271,"is_passed":false}],"9847":[{"stop_id":"U31028Z1","name":"Staré Město u Uherského Hradiště","arrival_time":"20:28:00","departure_time":"20:28:00","lat":49.076029,"lon":17.422624,"is_passed":false},{"stop_id":"U31027Z1","name":"Uherské Hradiště","arrival_time":"20:34:00","departure_time":"20:39:00","lat":49.066881,"lon":17.457171,"is_passed":false},{"stop_id":"U31026Z2","name":"Kunovice","arrival_time":"20:42:00","departure_time":"20:42:00","lat":49.051914,"lon":17.470711,"is_passed":false}],"9848":[{"stop_id":"U31026Z1","name":"Kunovice","arrival_time":"21:04:00","departure_time":"21:04:00","lat":49.051998,"lon":17.470067,"is_passed":false},{"stop_id":"U31027Z2","name":"Uherské Hradiště","arrival_time":"21:07:00","departure_time":"21:08:00","lat":49.066825,"lon":17.457085,"is_passed":false},{"stop_id":"U31028Z2","name":"Staré Město u Uherského Hradiště","arrival_time":"21:14:00","departure_time":"21:29:00","lat":49.076022,"lon":17.42271,"is_passed":false}],"9849":[{"stop_id":"U31028Z1","name":"Staré Město u Uherského Hradiště","arrival_time":"21:29:00","departure_time":"21:29:00","lat":49.076029,"lon":17.422624,"is_passed":false},{"stop_id":"U31027Z1","name":"Uherské Hradiště","arrival_time":"21:35:00","departure_time":"21:36:00","lat":49.066881,"lon":17.457171,"is_passed":false},{"stop_id":"U31026Z2","name":"Kunovice","arrival_time":"21:39:00","departure_time":"21:40:00","lat":49.051914,"lon":17.470711,"is_passed":false}]}