{"984":[{"stop_id":"U28502Z11","name":"Moravské Budějovice","arrival_time":"11:38:00","departure_time":"11:38:00","lat":49.057522,"lon":15.809326,"is_passed":false},{"stop_id":"U28501Z11","name":"Vesce","arrival_time":"11:44:00","departure_time":"11:44:00","lat":49.019071,"lon":15.831277,"is_passed":false},{"stop_id":"U28401Z11","name":"Blížkovice","arrival_time":"11:47:00","departure_time":"11:47:00","lat":49.004292,"lon":15.854364,"is_passed":false},{"stop_id":"U18339Z11","name":"Grešlové Mýto, železniční stanice","arrival_time":"11:50:00","departure_time":"11:51:00","lat":48.98455,"lon":15.874436,"is_passed":false},{"stop_id":"U18259Z11","name":"Šumná, železniční stanice","arrival_time":"11:59:00","departure_time":"12:00:00","lat":48.923097,"lon":15.874306,"is_passed":false},{"stop_id":"U18158Z11","name":"Olbramkostel, železniční stanice","arrival_time":"12:07:00","departure_time":"12:08:00","lat":48.903229,"lon":15.949177,"is_passed":false},{"stop_id":"U28103Z11","name":"Citonice","arrival_time":"12:12:00","departure_time":"12:12:00","lat":48.878906,"lon":15.977467,"is_passed":false},{"stop_id":"U28002Z11","name":"Znojmo nemocnice","arrival_time":"12:18:00","departure_time":"12:19:00","lat":48.865504,"lon":16.048394,"is_passed":false},{"stop_id":"U18009Z23","name":"Znojmo, autobusové nádraží","arrival_time":"12:22:00","departure_time":"12:22:00","lat":48.852761,"lon":16.059287,"is_passed":false}],"9840":[{"stop_id":"U12635Z51","name":"Boskovice, aut.st.","arrival_time":"7:01:00","departure_time":"7:01:00","lat":49.491667,"lon":16.651778,"is_passed":false},{"stop_id":"U12676Z51","name":"Skalice nad Svitavou, žel.st.","arrival_time":"7:08:00","departure_time":"7:35:00","lat":49.480123,"lon":16.609726,"is_passed":false}],"9841":[{"stop_id":"U12676Z50","name":"Skalice nad Svitavou, žel.st.","arrival_time":"7:35:00","departure_time":"7:35:00","lat":49.480123,"lon":16.609726,"is_passed":false},{"stop_id":"U12635Z50","name":"Boskovice, aut.st.","arrival_time":"7:42:00","departure_time":"8:20:00","lat":49.491667,"lon":16.651778,"is_passed":false}],"9842":[{"stop_id":"U12635Z51","name":"Boskovice, aut.st.","arrival_time":"8:20:00","departure_time":"8:20:00","lat":49.491667,"lon":16.651778,"is_passed":false},{"stop_id":"U12676Z51","name":"Skalice nad Svitavou, žel.st.","arrival_time":"8:27:00","departure_time":"8:47:00","lat":49.480123,"lon":16.609726,"is_passed":false}],"9843":[{"stop_id":"U12676Z50","name":"Skalice nad Svitavou, žel.st.","arrival_time":"8:47:00","departure_time":"8:47:00","lat":49.480123,"lon":16.609726,"is_passed":false},{"stop_id":"U12635Z50","name":"Boskovice, aut.st.","arrival_time":"8:54:00","departure_time":"9:01:00","lat":49.491667,"lon":16.651778,"is_passed":false}],"9844":[{"stop_id":"U12635Z51","name":"Boskovice, aut.st.","arrival_time":"9:01:00","departure_time":"9:01:00","lat":49.491667,"lon":16.651778,"is_passed":false},{"stop_id":"U12676Z51","name":"Skalice nad Svitavou, žel.st.","arrival_time":"9:08:00","departure_time":"9:27:00","lat":49.480123,"lon":16.609726,"is_passed":false}],"9845":[{"stop_id":"U12676Z50","name":"Skalice nad Svitavou, žel.st.","arrival_time":"9:27:00","departure_time":"9:27:00","lat":49.480123,"lon":16.609726,"is_passed":false},{"stop_id":"U12635Z50","name":"Boskovice, aut.st.","arrival_time":"9:34:00","departure_time":"10:19:00","lat":49.491667,"lon":16.651778,"is_passed":false}],"9846":[{"stop_id":"U12635Z51","name":"Boskovice, aut.st.","arrival_time":"10:19:00","departure_time":"10:19:00","lat":49.491667,"lon":16.651778,"is_passed":false},{"stop_id":"U12676Z51","name":"Skalice nad Svitavou, žel.st.","arrival_time":"10:26:00","departure_time":"10:47:00","lat":49.480123,"lon":16.609726,"is_passed":false}],"9847":[{"stop_id":"U12676Z50","name":"Skalice nad Svitavou, žel.st.","arrival_time":"10:47:00","departure_time":"10:47:00","lat":49.480123,"lon":16.609726,"is_passed":false},{"stop_id":"U12635Z50","name":"Boskovice, aut.st.","arrival_time":"10:54:00","departure_time":"11:01:00","lat":49.491667,"lon":16.651778,"is_passed":false}],"9848":[{"stop_id":"U12635Z51","name":"Boskovice, aut.st.","arrival_time":"11:01:00","departure_time":"11:01:00","lat":49.491667,"lon":16.651778,"is_passed":false},{"stop_id":"U12676Z51","name":"Skalice nad Svitavou, žel.st.","arrival_time":"11:08:00","departure_time":"11:27:00","lat":49.480123,"lon":16.609726,"is_passed":false}],"9849":[{"stop_id":"U12676Z50","name":"Skalice nad Svitavou, žel.st.","arrival_time":"11:27:00","departure_time":"11:27:00","lat":49.480123,"lon":16.609726,"is_passed":false},{"stop_id":"U12635Z50","name":"Boskovice, aut.st.","arrival_time":"11:34:00","departure_time":"12:19:00","lat":49.491667,"lon":16.651778,"is_passed":false}]}