{"984":[{"stop_id":"U15729Z12","name":"Břeclav, autobusové nádraží","arrival_time":"9:41:00","departure_time":"9:41:00","lat":48.753851,"lon":16.893169,"is_passed":false},{"stop_id":"U1146Z99","name":"Hlavní nádraží","arrival_time":"10:12:00","departure_time":"10:16:00","lat":49.19035,"lon":16.612342,"is_passed":false},{"stop_id":"U1809Z10","name":"Židenice, nádraží","arrival_time":"10:20:00","departure_time":"10:20:00","lat":49.204282,"lon":16.636042,"is_passed":false}],"9840":[{"stop_id":"U1146Z99","name":"Hlavní nádraží","arrival_time":"12:13:00","departure_time":"12:13:00","lat":49.19035,"lon":16.612342,"is_passed":false},{"stop_id":"U1286Z10","name":"Královo Pole, nádraží","arrival_time":"12:24:00","departure_time":"12:26:00","lat":49.231051,"lon":16.596651,"is_passed":false},{"stop_id":"U13334Z20","name":"Tišnov, železniční stanice","arrival_time":"12:41:00","departure_time":"12:44:00","lat":49.3475,"lon":16.41725,"is_passed":false}],"9841":[{"stop_id":"U1146Z99","name":"Hlavní nádraží","arrival_time":"14:13:00","departure_time":"14:13:00","lat":49.19035,"lon":16.612342,"is_passed":false},{"stop_id":"U1286Z10","name":"Královo Pole, nádraží","arrival_time":"14:24:00","departure_time":"14:26:00","lat":49.231051,"lon":16.596651,"is_passed":false},{"stop_id":"U13334Z20","name":"Tišnov, železniční stanice","arrival_time":"14:41:00","departure_time":"14:44:00","lat":49.3475,"lon":16.41725,"is_passed":false}],"9842":[{"stop_id":"U1146Z99","name":"Hlavní nádraží","arrival_time":"16:13:00","departure_time":"16:13:00","lat":49.19035,"lon":16.612342,"is_passed":false},{"stop_id":"U1286Z10","name":"Královo Pole, nádraží","arrival_time":"16:24:00","departure_time":"16:26:00","lat":49.231051,"lon":16.596651,"is_passed":false},{"stop_id":"U13334Z20","name":"Tišnov, železniční stanice","arrival_time":"16:42:00","departure_time":"16:44:00","lat":49.3475,"lon":16.41725,"is_passed":false}],"9843":[{"stop_id":"U1146Z99","name":"Hlavní nádraží","arrival_time":"18:13:00","departure_time":"18:13:00","lat":49.19035,"lon":16.612342,"is_passed":false},{"stop_id":"U1286Z10","name":"Královo Pole, nádraží","arrival_time":"18:24:00","departure_time":"18:26:00","lat":49.231051,"lon":16.596651,"is_passed":false},{"stop_id":"U13334Z20","name":"Tišnov, železniční stanice","arrival_time":"18:41:00","departure_time":"18:44:00","lat":49.3475,"lon":16.41725,"is_passed":false}],"9844":[{"stop_id":"U1146Z99","name":"Hlavní nádraží","arrival_time":"20:13:00","departure_time":"20:13:00","lat":49.19035,"lon":16.612342,"is_passed":false},{"stop_id":"U1286Z10","name":"Královo Pole, nádraží","arrival_time":"20:24:00","departure_time":"20:26:00","lat":49.231051,"lon":16.596651,"is_passed":false},{"stop_id":"U13334Z20","name":"Tišnov, železniční stanice","arrival_time":"20:41:00","departure_time":"20:44:00","lat":49.3475,"lon":16.41725,"is_passed":false}],"9845":[{"stop_id":"U13334Z21","name":"Tišnov, železniční stanice","arrival_time":"6:25:00","departure_time":"6:25:00","lat":49.3475,"lon":16.41725,"is_passed":false},{"stop_id":"U1286Z11","name":"Královo Pole, nádraží","arrival_time":"6:40:00","departure_time":"6:40:00","lat":49.231051,"lon":16.596651,"is_passed":false},{"stop_id":"U1146Z98","name":"Hlavní nádraží","arrival_time":"6:53:00","departure_time":"6:53:00","lat":49.19035,"lon":16.612342,"is_passed":false}],"9846":[{"stop_id":"U13334Z21","name":"Tišnov, železniční stanice","arrival_time":"17:15:00","departure_time":"17:15:00","lat":49.3475,"lon":16.41725,"is_passed":false},{"stop_id":"U1286Z11","name":"Královo Pole, nádraží","arrival_time":"17:30:00","departure_time":"17:30:00","lat":49.231051,"lon":16.596651,"is_passed":false},{"stop_id":"U1146Z98","name":"Hlavní nádraží","arrival_time":"17:44:00","departure_time":"17:44:00","lat":49.19035,"lon":16.612342,"is_passed":false}],"9847":[{"stop_id":"U13334Z21","name":"Tišnov, železniční stanice","arrival_time":"7:15:00","departure_time":"7:15:00","lat":49.3475,"lon":16.41725,"is_passed":false},{"stop_id":"U1286Z11","name":"Královo Pole, nádraží","arrival_time":"7:30:00","departure_time":"7:30:00","lat":49.231051,"lon":16.596651,"is_passed":false},{"stop_id":"U1146Z98","name":"Hlavní nádraží","arrival_time":"7:42:00","departure_time":"7:42:00","lat":49.19035,"lon":16.612342,"is_passed":false}],"9848":[{"stop_id":"U13334Z21","name":"Tišnov, železniční stanice","arrival_time":"9:15:00","departure_time":"9:15:00","lat":49.3475,"lon":16.41725,"is_passed":false},{"stop_id":"U1286Z11","name":"Královo Pole, nádraží","arrival_time":"9:30:00","departure_time":"9:30:00","lat":49.231051,"lon":16.596651,"is_passed":false},{"stop_id":"U1146Z98","name":"Hlavní nádraží","arrival_time":"9:44:00","departure_time":"9:44:00","lat":49.19035,"lon":16.612342,"is_passed":false}],"9849":[{"stop_id":"U13334Z21","name":"Tišnov, železniční stanice","arrival_time":"11:15:00","departure_time":"11:15:00","lat":49.3475,"lon":16.41725,"is_passed":false},{"stop_id":"U1286Z11","name":"Královo Pole, nádraží","arrival_time":"11:30:00","departure_time":"11:30:00","lat":49.231051,"lon":16.596651,"is_passed":false},{"stop_id":"U1146Z98","name":"Hlavní nádraží","arrival_time":"11:44:00","departure_time":"11:44:00","lat":49.19035,"lon":16.612342,"is_passed":false}]}