{"985":[{"stop_id":"U15729Z12","name":"Břeclav, autobusové nádraží","arrival_time":"13:41:00","departure_time":"13:41:00","lat":48.753851,"lon":16.893169,"is_passed":false},{"stop_id":"U1146Z99","name":"Hlavní nádraží","arrival_time":"14:12:00","departure_time":"14:16:00","lat":49.19035,"lon":16.612342,"is_passed":false},{"stop_id":"U1809Z10","name":"Židenice, nádraží","arrival_time":"14:19:00","departure_time":"14:19:00","lat":49.204282,"lon":16.636042,"is_passed":false}],"9850":[{"stop_id":"U13334Z21","name":"Tišnov, železniční stanice","arrival_time":"13:15:00","departure_time":"13:15:00","lat":49.3475,"lon":16.41725,"is_passed":false},{"stop_id":"U1286Z11","name":"Královo Pole, nádraží","arrival_time":"13:30:00","departure_time":"13:30:00","lat":49.231051,"lon":16.596651,"is_passed":false},{"stop_id":"U1146Z98","name":"Hlavní nádraží","arrival_time":"13:44:00","departure_time":"13:44:00","lat":49.19035,"lon":16.612342,"is_passed":false}],"9851":[{"stop_id":"U13334Z21","name":"Tišnov, železniční stanice","arrival_time":"15:17:00","departure_time":"15:17:00","lat":49.3475,"lon":16.41725,"is_passed":false},{"stop_id":"U1286Z11","name":"Královo Pole, nádraží","arrival_time":"15:32:00","departure_time":"15:32:00","lat":49.231051,"lon":16.596651,"is_passed":false},{"stop_id":"U1146Z98","name":"Hlavní nádraží","arrival_time":"15:44:00","departure_time":"15:44:00","lat":49.19035,"lon":16.612342,"is_passed":false}],"9852":[{"stop_id":"U13334Z21","name":"Tišnov, železniční stanice","arrival_time":"19:15:00","departure_time":"19:15:00","lat":49.3475,"lon":16.41725,"is_passed":false},{"stop_id":"U1286Z11","name":"Královo Pole, nádraží","arrival_time":"19:30:00","departure_time":"19:30:00","lat":49.231051,"lon":16.596651,"is_passed":false},{"stop_id":"U1146Z98","name":"Hlavní nádraží","arrival_time":"19:44:00","departure_time":"19:44:00","lat":49.19035,"lon":16.612342,"is_passed":false}],"9853":[{"stop_id":"U13334Z21","name":"Tišnov, železniční stanice","arrival_time":"21:14:00","departure_time":"21:14:00","lat":49.3475,"lon":16.41725,"is_passed":false},{"stop_id":"U13143Z11","name":"Kuřim, železniční stanice","arrival_time":"21:22:00","departure_time":"21:23:00","lat":49.301,"lon":16.534523,"is_passed":false},{"stop_id":"U1286Z11","name":"Královo Pole, nádraží","arrival_time":"21:31:00","departure_time":"21:31:00","lat":49.231051,"lon":16.596651,"is_passed":false},{"stop_id":"U1146Z98","name":"Hlavní nádraží","arrival_time":"21:42:00","departure_time":"21:42:00","lat":49.19035,"lon":16.612342,"is_passed":false}],"9854":[{"stop_id":"U1146Z97","name":"Hlavní nádraží","arrival_time":"5:41:00","departure_time":"5:41:00","lat":49.189976,"lon":16.610222,"is_passed":false},{"stop_id":"U14507Z51","name":"Náměšť nad Oslavou, autobusové nádraží","arrival_time":"6:26:00","departure_time":"6:28:00","lat":49.207007,"lon":16.14766,"is_passed":false}],"9855":[{"stop_id":"U1146Z97","name":"Hlavní nádraží","arrival_time":"7:42:00","departure_time":"7:42:00","lat":49.189976,"lon":16.610222,"is_passed":false},{"stop_id":"U14507Z51","name":"Náměšť nad Oslavou, autobusové nádraží","arrival_time":"8:26:00","departure_time":"8:28:00","lat":49.207007,"lon":16.14766,"is_passed":false}],"9856":[{"stop_id":"U14507Z52","name":"Náměšť nad Oslavou, autobusové nádraží","arrival_time":"7:28:00","departure_time":"7:28:00","lat":49.207007,"lon":16.14766,"is_passed":false},{"stop_id":"U1146Z96","name":"Hlavní nádraží","arrival_time":"8:14:00","departure_time":"9:44:00","lat":49.189976,"lon":16.610222,"is_passed":false}],"9857":[{"stop_id":"U1146Z97","name":"Hlavní nádraží","arrival_time":"9:44:00","departure_time":"9:44:00","lat":49.189976,"lon":16.610222,"is_passed":false},{"stop_id":"U14507Z51","name":"Náměšť nad Oslavou, autobusové nádraží","arrival_time":"10:26:00","departure_time":"10:28:00","lat":49.207007,"lon":16.14766,"is_passed":false}],"9858":[{"stop_id":"U14507Z52","name":"Náměšť nad Oslavou, autobusové nádraží","arrival_time":"9:28:00","departure_time":"9:28:00","lat":49.207007,"lon":16.14766,"is_passed":false},{"stop_id":"U1146Z96","name":"Hlavní nádraží","arrival_time":"10:14:00","departure_time":"11:44:00","lat":49.189976,"lon":16.610222,"is_passed":false}],"9859":[{"stop_id":"U1146Z97","name":"Hlavní nádraží","arrival_time":"11:44:00","departure_time":"11:44:00","lat":49.189976,"lon":16.610222,"is_passed":false},{"stop_id":"U14507Z51","name":"Náměšť nad Oslavou, autobusové nádraží","arrival_time":"12:26:00","departure_time":"12:28:00","lat":49.207007,"lon":16.14766,"is_passed":false}]}