{"985":[{"stop_id":"U28502Z11","name":"Moravské Budějovice","arrival_time":"13:38:00","departure_time":"13:38:00","lat":49.057522,"lon":15.809326,"is_passed":false},{"stop_id":"U28501Z11","name":"Vesce","arrival_time":"13:44:00","departure_time":"13:44:00","lat":49.019071,"lon":15.831277,"is_passed":false},{"stop_id":"U28401Z11","name":"Blížkovice","arrival_time":"13:47:00","departure_time":"13:47:00","lat":49.004292,"lon":15.854364,"is_passed":false},{"stop_id":"U18339Z11","name":"Grešlové Mýto, železniční stanice","arrival_time":"13:50:00","departure_time":"13:51:00","lat":48.98455,"lon":15.874436,"is_passed":false},{"stop_id":"U18259Z11","name":"Šumná, železniční stanice","arrival_time":"13:59:00","departure_time":"14:00:00","lat":48.923097,"lon":15.874306,"is_passed":false},{"stop_id":"U18158Z11","name":"Olbramkostel, železniční stanice","arrival_time":"14:07:00","departure_time":"14:08:00","lat":48.903229,"lon":15.949177,"is_passed":false},{"stop_id":"U28103Z11","name":"Citonice","arrival_time":"14:12:00","departure_time":"14:12:00","lat":48.878906,"lon":15.977467,"is_passed":false},{"stop_id":"U28002Z11","name":"Znojmo nemocnice","arrival_time":"14:18:00","departure_time":"14:19:00","lat":48.865504,"lon":16.048394,"is_passed":false},{"stop_id":"U18009Z23","name":"Znojmo, autobusové nádraží","arrival_time":"14:22:00","departure_time":"14:22:00","lat":48.852761,"lon":16.059287,"is_passed":false}],"9850":[{"stop_id":"U12635Z51","name":"Boskovice, aut.st.","arrival_time":"12:19:00","departure_time":"12:19:00","lat":49.491667,"lon":16.651778,"is_passed":false},{"stop_id":"U12676Z51","name":"Skalice nad Svitavou, žel.st.","arrival_time":"12:26:00","departure_time":"12:47:00","lat":49.480123,"lon":16.609726,"is_passed":false}],"9851":[{"stop_id":"U12676Z50","name":"Skalice nad Svitavou, žel.st.","arrival_time":"12:47:00","departure_time":"12:47:00","lat":49.480123,"lon":16.609726,"is_passed":false},{"stop_id":"U12635Z50","name":"Boskovice, aut.st.","arrival_time":"12:54:00","departure_time":"13:01:00","lat":49.491667,"lon":16.651778,"is_passed":false}],"9852":[{"stop_id":"U12635Z51","name":"Boskovice, aut.st.","arrival_time":"13:01:00","departure_time":"13:01:00","lat":49.491667,"lon":16.651778,"is_passed":false},{"stop_id":"U12676Z51","name":"Skalice nad Svitavou, žel.st.","arrival_time":"13:08:00","departure_time":"13:27:00","lat":49.480123,"lon":16.609726,"is_passed":false}],"9853":[{"stop_id":"U12676Z50","name":"Skalice nad Svitavou, žel.st.","arrival_time":"13:27:00","departure_time":"13:27:00","lat":49.480123,"lon":16.609726,"is_passed":false},{"stop_id":"U12635Z50","name":"Boskovice, aut.st.","arrival_time":"13:34:00","departure_time":"14:19:00","lat":49.491667,"lon":16.651778,"is_passed":false}],"9854":[{"stop_id":"U12635Z51","name":"Boskovice, aut.st.","arrival_time":"14:19:00","departure_time":"14:19:00","lat":49.491667,"lon":16.651778,"is_passed":false},{"stop_id":"U12676Z51","name":"Skalice nad Svitavou, žel.st.","arrival_time":"14:26:00","departure_time":"14:47:00","lat":49.480123,"lon":16.609726,"is_passed":false}],"9855":[{"stop_id":"U12676Z50","name":"Skalice nad Svitavou, žel.st.","arrival_time":"14:47:00","departure_time":"14:47:00","lat":49.480123,"lon":16.609726,"is_passed":false},{"stop_id":"U12635Z50","name":"Boskovice, aut.st.","arrival_time":"14:54:00","departure_time":"15:01:00","lat":49.491667,"lon":16.651778,"is_passed":false}],"9856":[{"stop_id":"U12635Z51","name":"Boskovice, aut.st.","arrival_time":"15:01:00","departure_time":"15:01:00","lat":49.491667,"lon":16.651778,"is_passed":false},{"stop_id":"U12676Z51","name":"Skalice nad Svitavou, žel.st.","arrival_time":"15:08:00","departure_time":"15:27:00","lat":49.480123,"lon":16.609726,"is_passed":false}],"9857":[{"stop_id":"U12676Z50","name":"Skalice nad Svitavou, žel.st.","arrival_time":"15:27:00","departure_time":"15:27:00","lat":49.480123,"lon":16.609726,"is_passed":false},{"stop_id":"U12635Z50","name":"Boskovice, aut.st.","arrival_time":"15:34:00","departure_time":"16:16:00","lat":49.491667,"lon":16.651778,"is_passed":false}],"9858":[{"stop_id":"U12635Z51","name":"Boskovice, aut.st.","arrival_time":"16:16:00","departure_time":"16:16:00","lat":49.491667,"lon":16.651778,"is_passed":false},{"stop_id":"U12676Z51","name":"Skalice nad Svitavou, žel.st.","arrival_time":"16:23:00","departure_time":"16:47:00","lat":49.480123,"lon":16.609726,"is_passed":false}],"9859":[{"stop_id":"U12676Z50","name":"Skalice nad Svitavou, žel.st.","arrival_time":"16:47:00","departure_time":"16:47:00","lat":49.480123,"lon":16.609726,"is_passed":false},{"stop_id":"U12635Z50","name":"Boskovice, aut.st.","arrival_time":"16:54:00","departure_time":"17:01:00","lat":49.491667,"lon":16.651778,"is_passed":false}]}