[{"stop_id":"U18355Z2","name":"Vranov nad Dyjí, Zámecký hotel","arrival_time":"17:15:00","departure_time":"17:15:00","lat":48.896127,"lon":15.812002,"is_passed":false},{"stop_id":"U18350Z2","name":"Vranov nad Dyjí, náměstí","arrival_time":"17:16:00","departure_time":"17:16:00","lat":48.894475,"lon":15.813002,"is_passed":false},{"stop_id":"U18344Z2","name":"Onšov, rozcestí","arrival_time":"17:21:00","departure_time":"17:21:00","lat":48.902605,"lon":15.838153,"is_passed":false},{"stop_id":"U18252Z2","name":"Lesná, hájenka","arrival_time":"17:22:00","departure_time":"17:22:00","lat":48.90832,"lon":15.85376,"is_passed":false},{"stop_id":"U18253Z2","name":"Lesná, penzion","arrival_time":"17:25:00","departure_time":"17:25:00","lat":48.90747,"lon":15.86739,"is_passed":false},{"stop_id":"U18260Z2","name":"Vracovice","arrival_time":"17:28:00","departure_time":"17:28:00","lat":48.89987,"lon":15.89986,"is_passed":false},{"stop_id":"U18155Z2","name":"Milíčovice, na státní","arrival_time":"17:31:00","departure_time":"17:31:00","lat":48.888592,"lon":15.93307,"is_passed":false},{"stop_id":"U18141Z2","name":"Citonice","arrival_time":"17:34:00","departure_time":"17:34:00","lat":48.881123,"lon":15.968332,"is_passed":false},{"stop_id":"U18075Z2","name":"Znojmo, Pražská, sídliště","arrival_time":"17:40:00","departure_time":"17:40:00","lat":48.868261,"lon":16.032958,"is_passed":false},{"stop_id":"U18012Z1","name":"Znojmo, Pražská, Kolonka","arrival_time":"17:41:00","departure_time":"17:41:00","lat":48.862898,"lon":16.042294,"is_passed":false},{"stop_id":"U18011Z2","name":"Znojmo, nám.Svobody, lázně","arrival_time":"17:43:00","departure_time":"17:43:00","lat":48.860435,"lon":16.049027,"is_passed":false},{"stop_id":"U18009Z51","name":"Znojmo, autobusové nádraží","arrival_time":"17:48:00","departure_time":"18:02:00","lat":48.851908,"lon":16.056983,"is_passed":false}]