[{"stop_id":"U18341Z1","name":"Pavlice, na kopci","arrival_time":"13:58:00","departure_time":"13:58:00","lat":48.972683,"lon":15.896083,"is_passed":false},{"stop_id":"U18337Z1","name":"Grešlové Mýto, motorest","arrival_time":"14:00:00","departure_time":"14:00:00","lat":48.981657,"lon":15.885145,"is_passed":false},{"stop_id":"U18331Z1","name":"Blanné, obecní úřad","arrival_time":"14:03:00","departure_time":"14:03:00","lat":48.992698,"lon":15.882725,"is_passed":false},{"stop_id":"U18343Z1","name":"Prokopov","arrival_time":"14:05:00","departure_time":"14:05:00","lat":48.99911,"lon":15.894462,"is_passed":false},{"stop_id":"U18405Z1","name":"Hostim, křižovatka","arrival_time":"14:07:00","departure_time":"14:07:00","lat":49.009558,"lon":15.896067,"is_passed":false},{"stop_id":"U18406Z1","name":"Hostim, náměstí","arrival_time":"14:09:00","departure_time":"14:09:00","lat":49.016985,"lon":15.898037,"is_passed":false},{"stop_id":"U18407Z1","name":"Zvěrkovice","arrival_time":"14:12:00","departure_time":"14:12:00","lat":49.025948,"lon":15.86423,"is_passed":false},{"stop_id":"U18401Z1","name":"Blížkovice, náměstí","arrival_time":"14:19:00","departure_time":"14:19:00","lat":48.999513,"lon":15.840092,"is_passed":false},{"stop_id":"U18403Z1","name":"Častohostice","arrival_time":"14:23:00","departure_time":"14:23:00","lat":49.013769,"lon":15.818724,"is_passed":false},{"stop_id":"U18509Z1","name":"Moravské Budějovice, Vesce","arrival_time":"14:26:00","departure_time":"14:26:00","lat":49.02286,"lon":15.833331,"is_passed":false},{"stop_id":"U18508Z1","name":"Moravské Budějovice, Lažínky","arrival_time":"14:29:00","departure_time":"14:29:00","lat":49.035189,"lon":15.833194,"is_passed":false},{"stop_id":"U18505Z2","name":"Moravské Budějovice, Urbánkova","arrival_time":"14:32:00","departure_time":"14:32:00","lat":49.048756,"lon":15.811031,"is_passed":false},{"stop_id":"U18502Z51","name":"Moravské Budějovice, autobusové nádraží","arrival_time":"14:35:00","departure_time":"14:47:00","lat":49.056355,"lon":15.808013,"is_passed":false}]