[{"stop_id":"U18341Z1","name":"Pavlice, na kopci","arrival_time":"15:18:00","departure_time":"15:18:00","lat":48.972683,"lon":15.896083,"is_passed":false},{"stop_id":"U18337Z1","name":"Grešlové Mýto, motorest","arrival_time":"15:20:00","departure_time":"15:20:00","lat":48.981657,"lon":15.885145,"is_passed":false},{"stop_id":"U18331Z1","name":"Blanné, obecní úřad","arrival_time":"15:23:00","departure_time":"15:23:00","lat":48.992698,"lon":15.882725,"is_passed":false},{"stop_id":"U18343Z1","name":"Prokopov","arrival_time":"15:25:00","departure_time":"15:25:00","lat":48.99911,"lon":15.894462,"is_passed":false},{"stop_id":"U18405Z1","name":"Hostim, křižovatka","arrival_time":"15:27:00","departure_time":"15:27:00","lat":49.009558,"lon":15.896067,"is_passed":false},{"stop_id":"U18406Z1","name":"Hostim, náměstí","arrival_time":"15:29:00","departure_time":"15:29:00","lat":49.016985,"lon":15.898037,"is_passed":false},{"stop_id":"U18407Z1","name":"Zvěrkovice","arrival_time":"15:32:00","departure_time":"15:32:00","lat":49.025948,"lon":15.86423,"is_passed":false},{"stop_id":"U18508Z1","name":"Moravské Budějovice, Lažínky","arrival_time":"15:39:00","departure_time":"15:39:00","lat":49.035189,"lon":15.833194,"is_passed":false},{"stop_id":"U18505Z2","name":"Moravské Budějovice, Urbánkova","arrival_time":"15:42:00","departure_time":"15:42:00","lat":49.048756,"lon":15.811031,"is_passed":false},{"stop_id":"U18502Z51","name":"Moravské Budějovice, autobusové nádraží","arrival_time":"15:45:00","departure_time":"15:47:00","lat":49.056355,"lon":15.808013,"is_passed":false}]