{"989":[{"stop_id":"U13334Z20","name":"Tišnov, železniční stanice","arrival_time":"15:33:00","departure_time":"15:33:00","lat":49.3475,"lon":16.41725,"is_passed":false},{"stop_id":"U13462Z1","name":"Štěpánovice","arrival_time":"15:37:00","departure_time":"15:37:00","lat":49.373141,"lon":16.389854,"is_passed":false},{"stop_id":"U13463Z1","name":"Borač, žel. st.","arrival_time":"15:42:00","departure_time":"15:43:00","lat":49.400768,"lon":16.366252,"is_passed":false},{"stop_id":"U13464Z1","name":"Prudká zastávka","arrival_time":"15:46:00","departure_time":"15:46:00","lat":49.419195,"lon":16.367361,"is_passed":false},{"stop_id":"U13506Z10","name":"Doubravník, železniční stanice","arrival_time":"15:50:00","departure_time":"15:50:00","lat":49.426945,"lon":16.352389,"is_passed":false},{"stop_id":"U13520Z1","name":"Nedvědice, železniční stanice","arrival_time":"15:56:00","departure_time":"16:01:00","lat":49.454167,"lon":16.338333,"is_passed":false},{"stop_id":"U23601Z2","name":"Věžná","arrival_time":"16:09:00","departure_time":"16:09:00","lat":49.451547,"lon":16.270316,"is_passed":false},{"stop_id":"U13605Z12","name":"Rožná, železniční stanice","arrival_time":"16:13:00","departure_time":"16:14:00","lat":49.472143,"lon":16.245416,"is_passed":false},{"stop_id":"U13701Z12","name":"Bystřice nad Pern., železniční stanice","arrival_time":"16:25:00","departure_time":"16:32:00","lat":49.513611,"lon":16.246667,"is_passed":false},{"stop_id":"U13801Z12","name":"Rozsochy, železniční stanice","arrival_time":"16:39:00","departure_time":"16:39:00","lat":49.537385,"lon":16.195122,"is_passed":false},{"stop_id":"U23801Z2","name":"Rovné-Divišov","arrival_time":"16:42:00","departure_time":"16:42:00","lat":49.547632,"lon":16.172826,"is_passed":false}],"9890":[{"stop_id":"U14350Z21","name":"Moravské Bránice, žel. st.","arrival_time":"19:31:00","departure_time":"19:31:00","lat":49.084918,"lon":16.429257,"is_passed":false},{"stop_id":"U14348Z2","name":"Moravské Bránice, škola","arrival_time":"19:34:00","departure_time":"19:34:00","lat":49.081437,"lon":16.438245,"is_passed":false},{"stop_id":"U14210Z12","name":"Silůvky","arrival_time":"19:49:00","departure_time":"19:49:00","lat":49.106572,"lon":16.467387,"is_passed":false},{"stop_id":"U14212Z2","name":"Radostice, Mlýnská silnice","arrival_time":"19:54:00","departure_time":"19:54:00","lat":49.135667,"lon":16.474973,"is_passed":false},{"stop_id":"U14211Z2","name":"Radostice, koupaliště","arrival_time":"19:55:00","departure_time":"19:55:00","lat":49.138172,"lon":16.467963,"is_passed":false},{"stop_id":"U14124Z2","name":"Střelice, Vršovice","arrival_time":"20:00:00","departure_time":"20:00:00","lat":49.153397,"lon":16.480075,"is_passed":false},{"stop_id":"U14121Z2","name":"Střelice, obecní úřad","arrival_time":"20:02:00","departure_time":"20:02:00","lat":49.152613,"lon":16.502885,"is_passed":false},{"stop_id":"U1061Z2","name":"Čermákova","arrival_time":"20:10:00","departure_time":"20:10:00","lat":49.164349,"lon":16.564689,"is_passed":false},{"stop_id":"U1703Z4","name":"Ústřední hřbitov","arrival_time":"20:17:00","departure_time":"20:17:00","lat":49.172555,"lon":16.598505,"is_passed":false},{"stop_id":"U1596Z36","name":"Soukenická","arrival_time":"20:25:00","departure_time":"20:25:00","lat":49.188987,"lon":16.608514,"is_passed":false}],"9891":[{"stop_id":"U1146Z27","name":"Hlavní nádraží","arrival_time":"21:31:00","departure_time":"21:31:00","lat":49.190389,"lon":16.610438,"is_passed":false},{"stop_id":"U1703Z3","name":"Ústřední hřbitov","arrival_time":"21:37:00","departure_time":"21:37:00","lat":49.172701,"lon":16.597725,"is_passed":false},{"stop_id":"U1061Z1","name":"Čermákova","arrival_time":"21:42:00","departure_time":"21:42:00","lat":49.164336,"lon":16.565516,"is_passed":false},{"stop_id":"U14121Z1","name":"Střelice, obecní úřad","arrival_time":"21:53:00","departure_time":"21:53:00","lat":49.152682,"lon":16.50322,"is_passed":false},{"stop_id":"U14124Z1","name":"Střelice, Vršovice","arrival_time":"21:56:00","departure_time":"21:56:00","lat":49.15349,"lon":16.480352,"is_passed":false},{"stop_id":"U14211Z1","name":"Radostice, koupaliště","arrival_time":"22:02:00","departure_time":"22:02:00","lat":49.13813,"lon":16.46796,"is_passed":false},{"stop_id":"U14212Z1","name":"Radostice, Mlýnská silnice","arrival_time":"22:03:00","departure_time":"22:03:00","lat":49.135592,"lon":16.474967,"is_passed":false},{"stop_id":"U14210Z11","name":"Silůvky","arrival_time":"22:08:00","departure_time":"22:08:00","lat":49.106382,"lon":16.467403,"is_passed":false},{"stop_id":"U14348Z1","name":"Moravské Bránice, škola","arrival_time":"22:23:00","departure_time":"22:23:00","lat":49.081618,"lon":16.438242,"is_passed":false},{"stop_id":"U14350Z20","name":"Moravské Bránice, žel. st.","arrival_time":"22:26:00","departure_time":"22:26:00","lat":49.084918,"lon":16.429257,"is_passed":false}],"9892":[{"stop_id":"U14479Z20","name":"Moravský Krumlov, železniční stanice","arrival_time":"5:19:00","departure_time":"5:19:00","lat":49.04619,"lon":16.338163,"is_passed":false},{"stop_id":"U1141Z2","name":"Heršpická","arrival_time":"5:58:00","departure_time":"5:58:00","lat":49.170473,"lon":16.599896,"is_passed":false},{"stop_id":"U1596Z36","name":"Soukenická","arrival_time":"6:06:00","departure_time":"6:06:00","lat":49.188987,"lon":16.608514,"is_passed":false}],"9893":[{"stop_id":"U1146Z27","name":"Hlavní nádraží","arrival_time":"6:51:00","departure_time":"6:51:00","lat":49.190389,"lon":16.610438,"is_passed":false},{"stop_id":"U1141Z1","name":"Heršpická","arrival_time":"6:57:00","departure_time":"6:57:00","lat":49.170255,"lon":16.599363,"is_passed":false},{"stop_id":"U14479Z21","name":"Moravský Krumlov, železniční stanice","arrival_time":"7:37:00","departure_time":"8:19:00","lat":49.04619,"lon":16.338163,"is_passed":false}],"9894":[{"stop_id":"U14479Z20","name":"Moravský Krumlov, železniční stanice","arrival_time":"8:19:00","departure_time":"8:19:00","lat":49.04619,"lon":16.338163,"is_passed":false},{"stop_id":"U1141Z2","name":"Heršpická","arrival_time":"8:58:00","departure_time":"8:58:00","lat":49.170473,"lon":16.599896,"is_passed":false},{"stop_id":"U1596Z36","name":"Soukenická","arrival_time":"9:06:00","departure_time":"9:06:00","lat":49.188987,"lon":16.608514,"is_passed":false}],"9895":[{"stop_id":"U1146Z27","name":"Hlavní nádraží","arrival_time":"9:51:00","departure_time":"9:51:00","lat":49.190389,"lon":16.610438,"is_passed":false},{"stop_id":"U1141Z1","name":"Heršpická","arrival_time":"9:57:00","departure_time":"9:57:00","lat":49.170255,"lon":16.599363,"is_passed":false},{"stop_id":"U14479Z21","name":"Moravský Krumlov, železniční stanice","arrival_time":"10:37:00","departure_time":"11:19:00","lat":49.04619,"lon":16.338163,"is_passed":false}],"9896":[{"stop_id":"U14479Z20","name":"Moravský Krumlov, železniční stanice","arrival_time":"11:19:00","departure_time":"11:19:00","lat":49.04619,"lon":16.338163,"is_passed":false},{"stop_id":"U1141Z2","name":"Heršpická","arrival_time":"11:58:00","departure_time":"11:58:00","lat":49.170473,"lon":16.599896,"is_passed":false},{"stop_id":"U1596Z36","name":"Soukenická","arrival_time":"12:06:00","departure_time":"12:06:00","lat":49.188987,"lon":16.608514,"is_passed":false}],"9897":[{"stop_id":"U1146Z27","name":"Hlavní nádraží","arrival_time":"12:51:00","departure_time":"12:51:00","lat":49.190389,"lon":16.610438,"is_passed":false},{"stop_id":"U1141Z1","name":"Heršpická","arrival_time":"12:57:00","departure_time":"12:57:00","lat":49.170255,"lon":16.599363,"is_passed":false},{"stop_id":"U14479Z21","name":"Moravský Krumlov, železniční stanice","arrival_time":"13:37:00","departure_time":"14:19:00","lat":49.04619,"lon":16.338163,"is_passed":false}],"9898":[{"stop_id":"U14479Z20","name":"Moravský Krumlov, železniční stanice","arrival_time":"14:19:00","departure_time":"14:19:00","lat":49.04619,"lon":16.338163,"is_passed":false},{"stop_id":"U1141Z2","name":"Heršpická","arrival_time":"14:58:00","departure_time":"14:58:00","lat":49.170473,"lon":16.599896,"is_passed":false},{"stop_id":"U1596Z36","name":"Soukenická","arrival_time":"15:06:00","departure_time":"15:06:00","lat":49.188987,"lon":16.608514,"is_passed":false}],"9899":[{"stop_id":"U1146Z27","name":"Hlavní nádraží","arrival_time":"15:51:00","departure_time":"15:51:00","lat":49.190389,"lon":16.610438,"is_passed":false},{"stop_id":"U1141Z1","name":"Heršpická","arrival_time":"15:57:00","departure_time":"15:57:00","lat":49.170255,"lon":16.599363,"is_passed":false},{"stop_id":"U14479Z21","name":"Moravský Krumlov, železniční stanice","arrival_time":"16:37:00","departure_time":"17:19:00","lat":49.04619,"lon":16.338163,"is_passed":false}]}