{"989":[{"stop_id":"U28502Z11","name":"Moravské Budějovice","arrival_time":"18:29:00","departure_time":"18:29:00","lat":49.057522,"lon":15.809326,"is_passed":false},{"stop_id":"U28401Z11","name":"Blížkovice","arrival_time":"18:36:00","departure_time":"18:37:00","lat":49.004292,"lon":15.854364,"is_passed":false},{"stop_id":"U18339Z11","name":"Grešlové Mýto, železniční stanice","arrival_time":"18:40:00","departure_time":"18:40:00","lat":48.98455,"lon":15.874436,"is_passed":false},{"stop_id":"U18259Z11","name":"Šumná, železniční stanice","arrival_time":"18:47:00","departure_time":"18:47:00","lat":48.923097,"lon":15.874306,"is_passed":false},{"stop_id":"U28002Z11","name":"Znojmo nemocnice","arrival_time":"19:02:00","departure_time":"19:03:00","lat":48.865504,"lon":16.048394,"is_passed":false},{"stop_id":"U18009Z23","name":"Znojmo, autobusové nádraží","arrival_time":"19:06:00","departure_time":"19:06:00","lat":48.852761,"lon":16.059287,"is_passed":false}],"9890":[{"stop_id":"U1146Z99","name":"Hlavní nádraží","arrival_time":"8:13:00","departure_time":"8:13:00","lat":49.19035,"lon":16.612342,"is_passed":false},{"stop_id":"U1286Z10","name":"Královo Pole, nádraží","arrival_time":"8:24:00","departure_time":"8:25:00","lat":49.231051,"lon":16.596651,"is_passed":false},{"stop_id":"U13334Z20","name":"Tišnov, železniční stanice","arrival_time":"8:40:00","departure_time":"8:44:00","lat":49.3475,"lon":16.41725,"is_passed":false}],"9891":[{"stop_id":"U1146Z99","name":"Hlavní nádraží","arrival_time":"10:13:00","departure_time":"10:13:00","lat":49.19035,"lon":16.612342,"is_passed":false},{"stop_id":"U1286Z10","name":"Královo Pole, nádraží","arrival_time":"10:24:00","departure_time":"10:26:00","lat":49.231051,"lon":16.596651,"is_passed":false},{"stop_id":"U13334Z20","name":"Tišnov, železniční stanice","arrival_time":"10:41:00","departure_time":"10:44:00","lat":49.3475,"lon":16.41725,"is_passed":false}],"9892":[{"stop_id":"U1146Z99","name":"Hlavní nádraží","arrival_time":"12:13:00","departure_time":"12:13:00","lat":49.19035,"lon":16.612342,"is_passed":false},{"stop_id":"U1286Z10","name":"Královo Pole, nádraží","arrival_time":"12:24:00","departure_time":"12:26:00","lat":49.231051,"lon":16.596651,"is_passed":false},{"stop_id":"U13334Z20","name":"Tišnov, železniční stanice","arrival_time":"12:41:00","departure_time":"12:44:00","lat":49.3475,"lon":16.41725,"is_passed":false}],"9893":[{"stop_id":"U1146Z99","name":"Hlavní nádraží","arrival_time":"14:13:00","departure_time":"14:13:00","lat":49.19035,"lon":16.612342,"is_passed":false},{"stop_id":"U1286Z10","name":"Královo Pole, nádraží","arrival_time":"14:24:00","departure_time":"14:26:00","lat":49.231051,"lon":16.596651,"is_passed":false},{"stop_id":"U13334Z20","name":"Tišnov, železniční stanice","arrival_time":"14:41:00","departure_time":"14:44:00","lat":49.3475,"lon":16.41725,"is_passed":false}],"9894":[{"stop_id":"U1146Z99","name":"Hlavní nádraží","arrival_time":"16:13:00","departure_time":"16:13:00","lat":49.19035,"lon":16.612342,"is_passed":false},{"stop_id":"U1286Z10","name":"Královo Pole, nádraží","arrival_time":"16:24:00","departure_time":"16:26:00","lat":49.231051,"lon":16.596651,"is_passed":false},{"stop_id":"U13334Z20","name":"Tišnov, železniční stanice","arrival_time":"16:42:00","departure_time":"16:44:00","lat":49.3475,"lon":16.41725,"is_passed":false}],"9895":[{"stop_id":"U1146Z99","name":"Hlavní nádraží","arrival_time":"18:13:00","departure_time":"18:13:00","lat":49.19035,"lon":16.612342,"is_passed":false},{"stop_id":"U1286Z10","name":"Královo Pole, nádraží","arrival_time":"18:24:00","departure_time":"18:26:00","lat":49.231051,"lon":16.596651,"is_passed":false},{"stop_id":"U13334Z20","name":"Tišnov, železniční stanice","arrival_time":"18:41:00","departure_time":"18:44:00","lat":49.3475,"lon":16.41725,"is_passed":false}],"9896":[{"stop_id":"U1146Z99","name":"Hlavní nádraží","arrival_time":"20:13:00","departure_time":"20:13:00","lat":49.19035,"lon":16.612342,"is_passed":false},{"stop_id":"U1286Z10","name":"Královo Pole, nádraží","arrival_time":"20:24:00","departure_time":"20:26:00","lat":49.231051,"lon":16.596651,"is_passed":false},{"stop_id":"U13334Z20","name":"Tišnov, železniční stanice","arrival_time":"20:41:00","departure_time":"20:44:00","lat":49.3475,"lon":16.41725,"is_passed":false}],"9897":[{"stop_id":"U13334Z21","name":"Tišnov, železniční stanice","arrival_time":"6:25:00","departure_time":"6:25:00","lat":49.3475,"lon":16.41725,"is_passed":false},{"stop_id":"U1286Z11","name":"Královo Pole, nádraží","arrival_time":"6:40:00","departure_time":"6:40:00","lat":49.231051,"lon":16.596651,"is_passed":false},{"stop_id":"U1146Z98","name":"Hlavní nádraží","arrival_time":"6:53:00","departure_time":"6:53:00","lat":49.19035,"lon":16.612342,"is_passed":false}],"9898":[{"stop_id":"U13334Z21","name":"Tišnov, železniční stanice","arrival_time":"17:15:00","departure_time":"17:15:00","lat":49.3475,"lon":16.41725,"is_passed":false},{"stop_id":"U1286Z11","name":"Královo Pole, nádraží","arrival_time":"17:30:00","departure_time":"17:30:00","lat":49.231051,"lon":16.596651,"is_passed":false},{"stop_id":"U1146Z98","name":"Hlavní nádraží","arrival_time":"17:44:00","departure_time":"17:44:00","lat":49.19035,"lon":16.612342,"is_passed":false}],"9899":[{"stop_id":"U13334Z21","name":"Tišnov, železniční stanice","arrival_time":"7:15:00","departure_time":"7:15:00","lat":49.3475,"lon":16.41725,"is_passed":false},{"stop_id":"U1286Z11","name":"Královo Pole, nádraží","arrival_time":"7:30:00","departure_time":"7:30:00","lat":49.231051,"lon":16.596651,"is_passed":false},{"stop_id":"U1146Z98","name":"Hlavní nádraží","arrival_time":"7:42:00","departure_time":"7:42:00","lat":49.19035,"lon":16.612342,"is_passed":false}]}