{"989":[{"stop_id":"U18009Z23","name":"Znojmo, autobusové nádraží","arrival_time":"6:55:00","departure_time":"6:55:00","lat":48.852761,"lon":16.059287,"is_passed":false},{"stop_id":"U28001Z1","name":"Znojmo-Nový Šaldorf","arrival_time":"6:59:00","departure_time":"7:00:00","lat":48.820061,"lon":16.044266,"is_passed":false},{"stop_id":"U18168Z11","name":"Šatov, železniční stanice","arrival_time":"7:05:00","departure_time":"7:06:00","lat":48.780786,"lon":16.026006,"is_passed":false},{"stop_id":"U31033Z1","name":"Unterretzbach","arrival_time":"7:08:00","departure_time":"7:09:00","lat":48.764701,"lon":16.007784,"is_passed":false},{"stop_id":"U31034Z11","name":"Retz","arrival_time":"7:14:00","departure_time":"7:14:00","lat":48.753724,"lon":15.957444,"is_passed":false}],"9890":[{"stop_id":"U27503Z1","name":"Nezamyslice","arrival_time":"8:37:00","departure_time":"8:37:00","lat":49.336,"lon":17.1625,"is_passed":false},{"stop_id":"U27502Z1","name":"Chvalkovice na Hané","arrival_time":"8:41:00","departure_time":"8:41:00","lat":49.321667,"lon":17.111389,"is_passed":false},{"stop_id":"U17514Z20","name":"Ivanovice na Hané, aut. st.","arrival_time":"8:44:00","departure_time":"8:48:00","lat":49.306111,"lon":17.086945,"is_passed":false},{"stop_id":"U27501Z1","name":"Hoštice-Heroltice","arrival_time":"8:51:00","departure_time":"8:51:00","lat":49.291389,"lon":17.057778,"is_passed":false},{"stop_id":"U17446Z10","name":"Vyškov, železniční stanice","arrival_time":"8:56:00","departure_time":"8:56:00","lat":49.277222,"lon":16.990833,"is_passed":false}],"9891":[{"stop_id":"U17446Z11","name":"Vyškov, železniční stanice","arrival_time":"7:04:00","departure_time":"7:04:00","lat":49.277222,"lon":16.990833,"is_passed":false},{"stop_id":"U27501Z2","name":"Hoštice-Heroltice","arrival_time":"7:09:00","departure_time":"7:09:00","lat":49.291389,"lon":17.057778,"is_passed":false},{"stop_id":"U17514Z21","name":"Ivanovice na Hané, aut. st.","arrival_time":"7:13:00","departure_time":"7:15:00","lat":49.306111,"lon":17.086945,"is_passed":false},{"stop_id":"U27502Z2","name":"Chvalkovice na Hané","arrival_time":"7:18:00","departure_time":"7:18:00","lat":49.321667,"lon":17.111389,"is_passed":false},{"stop_id":"U27503Z2","name":"Nezamyslice","arrival_time":"7:22:00","departure_time":"7:25:00","lat":49.336,"lon":17.1625,"is_passed":false}],"9892":[{"stop_id":"U17446Z11","name":"Vyškov, železniční stanice","arrival_time":"9:04:00","departure_time":"9:04:00","lat":49.277222,"lon":16.990833,"is_passed":false},{"stop_id":"U27501Z2","name":"Hoštice-Heroltice","arrival_time":"9:09:00","departure_time":"9:09:00","lat":49.291389,"lon":17.057778,"is_passed":false},{"stop_id":"U17514Z21","name":"Ivanovice na Hané, aut. st.","arrival_time":"9:13:00","departure_time":"9:15:00","lat":49.306111,"lon":17.086945,"is_passed":false},{"stop_id":"U27502Z2","name":"Chvalkovice na Hané","arrival_time":"9:18:00","departure_time":"9:18:00","lat":49.321667,"lon":17.111389,"is_passed":false},{"stop_id":"U27503Z2","name":"Nezamyslice","arrival_time":"9:22:00","departure_time":"9:25:00","lat":49.336,"lon":17.1625,"is_passed":false}],"9893":[{"stop_id":"U27503Z1","name":"Nezamyslice","arrival_time":"14:37:00","departure_time":"14:37:00","lat":49.336,"lon":17.1625,"is_passed":false},{"stop_id":"U27502Z1","name":"Chvalkovice na Hané","arrival_time":"14:41:00","departure_time":"14:41:00","lat":49.321667,"lon":17.111389,"is_passed":false},{"stop_id":"U17514Z20","name":"Ivanovice na Hané, aut. st.","arrival_time":"14:44:00","departure_time":"14:48:00","lat":49.306111,"lon":17.086945,"is_passed":false},{"stop_id":"U27501Z1","name":"Hoštice-Heroltice","arrival_time":"14:51:00","departure_time":"14:51:00","lat":49.291389,"lon":17.057778,"is_passed":false},{"stop_id":"U17446Z10","name":"Vyškov, železniční stanice","arrival_time":"14:56:00","departure_time":"14:56:00","lat":49.277222,"lon":16.990833,"is_passed":false}],"9894":[{"stop_id":"U17446Z11","name":"Vyškov, železniční stanice","arrival_time":"13:04:00","departure_time":"13:04:00","lat":49.277222,"lon":16.990833,"is_passed":false},{"stop_id":"U27501Z2","name":"Hoštice-Heroltice","arrival_time":"13:09:00","departure_time":"13:09:00","lat":49.291389,"lon":17.057778,"is_passed":false},{"stop_id":"U17514Z21","name":"Ivanovice na Hané, aut. st.","arrival_time":"13:13:00","departure_time":"13:15:00","lat":49.306111,"lon":17.086945,"is_passed":false},{"stop_id":"U27502Z2","name":"Chvalkovice na Hané","arrival_time":"13:18:00","departure_time":"13:18:00","lat":49.321667,"lon":17.111389,"is_passed":false},{"stop_id":"U27503Z2","name":"Nezamyslice","arrival_time":"13:22:00","departure_time":"13:25:00","lat":49.336,"lon":17.1625,"is_passed":false}],"9895":[{"stop_id":"U27503Z1","name":"Nezamyslice","arrival_time":"16:37:00","departure_time":"16:37:00","lat":49.336,"lon":17.1625,"is_passed":false},{"stop_id":"U27502Z1","name":"Chvalkovice na Hané","arrival_time":"16:41:00","departure_time":"16:41:00","lat":49.321667,"lon":17.111389,"is_passed":false},{"stop_id":"U17514Z20","name":"Ivanovice na Hané, aut. st.","arrival_time":"16:44:00","departure_time":"16:48:00","lat":49.306111,"lon":17.086945,"is_passed":false},{"stop_id":"U27501Z1","name":"Hoštice-Heroltice","arrival_time":"16:51:00","departure_time":"16:51:00","lat":49.291389,"lon":17.057778,"is_passed":false},{"stop_id":"U17446Z10","name":"Vyškov, železniční stanice","arrival_time":"16:56:00","departure_time":"16:56:00","lat":49.277222,"lon":16.990833,"is_passed":false}],"9896":[{"stop_id":"U17446Z11","name":"Vyškov, železniční stanice","arrival_time":"15:04:00","departure_time":"15:04:00","lat":49.277222,"lon":16.990833,"is_passed":false},{"stop_id":"U27501Z2","name":"Hoštice-Heroltice","arrival_time":"15:09:00","departure_time":"15:09:00","lat":49.291389,"lon":17.057778,"is_passed":false},{"stop_id":"U17514Z21","name":"Ivanovice na Hané, aut. st.","arrival_time":"15:13:00","departure_time":"15:15:00","lat":49.306111,"lon":17.086945,"is_passed":false},{"stop_id":"U27502Z2","name":"Chvalkovice na Hané","arrival_time":"15:18:00","departure_time":"15:18:00","lat":49.321667,"lon":17.111389,"is_passed":false},{"stop_id":"U27503Z2","name":"Nezamyslice","arrival_time":"15:22:00","departure_time":"15:25:00","lat":49.336,"lon":17.1625,"is_passed":false}],"9897":[{"stop_id":"U17446Z11","name":"Vyškov, železniční stanice","arrival_time":"17:04:00","departure_time":"17:04:00","lat":49.277222,"lon":16.990833,"is_passed":false},{"stop_id":"U27501Z2","name":"Hoštice-Heroltice","arrival_time":"17:09:00","departure_time":"17:09:00","lat":49.291389,"lon":17.057778,"is_passed":false},{"stop_id":"U17514Z21","name":"Ivanovice na Hané, aut. st.","arrival_time":"17:13:00","departure_time":"17:15:00","lat":49.306111,"lon":17.086945,"is_passed":false},{"stop_id":"U27502Z2","name":"Chvalkovice na Hané","arrival_time":"17:18:00","departure_time":"17:18:00","lat":49.321667,"lon":17.111389,"is_passed":false},{"stop_id":"U27503Z2","name":"Nezamyslice","arrival_time":"17:22:00","departure_time":"17:25:00","lat":49.336,"lon":17.1625,"is_passed":false}],"9898":[{"stop_id":"U27503Z1","name":"Nezamyslice","arrival_time":"21:29:00","departure_time":"21:29:00","lat":49.336,"lon":17.1625,"is_passed":false},{"stop_id":"U27502Z1","name":"Chvalkovice na Hané","arrival_time":"21:33:00","departure_time":"21:33:00","lat":49.321667,"lon":17.111389,"is_passed":false},{"stop_id":"U17514Z20","name":"Ivanovice na Hané, aut. st.","arrival_time":"21:36:00","departure_time":"21:54:00","lat":49.306111,"lon":17.086945,"is_passed":false},{"stop_id":"U27501Z1","name":"Hoštice-Heroltice","arrival_time":"21:57:00","departure_time":"21:57:00","lat":49.291389,"lon":17.057778,"is_passed":false},{"stop_id":"U17446Z10","name":"Vyškov, železniční stanice","arrival_time":"22:03:00","departure_time":"22:03:00","lat":49.277222,"lon":16.990833,"is_passed":false}],"9899":[{"stop_id":"U17446Z11","name":"Vyškov, železniční stanice","arrival_time":"19:04:00","departure_time":"19:04:00","lat":49.277222,"lon":16.990833,"is_passed":false},{"stop_id":"U27501Z2","name":"Hoštice-Heroltice","arrival_time":"19:09:00","departure_time":"19:09:00","lat":49.291389,"lon":17.057778,"is_passed":false},{"stop_id":"U17514Z21","name":"Ivanovice na Hané, aut. st.","arrival_time":"19:13:00","departure_time":"19:15:00","lat":49.306111,"lon":17.086945,"is_passed":false},{"stop_id":"U27502Z2","name":"Chvalkovice na Hané","arrival_time":"19:18:00","departure_time":"19:18:00","lat":49.321667,"lon":17.111389,"is_passed":false},{"stop_id":"U27503Z2","name":"Nezamyslice","arrival_time":"19:22:00","departure_time":"19:25:00","lat":49.336,"lon":17.1625,"is_passed":false}]}