{"990":[{"stop_id":"U25504Z11","name":"Kobylí na Moravě","arrival_time":"19:35:00","departure_time":"19:35:00","lat":48.934022,"lon":16.881272,"is_passed":false},{"stop_id":"U16454Z11","name":"Brumovice, železniční stanice","arrival_time":"19:38:00","departure_time":"19:38:00","lat":48.947228,"lon":16.905767,"is_passed":false},{"stop_id":"U16546Z11","name":"Čejč, železniční stanice","arrival_time":"19:44:00","departure_time":"19:46:00","lat":48.942189,"lon":16.958672,"is_passed":false},{"stop_id":"U29105Z11","name":"Mutěnice zastávka","arrival_time":"19:55:00","departure_time":"19:57:00","lat":48.911986,"lon":17.027008,"is_passed":false},{"stop_id":"U29106Z11","name":"Mutěnice","arrival_time":"19:59:00","departure_time":"20:03:00","lat":48.904678,"lon":17.039875,"is_passed":false},{"stop_id":"U19001Z22","name":"Hodonín, autobusové nádraží","arrival_time":"20:17:00","departure_time":"20:17:00","lat":48.85575,"lon":17.12069,"is_passed":false}],"9900":[{"stop_id":"U18239Z2","name":"Žerotice, požární zbrojnice","arrival_time":"9:31:00","departure_time":"9:31:00","lat":48.926907,"lon":16.16763,"is_passed":false},{"stop_id":"U18238Z2","name":"Žerotice, Kyjovická","arrival_time":"9:33:00","departure_time":"9:33:00","lat":48.925525,"lon":16.165198,"is_passed":false},{"stop_id":"U18212Z2","name":"Kyjovice","arrival_time":"9:35:00","departure_time":"9:35:00","lat":48.915725,"lon":16.16638,"is_passed":false},{"stop_id":"U18221Z4","name":"Prosiměřice, u bufetu","arrival_time":"9:38:00","departure_time":"9:38:00","lat":48.903398,"lon":16.190627,"is_passed":false},{"stop_id":"U18219Z4","name":"Prosiměřice, hostinec","arrival_time":"9:39:00","departure_time":"10:09:00","lat":48.902423,"lon":16.192625,"is_passed":false}],"9901":[{"stop_id":"U18219Z4","name":"Prosiměřice, hostinec","arrival_time":"10:09:00","departure_time":"10:09:00","lat":48.902423,"lon":16.192625,"is_passed":false},{"stop_id":"U18222Z3","name":"Stošíkovice na Louce","arrival_time":"10:15:00","departure_time":"10:15:00","lat":48.89529,"lon":16.214773,"is_passed":false},{"stop_id":"U18223Z5","name":"Stošíkovice na Louce, rozcestí","arrival_time":"10:18:00","departure_time":"10:18:00","lat":48.889336,"lon":16.196984,"is_passed":false},{"stop_id":"U18125Z2","name":"Práče, obecní úřad","arrival_time":"10:20:00","departure_time":"10:20:00","lat":48.876979,"lon":16.202572,"is_passed":false},{"stop_id":"U18214Z2","name":"Lechovice, obecní úřad","arrival_time":"10:23:00","departure_time":"10:23:00","lat":48.872568,"lon":16.221965,"is_passed":false},{"stop_id":"U18215Z3","name":"Lechovice, zámek","arrival_time":"10:25:00","departure_time":"11:30:00","lat":48.874591,"lon":16.236258,"is_passed":false}],"9902":[{"stop_id":"U18215Z3","name":"Lechovice, zámek","arrival_time":"11:30:00","departure_time":"11:30:00","lat":48.874591,"lon":16.236258,"is_passed":false},{"stop_id":"U18214Z1","name":"Lechovice, obecní úřad","arrival_time":"11:32:00","departure_time":"11:32:00","lat":48.872558,"lon":16.222179,"is_passed":false},{"stop_id":"U18125Z1","name":"Práče, obecní úřad","arrival_time":"11:36:00","departure_time":"11:36:00","lat":48.877058,"lon":16.202218,"is_passed":false},{"stop_id":"U18222Z1","name":"Stošíkovice na Louce","arrival_time":"11:41:00","departure_time":"11:41:00","lat":48.89529,"lon":16.214773,"is_passed":false},{"stop_id":"U18223Z1","name":"Stošíkovice na Louce, rozcestí","arrival_time":"11:44:00","departure_time":"11:44:00","lat":48.890458,"lon":16.196641,"is_passed":false},{"stop_id":"U18219Z3","name":"Prosiměřice, hostinec","arrival_time":"11:47:00","departure_time":"12:49:00","lat":48.902718,"lon":16.192215,"is_passed":false}],"9903":[{"stop_id":"U18219Z4","name":"Prosiměřice, hostinec","arrival_time":"12:49:00","departure_time":"12:49:00","lat":48.902423,"lon":16.192625,"is_passed":false},{"stop_id":"U18222Z3","name":"Stošíkovice na Louce","arrival_time":"12:55:00","departure_time":"12:55:00","lat":48.89529,"lon":16.214773,"is_passed":false},{"stop_id":"U18223Z5","name":"Stošíkovice na Louce, rozcestí","arrival_time":"12:58:00","departure_time":"12:58:00","lat":48.889336,"lon":16.196984,"is_passed":false},{"stop_id":"U18125Z2","name":"Práče, obecní úřad","arrival_time":"13:00:00","departure_time":"13:00:00","lat":48.876979,"lon":16.202572,"is_passed":false},{"stop_id":"U18214Z2","name":"Lechovice, obecní úřad","arrival_time":"13:03:00","departure_time":"13:03:00","lat":48.872568,"lon":16.221965,"is_passed":false},{"stop_id":"U18215Z3","name":"Lechovice, zámek","arrival_time":"13:05:00","departure_time":"13:10:00","lat":48.874591,"lon":16.236258,"is_passed":false}],"9904":[{"stop_id":"U18215Z3","name":"Lechovice, zámek","arrival_time":"13:10:00","departure_time":"13:10:00","lat":48.874591,"lon":16.236258,"is_passed":false},{"stop_id":"U18214Z1","name":"Lechovice, obecní úřad","arrival_time":"13:12:00","departure_time":"13:12:00","lat":48.872558,"lon":16.222179,"is_passed":false},{"stop_id":"U18125Z1","name":"Práče, obecní úřad","arrival_time":"13:16:00","departure_time":"13:16:00","lat":48.877058,"lon":16.202218,"is_passed":false},{"stop_id":"U18223Z1","name":"Stošíkovice na Louce, rozcestí","arrival_time":"13:18:00","departure_time":"13:18:00","lat":48.890458,"lon":16.196641,"is_passed":false},{"stop_id":"U18219Z3","name":"Prosiměřice, hostinec","arrival_time":"13:21:00","departure_time":"13:27:00","lat":48.902718,"lon":16.192215,"is_passed":false},{"stop_id":"U18221Z3","name":"Prosiměřice, u bufetu","arrival_time":"13:28:00","departure_time":"13:28:00","lat":48.903893,"lon":16.190322,"is_passed":false},{"stop_id":"U18212Z1","name":"Kyjovice","arrival_time":"13:31:00","departure_time":"13:35:00","lat":48.915567,"lon":16.166742,"is_passed":false}],"9905":[{"stop_id":"U18212Z2","name":"Kyjovice","arrival_time":"13:35:00","departure_time":"13:35:00","lat":48.915725,"lon":16.16638,"is_passed":false},{"stop_id":"U18221Z4","name":"Prosiměřice, u bufetu","arrival_time":"13:38:00","departure_time":"13:38:00","lat":48.903398,"lon":16.190627,"is_passed":false},{"stop_id":"U18219Z4","name":"Prosiměřice, hostinec","arrival_time":"13:39:00","departure_time":"13:39:00","lat":48.902423,"lon":16.192625,"is_passed":false},{"stop_id":"U18223Z5","name":"Stošíkovice na Louce, rozcestí","arrival_time":"13:42:00","departure_time":"13:42:00","lat":48.889336,"lon":16.196984,"is_passed":false},{"stop_id":"U18125Z2","name":"Práče, obecní úřad","arrival_time":"13:44:00","departure_time":"13:44:00","lat":48.876979,"lon":16.202572,"is_passed":false},{"stop_id":"U18214Z2","name":"Lechovice, obecní úřad","arrival_time":"13:47:00","departure_time":"13:47:00","lat":48.872568,"lon":16.221965,"is_passed":false},{"stop_id":"U18215Z3","name":"Lechovice, zámek","arrival_time":"13:49:00","departure_time":"14:00:00","lat":48.874591,"lon":16.236258,"is_passed":false}],"9906":[{"stop_id":"U18215Z3","name":"Lechovice, zámek","arrival_time":"14:00:00","departure_time":"14:00:00","lat":48.874591,"lon":16.236258,"is_passed":false},{"stop_id":"U18214Z1","name":"Lechovice, obecní úřad","arrival_time":"14:02:00","departure_time":"14:02:00","lat":48.872558,"lon":16.222179,"is_passed":false},{"stop_id":"U18125Z1","name":"Práče, obecní úřad","arrival_time":"14:06:00","departure_time":"14:06:00","lat":48.877058,"lon":16.202218,"is_passed":false},{"stop_id":"U18223Z1","name":"Stošíkovice na Louce, rozcestí","arrival_time":"14:08:00","departure_time":"14:08:00","lat":48.890458,"lon":16.196641,"is_passed":false},{"stop_id":"U18219Z3","name":"Prosiměřice, hostinec","arrival_time":"14:11:00","departure_time":"14:17:00","lat":48.902718,"lon":16.192215,"is_passed":false},{"stop_id":"U18221Z3","name":"Prosiměřice, u bufetu","arrival_time":"14:18:00","departure_time":"14:18:00","lat":48.903893,"lon":16.190322,"is_passed":false},{"stop_id":"U18212Z1","name":"Kyjovice","arrival_time":"14:21:00","departure_time":"14:21:00","lat":48.915567,"lon":16.166742,"is_passed":false},{"stop_id":"U18238Z1","name":"Žerotice, Kyjovická","arrival_time":"14:23:00","departure_time":"14:23:00","lat":48.925525,"lon":16.165198,"is_passed":false},{"stop_id":"U18239Z1","name":"Žerotice, požární zbrojnice","arrival_time":"14:25:00","departure_time":"14:31:00","lat":48.926905,"lon":16.167782,"is_passed":false}],"9907":[{"stop_id":"U18239Z2","name":"Žerotice, požární zbrojnice","arrival_time":"14:31:00","departure_time":"14:31:00","lat":48.926907,"lon":16.16763,"is_passed":false},{"stop_id":"U18238Z2","name":"Žerotice, Kyjovická","arrival_time":"14:33:00","departure_time":"14:33:00","lat":48.925525,"lon":16.165198,"is_passed":false},{"stop_id":"U18212Z2","name":"Kyjovice","arrival_time":"14:35:00","departure_time":"14:35:00","lat":48.915725,"lon":16.16638,"is_passed":false},{"stop_id":"U18221Z4","name":"Prosiměřice, u bufetu","arrival_time":"14:38:00","departure_time":"14:38:00","lat":48.903398,"lon":16.190627,"is_passed":false},{"stop_id":"U18219Z4","name":"Prosiměřice, hostinec","arrival_time":"14:39:00","departure_time":"14:39:00","lat":48.902423,"lon":16.192625,"is_passed":false},{"stop_id":"U18222Z3","name":"Stošíkovice na Louce","arrival_time":"14:45:00","departure_time":"14:45:00","lat":48.89529,"lon":16.214773,"is_passed":false},{"stop_id":"U18223Z5","name":"Stošíkovice na Louce, rozcestí","arrival_time":"14:48:00","departure_time":"14:48:00","lat":48.889336,"lon":16.196984,"is_passed":false},{"stop_id":"U18125Z2","name":"Práče, obecní úřad","arrival_time":"14:50:00","departure_time":"14:50:00","lat":48.876979,"lon":16.202572,"is_passed":false},{"stop_id":"U18214Z2","name":"Lechovice, obecní úřad","arrival_time":"14:53:00","departure_time":"14:53:00","lat":48.872568,"lon":16.221965,"is_passed":false},{"stop_id":"U18215Z3","name":"Lechovice, zámek","arrival_time":"14:55:00","departure_time":"15:00:00","lat":48.874591,"lon":16.236258,"is_passed":false}],"9908":[{"stop_id":"U18215Z3","name":"Lechovice, zámek","arrival_time":"15:00:00","departure_time":"15:00:00","lat":48.874591,"lon":16.236258,"is_passed":false},{"stop_id":"U18214Z1","name":"Lechovice, obecní úřad","arrival_time":"15:02:00","departure_time":"15:02:00","lat":48.872558,"lon":16.222179,"is_passed":false},{"stop_id":"U18125Z1","name":"Práče, obecní úřad","arrival_time":"15:06:00","departure_time":"15:06:00","lat":48.877058,"lon":16.202218,"is_passed":false},{"stop_id":"U18222Z1","name":"Stošíkovice na Louce","arrival_time":"15:11:00","departure_time":"15:11:00","lat":48.89529,"lon":16.214773,"is_passed":false},{"stop_id":"U18223Z1","name":"Stošíkovice na Louce, rozcestí","arrival_time":"15:14:00","departure_time":"15:14:00","lat":48.890458,"lon":16.196641,"is_passed":false},{"stop_id":"U18219Z3","name":"Prosiměřice, hostinec","arrival_time":"15:17:00","departure_time":"15:17:00","lat":48.902718,"lon":16.192215,"is_passed":false},{"stop_id":"U18221Z3","name":"Prosiměřice, u bufetu","arrival_time":"15:18:00","departure_time":"15:18:00","lat":48.903893,"lon":16.190322,"is_passed":false},{"stop_id":"U18212Z1","name":"Kyjovice","arrival_time":"15:21:00","departure_time":"15:21:00","lat":48.915567,"lon":16.166742,"is_passed":false},{"stop_id":"U18238Z1","name":"Žerotice, Kyjovická","arrival_time":"15:23:00","departure_time":"15:23:00","lat":48.925525,"lon":16.165198,"is_passed":false},{"stop_id":"U18239Z1","name":"Žerotice, požární zbrojnice","arrival_time":"15:25:00","departure_time":"15:31:00","lat":48.926905,"lon":16.167782,"is_passed":false}],"9909":[{"stop_id":"U18239Z2","name":"Žerotice, požární zbrojnice","arrival_time":"15:31:00","departure_time":"15:31:00","lat":48.926907,"lon":16.16763,"is_passed":false},{"stop_id":"U18238Z2","name":"Žerotice, Kyjovická","arrival_time":"15:33:00","departure_time":"15:33:00","lat":48.925525,"lon":16.165198,"is_passed":false},{"stop_id":"U18212Z2","name":"Kyjovice","arrival_time":"15:35:00","departure_time":"15:35:00","lat":48.915725,"lon":16.16638,"is_passed":false},{"stop_id":"U18221Z4","name":"Prosiměřice, u bufetu","arrival_time":"15:38:00","departure_time":"15:38:00","lat":48.903398,"lon":16.190627,"is_passed":false},{"stop_id":"U18219Z4","name":"Prosiměřice, hostinec","arrival_time":"15:39:00","departure_time":"15:39:00","lat":48.902423,"lon":16.192625,"is_passed":false},{"stop_id":"U18222Z3","name":"Stošíkovice na Louce","arrival_time":"15:45:00","departure_time":"15:45:00","lat":48.89529,"lon":16.214773,"is_passed":false},{"stop_id":"U18223Z5","name":"Stošíkovice na Louce, rozcestí","arrival_time":"15:48:00","departure_time":"15:48:00","lat":48.889336,"lon":16.196984,"is_passed":false},{"stop_id":"U18125Z2","name":"Práče, obecní úřad","arrival_time":"15:50:00","departure_time":"15:50:00","lat":48.876979,"lon":16.202572,"is_passed":false},{"stop_id":"U18214Z2","name":"Lechovice, obecní úřad","arrival_time":"15:53:00","departure_time":"15:53:00","lat":48.872568,"lon":16.221965,"is_passed":false},{"stop_id":"U18215Z3","name":"Lechovice, zámek","arrival_time":"15:55:00","departure_time":"17:00:00","lat":48.874591,"lon":16.236258,"is_passed":false}]}