{"990":[{"stop_id":"U23801Z1","name":"Rovné-Divišov","arrival_time":"19:22:00","departure_time":"19:22:00","lat":49.547632,"lon":16.172826,"is_passed":false},{"stop_id":"U13801Z11","name":"Rozsochy, železniční stanice","arrival_time":"19:25:00","departure_time":"19:25:00","lat":49.537385,"lon":16.195122,"is_passed":false},{"stop_id":"U13701Z11","name":"Bystřice nad Pern., železniční stanice","arrival_time":"19:33:00","departure_time":"19:35:00","lat":49.513611,"lon":16.246667,"is_passed":false},{"stop_id":"U13605Z11","name":"Rožná, železniční stanice","arrival_time":"19:44:00","departure_time":"19:45:00","lat":49.472143,"lon":16.245416,"is_passed":false},{"stop_id":"U23601Z1","name":"Věžná","arrival_time":"19:49:00","departure_time":"19:49:00","lat":49.451547,"lon":16.270316,"is_passed":false},{"stop_id":"U13520Z2","name":"Nedvědice, železniční stanice","arrival_time":"19:58:00","departure_time":"20:01:00","lat":49.454167,"lon":16.338333,"is_passed":false},{"stop_id":"U13506Z11","name":"Doubravník, železniční stanice","arrival_time":"20:06:00","departure_time":"20:07:00","lat":49.426945,"lon":16.352389,"is_passed":false},{"stop_id":"U13464Z2","name":"Prudká zastávka","arrival_time":"20:10:00","departure_time":"20:10:00","lat":49.419195,"lon":16.367361,"is_passed":false},{"stop_id":"U13463Z2","name":"Borač, žel. st.","arrival_time":"20:14:00","departure_time":"20:14:00","lat":49.400689,"lon":16.366288,"is_passed":false},{"stop_id":"U13462Z2","name":"Štěpánovice","arrival_time":"20:19:00","departure_time":"20:19:00","lat":49.373054,"lon":16.389952,"is_passed":false},{"stop_id":"U13334Z21","name":"Tišnov, železniční stanice","arrival_time":"20:25:00","departure_time":"20:25:00","lat":49.3475,"lon":16.41725,"is_passed":false}],"9900":[{"stop_id":"U14479Z20","name":"Moravský Krumlov, železniční stanice","arrival_time":"17:19:00","departure_time":"17:19:00","lat":49.04619,"lon":16.338163,"is_passed":false},{"stop_id":"U1141Z2","name":"Heršpická","arrival_time":"17:58:00","departure_time":"17:58:00","lat":49.170473,"lon":16.599896,"is_passed":false},{"stop_id":"U1596Z36","name":"Soukenická","arrival_time":"18:06:00","departure_time":"18:06:00","lat":49.188987,"lon":16.608514,"is_passed":false}],"9901":[{"stop_id":"U1146Z27","name":"Hlavní nádraží","arrival_time":"18:51:00","departure_time":"18:51:00","lat":49.190389,"lon":16.610438,"is_passed":false},{"stop_id":"U1141Z1","name":"Heršpická","arrival_time":"18:57:00","departure_time":"18:57:00","lat":49.170255,"lon":16.599363,"is_passed":false},{"stop_id":"U14479Z21","name":"Moravský Krumlov, železniční stanice","arrival_time":"19:37:00","departure_time":"20:19:00","lat":49.04619,"lon":16.338163,"is_passed":false}],"9902":[{"stop_id":"U14479Z20","name":"Moravský Krumlov, železniční stanice","arrival_time":"20:19:00","departure_time":"20:19:00","lat":49.04619,"lon":16.338163,"is_passed":false},{"stop_id":"U1141Z2","name":"Heršpická","arrival_time":"20:58:00","departure_time":"20:58:00","lat":49.170473,"lon":16.599896,"is_passed":false},{"stop_id":"U1596Z36","name":"Soukenická","arrival_time":"21:06:00","departure_time":"21:06:00","lat":49.188987,"lon":16.608514,"is_passed":false}],"9903":[{"stop_id":"U1146Z27","name":"Hlavní nádraží","arrival_time":"21:51:00","departure_time":"21:51:00","lat":49.190389,"lon":16.610438,"is_passed":false},{"stop_id":"U1141Z1","name":"Heršpická","arrival_time":"21:57:00","departure_time":"21:57:00","lat":49.170255,"lon":16.599363,"is_passed":false},{"stop_id":"U14479Z21","name":"Moravský Krumlov, železniční stanice","arrival_time":"22:37:00","departure_time":"22:37:00","lat":49.04619,"lon":16.338163,"is_passed":false}],"9904":[{"stop_id":"U14479Z20","name":"Moravský Krumlov, železniční stanice","arrival_time":"6:19:00","departure_time":"6:19:00","lat":49.04619,"lon":16.338163,"is_passed":false},{"stop_id":"U1141Z2","name":"Heršpická","arrival_time":"6:58:00","departure_time":"6:58:00","lat":49.170473,"lon":16.599896,"is_passed":false},{"stop_id":"U1596Z36","name":"Soukenická","arrival_time":"7:06:00","departure_time":"7:06:00","lat":49.188987,"lon":16.608514,"is_passed":false}],"9905":[{"stop_id":"U1146Z27","name":"Hlavní nádraží","arrival_time":"7:51:00","departure_time":"7:51:00","lat":49.190389,"lon":16.610438,"is_passed":false},{"stop_id":"U1141Z1","name":"Heršpická","arrival_time":"7:57:00","departure_time":"7:57:00","lat":49.170255,"lon":16.599363,"is_passed":false},{"stop_id":"U14479Z21","name":"Moravský Krumlov, železniční stanice","arrival_time":"8:37:00","departure_time":"9:19:00","lat":49.04619,"lon":16.338163,"is_passed":false}],"9906":[{"stop_id":"U14479Z20","name":"Moravský Krumlov, železniční stanice","arrival_time":"9:19:00","departure_time":"9:19:00","lat":49.04619,"lon":16.338163,"is_passed":false},{"stop_id":"U1141Z2","name":"Heršpická","arrival_time":"9:58:00","departure_time":"9:58:00","lat":49.170473,"lon":16.599896,"is_passed":false},{"stop_id":"U1596Z36","name":"Soukenická","arrival_time":"10:06:00","departure_time":"10:06:00","lat":49.188987,"lon":16.608514,"is_passed":false}],"9907":[{"stop_id":"U1146Z27","name":"Hlavní nádraží","arrival_time":"10:51:00","departure_time":"10:51:00","lat":49.190389,"lon":16.610438,"is_passed":false},{"stop_id":"U1141Z1","name":"Heršpická","arrival_time":"10:57:00","departure_time":"10:57:00","lat":49.170255,"lon":16.599363,"is_passed":false},{"stop_id":"U14479Z21","name":"Moravský Krumlov, železniční stanice","arrival_time":"11:37:00","departure_time":"12:19:00","lat":49.04619,"lon":16.338163,"is_passed":false}],"9908":[{"stop_id":"U14479Z20","name":"Moravský Krumlov, železniční stanice","arrival_time":"12:19:00","departure_time":"12:19:00","lat":49.04619,"lon":16.338163,"is_passed":false},{"stop_id":"U1141Z2","name":"Heršpická","arrival_time":"12:58:00","departure_time":"12:58:00","lat":49.170473,"lon":16.599896,"is_passed":false},{"stop_id":"U1596Z36","name":"Soukenická","arrival_time":"13:06:00","departure_time":"13:06:00","lat":49.188987,"lon":16.608514,"is_passed":false}],"9909":[{"stop_id":"U1146Z27","name":"Hlavní nádraží","arrival_time":"13:51:00","departure_time":"13:51:00","lat":49.190389,"lon":16.610438,"is_passed":false},{"stop_id":"U1141Z1","name":"Heršpická","arrival_time":"13:57:00","departure_time":"13:57:00","lat":49.170255,"lon":16.599363,"is_passed":false},{"stop_id":"U14479Z21","name":"Moravský Krumlov, železniční stanice","arrival_time":"14:37:00","departure_time":"15:19:00","lat":49.04619,"lon":16.338163,"is_passed":false}]}