{"990":[{"stop_id":"U28502Z11","name":"Moravské Budějovice","arrival_time":"19:59:00","departure_time":"19:59:00","lat":49.057522,"lon":15.809326,"is_passed":false},{"stop_id":"U28501Z11","name":"Vesce","arrival_time":"20:05:00","departure_time":"20:05:00","lat":49.019071,"lon":15.831277,"is_passed":false},{"stop_id":"U28401Z11","name":"Blížkovice","arrival_time":"20:08:00","departure_time":"20:08:00","lat":49.004292,"lon":15.854364,"is_passed":false},{"stop_id":"U18339Z11","name":"Grešlové Mýto, železniční stanice","arrival_time":"20:11:00","departure_time":"20:12:00","lat":48.98455,"lon":15.874436,"is_passed":false},{"stop_id":"U18259Z11","name":"Šumná, železniční stanice","arrival_time":"20:20:00","departure_time":"20:21:00","lat":48.923097,"lon":15.874306,"is_passed":false},{"stop_id":"U18158Z11","name":"Olbramkostel, železniční stanice","arrival_time":"20:28:00","departure_time":"20:29:00","lat":48.903229,"lon":15.949177,"is_passed":false},{"stop_id":"U28103Z11","name":"Citonice","arrival_time":"20:33:00","departure_time":"20:33:00","lat":48.878906,"lon":15.977467,"is_passed":false},{"stop_id":"U28002Z11","name":"Znojmo nemocnice","arrival_time":"20:39:00","departure_time":"20:40:00","lat":48.865504,"lon":16.048394,"is_passed":false},{"stop_id":"U18009Z23","name":"Znojmo, autobusové nádraží","arrival_time":"20:43:00","departure_time":"20:43:00","lat":48.852761,"lon":16.059287,"is_passed":false}],"9900":[{"stop_id":"U13334Z21","name":"Tišnov, železniční stanice","arrival_time":"9:15:00","departure_time":"9:15:00","lat":49.3475,"lon":16.41725,"is_passed":false},{"stop_id":"U1286Z11","name":"Královo Pole, nádraží","arrival_time":"9:30:00","departure_time":"9:30:00","lat":49.231051,"lon":16.596651,"is_passed":false},{"stop_id":"U1146Z98","name":"Hlavní nádraží","arrival_time":"9:44:00","departure_time":"9:44:00","lat":49.19035,"lon":16.612342,"is_passed":false}],"9901":[{"stop_id":"U13334Z21","name":"Tišnov, železniční stanice","arrival_time":"11:15:00","departure_time":"11:15:00","lat":49.3475,"lon":16.41725,"is_passed":false},{"stop_id":"U1286Z11","name":"Královo Pole, nádraží","arrival_time":"11:30:00","departure_time":"11:30:00","lat":49.231051,"lon":16.596651,"is_passed":false},{"stop_id":"U1146Z98","name":"Hlavní nádraží","arrival_time":"11:44:00","departure_time":"11:44:00","lat":49.19035,"lon":16.612342,"is_passed":false}],"9902":[{"stop_id":"U13334Z21","name":"Tišnov, železniční stanice","arrival_time":"13:15:00","departure_time":"13:15:00","lat":49.3475,"lon":16.41725,"is_passed":false},{"stop_id":"U1286Z11","name":"Královo Pole, nádraží","arrival_time":"13:30:00","departure_time":"13:30:00","lat":49.231051,"lon":16.596651,"is_passed":false},{"stop_id":"U1146Z98","name":"Hlavní nádraží","arrival_time":"13:44:00","departure_time":"13:44:00","lat":49.19035,"lon":16.612342,"is_passed":false}],"9903":[{"stop_id":"U13334Z21","name":"Tišnov, železniční stanice","arrival_time":"15:17:00","departure_time":"15:17:00","lat":49.3475,"lon":16.41725,"is_passed":false},{"stop_id":"U1286Z11","name":"Královo Pole, nádraží","arrival_time":"15:32:00","departure_time":"15:32:00","lat":49.231051,"lon":16.596651,"is_passed":false},{"stop_id":"U1146Z98","name":"Hlavní nádraží","arrival_time":"15:44:00","departure_time":"15:44:00","lat":49.19035,"lon":16.612342,"is_passed":false}],"9904":[{"stop_id":"U13334Z21","name":"Tišnov, železniční stanice","arrival_time":"19:15:00","departure_time":"19:15:00","lat":49.3475,"lon":16.41725,"is_passed":false},{"stop_id":"U1286Z11","name":"Královo Pole, nádraží","arrival_time":"19:30:00","departure_time":"19:30:00","lat":49.231051,"lon":16.596651,"is_passed":false},{"stop_id":"U1146Z98","name":"Hlavní nádraží","arrival_time":"19:44:00","departure_time":"19:44:00","lat":49.19035,"lon":16.612342,"is_passed":false}],"9905":[{"stop_id":"U13334Z21","name":"Tišnov, železniční stanice","arrival_time":"21:14:00","departure_time":"21:14:00","lat":49.3475,"lon":16.41725,"is_passed":false},{"stop_id":"U13143Z11","name":"Kuřim, železniční stanice","arrival_time":"21:22:00","departure_time":"21:23:00","lat":49.301,"lon":16.534523,"is_passed":false},{"stop_id":"U1286Z11","name":"Královo Pole, nádraží","arrival_time":"21:31:00","departure_time":"21:31:00","lat":49.231051,"lon":16.596651,"is_passed":false},{"stop_id":"U1146Z98","name":"Hlavní nádraží","arrival_time":"21:42:00","departure_time":"21:42:00","lat":49.19035,"lon":16.612342,"is_passed":false}],"9906":[{"stop_id":"U1146Z97","name":"Hlavní nádraží","arrival_time":"5:41:00","departure_time":"5:41:00","lat":49.189976,"lon":16.610222,"is_passed":false},{"stop_id":"U14507Z51","name":"Náměšť nad Oslavou, autobusové nádraží","arrival_time":"6:26:00","departure_time":"6:28:00","lat":49.207007,"lon":16.14766,"is_passed":false}],"9907":[{"stop_id":"U1146Z97","name":"Hlavní nádraží","arrival_time":"7:42:00","departure_time":"7:42:00","lat":49.189976,"lon":16.610222,"is_passed":false},{"stop_id":"U14507Z51","name":"Náměšť nad Oslavou, autobusové nádraží","arrival_time":"8:26:00","departure_time":"8:28:00","lat":49.207007,"lon":16.14766,"is_passed":false}],"9908":[{"stop_id":"U14507Z52","name":"Náměšť nad Oslavou, autobusové nádraží","arrival_time":"7:28:00","departure_time":"7:28:00","lat":49.207007,"lon":16.14766,"is_passed":false},{"stop_id":"U1146Z96","name":"Hlavní nádraží","arrival_time":"8:14:00","departure_time":"9:44:00","lat":49.189976,"lon":16.610222,"is_passed":false}],"9909":[{"stop_id":"U1146Z97","name":"Hlavní nádraží","arrival_time":"9:44:00","departure_time":"9:44:00","lat":49.189976,"lon":16.610222,"is_passed":false},{"stop_id":"U14507Z51","name":"Náměšť nad Oslavou, autobusové nádraží","arrival_time":"10:26:00","departure_time":"10:28:00","lat":49.207007,"lon":16.14766,"is_passed":false}]}