{"990":[{"stop_id":"U31034Z10","name":"Retz","arrival_time":"8:17:00","departure_time":"8:17:00","lat":48.753724,"lon":15.957444,"is_passed":false},{"stop_id":"U31033Z2","name":"Unterretzbach","arrival_time":"8:21:00","departure_time":"8:22:00","lat":48.764701,"lon":16.007784,"is_passed":false},{"stop_id":"U18168Z10","name":"Šatov, železniční stanice","arrival_time":"8:25:00","departure_time":"8:25:00","lat":48.780786,"lon":16.026006,"is_passed":false},{"stop_id":"U28001Z2","name":"Znojmo-Nový Šaldorf","arrival_time":"8:31:00","departure_time":"8:31:00","lat":48.820061,"lon":16.044266,"is_passed":false},{"stop_id":"U18009Z22","name":"Znojmo, autobusové nádraží","arrival_time":"8:36:00","departure_time":"8:36:00","lat":48.852761,"lon":16.059287,"is_passed":false}],"9900":[{"stop_id":"U27503Z1","name":"Nezamyslice","arrival_time":"6:37:00","departure_time":"6:37:00","lat":49.336,"lon":17.1625,"is_passed":false},{"stop_id":"U27502Z1","name":"Chvalkovice na Hané","arrival_time":"6:41:00","departure_time":"6:41:00","lat":49.321667,"lon":17.111389,"is_passed":false},{"stop_id":"U17514Z20","name":"Ivanovice na Hané, aut. st.","arrival_time":"6:44:00","departure_time":"6:48:00","lat":49.306111,"lon":17.086945,"is_passed":false},{"stop_id":"U27501Z1","name":"Hoštice-Heroltice","arrival_time":"6:51:00","departure_time":"6:51:00","lat":49.291389,"lon":17.057778,"is_passed":false},{"stop_id":"U17446Z10","name":"Vyškov, železniční stanice","arrival_time":"6:56:00","departure_time":"6:56:00","lat":49.277222,"lon":16.990833,"is_passed":false}],"9901":[{"stop_id":"U17446Z11","name":"Vyškov, železniční stanice","arrival_time":"5:53:00","departure_time":"5:53:00","lat":49.277222,"lon":16.990833,"is_passed":false},{"stop_id":"U27501Z2","name":"Hoštice-Heroltice","arrival_time":"5:58:00","departure_time":"5:58:00","lat":49.291389,"lon":17.057778,"is_passed":false},{"stop_id":"U17514Z21","name":"Ivanovice na Hané, aut. st.","arrival_time":"6:01:00","departure_time":"6:02:00","lat":49.306111,"lon":17.086945,"is_passed":false},{"stop_id":"U27502Z2","name":"Chvalkovice na Hané","arrival_time":"6:04:00","departure_time":"6:04:00","lat":49.321667,"lon":17.111389,"is_passed":false},{"stop_id":"U27503Z2","name":"Nezamyslice","arrival_time":"6:08:00","departure_time":"6:25:00","lat":49.336,"lon":17.1625,"is_passed":false}],"9902":[{"stop_id":"U27503Z1","name":"Nezamyslice","arrival_time":"12:37:00","departure_time":"12:37:00","lat":49.336,"lon":17.1625,"is_passed":false},{"stop_id":"U27502Z1","name":"Chvalkovice na Hané","arrival_time":"12:41:00","departure_time":"12:41:00","lat":49.321667,"lon":17.111389,"is_passed":false},{"stop_id":"U17514Z20","name":"Ivanovice na Hané, aut. st.","arrival_time":"12:44:00","departure_time":"12:48:00","lat":49.306111,"lon":17.086945,"is_passed":false},{"stop_id":"U27501Z1","name":"Hoštice-Heroltice","arrival_time":"12:51:00","departure_time":"12:51:00","lat":49.291389,"lon":17.057778,"is_passed":false},{"stop_id":"U17446Z10","name":"Vyškov, železniční stanice","arrival_time":"12:56:00","departure_time":"12:56:00","lat":49.277222,"lon":16.990833,"is_passed":false}],"9903":[{"stop_id":"U27503Z1","name":"Nezamyslice","arrival_time":"18:37:00","departure_time":"18:37:00","lat":49.336,"lon":17.1625,"is_passed":false},{"stop_id":"U27502Z1","name":"Chvalkovice na Hané","arrival_time":"18:41:00","departure_time":"18:41:00","lat":49.321667,"lon":17.111389,"is_passed":false},{"stop_id":"U17514Z20","name":"Ivanovice na Hané, aut. st.","arrival_time":"18:44:00","departure_time":"18:48:00","lat":49.306111,"lon":17.086945,"is_passed":false},{"stop_id":"U27501Z1","name":"Hoštice-Heroltice","arrival_time":"18:51:00","departure_time":"18:51:00","lat":49.291389,"lon":17.057778,"is_passed":false},{"stop_id":"U17446Z10","name":"Vyškov, železniční stanice","arrival_time":"18:56:00","departure_time":"18:56:00","lat":49.277222,"lon":16.990833,"is_passed":false}],"9904":[{"stop_id":"U15637Z11","name":"Hrušovany nad Jevišovkou, žel. st.","arrival_time":"4:31:00","departure_time":"4:31:00","lat":48.810029,"lon":16.383137,"is_passed":false},{"stop_id":"U25505Z11","name":"Jevišovka","arrival_time":"4:37:00","departure_time":"4:37:00","lat":48.820272,"lon":16.467125,"is_passed":false},{"stop_id":"U15563Z11","name":"Novosedly, železniční stanice","arrival_time":"4:40:00","departure_time":"4:41:00","lat":48.825719,"lon":16.49405,"is_passed":false},{"stop_id":"U25602Z11","name":"Dobré Pole","arrival_time":"4:45:00","departure_time":"4:45:00","lat":48.820008,"lon":16.533833,"is_passed":false},{"stop_id":"U25601Z11","name":"Březí","arrival_time":"4:47:00","departure_time":"4:48:00","lat":48.812925,"lon":16.554169,"is_passed":false},{"stop_id":"U15714Z11","name":"Mikulov, železniční stanice","arrival_time":"4:53:00","departure_time":"4:54:00","lat":48.802203,"lon":16.625492,"is_passed":false},{"stop_id":"U25701Z11","name":"Sedlec u Mikulova","arrival_time":"4:59:00","departure_time":"4:59:00","lat":48.774727,"lon":16.697093,"is_passed":false},{"stop_id":"U15811Z11","name":"Valtice, železniční stanice","arrival_time":"5:03:00","departure_time":"5:06:00","lat":48.747484,"lon":16.742944,"is_passed":false},{"stop_id":"U15828Z11","name":"Valtice, železniční zastávka","arrival_time":"5:08:00","departure_time":"5:08:00","lat":48.748776,"lon":16.762369,"is_passed":false},{"stop_id":"U25702Z11","name":"Boří les","arrival_time":"5:15:00","departure_time":"5:15:00","lat":48.737912,"lon":16.867165,"is_passed":false},{"stop_id":"U15729Z15","name":"Břeclav, autobusové nádraží","arrival_time":"5:19:00","departure_time":"6:04:00","lat":48.753851,"lon":16.893169,"is_passed":false}],"9905":[{"stop_id":"U15729Z14","name":"Břeclav, autobusové nádraží","arrival_time":"6:04:00","departure_time":"6:04:00","lat":48.753851,"lon":16.893169,"is_passed":false},{"stop_id":"U25702Z10","name":"Boří les","arrival_time":"6:07:00","departure_time":"6:07:00","lat":48.737922,"lon":16.866996,"is_passed":false},{"stop_id":"U15828Z10","name":"Valtice, železniční zastávka","arrival_time":"6:14:00","departure_time":"6:14:00","lat":48.748776,"lon":16.762369,"is_passed":false},{"stop_id":"U15811Z10","name":"Valtice, železniční stanice","arrival_time":"6:16:00","departure_time":"6:17:00","lat":48.74752,"lon":16.742831,"is_passed":false},{"stop_id":"U25701Z10","name":"Sedlec u Mikulova","arrival_time":"6:21:00","departure_time":"6:21:00","lat":48.774739,"lon":16.696954,"is_passed":false},{"stop_id":"U15714Z10","name":"Mikulov, železniční stanice","arrival_time":"6:26:00","departure_time":"6:27:00","lat":48.802203,"lon":16.625492,"is_passed":false},{"stop_id":"U25601Z10","name":"Březí","arrival_time":"6:32:00","departure_time":"6:32:00","lat":48.812925,"lon":16.554169,"is_passed":false},{"stop_id":"U25602Z10","name":"Dobré Pole","arrival_time":"6:34:00","departure_time":"6:34:00","lat":48.820008,"lon":16.533833,"is_passed":false},{"stop_id":"U15563Z10","name":"Novosedly, železniční stanice","arrival_time":"6:39:00","departure_time":"6:39:00","lat":48.825719,"lon":16.49405,"is_passed":false},{"stop_id":"U25505Z10","name":"Jevišovka","arrival_time":"6:42:00","departure_time":"6:42:00","lat":48.820272,"lon":16.467125,"is_passed":false},{"stop_id":"U15637Z10","name":"Hrušovany nad Jevišovkou, žel. st.","arrival_time":"6:49:00","departure_time":"6:53:00","lat":48.810029,"lon":16.383137,"is_passed":false},{"stop_id":"U18208Z10","name":"Božice, železniční stanice","arrival_time":"7:00:00","departure_time":"7:01:00","lat":48.823282,"lon":16.287832,"is_passed":false},{"stop_id":"U28101Z10","name":"Hodonice","arrival_time":"7:09:00","departure_time":"7:10:00","lat":48.841514,"lon":16.164403,"is_passed":false},{"stop_id":"U28102Z10","name":"Dyje","arrival_time":"7:14:00","departure_time":"7:14:00","lat":48.850047,"lon":16.1205,"is_passed":false},{"stop_id":"U18009Z20","name":"Znojmo, autobusové nádraží","arrival_time":"7:21:00","departure_time":"8:00:00","lat":48.852761,"lon":16.059287,"is_passed":false}],"9906":[{"stop_id":"U18009Z21","name":"Znojmo, autobusové nádraží","arrival_time":"8:00:00","departure_time":"8:00:00","lat":48.852761,"lon":16.059287,"is_passed":false},{"stop_id":"U28101Z11","name":"Hodonice","arrival_time":"8:09:00","departure_time":"8:10:00","lat":48.841514,"lon":16.164403,"is_passed":false},{"stop_id":"U15637Z11","name":"Hrušovany nad Jevišovkou, žel. st.","arrival_time":"8:25:00","departure_time":"8:28:00","lat":48.810029,"lon":16.383137,"is_passed":false},{"stop_id":"U15714Z11","name":"Mikulov, železniční stanice","arrival_time":"8:44:00","departure_time":"8:46:00","lat":48.802203,"lon":16.625492,"is_passed":false},{"stop_id":"U15828Z11","name":"Valtice, železniční zastávka","arrival_time":"8:58:00","departure_time":"8:59:00","lat":48.748776,"lon":16.762369,"is_passed":false},{"stop_id":"U15729Z15","name":"Břeclav, autobusové nádraží","arrival_time":"9:07:00","departure_time":"9:20:00","lat":48.753851,"lon":16.893169,"is_passed":false}],"9907":[{"stop_id":"U15729Z14","name":"Břeclav, autobusové nádraží","arrival_time":"9:20:00","departure_time":"9:20:00","lat":48.753851,"lon":16.893169,"is_passed":false},{"stop_id":"U15828Z10","name":"Valtice, železniční zastávka","arrival_time":"9:28:00","departure_time":"9:28:00","lat":48.748776,"lon":16.762369,"is_passed":false},{"stop_id":"U25701Z10","name":"Sedlec u Mikulova","arrival_time":"9:33:00","departure_time":"9:34:00","lat":48.774739,"lon":16.696954,"is_passed":false},{"stop_id":"U15714Z10","name":"Mikulov, železniční stanice","arrival_time":"9:39:00","departure_time":"9:39:00","lat":48.802203,"lon":16.625492,"is_passed":false}],"9908":[{"stop_id":"U15729Z14","name":"Břeclav, autobusové nádraží","arrival_time":"10:45:00","departure_time":"10:45:00","lat":48.753851,"lon":16.893169,"is_passed":false},{"stop_id":"U15828Z10","name":"Valtice, železniční zastávka","arrival_time":"10:53:00","departure_time":"10:53:00","lat":48.748776,"lon":16.762369,"is_passed":false},{"stop_id":"U15714Z10","name":"Mikulov, železniční stanice","arrival_time":"11:03:00","departure_time":"11:07:00","lat":48.802203,"lon":16.625492,"is_passed":false},{"stop_id":"U25601Z10","name":"Březí","arrival_time":"11:12:00","departure_time":"11:12:00","lat":48.812925,"lon":16.554169,"is_passed":false},{"stop_id":"U15563Z10","name":"Novosedly, železniční stanice","arrival_time":"11:17:00","departure_time":"11:18:00","lat":48.825719,"lon":16.49405,"is_passed":false},{"stop_id":"U15637Z10","name":"Hrušovany nad Jevišovkou, žel. st.","arrival_time":"11:26:00","departure_time":"11:27:00","lat":48.810029,"lon":16.383137,"is_passed":false},{"stop_id":"U28101Z10","name":"Hodonice","arrival_time":"11:43:00","departure_time":"11:44:00","lat":48.841514,"lon":16.164403,"is_passed":false},{"stop_id":"U18009Z20","name":"Znojmo, autobusové nádraží","arrival_time":"11:53:00","departure_time":"12:59:00","lat":48.852761,"lon":16.059287,"is_passed":false}],"9909":[{"stop_id":"U18009Z21","name":"Znojmo, autobusové nádraží","arrival_time":"12:59:00","departure_time":"12:59:00","lat":48.852761,"lon":16.059287,"is_passed":false},{"stop_id":"U28102Z11","name":"Dyje","arrival_time":"13:04:00","departure_time":"13:04:00","lat":48.850047,"lon":16.1205,"is_passed":false},{"stop_id":"U28101Z11","name":"Hodonice","arrival_time":"13:08:00","departure_time":"13:09:00","lat":48.841514,"lon":16.164403,"is_passed":false},{"stop_id":"U18208Z11","name":"Božice, železniční stanice","arrival_time":"13:17:00","departure_time":"13:18:00","lat":48.823282,"lon":16.287832,"is_passed":false},{"stop_id":"U15637Z11","name":"Hrušovany nad Jevišovkou, žel. st.","arrival_time":"13:25:00","departure_time":"13:29:00","lat":48.810029,"lon":16.383137,"is_passed":false},{"stop_id":"U25505Z11","name":"Jevišovka","arrival_time":"13:35:00","departure_time":"13:35:00","lat":48.820272,"lon":16.467125,"is_passed":false},{"stop_id":"U15563Z11","name":"Novosedly, železniční stanice","arrival_time":"13:38:00","departure_time":"13:39:00","lat":48.825719,"lon":16.49405,"is_passed":false},{"stop_id":"U25602Z11","name":"Dobré Pole","arrival_time":"13:42:00","departure_time":"13:42:00","lat":48.820008,"lon":16.533833,"is_passed":false},{"stop_id":"U25601Z11","name":"Březí","arrival_time":"13:45:00","departure_time":"13:45:00","lat":48.812925,"lon":16.554169,"is_passed":false},{"stop_id":"U15714Z11","name":"Mikulov, železniční stanice","arrival_time":"13:50:00","departure_time":"13:53:00","lat":48.802203,"lon":16.625492,"is_passed":false},{"stop_id":"U25701Z11","name":"Sedlec u Mikulova","arrival_time":"13:58:00","departure_time":"13:59:00","lat":48.774727,"lon":16.697093,"is_passed":false},{"stop_id":"U15811Z11","name":"Valtice, železniční stanice","arrival_time":"14:03:00","departure_time":"14:03:00","lat":48.747484,"lon":16.742944,"is_passed":false},{"stop_id":"U15828Z11","name":"Valtice, železniční zastávka","arrival_time":"14:05:00","departure_time":"14:06:00","lat":48.748776,"lon":16.762369,"is_passed":false},{"stop_id":"U25702Z11","name":"Boří les","arrival_time":"14:12:00","departure_time":"14:12:00","lat":48.737912,"lon":16.867165,"is_passed":false},{"stop_id":"U15729Z15","name":"Břeclav, autobusové nádraží","arrival_time":"14:16:00","departure_time":"14:45:00","lat":48.753851,"lon":16.893169,"is_passed":false}]}