{"991":[{"stop_id":"U31028Z10","name":"Staré Město u Uherského Hradiště","arrival_time":"5:37:00","departure_time":"5:37:00","lat":49.076247,"lon":17.422785,"is_passed":false},{"stop_id":"U30342Z10","name":"Kostelany nad Moravou","arrival_time":"5:39:00","departure_time":"5:39:00","lat":49.052678,"lon":17.396915,"is_passed":false},{"stop_id":"U30319Z10","name":"Nedakonice","arrival_time":"5:42:00","departure_time":"5:43:00","lat":49.032515,"lon":17.374985,"is_passed":false},{"stop_id":"U29301Z10","name":"Moravský Písek zastávka","arrival_time":"5:46:00","departure_time":"5:47:00","lat":48.990628,"lon":17.329288,"is_passed":false},{"stop_id":"U19302Z10","name":"Moravský Písek, Kolonie, žel. stanice","arrival_time":"5:49:00","departure_time":"5:50:00","lat":48.977119,"lon":17.314582,"is_passed":false},{"stop_id":"U16905Z10","name":"Bzenec, Přívoz, železniční stanice","arrival_time":"5:54:00","departure_time":"5:54:00","lat":48.936778,"lon":17.289314,"is_passed":false},{"stop_id":"U29103Z10","name":"Rohatec","arrival_time":"6:00:00","departure_time":"6:00:00","lat":48.892515,"lon":17.197852,"is_passed":false},{"stop_id":"U29102Z10","name":"Rohatec zastávka","arrival_time":"6:02:00","departure_time":"6:03:00","lat":48.88309,"lon":17.178111,"is_passed":false},{"stop_id":"U19001Z20","name":"Hodonín, autobusové nádraží","arrival_time":"6:06:00","departure_time":"6:07:00","lat":48.85575,"lon":17.12069,"is_passed":false},{"stop_id":"U19119Z10","name":"Lužice, železniční stanice","arrival_time":"6:11:00","departure_time":"6:12:00","lat":48.827619,"lon":17.061961,"is_passed":false},{"stop_id":"U19129Z10","name":"Moravská Nová Ves, železniční stanice","arrival_time":"6:15:00","departure_time":"6:16:00","lat":48.799493,"lon":17.021674,"is_passed":false},{"stop_id":"U29101Z10","name":"Hrušky zastávka","arrival_time":"6:19:00","departure_time":"6:19:00","lat":48.786692,"lon":16.980171,"is_passed":false},{"stop_id":"U15729Z10","name":"Břeclav, autobusové nádraží","arrival_time":"6:25:00","departure_time":"6:35:00","lat":48.753851,"lon":16.893169,"is_passed":false}],"9910":[{"stop_id":"U14507Z52","name":"Náměšť nad Oslavou, autobusové nádraží","arrival_time":"9:28:00","departure_time":"9:28:00","lat":49.207007,"lon":16.14766,"is_passed":false},{"stop_id":"U1146Z96","name":"Hlavní nádraží","arrival_time":"10:14:00","departure_time":"11:44:00","lat":49.189976,"lon":16.610222,"is_passed":false}],"9911":[{"stop_id":"U1146Z97","name":"Hlavní nádraží","arrival_time":"11:44:00","departure_time":"11:44:00","lat":49.189976,"lon":16.610222,"is_passed":false},{"stop_id":"U14507Z51","name":"Náměšť nad Oslavou, autobusové nádraží","arrival_time":"12:26:00","departure_time":"12:28:00","lat":49.207007,"lon":16.14766,"is_passed":false}],"9912":[{"stop_id":"U14507Z52","name":"Náměšť nad Oslavou, autobusové nádraží","arrival_time":"11:28:00","departure_time":"11:28:00","lat":49.207007,"lon":16.14766,"is_passed":false},{"stop_id":"U1146Z96","name":"Hlavní nádraží","arrival_time":"12:14:00","departure_time":"13:44:00","lat":49.189976,"lon":16.610222,"is_passed":false}],"9913":[{"stop_id":"U1146Z97","name":"Hlavní nádraží","arrival_time":"13:44:00","departure_time":"13:44:00","lat":49.189976,"lon":16.610222,"is_passed":false},{"stop_id":"U14507Z51","name":"Náměšť nad Oslavou, autobusové nádraží","arrival_time":"14:26:00","departure_time":"14:28:00","lat":49.207007,"lon":16.14766,"is_passed":false}],"9914":[{"stop_id":"U14507Z52","name":"Náměšť nad Oslavou, autobusové nádraží","arrival_time":"13:28:00","departure_time":"13:28:00","lat":49.207007,"lon":16.14766,"is_passed":false},{"stop_id":"U1146Z96","name":"Hlavní nádraží","arrival_time":"14:14:00","departure_time":"15:44:00","lat":49.189976,"lon":16.610222,"is_passed":false}],"9915":[{"stop_id":"U1146Z97","name":"Hlavní nádraží","arrival_time":"15:44:00","departure_time":"15:44:00","lat":49.189976,"lon":16.610222,"is_passed":false},{"stop_id":"U14507Z51","name":"Náměšť nad Oslavou, autobusové nádraží","arrival_time":"16:26:00","departure_time":"16:28:00","lat":49.207007,"lon":16.14766,"is_passed":false}],"9916":[{"stop_id":"U14507Z52","name":"Náměšť nad Oslavou, autobusové nádraží","arrival_time":"15:28:00","departure_time":"15:28:00","lat":49.207007,"lon":16.14766,"is_passed":false},{"stop_id":"U1146Z96","name":"Hlavní nádraží","arrival_time":"16:14:00","departure_time":"17:44:00","lat":49.189976,"lon":16.610222,"is_passed":false}],"9917":[{"stop_id":"U1146Z97","name":"Hlavní nádraží","arrival_time":"17:44:00","departure_time":"17:44:00","lat":49.189976,"lon":16.610222,"is_passed":false},{"stop_id":"U14507Z51","name":"Náměšť nad Oslavou, autobusové nádraží","arrival_time":"18:26:00","departure_time":"18:28:00","lat":49.207007,"lon":16.14766,"is_passed":false}],"9918":[{"stop_id":"U14507Z52","name":"Náměšť nad Oslavou, autobusové nádraží","arrival_time":"17:28:00","departure_time":"17:28:00","lat":49.207007,"lon":16.14766,"is_passed":false},{"stop_id":"U1146Z96","name":"Hlavní nádraží","arrival_time":"18:14:00","departure_time":"19:44:00","lat":49.189976,"lon":16.610222,"is_passed":false}],"9919":[{"stop_id":"U1146Z97","name":"Hlavní nádraží","arrival_time":"19:44:00","departure_time":"19:44:00","lat":49.189976,"lon":16.610222,"is_passed":false},{"stop_id":"U14507Z51","name":"Náměšť nad Oslavou, autobusové nádraží","arrival_time":"20:26:00","departure_time":"20:28:00","lat":49.207007,"lon":16.14766,"is_passed":false}]}