{"991":[{"stop_id":"U23801Z1","name":"Rovné-Divišov","arrival_time":"5:23:00","departure_time":"5:23:00","lat":49.547632,"lon":16.172826,"is_passed":false},{"stop_id":"U13801Z11","name":"Rozsochy, železniční stanice","arrival_time":"5:26:00","departure_time":"5:26:00","lat":49.537385,"lon":16.195122,"is_passed":false},{"stop_id":"U13701Z11","name":"Bystřice nad Pern., železniční stanice","arrival_time":"5:34:00","departure_time":"5:35:00","lat":49.513611,"lon":16.246667,"is_passed":false},{"stop_id":"U13605Z11","name":"Rožná, železniční stanice","arrival_time":"5:44:00","departure_time":"5:45:00","lat":49.472143,"lon":16.245416,"is_passed":false},{"stop_id":"U23601Z1","name":"Věžná","arrival_time":"5:49:00","departure_time":"5:49:00","lat":49.451547,"lon":16.270316,"is_passed":false},{"stop_id":"U13520Z2","name":"Nedvědice, železniční stanice","arrival_time":"5:58:00","departure_time":"6:01:00","lat":49.454167,"lon":16.338333,"is_passed":false},{"stop_id":"U13506Z11","name":"Doubravník, železniční stanice","arrival_time":"6:06:00","departure_time":"6:07:00","lat":49.426945,"lon":16.352389,"is_passed":false},{"stop_id":"U13464Z2","name":"Prudká zastávka","arrival_time":"6:10:00","departure_time":"6:10:00","lat":49.419195,"lon":16.367361,"is_passed":false},{"stop_id":"U13463Z2","name":"Borač, žel. st.","arrival_time":"6:14:00","departure_time":"6:14:00","lat":49.400689,"lon":16.366288,"is_passed":false},{"stop_id":"U13462Z2","name":"Štěpánovice","arrival_time":"6:19:00","departure_time":"6:19:00","lat":49.373054,"lon":16.389952,"is_passed":false},{"stop_id":"U13334Z21","name":"Tišnov, železniční stanice","arrival_time":"6:26:00","departure_time":"6:33:00","lat":49.3475,"lon":16.41725,"is_passed":false}],"9910":[{"stop_id":"U14479Z20","name":"Moravský Krumlov, železniční stanice","arrival_time":"15:19:00","departure_time":"15:19:00","lat":49.04619,"lon":16.338163,"is_passed":false},{"stop_id":"U1141Z2","name":"Heršpická","arrival_time":"15:58:00","departure_time":"15:58:00","lat":49.170473,"lon":16.599896,"is_passed":false},{"stop_id":"U1596Z36","name":"Soukenická","arrival_time":"16:06:00","departure_time":"16:06:00","lat":49.188987,"lon":16.608514,"is_passed":false}],"9911":[{"stop_id":"U1146Z27","name":"Hlavní nádraží","arrival_time":"16:51:00","departure_time":"16:51:00","lat":49.190389,"lon":16.610438,"is_passed":false},{"stop_id":"U1141Z1","name":"Heršpická","arrival_time":"16:57:00","departure_time":"16:57:00","lat":49.170255,"lon":16.599363,"is_passed":false},{"stop_id":"U14479Z21","name":"Moravský Krumlov, železniční stanice","arrival_time":"17:37:00","departure_time":"18:19:00","lat":49.04619,"lon":16.338163,"is_passed":false}],"9912":[{"stop_id":"U14479Z20","name":"Moravský Krumlov, železniční stanice","arrival_time":"18:19:00","departure_time":"18:19:00","lat":49.04619,"lon":16.338163,"is_passed":false},{"stop_id":"U1141Z2","name":"Heršpická","arrival_time":"18:58:00","departure_time":"18:58:00","lat":49.170473,"lon":16.599896,"is_passed":false},{"stop_id":"U1596Z36","name":"Soukenická","arrival_time":"19:06:00","departure_time":"19:06:00","lat":49.188987,"lon":16.608514,"is_passed":false}],"9913":[{"stop_id":"U1146Z27","name":"Hlavní nádraží","arrival_time":"19:51:00","departure_time":"19:51:00","lat":49.190389,"lon":16.610438,"is_passed":false},{"stop_id":"U1141Z1","name":"Heršpická","arrival_time":"19:57:00","departure_time":"19:57:00","lat":49.170255,"lon":16.599363,"is_passed":false},{"stop_id":"U14479Z21","name":"Moravský Krumlov, železniční stanice","arrival_time":"20:37:00","departure_time":"21:19:00","lat":49.04619,"lon":16.338163,"is_passed":false}],"9914":[{"stop_id":"U14479Z20","name":"Moravský Krumlov, železniční stanice","arrival_time":"21:19:00","departure_time":"21:19:00","lat":49.04619,"lon":16.338163,"is_passed":false},{"stop_id":"U1141Z2","name":"Heršpická","arrival_time":"21:58:00","departure_time":"21:58:00","lat":49.170473,"lon":16.599896,"is_passed":false},{"stop_id":"U1596Z36","name":"Soukenická","arrival_time":"22:06:00","departure_time":"22:06:00","lat":49.188987,"lon":16.608514,"is_passed":false}],"9915":[{"stop_id":"U1146Z27","name":"Hlavní nádraží","arrival_time":"22:51:00","departure_time":"22:51:00","lat":49.190389,"lon":16.610438,"is_passed":false},{"stop_id":"U1141Z1","name":"Heršpická","arrival_time":"22:57:00","departure_time":"22:57:00","lat":49.170255,"lon":16.599363,"is_passed":false},{"stop_id":"U14479Z21","name":"Moravský Krumlov, železniční stanice","arrival_time":"23:37:00","departure_time":"23:37:00","lat":49.04619,"lon":16.338163,"is_passed":false}],"9916":[{"stop_id":"U14479Z20","name":"Moravský Krumlov, železniční stanice","arrival_time":"7:19:00","departure_time":"7:19:00","lat":49.04619,"lon":16.338163,"is_passed":false},{"stop_id":"U1141Z2","name":"Heršpická","arrival_time":"7:58:00","departure_time":"7:58:00","lat":49.170473,"lon":16.599896,"is_passed":false},{"stop_id":"U1596Z36","name":"Soukenická","arrival_time":"8:06:00","departure_time":"8:06:00","lat":49.188987,"lon":16.608514,"is_passed":false}],"9917":[{"stop_id":"U1146Z27","name":"Hlavní nádraží","arrival_time":"8:51:00","departure_time":"8:51:00","lat":49.190389,"lon":16.610438,"is_passed":false},{"stop_id":"U1141Z1","name":"Heršpická","arrival_time":"8:57:00","departure_time":"8:57:00","lat":49.170255,"lon":16.599363,"is_passed":false},{"stop_id":"U14479Z21","name":"Moravský Krumlov, železniční stanice","arrival_time":"9:37:00","departure_time":"10:19:00","lat":49.04619,"lon":16.338163,"is_passed":false}],"9918":[{"stop_id":"U14479Z20","name":"Moravský Krumlov, železniční stanice","arrival_time":"10:19:00","departure_time":"10:19:00","lat":49.04619,"lon":16.338163,"is_passed":false},{"stop_id":"U1141Z2","name":"Heršpická","arrival_time":"10:58:00","departure_time":"10:58:00","lat":49.170473,"lon":16.599896,"is_passed":false},{"stop_id":"U1596Z36","name":"Soukenická","arrival_time":"11:06:00","departure_time":"11:06:00","lat":49.188987,"lon":16.608514,"is_passed":false}],"9919":[{"stop_id":"U1146Z27","name":"Hlavní nádraží","arrival_time":"11:51:00","departure_time":"11:51:00","lat":49.190389,"lon":16.610438,"is_passed":false},{"stop_id":"U1141Z1","name":"Heršpická","arrival_time":"11:57:00","departure_time":"11:57:00","lat":49.170255,"lon":16.599363,"is_passed":false},{"stop_id":"U14479Z21","name":"Moravský Krumlov, železniční stanice","arrival_time":"12:37:00","departure_time":"13:19:00","lat":49.04619,"lon":16.338163,"is_passed":false}]}