[{"stop_id":"U14546Z3","name":"Miroslav, autobusové nádraží","arrival_time":"10:26:00","departure_time":"10:26:00","lat":48.946991,"lon":16.312997,"is_passed":false},{"stop_id":"U14554Z1","name":"Miroslav, statek","arrival_time":"10:29:00","departure_time":"10:29:00","lat":48.946,"lon":16.317705,"is_passed":false},{"stop_id":"U14550Z1","name":"Miroslav, provozovna ČAS","arrival_time":"10:30:00","departure_time":"10:30:00","lat":48.941983,"lon":16.321138,"is_passed":false},{"stop_id":"U14551Z1","name":"Miroslav, Réna","arrival_time":"10:32:00","departure_time":"10:32:00","lat":48.933435,"lon":16.337422,"is_passed":false},{"stop_id":"U14558Z1","name":"Miroslav, Kašenec, točna","arrival_time":"10:35:00","departure_time":"10:35:00","lat":48.919183,"lon":16.327708,"is_passed":false},{"stop_id":"U14552Z13","name":"Miroslav, rozcestí","arrival_time":"10:40:00","departure_time":"10:40:00","lat":48.933616,"lon":16.362524,"is_passed":false},{"stop_id":"U14565Z1","name":"Suchohrdly u Miroslavi","arrival_time":"10:42:00","departure_time":"10:42:00","lat":48.942994,"lon":16.363104,"is_passed":false},{"stop_id":"U14552Z3","name":"Miroslav, rozcestí","arrival_time":"10:45:00","departure_time":"10:45:00","lat":48.933616,"lon":16.362524,"is_passed":false},{"stop_id":"U15550Z2","name":"Damnice","arrival_time":"10:50:00","departure_time":"10:50:00","lat":48.920087,"lon":16.373648,"is_passed":false},{"stop_id":"U15552Z4","name":"Jiřice u Miroslavi","arrival_time":"10:53:00","departure_time":"10:53:00","lat":48.920697,"lon":16.39138,"is_passed":false},{"stop_id":"U15550Z2","name":"Damnice","arrival_time":"10:56:00","departure_time":"10:56:00","lat":48.920087,"lon":16.373648,"is_passed":false},{"stop_id":"U15551Z1","name":"Dolenice","arrival_time":"10:58:00","departure_time":"11:02:00","lat":48.909272,"lon":16.364848,"is_passed":false}]