{"996":[{"stop_id":"U15729Z11","name":"Břeclav, autobusové nádraží","arrival_time":"16:35:00","departure_time":"16:35:00","lat":48.753851,"lon":16.893169,"is_passed":false},{"stop_id":"U29101Z11","name":"Hrušky zastávka","arrival_time":"16:41:00","departure_time":"16:41:00","lat":48.787328,"lon":16.982583,"is_passed":false},{"stop_id":"U19129Z11","name":"Moravská Nová Ves, železniční stanice","arrival_time":"16:44:00","departure_time":"16:45:00","lat":48.799493,"lon":17.021674,"is_passed":false},{"stop_id":"U19119Z11","name":"Lužice, železniční stanice","arrival_time":"16:48:00","departure_time":"16:48:00","lat":48.827619,"lon":17.061961,"is_passed":false},{"stop_id":"U19001Z21","name":"Hodonín, autobusové nádraží","arrival_time":"16:52:00","departure_time":"16:54:00","lat":48.85575,"lon":17.12069,"is_passed":false},{"stop_id":"U29102Z11","name":"Rohatec zastávka","arrival_time":"16:57:00","departure_time":"16:58:00","lat":48.88309,"lon":17.178111,"is_passed":false},{"stop_id":"U29103Z11","name":"Rohatec","arrival_time":"17:00:00","departure_time":"17:01:00","lat":48.892515,"lon":17.197852,"is_passed":false},{"stop_id":"U16905Z11","name":"Bzenec, Přívoz, železniční stanice","arrival_time":"17:06:00","departure_time":"17:06:00","lat":48.936848,"lon":17.289411,"is_passed":false},{"stop_id":"U19302Z11","name":"Moravský Písek, Kolonie, žel. stanice","arrival_time":"17:10:00","departure_time":"17:11:00","lat":48.977119,"lon":17.314582,"is_passed":false},{"stop_id":"U29301Z11","name":"Moravský Písek zastávka","arrival_time":"17:13:00","departure_time":"17:13:00","lat":48.991141,"lon":17.330034,"is_passed":false},{"stop_id":"U30319Z11","name":"Nedakonice","arrival_time":"17:17:00","departure_time":"17:18:00","lat":49.032515,"lon":17.374985,"is_passed":false},{"stop_id":"U30342Z11","name":"Kostelany nad Moravou","arrival_time":"17:20:00","departure_time":"17:20:00","lat":49.052678,"lon":17.396915,"is_passed":false},{"stop_id":"U31028Z11","name":"Staré Město u Uherského Hradiště","arrival_time":"17:24:00","departure_time":"17:24:00","lat":49.076212,"lon":17.422903,"is_passed":false}],"9960":[{"stop_id":"U18009Z21","name":"Znojmo, autobusové nádraží","arrival_time":"12:59:00","departure_time":"12:59:00","lat":48.852761,"lon":16.059287,"is_passed":false},{"stop_id":"U28102Z11","name":"Dyje","arrival_time":"13:04:00","departure_time":"13:04:00","lat":48.850047,"lon":16.1205,"is_passed":false},{"stop_id":"U28101Z11","name":"Hodonice","arrival_time":"13:08:00","departure_time":"13:09:00","lat":48.841514,"lon":16.164403,"is_passed":false},{"stop_id":"U18208Z11","name":"Božice, železniční stanice","arrival_time":"13:17:00","departure_time":"13:18:00","lat":48.823282,"lon":16.287832,"is_passed":false},{"stop_id":"U15637Z11","name":"Hrušovany nad Jevišovkou, žel. st.","arrival_time":"13:25:00","departure_time":"13:29:00","lat":48.810029,"lon":16.383137,"is_passed":false},{"stop_id":"U25505Z11","name":"Jevišovka","arrival_time":"13:35:00","departure_time":"13:35:00","lat":48.820272,"lon":16.467125,"is_passed":false},{"stop_id":"U15563Z11","name":"Novosedly, železniční stanice","arrival_time":"13:38:00","departure_time":"13:39:00","lat":48.825719,"lon":16.49405,"is_passed":false},{"stop_id":"U25602Z11","name":"Dobré Pole","arrival_time":"13:42:00","departure_time":"13:42:00","lat":48.820008,"lon":16.533833,"is_passed":false},{"stop_id":"U25601Z11","name":"Březí","arrival_time":"13:45:00","departure_time":"13:45:00","lat":48.812925,"lon":16.554169,"is_passed":false},{"stop_id":"U15714Z11","name":"Mikulov, železniční stanice","arrival_time":"13:50:00","departure_time":"13:53:00","lat":48.802203,"lon":16.625492,"is_passed":false},{"stop_id":"U25701Z11","name":"Sedlec u Mikulova","arrival_time":"13:58:00","departure_time":"13:59:00","lat":48.774727,"lon":16.697093,"is_passed":false},{"stop_id":"U15811Z11","name":"Valtice, železniční stanice","arrival_time":"14:03:00","departure_time":"14:03:00","lat":48.747484,"lon":16.742944,"is_passed":false},{"stop_id":"U15828Z11","name":"Valtice, železniční zastávka","arrival_time":"14:05:00","departure_time":"14:06:00","lat":48.748776,"lon":16.762369,"is_passed":false},{"stop_id":"U25702Z11","name":"Boří les","arrival_time":"14:12:00","departure_time":"14:12:00","lat":48.737912,"lon":16.867165,"is_passed":false},{"stop_id":"U15729Z15","name":"Břeclav, autobusové nádraží","arrival_time":"14:16:00","departure_time":"14:45:00","lat":48.753851,"lon":16.893169,"is_passed":false}],"9961":[{"stop_id":"U15729Z14","name":"Břeclav, autobusové nádraží","arrival_time":"14:45:00","departure_time":"14:45:00","lat":48.753851,"lon":16.893169,"is_passed":false},{"stop_id":"U15828Z10","name":"Valtice, železniční zastávka","arrival_time":"14:53:00","departure_time":"14:53:00","lat":48.748776,"lon":16.762369,"is_passed":false},{"stop_id":"U15714Z10","name":"Mikulov, železniční stanice","arrival_time":"15:03:00","departure_time":"15:07:00","lat":48.802203,"lon":16.625492,"is_passed":false},{"stop_id":"U25601Z10","name":"Březí","arrival_time":"15:12:00","departure_time":"15:12:00","lat":48.812925,"lon":16.554169,"is_passed":false},{"stop_id":"U15563Z10","name":"Novosedly, železniční stanice","arrival_time":"15:17:00","departure_time":"15:18:00","lat":48.825719,"lon":16.49405,"is_passed":false},{"stop_id":"U15637Z10","name":"Hrušovany nad Jevišovkou, žel. st.","arrival_time":"15:26:00","departure_time":"15:27:00","lat":48.810029,"lon":16.383137,"is_passed":false},{"stop_id":"U28101Z10","name":"Hodonice","arrival_time":"15:43:00","departure_time":"15:44:00","lat":48.841514,"lon":16.164403,"is_passed":false},{"stop_id":"U18009Z20","name":"Znojmo, autobusové nádraží","arrival_time":"15:53:00","departure_time":"16:59:00","lat":48.852761,"lon":16.059287,"is_passed":false}],"9962":[{"stop_id":"U18009Z21","name":"Znojmo, autobusové nádraží","arrival_time":"16:59:00","departure_time":"16:59:00","lat":48.852761,"lon":16.059287,"is_passed":false},{"stop_id":"U28102Z11","name":"Dyje","arrival_time":"17:04:00","departure_time":"17:04:00","lat":48.850047,"lon":16.1205,"is_passed":false},{"stop_id":"U28101Z11","name":"Hodonice","arrival_time":"17:08:00","departure_time":"17:09:00","lat":48.841514,"lon":16.164403,"is_passed":false},{"stop_id":"U18208Z11","name":"Božice, železniční stanice","arrival_time":"17:17:00","departure_time":"17:18:00","lat":48.823282,"lon":16.287832,"is_passed":false},{"stop_id":"U15637Z11","name":"Hrušovany nad Jevišovkou, žel. st.","arrival_time":"17:25:00","departure_time":"17:29:00","lat":48.810029,"lon":16.383137,"is_passed":false},{"stop_id":"U25505Z11","name":"Jevišovka","arrival_time":"17:35:00","departure_time":"17:35:00","lat":48.820272,"lon":16.467125,"is_passed":false},{"stop_id":"U15563Z11","name":"Novosedly, železniční stanice","arrival_time":"17:38:00","departure_time":"17:38:00","lat":48.825719,"lon":16.49405,"is_passed":false},{"stop_id":"U25602Z11","name":"Dobré Pole","arrival_time":"17:42:00","departure_time":"17:42:00","lat":48.820008,"lon":16.533833,"is_passed":false},{"stop_id":"U25601Z11","name":"Březí","arrival_time":"17:45:00","departure_time":"17:45:00","lat":48.812925,"lon":16.554169,"is_passed":false},{"stop_id":"U15714Z11","name":"Mikulov, železniční stanice","arrival_time":"17:50:00","departure_time":"17:53:00","lat":48.802203,"lon":16.625492,"is_passed":false},{"stop_id":"U25701Z11","name":"Sedlec u Mikulova","arrival_time":"17:58:00","departure_time":"17:59:00","lat":48.774727,"lon":16.697093,"is_passed":false},{"stop_id":"U15811Z11","name":"Valtice, železniční stanice","arrival_time":"18:03:00","departure_time":"18:03:00","lat":48.747484,"lon":16.742944,"is_passed":false},{"stop_id":"U15828Z11","name":"Valtice, železniční zastávka","arrival_time":"18:05:00","departure_time":"18:06:00","lat":48.748776,"lon":16.762369,"is_passed":false},{"stop_id":"U25702Z11","name":"Boří les","arrival_time":"18:12:00","departure_time":"18:12:00","lat":48.737912,"lon":16.867165,"is_passed":false},{"stop_id":"U15729Z15","name":"Břeclav, autobusové nádraží","arrival_time":"18:16:00","departure_time":"18:45:00","lat":48.753851,"lon":16.893169,"is_passed":false}],"9963":[{"stop_id":"U15729Z14","name":"Břeclav, autobusové nádraží","arrival_time":"18:45:00","departure_time":"18:45:00","lat":48.753851,"lon":16.893169,"is_passed":false},{"stop_id":"U15828Z10","name":"Valtice, železniční zastávka","arrival_time":"18:53:00","departure_time":"18:53:00","lat":48.748776,"lon":16.762369,"is_passed":false},{"stop_id":"U25701Z10","name":"Sedlec u Mikulova","arrival_time":"18:59:00","departure_time":"19:00:00","lat":48.774739,"lon":16.696954,"is_passed":false},{"stop_id":"U15714Z10","name":"Mikulov, železniční stanice","arrival_time":"19:05:00","departure_time":"19:06:00","lat":48.802203,"lon":16.625492,"is_passed":false},{"stop_id":"U25601Z10","name":"Březí","arrival_time":"19:11:00","departure_time":"19:11:00","lat":48.812925,"lon":16.554169,"is_passed":false},{"stop_id":"U25602Z10","name":"Dobré Pole","arrival_time":"19:13:00","departure_time":"19:13:00","lat":48.820008,"lon":16.533833,"is_passed":false},{"stop_id":"U15563Z10","name":"Novosedly, železniční stanice","arrival_time":"19:18:00","departure_time":"19:18:00","lat":48.825719,"lon":16.49405,"is_passed":false},{"stop_id":"U25505Z10","name":"Jevišovka","arrival_time":"19:21:00","departure_time":"19:21:00","lat":48.820272,"lon":16.467125,"is_passed":false},{"stop_id":"U15637Z10","name":"Hrušovany nad Jevišovkou, žel. st.","arrival_time":"19:28:00","departure_time":"19:29:00","lat":48.810029,"lon":16.383137,"is_passed":false}],"9964":[{"stop_id":"U15637Z10","name":"Hrušovany nad Jevišovkou, žel. st.","arrival_time":"19:29:00","departure_time":"19:29:00","lat":48.810029,"lon":16.383137,"is_passed":false},{"stop_id":"U28101Z10","name":"Hodonice","arrival_time":"19:44:00","departure_time":"19:45:00","lat":48.841514,"lon":16.164403,"is_passed":false},{"stop_id":"U18009Z20","name":"Znojmo, autobusové nádraží","arrival_time":"19:54:00","departure_time":"19:54:00","lat":48.852761,"lon":16.059287,"is_passed":false}],"9965":[{"stop_id":"U18009Z21","name":"Znojmo, autobusové nádraží","arrival_time":"5:34:00","departure_time":"5:34:00","lat":48.852761,"lon":16.059287,"is_passed":false},{"stop_id":"U28102Z11","name":"Dyje","arrival_time":"5:39:00","departure_time":"5:39:00","lat":48.850047,"lon":16.1205,"is_passed":false},{"stop_id":"U28101Z11","name":"Hodonice","arrival_time":"5:43:00","departure_time":"5:44:00","lat":48.841514,"lon":16.164403,"is_passed":false},{"stop_id":"U18208Z11","name":"Božice, železniční stanice","arrival_time":"5:52:00","departure_time":"5:53:00","lat":48.823282,"lon":16.287832,"is_passed":false},{"stop_id":"U15637Z11","name":"Hrušovany nad Jevišovkou, žel. st.","arrival_time":"6:00:00","departure_time":"6:02:00","lat":48.810029,"lon":16.383137,"is_passed":false},{"stop_id":"U25505Z11","name":"Jevišovka","arrival_time":"6:08:00","departure_time":"6:08:00","lat":48.820272,"lon":16.467125,"is_passed":false},{"stop_id":"U15563Z11","name":"Novosedly, železniční stanice","arrival_time":"6:11:00","departure_time":"6:12:00","lat":48.825719,"lon":16.49405,"is_passed":false},{"stop_id":"U25602Z11","name":"Dobré Pole","arrival_time":"6:16:00","departure_time":"6:16:00","lat":48.820008,"lon":16.533833,"is_passed":false},{"stop_id":"U25601Z11","name":"Březí","arrival_time":"6:18:00","departure_time":"6:19:00","lat":48.812925,"lon":16.554169,"is_passed":false},{"stop_id":"U15714Z11","name":"Mikulov, železniční stanice","arrival_time":"6:24:00","departure_time":"6:28:00","lat":48.802203,"lon":16.625492,"is_passed":false},{"stop_id":"U25701Z11","name":"Sedlec u Mikulova","arrival_time":"6:33:00","departure_time":"6:33:00","lat":48.774727,"lon":16.697093,"is_passed":false},{"stop_id":"U15811Z11","name":"Valtice, železniční stanice","arrival_time":"6:37:00","departure_time":"6:38:00","lat":48.747484,"lon":16.742944,"is_passed":false},{"stop_id":"U15828Z11","name":"Valtice, železniční zastávka","arrival_time":"6:40:00","departure_time":"6:40:00","lat":48.748776,"lon":16.762369,"is_passed":false},{"stop_id":"U25702Z11","name":"Boří les","arrival_time":"6:46:00","departure_time":"6:47:00","lat":48.737912,"lon":16.867165,"is_passed":false},{"stop_id":"U15729Z15","name":"Břeclav, autobusové nádraží","arrival_time":"6:50:00","departure_time":"7:41:00","lat":48.753851,"lon":16.893169,"is_passed":false}],"9966":[{"stop_id":"U15729Z14","name":"Břeclav, autobusové nádraží","arrival_time":"7:41:00","departure_time":"7:41:00","lat":48.753851,"lon":16.893169,"is_passed":false},{"stop_id":"U25702Z10","name":"Boří les","arrival_time":"7:44:00","departure_time":"7:44:00","lat":48.737922,"lon":16.866996,"is_passed":false},{"stop_id":"U15828Z10","name":"Valtice, železniční zastávka","arrival_time":"7:51:00","departure_time":"7:51:00","lat":48.748776,"lon":16.762369,"is_passed":false},{"stop_id":"U15811Z10","name":"Valtice, železniční stanice","arrival_time":"7:53:00","departure_time":"7:54:00","lat":48.74752,"lon":16.742831,"is_passed":false},{"stop_id":"U25701Z10","name":"Sedlec u Mikulova","arrival_time":"7:58:00","departure_time":"7:58:00","lat":48.774739,"lon":16.696954,"is_passed":false},{"stop_id":"U15714Z10","name":"Mikulov, železniční stanice","arrival_time":"8:03:00","departure_time":"8:04:00","lat":48.802203,"lon":16.625492,"is_passed":false},{"stop_id":"U25601Z10","name":"Březí","arrival_time":"8:09:00","departure_time":"8:10:00","lat":48.812925,"lon":16.554169,"is_passed":false},{"stop_id":"U25602Z10","name":"Dobré Pole","arrival_time":"8:12:00","departure_time":"8:12:00","lat":48.820008,"lon":16.533833,"is_passed":false},{"stop_id":"U15563Z10","name":"Novosedly, železniční stanice","arrival_time":"8:16:00","departure_time":"8:17:00","lat":48.825719,"lon":16.49405,"is_passed":false},{"stop_id":"U25505Z10","name":"Jevišovka","arrival_time":"8:19:00","departure_time":"8:19:00","lat":48.820272,"lon":16.467125,"is_passed":false},{"stop_id":"U15637Z10","name":"Hrušovany nad Jevišovkou, žel. st.","arrival_time":"8:26:00","departure_time":"8:27:00","lat":48.810029,"lon":16.383137,"is_passed":false},{"stop_id":"U18208Z10","name":"Božice, železniční stanice","arrival_time":"8:35:00","departure_time":"8:35:00","lat":48.823282,"lon":16.287832,"is_passed":false},{"stop_id":"U28101Z10","name":"Hodonice","arrival_time":"8:44:00","departure_time":"8:44:00","lat":48.841514,"lon":16.164403,"is_passed":false},{"stop_id":"U28102Z10","name":"Dyje","arrival_time":"8:48:00","departure_time":"8:48:00","lat":48.850047,"lon":16.1205,"is_passed":false},{"stop_id":"U18009Z20","name":"Znojmo, autobusové nádraží","arrival_time":"8:54:00","departure_time":"10:00:00","lat":48.852761,"lon":16.059287,"is_passed":false}],"9967":[{"stop_id":"U18009Z21","name":"Znojmo, autobusové nádraží","arrival_time":"10:00:00","departure_time":"10:00:00","lat":48.852761,"lon":16.059287,"is_passed":false},{"stop_id":"U28101Z11","name":"Hodonice","arrival_time":"10:09:00","departure_time":"10:10:00","lat":48.841514,"lon":16.164403,"is_passed":false},{"stop_id":"U15637Z11","name":"Hrušovany nad Jevišovkou, žel. st.","arrival_time":"10:25:00","departure_time":"10:28:00","lat":48.810029,"lon":16.383137,"is_passed":false},{"stop_id":"U25601Z11","name":"Březí","arrival_time":"10:40:00","departure_time":"10:40:00","lat":48.812925,"lon":16.554169,"is_passed":false},{"stop_id":"U15714Z11","name":"Mikulov, železniční stanice","arrival_time":"10:45:00","departure_time":"10:46:00","lat":48.802203,"lon":16.625492,"is_passed":false},{"stop_id":"U15828Z11","name":"Valtice, železniční zastávka","arrival_time":"10:58:00","departure_time":"10:59:00","lat":48.748776,"lon":16.762369,"is_passed":false},{"stop_id":"U15729Z15","name":"Břeclav, autobusové nádraží","arrival_time":"11:07:00","departure_time":"11:41:00","lat":48.753851,"lon":16.893169,"is_passed":false}],"9968":[{"stop_id":"U15729Z14","name":"Břeclav, autobusové nádraží","arrival_time":"11:41:00","departure_time":"11:41:00","lat":48.753851,"lon":16.893169,"is_passed":false},{"stop_id":"U25702Z10","name":"Boří les","arrival_time":"11:44:00","departure_time":"11:44:00","lat":48.737922,"lon":16.866996,"is_passed":false},{"stop_id":"U15828Z10","name":"Valtice, železniční zastávka","arrival_time":"11:51:00","departure_time":"11:51:00","lat":48.748776,"lon":16.762369,"is_passed":false},{"stop_id":"U15811Z10","name":"Valtice, železniční stanice","arrival_time":"11:53:00","departure_time":"11:54:00","lat":48.74752,"lon":16.742831,"is_passed":false},{"stop_id":"U25701Z10","name":"Sedlec u Mikulova","arrival_time":"11:58:00","departure_time":"11:58:00","lat":48.774739,"lon":16.696954,"is_passed":false},{"stop_id":"U15714Z10","name":"Mikulov, železniční stanice","arrival_time":"12:03:00","departure_time":"12:04:00","lat":48.802203,"lon":16.625492,"is_passed":false},{"stop_id":"U25601Z10","name":"Březí","arrival_time":"12:09:00","departure_time":"12:10:00","lat":48.812925,"lon":16.554169,"is_passed":false},{"stop_id":"U25602Z10","name":"Dobré Pole","arrival_time":"12:12:00","departure_time":"12:12:00","lat":48.820008,"lon":16.533833,"is_passed":false},{"stop_id":"U15563Z10","name":"Novosedly, železniční stanice","arrival_time":"12:16:00","departure_time":"12:17:00","lat":48.825719,"lon":16.49405,"is_passed":false},{"stop_id":"U25505Z10","name":"Jevišovka","arrival_time":"12:19:00","departure_time":"12:19:00","lat":48.820272,"lon":16.467125,"is_passed":false},{"stop_id":"U15637Z10","name":"Hrušovany nad Jevišovkou, žel. st.","arrival_time":"12:26:00","departure_time":"12:27:00","lat":48.810029,"lon":16.383137,"is_passed":false},{"stop_id":"U18208Z10","name":"Božice, železniční stanice","arrival_time":"12:35:00","departure_time":"12:35:00","lat":48.823282,"lon":16.287832,"is_passed":false},{"stop_id":"U28101Z10","name":"Hodonice","arrival_time":"12:44:00","departure_time":"12:44:00","lat":48.841514,"lon":16.164403,"is_passed":false},{"stop_id":"U28102Z10","name":"Dyje","arrival_time":"12:48:00","departure_time":"12:48:00","lat":48.850047,"lon":16.1205,"is_passed":false},{"stop_id":"U18009Z20","name":"Znojmo, autobusové nádraží","arrival_time":"12:54:00","departure_time":"14:00:00","lat":48.852761,"lon":16.059287,"is_passed":false}],"9969":[{"stop_id":"U18009Z21","name":"Znojmo, autobusové nádraží","arrival_time":"14:00:00","departure_time":"14:00:00","lat":48.852761,"lon":16.059287,"is_passed":false},{"stop_id":"U28101Z11","name":"Hodonice","arrival_time":"14:09:00","departure_time":"14:10:00","lat":48.841514,"lon":16.164403,"is_passed":false},{"stop_id":"U15637Z11","name":"Hrušovany nad Jevišovkou, žel. st.","arrival_time":"14:25:00","departure_time":"14:28:00","lat":48.810029,"lon":16.383137,"is_passed":false},{"stop_id":"U15714Z11","name":"Mikulov, železniční stanice","arrival_time":"14:45:00","departure_time":"14:46:00","lat":48.802203,"lon":16.625492,"is_passed":false},{"stop_id":"U15828Z11","name":"Valtice, železniční zastávka","arrival_time":"14:58:00","departure_time":"14:59:00","lat":48.748776,"lon":16.762369,"is_passed":false},{"stop_id":"U15729Z15","name":"Břeclav, autobusové nádraží","arrival_time":"15:07:00","departure_time":"15:41:00","lat":48.753851,"lon":16.893169,"is_passed":false}]}