{"996":[{"stop_id":"U13334Z20","name":"Tišnov, železniční stanice","arrival_time":"12:33:00","departure_time":"12:33:00","lat":49.3475,"lon":16.41725,"is_passed":false},{"stop_id":"U13462Z1","name":"Štěpánovice","arrival_time":"12:37:00","departure_time":"12:37:00","lat":49.373141,"lon":16.389854,"is_passed":false},{"stop_id":"U13463Z1","name":"Borač, žel. st.","arrival_time":"12:42:00","departure_time":"12:43:00","lat":49.400768,"lon":16.366252,"is_passed":false},{"stop_id":"U13464Z1","name":"Prudká zastávka","arrival_time":"12:46:00","departure_time":"12:46:00","lat":49.419195,"lon":16.367361,"is_passed":false},{"stop_id":"U13506Z10","name":"Doubravník, železniční stanice","arrival_time":"12:50:00","departure_time":"12:50:00","lat":49.426945,"lon":16.352389,"is_passed":false},{"stop_id":"U13520Z1","name":"Nedvědice, železniční stanice","arrival_time":"12:56:00","departure_time":"13:01:00","lat":49.454167,"lon":16.338333,"is_passed":false}],"9960":[{"stop_id":"U1146Z27","name":"Hlavní nádraží","arrival_time":"11:49:00","departure_time":"11:49:00","lat":49.190389,"lon":16.610438,"is_passed":false},{"stop_id":"U1141Z1","name":"Heršpická","arrival_time":"11:55:00","departure_time":"11:55:00","lat":49.170255,"lon":16.599363,"is_passed":false},{"stop_id":"U14348Z1","name":"Moravské Bránice, škola","arrival_time":"12:23:00","departure_time":"12:23:00","lat":49.081618,"lon":16.438242,"is_passed":false},{"stop_id":"U14350Z20","name":"Moravské Bránice, žel. st.","arrival_time":"12:26:00","departure_time":"12:31:00","lat":49.084918,"lon":16.429257,"is_passed":false},{"stop_id":"U14452Z2","name":"Ivančice, Stříbský mlýn","arrival_time":"12:36:00","departure_time":"12:36:00","lat":49.089548,"lon":16.404598,"is_passed":false},{"stop_id":"U24403Z52","name":"Ivančice město","arrival_time":"12:39:00","departure_time":"12:39:00","lat":49.099046,"lon":16.382066,"is_passed":false},{"stop_id":"U14454Z20","name":"Ivančice, železniční stanice","arrival_time":"12:42:00","departure_time":"12:42:00","lat":49.097893,"lon":16.373083,"is_passed":false}],"9961":[{"stop_id":"U14454Z2","name":"Ivančice, železniční stanice","arrival_time":"13:15:00","departure_time":"13:15:00","lat":49.097747,"lon":16.372945,"is_passed":false},{"stop_id":"U24403Z51","name":"Ivančice město","arrival_time":"13:17:00","departure_time":"13:17:00","lat":49.099141,"lon":16.382685,"is_passed":false},{"stop_id":"U14452Z1","name":"Ivančice, Stříbský mlýn","arrival_time":"13:20:00","departure_time":"13:20:00","lat":49.089527,"lon":16.404487,"is_passed":false},{"stop_id":"U14350Z21","name":"Moravské Bránice, žel. st.","arrival_time":"13:26:00","departure_time":"13:31:00","lat":49.084918,"lon":16.429257,"is_passed":false},{"stop_id":"U14348Z2","name":"Moravské Bránice, škola","arrival_time":"13:34:00","departure_time":"13:34:00","lat":49.081437,"lon":16.438245,"is_passed":false},{"stop_id":"U1141Z2","name":"Heršpická","arrival_time":"13:57:00","departure_time":"13:57:00","lat":49.170473,"lon":16.599896,"is_passed":false},{"stop_id":"U1596Z36","name":"Soukenická","arrival_time":"14:05:00","departure_time":"14:05:00","lat":49.188987,"lon":16.608514,"is_passed":false}],"9962":[{"stop_id":"U1146Z27","name":"Hlavní nádraží","arrival_time":"14:49:00","departure_time":"14:49:00","lat":49.190389,"lon":16.610438,"is_passed":false},{"stop_id":"U1141Z1","name":"Heršpická","arrival_time":"14:55:00","departure_time":"14:55:00","lat":49.170255,"lon":16.599363,"is_passed":false},{"stop_id":"U14348Z1","name":"Moravské Bránice, škola","arrival_time":"15:23:00","departure_time":"15:23:00","lat":49.081618,"lon":16.438242,"is_passed":false},{"stop_id":"U14350Z20","name":"Moravské Bránice, žel. st.","arrival_time":"15:26:00","departure_time":"15:31:00","lat":49.084918,"lon":16.429257,"is_passed":false},{"stop_id":"U14452Z2","name":"Ivančice, Stříbský mlýn","arrival_time":"15:36:00","departure_time":"15:36:00","lat":49.089548,"lon":16.404598,"is_passed":false},{"stop_id":"U24403Z52","name":"Ivančice město","arrival_time":"15:39:00","departure_time":"15:39:00","lat":49.099046,"lon":16.382066,"is_passed":false},{"stop_id":"U14454Z20","name":"Ivančice, železniční stanice","arrival_time":"15:42:00","departure_time":"15:42:00","lat":49.097893,"lon":16.373083,"is_passed":false}],"9963":[{"stop_id":"U14454Z2","name":"Ivančice, železniční stanice","arrival_time":"16:15:00","departure_time":"16:15:00","lat":49.097747,"lon":16.372945,"is_passed":false},{"stop_id":"U24403Z51","name":"Ivančice město","arrival_time":"16:17:00","departure_time":"16:17:00","lat":49.099141,"lon":16.382685,"is_passed":false},{"stop_id":"U14452Z1","name":"Ivančice, Stříbský mlýn","arrival_time":"16:20:00","departure_time":"16:20:00","lat":49.089527,"lon":16.404487,"is_passed":false},{"stop_id":"U14350Z21","name":"Moravské Bránice, žel. st.","arrival_time":"16:26:00","departure_time":"16:31:00","lat":49.084918,"lon":16.429257,"is_passed":false},{"stop_id":"U14348Z2","name":"Moravské Bránice, škola","arrival_time":"16:34:00","departure_time":"16:34:00","lat":49.081437,"lon":16.438245,"is_passed":false},{"stop_id":"U1141Z2","name":"Heršpická","arrival_time":"16:57:00","departure_time":"16:57:00","lat":49.170473,"lon":16.599896,"is_passed":false},{"stop_id":"U1596Z36","name":"Soukenická","arrival_time":"17:05:00","departure_time":"17:05:00","lat":49.188987,"lon":16.608514,"is_passed":false}],"9964":[{"stop_id":"U1146Z27","name":"Hlavní nádraží","arrival_time":"17:49:00","departure_time":"17:49:00","lat":49.190389,"lon":16.610438,"is_passed":false},{"stop_id":"U1141Z1","name":"Heršpická","arrival_time":"17:55:00","departure_time":"17:55:00","lat":49.170255,"lon":16.599363,"is_passed":false},{"stop_id":"U14348Z1","name":"Moravské Bránice, škola","arrival_time":"18:23:00","departure_time":"18:23:00","lat":49.081618,"lon":16.438242,"is_passed":false},{"stop_id":"U14350Z20","name":"Moravské Bránice, žel. st.","arrival_time":"18:26:00","departure_time":"18:31:00","lat":49.084918,"lon":16.429257,"is_passed":false},{"stop_id":"U14452Z2","name":"Ivančice, Stříbský mlýn","arrival_time":"18:36:00","departure_time":"18:36:00","lat":49.089548,"lon":16.404598,"is_passed":false},{"stop_id":"U24403Z52","name":"Ivančice město","arrival_time":"18:39:00","departure_time":"18:39:00","lat":49.099046,"lon":16.382066,"is_passed":false},{"stop_id":"U14454Z20","name":"Ivančice, železniční stanice","arrival_time":"18:42:00","departure_time":"18:42:00","lat":49.097893,"lon":16.373083,"is_passed":false}],"9965":[{"stop_id":"U14454Z2","name":"Ivančice, železniční stanice","arrival_time":"19:15:00","departure_time":"19:15:00","lat":49.097747,"lon":16.372945,"is_passed":false},{"stop_id":"U24403Z51","name":"Ivančice město","arrival_time":"19:17:00","departure_time":"19:17:00","lat":49.099141,"lon":16.382685,"is_passed":false},{"stop_id":"U14452Z1","name":"Ivančice, Stříbský mlýn","arrival_time":"19:20:00","departure_time":"19:20:00","lat":49.089527,"lon":16.404487,"is_passed":false},{"stop_id":"U14350Z21","name":"Moravské Bránice, žel. st.","arrival_time":"19:26:00","departure_time":"19:31:00","lat":49.084918,"lon":16.429257,"is_passed":false},{"stop_id":"U14348Z2","name":"Moravské Bránice, škola","arrival_time":"19:34:00","departure_time":"19:34:00","lat":49.081437,"lon":16.438245,"is_passed":false},{"stop_id":"U1141Z2","name":"Heršpická","arrival_time":"19:57:00","departure_time":"19:57:00","lat":49.170473,"lon":16.599896,"is_passed":false},{"stop_id":"U1596Z36","name":"Soukenická","arrival_time":"20:05:00","departure_time":"20:05:00","lat":49.188987,"lon":16.608514,"is_passed":false}],"9966":[{"stop_id":"U1146Z27","name":"Hlavní nádraží","arrival_time":"20:49:00","departure_time":"20:49:00","lat":49.190389,"lon":16.610438,"is_passed":false},{"stop_id":"U1141Z1","name":"Heršpická","arrival_time":"20:55:00","departure_time":"20:55:00","lat":49.170255,"lon":16.599363,"is_passed":false},{"stop_id":"U14348Z1","name":"Moravské Bránice, škola","arrival_time":"21:23:00","departure_time":"21:23:00","lat":49.081618,"lon":16.438242,"is_passed":false},{"stop_id":"U14350Z20","name":"Moravské Bránice, žel. st.","arrival_time":"21:26:00","departure_time":"21:31:00","lat":49.084918,"lon":16.429257,"is_passed":false},{"stop_id":"U14452Z2","name":"Ivančice, Stříbský mlýn","arrival_time":"21:36:00","departure_time":"21:36:00","lat":49.089548,"lon":16.404598,"is_passed":false},{"stop_id":"U24403Z52","name":"Ivančice město","arrival_time":"21:39:00","departure_time":"21:39:00","lat":49.099046,"lon":16.382066,"is_passed":false},{"stop_id":"U14454Z20","name":"Ivančice, železniční stanice","arrival_time":"21:42:00","departure_time":"21:42:00","lat":49.097893,"lon":16.373083,"is_passed":false}],"9967":[{"stop_id":"U14454Z2","name":"Ivančice, železniční stanice","arrival_time":"22:15:00","departure_time":"22:15:00","lat":49.097747,"lon":16.372945,"is_passed":false},{"stop_id":"U24403Z51","name":"Ivančice město","arrival_time":"22:17:00","departure_time":"22:17:00","lat":49.099141,"lon":16.382685,"is_passed":false},{"stop_id":"U14452Z1","name":"Ivančice, Stříbský mlýn","arrival_time":"22:20:00","departure_time":"22:20:00","lat":49.089527,"lon":16.404487,"is_passed":false},{"stop_id":"U14350Z21","name":"Moravské Bránice, žel. st.","arrival_time":"22:26:00","departure_time":"22:26:00","lat":49.084918,"lon":16.429257,"is_passed":false}],"9968":[{"stop_id":"U14350Z20","name":"Moravské Bránice, žel. st.","arrival_time":"6:31:00","departure_time":"6:31:00","lat":49.084918,"lon":16.429257,"is_passed":false},{"stop_id":"U14452Z2","name":"Ivančice, Stříbský mlýn","arrival_time":"6:36:00","departure_time":"6:36:00","lat":49.089548,"lon":16.404598,"is_passed":false},{"stop_id":"U24403Z52","name":"Ivančice město","arrival_time":"6:39:00","departure_time":"6:39:00","lat":49.099046,"lon":16.382066,"is_passed":false},{"stop_id":"U14454Z20","name":"Ivančice, železniční stanice","arrival_time":"6:42:00","departure_time":"6:42:00","lat":49.097893,"lon":16.373083,"is_passed":false}],"9969":[{"stop_id":"U14350Z21","name":"Moravské Bránice, žel. st.","arrival_time":"7:01:00","departure_time":"7:01:00","lat":49.084918,"lon":16.429257,"is_passed":false},{"stop_id":"U14348Z2","name":"Moravské Bránice, škola","arrival_time":"7:04:00","departure_time":"7:04:00","lat":49.081437,"lon":16.438245,"is_passed":false},{"stop_id":"U1141Z2","name":"Heršpická","arrival_time":"7:27:00","departure_time":"7:27:00","lat":49.170473,"lon":16.599896,"is_passed":false},{"stop_id":"U1596Z36","name":"Soukenická","arrival_time":"7:35:00","departure_time":"7:35:00","lat":49.188987,"lon":16.608514,"is_passed":false}]}