{"998":[{"stop_id":"U15729Z11","name":"Břeclav, autobusové nádraží","arrival_time":"4:35:00","departure_time":"4:35:00","lat":48.753851,"lon":16.893169,"is_passed":false},{"stop_id":"U29101Z11","name":"Hrušky zastávka","arrival_time":"4:41:00","departure_time":"4:41:00","lat":48.787328,"lon":16.982583,"is_passed":false},{"stop_id":"U19129Z11","name":"Moravská Nová Ves, železniční stanice","arrival_time":"4:44:00","departure_time":"4:45:00","lat":48.799493,"lon":17.021674,"is_passed":false},{"stop_id":"U19119Z11","name":"Lužice, železniční stanice","arrival_time":"4:48:00","departure_time":"4:48:00","lat":48.827619,"lon":17.061961,"is_passed":false},{"stop_id":"U19001Z21","name":"Hodonín, autobusové nádraží","arrival_time":"4:52:00","departure_time":"4:54:00","lat":48.85575,"lon":17.12069,"is_passed":false},{"stop_id":"U29102Z11","name":"Rohatec zastávka","arrival_time":"4:57:00","departure_time":"4:58:00","lat":48.88309,"lon":17.178111,"is_passed":false},{"stop_id":"U29103Z11","name":"Rohatec","arrival_time":"5:00:00","departure_time":"5:01:00","lat":48.892515,"lon":17.197852,"is_passed":false},{"stop_id":"U16905Z11","name":"Bzenec, Přívoz, železniční stanice","arrival_time":"5:06:00","departure_time":"5:06:00","lat":48.936848,"lon":17.289411,"is_passed":false},{"stop_id":"U19302Z11","name":"Moravský Písek, Kolonie, žel. stanice","arrival_time":"5:10:00","departure_time":"5:11:00","lat":48.977119,"lon":17.314582,"is_passed":false},{"stop_id":"U29301Z11","name":"Moravský Písek zastávka","arrival_time":"5:13:00","departure_time":"5:13:00","lat":48.991141,"lon":17.330034,"is_passed":false},{"stop_id":"U30319Z11","name":"Nedakonice","arrival_time":"5:17:00","departure_time":"5:18:00","lat":49.032515,"lon":17.374985,"is_passed":false},{"stop_id":"U30342Z11","name":"Kostelany nad Moravou","arrival_time":"5:20:00","departure_time":"5:20:00","lat":49.052678,"lon":17.396915,"is_passed":false},{"stop_id":"U31028Z11","name":"Staré Město u Uherského Hradiště","arrival_time":"5:24:00","departure_time":"5:24:00","lat":49.076212,"lon":17.422903,"is_passed":false}],"9980":[{"stop_id":"U18009Z21","name":"Znojmo, autobusové nádraží","arrival_time":"18:59:00","departure_time":"18:59:00","lat":48.852761,"lon":16.059287,"is_passed":false},{"stop_id":"U28102Z11","name":"Dyje","arrival_time":"19:04:00","departure_time":"19:04:00","lat":48.850047,"lon":16.1205,"is_passed":false},{"stop_id":"U28101Z11","name":"Hodonice","arrival_time":"19:08:00","departure_time":"19:09:00","lat":48.841514,"lon":16.164403,"is_passed":false},{"stop_id":"U18208Z11","name":"Božice, železniční stanice","arrival_time":"19:18:00","departure_time":"19:19:00","lat":48.823282,"lon":16.287832,"is_passed":false},{"stop_id":"U15637Z11","name":"Hrušovany nad Jevišovkou, žel. st.","arrival_time":"19:26:00","departure_time":"19:29:00","lat":48.810029,"lon":16.383137,"is_passed":false}],"9981":[{"stop_id":"U15637Z11","name":"Hrušovany nad Jevišovkou, žel. st.","arrival_time":"19:29:00","departure_time":"19:29:00","lat":48.810029,"lon":16.383137,"is_passed":false},{"stop_id":"U25505Z11","name":"Jevišovka","arrival_time":"19:35:00","departure_time":"19:35:00","lat":48.820272,"lon":16.467125,"is_passed":false},{"stop_id":"U15563Z11","name":"Novosedly, železniční stanice","arrival_time":"19:38:00","departure_time":"19:39:00","lat":48.825719,"lon":16.49405,"is_passed":false},{"stop_id":"U25602Z11","name":"Dobré Pole","arrival_time":"19:43:00","departure_time":"19:43:00","lat":48.820008,"lon":16.533833,"is_passed":false},{"stop_id":"U25601Z11","name":"Březí","arrival_time":"19:45:00","departure_time":"19:46:00","lat":48.812925,"lon":16.554169,"is_passed":false},{"stop_id":"U15714Z11","name":"Mikulov, železniční stanice","arrival_time":"19:51:00","departure_time":"19:52:00","lat":48.802203,"lon":16.625492,"is_passed":false},{"stop_id":"U25701Z11","name":"Sedlec u Mikulova","arrival_time":"19:57:00","departure_time":"19:59:00","lat":48.774727,"lon":16.697093,"is_passed":false},{"stop_id":"U15811Z11","name":"Valtice, železniční stanice","arrival_time":"20:03:00","departure_time":"20:03:00","lat":48.747484,"lon":16.742944,"is_passed":false},{"stop_id":"U15828Z11","name":"Valtice, železniční zastávka","arrival_time":"20:05:00","departure_time":"20:06:00","lat":48.748776,"lon":16.762369,"is_passed":false},{"stop_id":"U25702Z11","name":"Boří les","arrival_time":"20:12:00","departure_time":"20:13:00","lat":48.737912,"lon":16.867165,"is_passed":false},{"stop_id":"U15729Z15","name":"Břeclav, autobusové nádraží","arrival_time":"20:16:00","departure_time":"20:16:00","lat":48.753851,"lon":16.893169,"is_passed":false}],"9982":[{"stop_id":"U1146Z98","name":"Hlavní nádraží","arrival_time":"8:02:00","departure_time":"8:02:00","lat":49.19035,"lon":16.612342,"is_passed":false},{"stop_id":"U15619Z11","name":"Podivín, železniční stanice","arrival_time":"8:30:00","departure_time":"8:32:00","lat":48.837726,"lon":16.853526,"is_passed":false},{"stop_id":"U15729Z11","name":"Břeclav, autobusové nádraží","arrival_time":"8:41:00","departure_time":"8:45:00","lat":48.753851,"lon":16.893169,"is_passed":false}],"9983":[{"stop_id":"U15729Z14","name":"Břeclav, autobusové nádraží","arrival_time":"8:45:00","departure_time":"8:45:00","lat":48.753851,"lon":16.893169,"is_passed":false},{"stop_id":"U15828Z10","name":"Valtice, železniční zastávka","arrival_time":"8:53:00","departure_time":"8:53:00","lat":48.748776,"lon":16.762369,"is_passed":false},{"stop_id":"U15714Z10","name":"Mikulov, železniční stanice","arrival_time":"9:03:00","departure_time":"9:07:00","lat":48.802203,"lon":16.625492,"is_passed":false},{"stop_id":"U25601Z10","name":"Březí","arrival_time":"9:12:00","departure_time":"9:12:00","lat":48.812925,"lon":16.554169,"is_passed":false},{"stop_id":"U15563Z10","name":"Novosedly, železniční stanice","arrival_time":"9:17:00","departure_time":"9:18:00","lat":48.825719,"lon":16.49405,"is_passed":false},{"stop_id":"U15637Z10","name":"Hrušovany nad Jevišovkou, žel. st.","arrival_time":"9:26:00","departure_time":"9:27:00","lat":48.810029,"lon":16.383137,"is_passed":false},{"stop_id":"U28101Z10","name":"Hodonice","arrival_time":"9:43:00","departure_time":"9:44:00","lat":48.841514,"lon":16.164403,"is_passed":false},{"stop_id":"U18009Z20","name":"Znojmo, autobusové nádraží","arrival_time":"9:53:00","departure_time":"10:59:00","lat":48.852761,"lon":16.059287,"is_passed":false}],"9984":[{"stop_id":"U18009Z21","name":"Znojmo, autobusové nádraží","arrival_time":"10:59:00","departure_time":"10:59:00","lat":48.852761,"lon":16.059287,"is_passed":false},{"stop_id":"U28102Z11","name":"Dyje","arrival_time":"11:04:00","departure_time":"11:04:00","lat":48.850047,"lon":16.1205,"is_passed":false},{"stop_id":"U28101Z11","name":"Hodonice","arrival_time":"11:08:00","departure_time":"11:09:00","lat":48.841514,"lon":16.164403,"is_passed":false},{"stop_id":"U18208Z11","name":"Božice, železniční stanice","arrival_time":"11:17:00","departure_time":"11:18:00","lat":48.823282,"lon":16.287832,"is_passed":false},{"stop_id":"U15637Z11","name":"Hrušovany nad Jevišovkou, žel. st.","arrival_time":"11:25:00","departure_time":"11:29:00","lat":48.810029,"lon":16.383137,"is_passed":false},{"stop_id":"U25505Z11","name":"Jevišovka","arrival_time":"11:35:00","departure_time":"11:35:00","lat":48.820272,"lon":16.467125,"is_passed":false},{"stop_id":"U15563Z11","name":"Novosedly, železniční stanice","arrival_time":"11:38:00","departure_time":"11:38:00","lat":48.825719,"lon":16.49405,"is_passed":false},{"stop_id":"U25602Z11","name":"Dobré Pole","arrival_time":"11:42:00","departure_time":"11:42:00","lat":48.820008,"lon":16.533833,"is_passed":false},{"stop_id":"U25601Z11","name":"Březí","arrival_time":"11:45:00","departure_time":"11:45:00","lat":48.812925,"lon":16.554169,"is_passed":false},{"stop_id":"U15714Z11","name":"Mikulov, železniční stanice","arrival_time":"11:50:00","departure_time":"11:53:00","lat":48.802203,"lon":16.625492,"is_passed":false},{"stop_id":"U25701Z11","name":"Sedlec u Mikulova","arrival_time":"11:58:00","departure_time":"11:59:00","lat":48.774727,"lon":16.697093,"is_passed":false},{"stop_id":"U15811Z11","name":"Valtice, železniční stanice","arrival_time":"12:03:00","departure_time":"12:03:00","lat":48.747484,"lon":16.742944,"is_passed":false},{"stop_id":"U15828Z11","name":"Valtice, železniční zastávka","arrival_time":"12:05:00","departure_time":"12:06:00","lat":48.748776,"lon":16.762369,"is_passed":false},{"stop_id":"U25702Z11","name":"Boří les","arrival_time":"12:12:00","departure_time":"12:12:00","lat":48.737912,"lon":16.867165,"is_passed":false},{"stop_id":"U15729Z15","name":"Břeclav, autobusové nádraží","arrival_time":"12:16:00","departure_time":"12:45:00","lat":48.753851,"lon":16.893169,"is_passed":false}],"9985":[{"stop_id":"U15729Z14","name":"Břeclav, autobusové nádraží","arrival_time":"12:45:00","departure_time":"12:45:00","lat":48.753851,"lon":16.893169,"is_passed":false},{"stop_id":"U15828Z10","name":"Valtice, železniční zastávka","arrival_time":"12:53:00","departure_time":"12:53:00","lat":48.748776,"lon":16.762369,"is_passed":false},{"stop_id":"U15714Z10","name":"Mikulov, železniční stanice","arrival_time":"13:03:00","departure_time":"13:07:00","lat":48.802203,"lon":16.625492,"is_passed":false},{"stop_id":"U25601Z10","name":"Březí","arrival_time":"13:12:00","departure_time":"13:12:00","lat":48.812925,"lon":16.554169,"is_passed":false},{"stop_id":"U15563Z10","name":"Novosedly, železniční stanice","arrival_time":"13:17:00","departure_time":"13:18:00","lat":48.825719,"lon":16.49405,"is_passed":false},{"stop_id":"U15637Z10","name":"Hrušovany nad Jevišovkou, žel. st.","arrival_time":"13:26:00","departure_time":"13:27:00","lat":48.810029,"lon":16.383137,"is_passed":false},{"stop_id":"U28101Z10","name":"Hodonice","arrival_time":"13:43:00","departure_time":"13:44:00","lat":48.841514,"lon":16.164403,"is_passed":false},{"stop_id":"U18009Z20","name":"Znojmo, autobusové nádraží","arrival_time":"13:53:00","departure_time":"14:59:00","lat":48.852761,"lon":16.059287,"is_passed":false}],"9986":[{"stop_id":"U18009Z21","name":"Znojmo, autobusové nádraží","arrival_time":"14:59:00","departure_time":"14:59:00","lat":48.852761,"lon":16.059287,"is_passed":false},{"stop_id":"U28102Z11","name":"Dyje","arrival_time":"15:04:00","departure_time":"15:04:00","lat":48.850047,"lon":16.1205,"is_passed":false},{"stop_id":"U28101Z11","name":"Hodonice","arrival_time":"15:08:00","departure_time":"15:09:00","lat":48.841514,"lon":16.164403,"is_passed":false},{"stop_id":"U18208Z11","name":"Božice, železniční stanice","arrival_time":"15:17:00","departure_time":"15:18:00","lat":48.823282,"lon":16.287832,"is_passed":false},{"stop_id":"U15637Z11","name":"Hrušovany nad Jevišovkou, žel. st.","arrival_time":"15:25:00","departure_time":"15:29:00","lat":48.810029,"lon":16.383137,"is_passed":false},{"stop_id":"U25505Z11","name":"Jevišovka","arrival_time":"15:35:00","departure_time":"15:35:00","lat":48.820272,"lon":16.467125,"is_passed":false},{"stop_id":"U15563Z11","name":"Novosedly, železniční stanice","arrival_time":"15:38:00","departure_time":"15:38:00","lat":48.825719,"lon":16.49405,"is_passed":false},{"stop_id":"U25602Z11","name":"Dobré Pole","arrival_time":"15:42:00","departure_time":"15:42:00","lat":48.820008,"lon":16.533833,"is_passed":false},{"stop_id":"U25601Z11","name":"Březí","arrival_time":"15:45:00","departure_time":"15:45:00","lat":48.812925,"lon":16.554169,"is_passed":false},{"stop_id":"U15714Z11","name":"Mikulov, železniční stanice","arrival_time":"15:50:00","departure_time":"15:53:00","lat":48.802203,"lon":16.625492,"is_passed":false},{"stop_id":"U25701Z11","name":"Sedlec u Mikulova","arrival_time":"15:58:00","departure_time":"15:59:00","lat":48.774727,"lon":16.697093,"is_passed":false},{"stop_id":"U15811Z11","name":"Valtice, železniční stanice","arrival_time":"16:03:00","departure_time":"16:03:00","lat":48.747484,"lon":16.742944,"is_passed":false},{"stop_id":"U15828Z11","name":"Valtice, železniční zastávka","arrival_time":"16:05:00","departure_time":"16:06:00","lat":48.748776,"lon":16.762369,"is_passed":false},{"stop_id":"U25702Z11","name":"Boří les","arrival_time":"16:12:00","departure_time":"16:12:00","lat":48.737912,"lon":16.867165,"is_passed":false},{"stop_id":"U15729Z15","name":"Břeclav, autobusové nádraží","arrival_time":"16:16:00","departure_time":"16:45:00","lat":48.753851,"lon":16.893169,"is_passed":false}],"9987":[{"stop_id":"U15729Z14","name":"Břeclav, autobusové nádraží","arrival_time":"16:45:00","departure_time":"16:45:00","lat":48.753851,"lon":16.893169,"is_passed":false},{"stop_id":"U15828Z10","name":"Valtice, železniční zastávka","arrival_time":"16:53:00","departure_time":"16:53:00","lat":48.748776,"lon":16.762369,"is_passed":false},{"stop_id":"U15714Z10","name":"Mikulov, železniční stanice","arrival_time":"17:03:00","departure_time":"17:07:00","lat":48.802203,"lon":16.625492,"is_passed":false},{"stop_id":"U25601Z10","name":"Březí","arrival_time":"17:12:00","departure_time":"17:12:00","lat":48.812925,"lon":16.554169,"is_passed":false},{"stop_id":"U15563Z10","name":"Novosedly, železniční stanice","arrival_time":"17:17:00","departure_time":"17:18:00","lat":48.825719,"lon":16.49405,"is_passed":false},{"stop_id":"U15637Z10","name":"Hrušovany nad Jevišovkou, žel. st.","arrival_time":"17:26:00","departure_time":"17:27:00","lat":48.810029,"lon":16.383137,"is_passed":false},{"stop_id":"U28101Z10","name":"Hodonice","arrival_time":"17:43:00","departure_time":"17:44:00","lat":48.841514,"lon":16.164403,"is_passed":false},{"stop_id":"U18009Z20","name":"Znojmo, autobusové nádraží","arrival_time":"17:53:00","departure_time":"17:53:00","lat":48.852761,"lon":16.059287,"is_passed":false}],"9988":[{"stop_id":"U18009Z21","name":"Znojmo, autobusové nádraží","arrival_time":"8:59:00","departure_time":"8:59:00","lat":48.852761,"lon":16.059287,"is_passed":false},{"stop_id":"U28102Z11","name":"Dyje","arrival_time":"9:04:00","departure_time":"9:04:00","lat":48.850047,"lon":16.1205,"is_passed":false},{"stop_id":"U28101Z11","name":"Hodonice","arrival_time":"9:08:00","departure_time":"9:09:00","lat":48.841514,"lon":16.164403,"is_passed":false},{"stop_id":"U18208Z11","name":"Božice, železniční stanice","arrival_time":"9:17:00","departure_time":"9:18:00","lat":48.823282,"lon":16.287832,"is_passed":false},{"stop_id":"U15637Z11","name":"Hrušovany nad Jevišovkou, žel. st.","arrival_time":"9:25:00","departure_time":"9:29:00","lat":48.810029,"lon":16.383137,"is_passed":false},{"stop_id":"U25505Z11","name":"Jevišovka","arrival_time":"9:35:00","departure_time":"9:35:00","lat":48.820272,"lon":16.467125,"is_passed":false},{"stop_id":"U15563Z11","name":"Novosedly, železniční stanice","arrival_time":"9:38:00","departure_time":"9:38:00","lat":48.825719,"lon":16.49405,"is_passed":false},{"stop_id":"U25602Z11","name":"Dobré Pole","arrival_time":"9:42:00","departure_time":"9:42:00","lat":48.820008,"lon":16.533833,"is_passed":false},{"stop_id":"U25601Z11","name":"Březí","arrival_time":"9:45:00","departure_time":"9:45:00","lat":48.812925,"lon":16.554169,"is_passed":false},{"stop_id":"U15714Z11","name":"Mikulov, železniční stanice","arrival_time":"9:50:00","departure_time":"9:53:00","lat":48.802203,"lon":16.625492,"is_passed":false},{"stop_id":"U25701Z11","name":"Sedlec u Mikulova","arrival_time":"9:58:00","departure_time":"9:59:00","lat":48.774727,"lon":16.697093,"is_passed":false},{"stop_id":"U15811Z11","name":"Valtice, železniční stanice","arrival_time":"10:03:00","departure_time":"10:03:00","lat":48.747484,"lon":16.742944,"is_passed":false},{"stop_id":"U15828Z11","name":"Valtice, železniční zastávka","arrival_time":"10:05:00","departure_time":"10:06:00","lat":48.748776,"lon":16.762369,"is_passed":false},{"stop_id":"U25702Z11","name":"Boří les","arrival_time":"10:12:00","departure_time":"10:12:00","lat":48.737912,"lon":16.867165,"is_passed":false},{"stop_id":"U15729Z15","name":"Břeclav, autobusové nádraží","arrival_time":"10:16:00","departure_time":"10:20:00","lat":48.753851,"lon":16.893169,"is_passed":false}],"9989":[{"stop_id":"U15729Z14","name":"Břeclav, autobusové nádraží","arrival_time":"10:20:00","departure_time":"10:20:00","lat":48.753851,"lon":16.893169,"is_passed":false},{"stop_id":"U15828Z10","name":"Valtice, železniční zastávka","arrival_time":"10:28:00","departure_time":"10:28:00","lat":48.748776,"lon":16.762369,"is_passed":false},{"stop_id":"U25701Z10","name":"Sedlec u Mikulova","arrival_time":"10:33:00","departure_time":"10:33:00","lat":48.774739,"lon":16.696954,"is_passed":false},{"stop_id":"U15714Z10","name":"Mikulov, železniční stanice","arrival_time":"10:39:00","departure_time":"11:15:00","lat":48.802203,"lon":16.625492,"is_passed":false}]}